# LAS format log file from PETREL
# Project units are specified as depth units
#==================================================================
~Version information
VERS.   2.0:
WRAP.   NO:
#==================================================================
~Well
STRT .m      472.33206177 :
STOP .m      3119.8261719 :
STEP .m     0.00000000 :
NULL .        -999.250000 :
COMP.           : COMPANY
WELL.  15/9-17   : WELL
FLD.            : FIELD
LOC.            : LOCATION
SRVC.           : SERVICE COMPANY
DATE.  2018-09-11 14:48:01   : Log Export Date {yyyy-MM-dd HH:mm:ss}
PROV.           : PROVINCE
UWI.   15/9-17   : UNIQUE WELL ID
API.            : API NUMBER
#==================================================================
~Curve
DEPT .m                   : DEPTH
Lithology_geolink ._      : Lithology_geolink
DCAL .in                  : DCAL
CALI .in                  : CALI
DRHO .g/cm3               : DRHO
SGR .gAPI                 : SGR
NPHI .m3/m3               : NPHI
RHOB .g/cm3               : RHOB
PEF .b/e                  : PEF
GR .gAPI                  : GR
DTC .us/ft                : DTC
DT .us/ft                 : DT
DTE .us/ft                : DTE
RDEP .ohm.m               : RDEP
SP .mV                    : SP
RSHA .ohm.m               : RSHA
RXO .ohm.m                : RXO
RMED .ohm.m               : RMED
~Parameter
#==================================================================
~Ascii
# ...
 2408.5749512 1.0000000000 12.086001396 12.086001396 -0.011000000 33.540000916 0.1914100051 2.1511633396 3.5569999218 27.329450607 95.714164734 92.748100281 93.128311157 9.4219999313 25.364442825 2.6987724304 2.6987724304 6.2340002060
 2408.7275391 1.0000000000 12.086001396 12.086001396 -0.011000000 32.025001526 0.1928716600 2.1451456547 3.6649999619 27.266000748 96.797760010 94.000000000 94.419036865 10.890999794 25.683322906 2.5570735931 2.5570735931 6.4609999657
 2408.8798828 1.0000000000 12.086001396 12.086001396 -0.007000000 31.333000183 0.1939133555 2.1446113586 3.7969999313 25.483999252 98.216033936 95.375000000 95.760154724 11.406000137 24.939662933 2.5800094604 2.5800094604 6.3130002022
 2409.0322266 1.0000000000 12.086001396 12.086001396 -0.008000000 31.673000336 0.2022617906 2.1453537941 3.8169999123 28.073848724 99.136154175 96.747795105 96.746826172 10.694999695 24.690977097 2.5859839916 2.5859839916 5.8239998817
 2409.1845703 1.0000000000 12.086001396 12.086001396 -0.011000000 32.997001648 0.2158600092 2.1485095024 3.8810000420 26.066228867 99.437019348 96.999595642 97.049766541 9.8129997253 25.375642776 2.5759103298 2.5759103298 5.2109999657
 2409.3371582 1.0000000000 12.086001396 12.086001396 -0.015000000 33.816001892 0.2222084701 2.1540718079 3.9119999409 30.781000137 99.478118896 97.188003540 97.172523499 8.7810001373 25.093173981 2.5191168785 2.5191168785 4.7069997787
 2409.4895020 1.0000000000 12.086001396 12.086001396 -0.015000000 33.187999725 0.2274807096 2.1593942642 3.8340001106 28.687999725 99.726119995 97.188003540 97.187011719 7.7699999809 25.287132263 2.2434952259 2.2434952259 4.2579998970
 2409.6418457 1.0000000000 12.086001396 12.086001396 -0.014000000 31.902000427 0.2216962278 2.1653537750 3.8489999771 34.584552765 99.628791809 97.188003540 97.190322876 6.9380002022 26.928535461 1.9285929203 1.9285929203 3.8729999065
 2409.7941895 1.0000000000 12.086001396 12.086001396 -0.009000000 31.006000519 0.2255800068 2.1719193459 3.7560000420 30.381761551 99.698791504 97.188003540 97.318840027 6.3239998817 25.816843033 1.6748797894 1.6748797894 3.5230000019
 2409.9465332 1.0000000000 12.086001396 12.086001396 -0.008000000 30.954000473 0.2216700017 2.1740903854 3.8180000782 31.592046738 99.904022217 97.562400818 97.536643982 5.7030000687 25.805091858 1.5999246836 1.5999246836 3.2750000954
 2410.0991211 1.0000000000 12.086001396 12.086001396 -0.004000000 30.781000137 0.2177699953 2.1721267700 3.7330000401 24.827999115 99.949844360 97.563003540 97.635627747 5.0590000153 25.799953461 1.5530864000 1.5530864000 3.0329999924
 2410.2514648 1.0000000000 12.086001396 12.086001396 -0.006000000 31.346000671 0.2177584916 2.1657807827 3.8150000572 25.670650482 100.23496246 97.749702454 97.893249512 4.3979997635 24.714591980 1.5801395178 1.5801395178 2.8550000191
 2410.4038086 1.0000000000 12.086001396 12.086001396 -0.006000000 32.523998260 0.2168199867 2.1628556252 3.6600000858 26.561571121 100.64260101 98.187301636 98.286941528 3.9279999733 24.799903870 1.6671859026 1.6671859026 2.7209999561
 2410.5561523 1.0000000000 12.086001396 12.086001396 -0.007000000 33.624000549 0.2192000002 2.1603443623 3.5869998932 27.810997009 101.16498566 98.562400818 98.517501831 3.6110000610 26.507658005 1.7830079794 1.7830079794 2.6210000515
 2410.7087402 1.0000000000 12.086001396 12.086001396 -0.006000000 33.313999176 0.2133190930 2.1573729515 3.4330000877 29.531000137 100.69442749 98.563003540 98.366981506 3.4079999924 27.506507874 1.7879072428 1.7879072428 2.5329999924
 2410.8610840 1.0000000000 12.086001396 12.086001396 -0.006000000 32.374000549 0.2065152973 2.1514518261 3.3680000305 27.516000748 100.50219727 97.999992371 98.035110474 3.2599999905 28.151201248 1.7590014935 1.7590014935 2.4449999332
 2411.0134277 1.0000000000 12.086001396 12.086001396 -0.007000000 31.930000305 0.2035659701 2.1489326954 3.2200000286 29.294151306 100.42144012 97.999992371 97.994483948 3.1540000439 28.109088898 1.7601650953 1.7601650953 2.3540000916
 2411.1657715 1.0000000000 12.086001396 12.086001396 -0.006000000 32.130001068 0.1948200017 2.1512501240 3.1229999065 30.264448166 100.39797211 97.999992371 97.916496277 3.0639998913 28.597900391 1.8630769253 1.8630769253 2.2809998989
 2411.3183594 1.0000000000 12.086001396 12.086001396 -0.001000000 32.682998657 0.1952938586 2.1560177803 3.1640000343 32.780998230 100.18730164 97.750000000 97.843849182 3.0000000000 29.093488693 1.9109232426 1.9109232426 2.2049999237
 2411.4707031 1.0000000000 12.086001396 12.086001396 -0.001000000 32.939998627 0.1914715916 2.1517770290 3.1440000534 34.094001770 100.65328979 97.999992371 98.047576904 2.9079999924 29.126092911 1.8871073723 1.8871073723 2.1619999409
 2411.6230469 1.0000000000 12.086001396 12.086001396 -0.007000000 32.305000305 0.1986798197 2.1402866840 3.1129999161 34.468402863 100.57819366 98.187705994 98.166969299 2.8239998817 28.555919647 1.9541137218 1.9541137218 2.1170001030
 2411.7753906 1.0000000000 12.086001396 12.086001396 -0.011000000 32.401000977 0.1923300028 2.1290462017 3.0280001163 32.316455841 100.42611694 98.188003540 98.118278503 2.7209999561 29.210828781 2.0249969959 2.0249969959 2.0859999657
 2411.9277344 1.0000000000 12.086001396 12.086001396 -0.012000000 32.362998962 0.1845199913 2.1262328625 3.0810000896 29.254909515 100.39599609 98.000289917 97.919746399 2.6170001030 29.684499741 2.0229918957 2.0229918957 2.0510001183
 2412.0803223 1.0000000000 12.086001396 12.086001396 -0.004000000 32.269001007 0.1772615314 2.1310005188 3.1719999313 26.656000137 99.982398987 97.750000000 97.636672974 2.5329999924 28.865142822 2.0180141926 2.0180141926 2.0350000858
 2412.2326660 1.0000000000 12.086001396 12.086001396 -0.001000000 30.632999420 0.1782207340 2.1334671974 3.2190001011 28.450124741 99.789848328 97.375602722 97.403839111 2.4609999657 28.380437851 2.0270977020 2.0270977020 2.0099999905
 2412.3850098 1.0000000000 12.086001396 12.086001396 0.0040000002 30.141000748 0.1786800027 2.1360499859 3.2379999161 30.247119904 99.702796936 97.375000000 97.375900269 2.3789999485 28.773511887 2.0880496502 2.0880496502 1.9880000353
 2412.5373535 1.0000000000 12.086001396 12.086001396 0.0060000001 30.367000580 0.1708799899 2.1384615898 3.1719999313 31.201471329 99.894760132 97.375000000 97.375000000 2.3050000668 28.280057907 2.1189439297 2.1189439297 1.9639999866
 2412.6899414 1.0000000000 12.086001396 12.086001396 0.0060000001 31.231000900 0.1660863757 2.1386001110 3.0820000172 32.062999725 99.730575562 97.375000000 97.379798889 2.2290000916 28.509374619 2.0840802193 2.0840802193 1.9359999895
 2412.8422852 1.0000000000 12.086001396 12.086001396 0.0030000000 31.693000793 0.1762946248 2.1380345821 3.0429999828 32.062999725 99.764465332 97.375000000 97.428253174 2.1019999981 29.455085754 2.1089568138 2.1089568138 1.8960000277
 2412.9946289 1.0000000000 12.086001396 12.086001396 -0.002000000 31.818000793 0.1791900098 2.1381886005 3.0729999542 30.268875122 99.683334351 97.562705994 97.270347595 1.9700000286 28.183322906 2.0819151402 2.0819151402 1.8300000429
 2413.1469727 1.0000000000 12.086001396 12.086001396 -0.002000000 30.978000641 0.1776899844 2.1403672695 3.2249999046 25.491662979 99.068428040 96.751296997 96.742988586 1.8309999704 27.672542572 2.0290913582 2.0290913582 1.7430000305
 2413.2995605 1.0000000000 12.086001396 12.086001396 -0.004000000 30.343000412 0.1709370464 2.1413483620 3.3519999981 23.797000885 98.972953796 96.563011169 96.503883362 1.6909999847 27.394723892 2.0860800743 2.0860800743 1.6590000391
 2413.4519043 1.0000000000 12.086001396 12.086001396 -0.003000000 30.868000031 0.1753377169 2.1431903839 3.3900001049 27.733999252 98.826354980 96.375000000 96.256278992 1.5700000525 26.868419647 2.1110658646 2.1110658646 1.5989999771
 2413.6042480 1.0000000000 12.086001396 12.086001396 -0.003000000 32.757999420 0.1801220924 2.1471633911 3.3540000916 29.435274124 98.480720520 96.000602722 96.094993591 1.4550000429 27.901073456 2.1520383358 2.1520383358 1.5449999571
 2413.7565918 1.0000000000 12.086001396 12.086001396 0.0000000000 33.803001404 0.1689500064 2.1531481743 3.3689999580 29.812398911 98.720085144 96.187705994 96.249870300 1.3539999723 29.624528885 2.1759905815 2.1759905815 1.5119999647
