# LAS format log file from PETREL
# Project units are specified as depth units
#==================================================================
~Version information
VERS.   2.0:
WRAP.   NO:
#==================================================================
~Well
STRT .m      1517.9528809 :
STOP .m      3212.6408691 :
STEP .m     0.00000000 :
NULL .        -999.250000 :
COMP.           : COMPANY
WELL.  15/9-23   : WELL
FLD.            : FIELD
LOC.            : LOCATION
SRVC.           : SERVICE COMPANY
DATE.  2018-09-11 14:48:03   : Log Export Date {yyyy-MM-dd HH:mm:ss}
PROV.           : PROVINCE
UWI.   15/9-23   : UNIQUE WELL ID
API.            : API NUMBER
#==================================================================
~Curve
DEPT .m                   : DEPTH
Lithology_geolink ._      : Lithology_geolink
DCAL .in                  : DCAL
CALI .in                  : CALI
BS .in                    : BS
ROP .m/h                  : ROP
DRHO .g/cm3               : DRHO
NPHI .m3/m3               : NPHI
RHOB .g/cm3               : RHOB
PEF .b/e                  : PEF
GR .gAPI                  : GR
DTC .us/ft                : DTC
DTS .us/ft                : DTS
RDEP .ohm.m               : RDEP
RMED .ohm.m               : RMED
~Parameter
#==================================================================
~Ascii
# ...
 1967.8376465  -999.250000 0.3910998702 12.641098976 12.250000954 33.021797180 0.0697999969 0.4027999043 2.2307057381 6.4085416794 119.65519714 134.30657959 298.26290894 0.8086640835 0.8172795177
 1967.9901123  -999.250000 0.3650999069 12.615098953 12.250000954 33.904724121 0.0718000010 0.4027306139 2.2377221584 6.2110567093 107.37740326 134.15666199 292.66470337 0.8885664940 0.9164718986
 1968.1424561  -999.250000 0.4006004035 12.650600433 12.250000954 32.180755615 0.0736000016 0.4409057796 2.2654254436 6.2824878693 96.679702759 133.49655151 283.87310791 0.8467639685 0.8814749122
 1968.2949219  -999.250000 0.6169003844 12.866900444 12.250000954 29.520442963 0.0432000011 0.4481012821 2.2972133160 7.1405401230 102.88490295 130.81674194 279.85861206 0.8017684817 0.8501287699
 1968.4472656  -999.250000 0.8889998794 13.138999939 12.250000954 28.674535751 0.0494000018 0.4489000142 2.3055009842 7.1029944420 115.69869995 129.09660339 272.95431519 0.7820828557 0.8056694865
 1968.5997314  -999.250000 0.9350004196 13.185000420 12.250000954 29.217174530 0.0562999994 0.4488731027 2.3066213131 6.9718122482 115.22460175 128.11340332 276.22879028 0.7606657147 0.7675827146
 1968.7520752  -999.250000 0.5033997893 12.753400803 12.250000954 28.388208389 0.0727000013 0.4320998490 2.2575743198 7.0418047905 117.35299683 127.18425751 283.49310303 0.7392865419 0.7567925453
 1968.9045410  -999.250000 0.5745000839 12.824500084 12.250000954 25.403985977 0.0667999983 0.4318993688 2.2255380154 7.0488448143 125.58989716 128.61900330 286.27911377 0.7224915624 0.7474629879
 1969.0568848  -999.250000 0.6876000762 12.937600136 12.250000954 22.215667725 0.1058999971 0.4314954281 2.2491848469 7.8251304626 129.27459717 129.62385559 285.63958740 0.7171843052 0.7243922353
 1969.2092285  -999.250000 0.6921997070 12.942199707 12.250000954 21.928871155 0.1018999964 0.4257997572 2.2303118706 7.8631305695 113.73880005 131.06504822 286.16061401 0.6975972652 0.7146918178
 1969.3616943  -999.250000 0.6900997162 12.940098763 12.250000954 26.637607574 0.1089999974 0.4255022407 2.2453000546 7.9012999535 126.00740051 132.49615479 286.10089111 0.6941925883 0.7044904828
 1969.5140381  -999.250000 0.6900997162 12.940098763 12.250000954 31.386892319 0.1089999974 0.4283159375 2.2452945709 7.9009265900 123.94920349 134.05558777 277.34710693 0.6849995852 0.6926205754
 1969.6665039  -999.250000 0.5679997802 12.818000793 12.250000954 32.518661499 0.0956000015 0.4481787682 2.2384040356 7.4352097511 117.82820129 134.28967285 282.14001465 0.6845733523 0.7183460593
 1969.8188477  -999.250000 0.6146001816 12.864601135 12.250000954 33.595542908 0.0971999988 0.4217059314 2.2436347008 7.4473810196 106.53690338 134.74282837 284.94958496 0.7761335373 0.7758347988
 1969.9713135  -999.250000 1.0033999681 13.253399849 12.250000954 33.290180206 0.1108999997 0.4291015267 2.2872090340 7.5485353470 105.42729950 135.40237427 293.99011230 0.8180122972 0.8193178773
 1970.1236572  -999.250000 1.0061000586 13.256099701 12.250000954 34.527469635 0.1164999977 0.4309969544 2.2984015942 7.8425745964 100.31559753 135.74851990 289.58270264 0.8332347870 0.8415571451
 1970.2761230  -999.250000 0.9915999770 13.241600037 12.250000954 32.358413696 0.1178999990 0.4271972775 2.3003666401 7.9349217415 103.99819946 138.39840698 285.02920532 0.7518174052 0.7880298495
 1970.4284668  -999.250000 1.1079000235 13.357899666 12.250000954 30.186557770 0.0974000022 0.4255096316 2.2795026302 7.6991615295 114.30460358 139.02197266 287.37091064 0.7002646327 0.7442759871
 1970.5809326  -999.250000 1.1116000414 13.361599922 12.250000954 30.754976273 0.1001999974 0.4374676645 2.2828047276 7.6506805420 116.79830170 136.86442566 312.24179077 0.6561761498 0.7141664028
 1970.7332764  -999.250000 0.9525003433 13.202500343 12.250000954 29.376913071 0.1106999964 0.4172970951 2.2857899666 7.4511175156 121.09980011 135.38125610 324.96249390 0.6412734985 0.6308925152
 1970.8857422  -999.250000 0.7065001130 12.956500053 12.250000954 27.896324158 0.1102000028 0.4137080312 2.2732417583 7.0987505913 124.62239838 134.94342041 331.05007935 0.6081865430 0.6214710474
 1971.0380859  -999.250000 0.6009997725 12.850999832 12.250000954 26.289104462 0.0907000005 0.4186944067 2.2369081974 7.0061936378 110.31629944 134.95550537 333.42520142 0.5997909307 0.6033971906
 1971.1904297  -999.250000 0.6161003113 12.866100311 12.250000954 24.171659470 0.0998999998 0.4117219448 2.2469024658 7.4973726273 115.83429718 134.95310974 334.88391113 0.5885035396 0.5999072194
 1971.3428955  -999.250000 0.5417994857 12.791799545 12.250000954 23.623529434 0.0979000032 0.4391043186 2.2499957085 7.3379297256 117.41670227 134.97029114 337.26058960 0.5929009318 0.6088985801
 1971.4952393  -999.250000 0.4737996757 12.723799706 12.250000954 24.161325455 0.0885000005 0.4444991946 2.2447125912 7.0007176399 111.45429993 134.70266724 336.67739868 0.5940923095 0.6071387529
 1971.6477051  -999.250000 0.4705047905 12.720499039 12.250000954 26.440258026 0.0822999999 0.4434970617 2.2605843544 6.6479959488 120.33519745 134.91996765 335.96960449 0.5845059156 0.6554913521
 1971.8000488  -999.250000 0.4672088921 12.717209816 12.250000954 28.386142731 0.0564999990 0.4397832751 2.2408895493 6.0193972588 116.51699829 135.87773132 332.38739014 0.5919513702 0.6447291970
 1971.9525146  -999.250000 0.4639138877 12.713910103 12.250000954 30.436435699 0.0524999984 0.4188984036 2.2276980877 6.0154881477 113.80570221 136.41381836 329.51721191 0.6561216116 0.6812008023
 1972.1048584  -999.250000 0.4606190324 12.710618973 12.250000954 30.980783463 0.0487000011 0.4168840051 2.2252998352 5.6263699532 123.85900116 136.06268311 329.47137451 0.6831697226 0.6821731329
 1972.2573242  -999.250000 0.4573231041 12.707321167 12.250000954 30.596323013 0.0483000018 0.3968974352 2.2251060009 5.5887560844 122.90989685 135.40946960 327.12295532 0.7701100111 0.6485685110
 1972.4096680  -999.250000 0.4540280700 12.704030037 12.250000954 29.243862152 0.0518000014 0.3937023282 2.2325997353 5.6591000557 114.98750305 135.61827087 328.92202759 0.6578937173 0.6092686057
 1972.5621338  -999.250000 0.4507332146 12.700730324 12.250000954 28.694662094 0.0518000014 0.3965972960 2.2326214314 5.6593384743 107.50890350 135.97239685 332.76098633 0.6499726772 0.5701000094
 1972.7144775  -999.250000 0.4474410713 12.697440147 12.250000954 25.491315842 0.0478999987 0.3948947191 2.2461133003 5.8079056740 107.75289917 137.40991211 335.04269409 0.5705999732 0.5700995922
 1972.8669434  -999.250000 0.4441452026 12.694149017 12.250000954 23.770549774 0.0509000011 0.3883256316 2.2628827095 5.8145451546 113.40049744 138.80227661 336.66836548 0.5706018806 0.5695993304
 1973.0192871  -999.250000 0.4408503175 12.690851212 12.250000954 27.924188614 0.0436000004 0.4043182731 2.2520914078 5.5307726860 116.28330231 140.90626526 334.84829712 0.5718008876 0.5691997409
 1973.1717529  -999.250000 0.4375553429 12.687560081 12.250000954 38.136146545 0.0362999998 0.4271174669 2.2412731647 5.2469544411 113.45719910 141.47245789 333.57150269 0.5728999972 0.5689025521
 1973.3240967  -999.250000 0.4342594445 12.684260368 12.250000954 39.290012360 0.0357999988 0.4379984736 2.2244937420 5.2809572220 111.94400024 140.26263428 332.11801147 0.5728979111 0.5705146194
 1973.4764404  -999.250000 0.4309644997 12.680959702 12.250000954 34.434497833 0.0384000018 0.4360992908 2.2168991566 5.4778270721 110.84889984 136.57771301 331.90414429 0.5703052878 0.5887060165
 1973.6289063  -999.250000 0.4276694953 12.677669525 12.250000954 30.429231644 0.0465999991 0.4352349341 2.2156000137 6.0107998848 111.29630280 134.97387695 327.97802734 0.5769037604 0.5962057710
 1973.7812500  -999.250000 0.4243735671 12.674370766 12.250000954 27.717966080 0.0465999991 0.4787945449 2.2156116962 6.0100603104 115.37359619 134.58222961 323.41662598 0.5815997124 0.6033955812
 1973.9337158  -999.250000 0.4210787416 12.671079636 12.250000954 23.183763504 0.0313000008 0.4719939232 2.2302000523 5.0869998932 122.90670013 135.35728455 320.83090210 0.5811979771 0.5979020000
