# LAS format log file from PETREL
# Project units are specified as depth units
#==================================================================
~Version information
VERS.   2.0:
WRAP.   NO:
#==================================================================
~Well
STRT .m      489.99996948 :
STOP .m      1530.0000000 :
STEP .m     0.00000000 :
NULL .        -999.250000 :
COMP.           : COMPANY
WELL.  15/9-22   : WELL
FLD.            : FIELD
LOC.            : LOCATION
SRVC.           : SERVICE COMPANY
DATE.  2018-09-11 14:48:02   : Log Export Date {yyyy-MM-dd HH:mm:ss}
PROV.           : PROVINCE
UWI.   15/9-22   : UNIQUE WELL ID
API.            : API NUMBER
#==================================================================
~Curve
DEPT .m                   : DEPTH
Lithology_geolink ._      : Lithology_geolink
BS .in                    : BS
GR .gAPI                  : GR
RDEP .ohm.m               : RDEP
RMED .ohm.m               : RMED
~Parameter
#==================================================================
~Ascii
# ...
 714.40002441  -999.250000 17.500000000 138.80000305 1.9720000029 1.8070000410
 714.50006104  -999.250000 17.500000000 136.24200439 1.9360060692 1.8429427147
 714.59997559  -999.250000 17.500000000 136.49284363 1.9409999847 1.7960000038
 714.70001221  -999.250000 17.500000000 138.88200378 1.9730000496 1.6950000525
 714.79998779  -999.250000 17.500000000 141.78799438 1.8839999437 1.7380000353
 714.90002441  -999.250000 17.500000000 143.36599731 1.8489999771 1.7539999485
 715.00000000  -999.250000 17.500000000 142.32099915 1.7920000553 1.8500000238
 715.10003662  -999.250000 17.500000000 139.12100220 1.9019987583 2.0049965382
 715.19995117  -999.250000 17.500000000 136.23352051 1.8999999762 1.9989999533
 715.29998779  -999.250000 17.500000000 135.30999756 1.8919999599 1.9869999886
 715.40002441  -999.250000 17.500000000 138.12899780 1.9670000076 1.9470000267
 715.50000000  -999.250000 17.500000000 142.13099670 1.8600000143 1.8609999418
 715.60003662  -999.250000 17.500000000 141.94700623 1.8090000153 1.8600000143
 715.70001221  -999.250000 17.500000000 136.89300537 1.7990072966 1.8999938965
 715.79998779  -999.250000 17.500000000 131.62721252 1.8109999895 1.8899999857
 715.89996338  -999.250000 17.500000000 128.66299438 1.8170000315 1.8190000057
 716.00000000  -999.250000 17.500000000 128.54400635 1.8559999466 1.8329999447
 716.10003662  -999.250000 17.500000000 129.92999268 1.8359999657 1.8329999447
 716.20001221  -999.250000 17.500000000 130.64900208 1.8689852953 1.9229743481
 716.30004883  -999.250000 17.500000000 129.39300537 1.8449810743 1.8809677362
 716.39996338  -999.250000 17.500000000 126.99500275 1.8140000105 1.8279999495
 716.50000000  -999.250000 17.500000000 126.49099731 1.8109999895 1.9309999943
 716.59997559  -999.250000 17.500000000 128.57000732 1.8409999609 1.8730000257
 716.70001221  -999.250000 17.500000000 131.88000488 1.8619999886 1.7799999714
 716.80004883  -999.250000 17.500000000 136.34100342 1.8320170641 1.8050011396
 716.89996338  -999.250000 17.500000000 141.38491821 1.8459999561 1.8059999943
 717.00000000  -999.250000 17.500000000 146.05299377 1.8750000000 1.8229999542
 717.09997559  -999.250000 17.500000000 148.28100586 1.8300000429 1.7890000343
 717.20001221  -999.250000 17.500000000 148.41499329 1.8459999561 1.8880000114
 717.29998779  -999.250000 17.500000000 148.13000488 1.9659999609 1.8559999466
 717.40002441  -999.250000 17.500000000 146.97099304 1.9410109520 1.8280652761
 717.49993896  -999.250000 17.500000000 144.24732971 1.9589999914 1.9349999428
 717.59997559  -999.250000 17.500000000 140.60800171 1.9509999752 1.9320000410
 717.70001221  -999.250000 17.500000000 136.89799500 1.9190000296 1.9129999876
 717.79998779  -999.250000 17.500000000 135.50300598 2.0639998913 1.9470000267
 717.90002441  -999.250000 17.500000000 137.38400269 2.1089999676 1.8650000095
 718.00000000  -999.250000 17.500000000 141.54100037 2.0649719238 1.7500048876
 718.09997559  -999.250000 17.500000000 145.57354736 2.0190000534 1.7580000162
 718.19995117  -999.250000 17.500000000 146.66400146 2.0989999771 1.8650000095
 718.29998779  -999.250000 17.500000000 144.37500000 2.0520000458 1.9060000181
 718.40002441  -999.250000 17.500000000 140.92900085 2.1219999790 1.9390000105
 718.50000000  -999.250000 17.500000000 139.79299927 2.1289999485 1.8609999418
 718.60003662  -999.250000 17.500000000 141.77099609 2.0259828568 1.8139663935
 718.69995117  -999.250000 17.500000000 144.46670532 1.9980000257 1.7589999437
 718.79998779  -999.250000 17.500000000 145.76499939 2.0409998894 1.8120000362
 718.90002441  -999.250000 17.500000000 144.33700562 2.0190000534 1.8519999981
 719.00000000  -999.250000 17.500000000 140.90400696 2.0179998875 1.9069999456
 719.10003662  -999.250000 17.500000000 138.04899597 2.0369999409 1.9119999409
 719.20001221  -999.250000 17.500000000 137.58299255 1.9799976349 1.9140049219
 719.29998779  -999.250000 17.500000000 138.86521912 1.9759999514 1.9220000505
 719.39996338  -999.250000 17.500000000 140.58999634 1.9659999609 1.8990000486
 719.50000000  -999.250000 17.500000000 142.05999756 1.9759999514 1.8880000114
 719.60003662  -999.250000 17.500000000 142.86399841 2.0099999905 1.8810000420
 719.70001221  -999.250000 17.500000000 141.84399414 2.0260000229 1.8689999580
 719.80004883  -999.250000 17.500000000 139.61700439 1.9399994612 1.9429547787
 719.89996338  -999.250000 17.500000000 138.29380798 1.9390000105 1.8689999580
 720.00000000  -999.250000 17.500000000 138.29100037 1.9470000267 1.8539999723
 720.09997559  -999.250000 17.500000000 139.73100281 1.8780000210 1.8530000448
 720.20001221  -999.250000 17.500000000 143.08500671 1.8700000048 1.9420000315
 720.30004883  -999.250000 17.500000000 147.71499634 1.9480316639 1.8919584751
 720.40002441  -999.250000 17.500000000 149.63900757 1.9739645720 1.8579560518
 720.50000000  -999.250000 17.500000000 147.43734741 1.9160000086 1.7860000134
 720.59997559  -999.250000 17.500000000 143.48100281 1.9570000172 1.8470000029
 720.70001221  -999.250000 17.500000000 139.79600525 1.9110000134 1.8980000019
 720.79998779  -999.250000 17.500000000 137.19700623 1.8719999790 1.9270000458
 720.90002441  -999.250000 17.500000000 136.61599731 1.9760005474 1.9879579544
 720.99993896  -999.250000 17.500000000 138.87823486 1.9769999981 1.9190000296
 721.09997559  -999.250000 17.500000000 142.69799805 1.9550000429 1.9170000553
 721.20001221  -999.250000 17.500000000 144.49000549 1.9229999781 1.9689999819
 721.29998779  -999.250000 17.500000000 142.17199707 2.0030000210 2.0230000019
 721.40002441  -999.250000 17.500000000 136.06500244 2.0759999752 1.8680000305
 721.50000000  -999.250000 17.500000000 128.22900391 1.9860981703 1.8170616627
 721.59997559  -999.250000 17.500000000 122.12172699 2.1470000744 1.9179999828
 721.69995117  -999.250000 17.500000000 120.95300293 2.2479999065 2.1700000763
 721.79998779  -999.250000 17.500000000 122.81999969 2.4660000801 2.1779999733
 721.90002441  -999.250000 17.500000000 125.94699860 2.6749999523 2.1349999905
 722.00000000  -999.250000 17.500000000 129.49600220 2.3340001106 1.9090000391
 722.10003662  -999.250000 17.500000000 131.36700439 2.2349796295 1.9160085917
 722.19995117  -999.250000 17.500000000 130.88229370 2.2019999027 1.9299999475
 722.29998779  -999.250000 17.500000000 127.26999664 2.1579999924 1.9099999666
 722.39996338  -999.250000 17.500000000 121.14199829 2.1419999599 1.9029999971
 722.50000000  -999.250000 17.500000000 115.92199707 2.1809999943 1.8710000515
 722.60003662  -999.250000 17.500000000 116.20600128 2.0959999561 1.8710000515
 722.70001221  -999.250000 17.500000000 122.72699738 2.0740377903 2.0040750504
 722.79998779  -999.250000 17.500000000 131.41268921 2.1359999180 2.1270000935
 722.89996338  -999.250000 17.500000000 136.46600342 2.1480000019 1.9670000076
 723.00000000  -999.250000 17.500000000 135.15299988 2.1029999256 1.6859999895
 723.10003662  -999.250000 17.500000000 131.92399597 2.0260000229 1.6710000038
 723.20001221  -999.250000 17.500000000 134.24400330 1.9809999466 1.8109999895
 723.30004883  -999.250000 17.500000000 139.58599854 2.0049884319 1.8309456110
 723.39996338  -999.250000 17.500000000 143.72946167 1.9859999418 1.7419999838
 723.50000000  -999.250000 17.500000000 144.91200256 2.0150001049 1.8070000410
 723.59997559  -999.250000 17.500000000 142.48300171 2.0099999905 1.9930000305
 723.70001221  -999.250000 17.500000000 136.67700195 2.0079998970 1.9270000458
 723.80004883  -999.250000 17.500000000 130.87899780 1.9650000334 1.9859999418
 723.90002441  -999.250000 17.500000000 127.44400024 1.9489749670 1.8719719648
 724.00000000  -999.250000 17.500000000 126.18376923 1.9079999924 1.8259999752
 724.09997559  -999.250000 17.500000000 125.58200073 1.8910000324 1.8300000429
 724.20001221  -999.250000 17.500000000 125.33599854 1.8969999552 1.8339999914
 724.29998779  -999.250000 17.500000000 125.17800140 1.8700000048 1.8129999638
 724.40002441  -999.250000 17.500000000 126.69200134 1.8020592928 1.8760849237
 724.50006104  -999.250000 17.500000000 131.83399963 1.8990902901 2.0150647163
