# LAS format log file from PETREL
# Project units are specified as depth units
#==================================================================
~Version information
VERS.   2.0:
WRAP.   NO:
#==================================================================
~Well
STRT .m      485.02883911 :
STOP .m      3207.3493652 :
STEP .m     0.00000000 :
NULL .        -999.250000 :
COMP.           : COMPANY
WELL.  15/9-15   : WELL
FLD.            : FIELD
LOC.            : LOCATION
SRVC.           : SERVICE COMPANY
DATE.  2018-09-11 14:48:00   : Log Export Date {yyyy-MM-dd HH:mm:ss}
PROV.           : PROVINCE
UWI.   15/9-15   : UNIQUE WELL ID
API.            : API NUMBER
#==================================================================
~Curve
DEPT .m                   : DEPTH
Lithology_geolink ._      : Lithology_geolink
DCAL .in                  : DCAL
CALI .in                  : CALI
BS .in                    : BS
DRHO .g/cm3               : DRHO
NPHI .m3/m3               : NPHI
RHOB .g/cm3               : RHOB
PEF .b/e                  : PEF
GR .gAPI                  : GR
DTC .us/ft                : DTC
DT .us/ft                 : DT
RDEP .ohm.m               : RDEP
SP .mV                    : SP
RSHA .ohm.m               : RSHA
RXO .ohm.m                : RXO
RMED .ohm.m               : RMED
~Parameter
#==================================================================
~Ascii
# ...
 1392.8753662  -999.250000 15.395000458 15.380427361 12.250000954 0.0399927944 0.4862157106 2.0327517986 2.0130000114 85.691459656 142.62590027 145.12489319 1.4750224352 62.200000763 1.3700617552 1.1775166988 1.3700617552
 1393.0278320  -999.250000 15.447999954 15.434790611 12.250000954 0.0409983993 0.4761541486 2.0398216248 1.9969999790 93.057098389 142.50502014 145.37480164 1.4400280714 62.574996948 1.3600080013 1.1502997875 1.3600080013
 1393.1801758  -999.250000 15.447000504 15.444528580 12.250000954 0.0310240183 0.4589750767 2.0419394970 1.9720000029 90.440109253 142.14837646 144.00109863 1.4170185328 69.699996948 1.3360191584 1.1327383518 1.3360191584
 1393.3326416  -999.250000 15.435999870 15.405359268 12.250000954 0.0349935889 0.4721281528 2.0369005203 1.9600000381 89.938400269 142.32447815 144.12489319 1.3910208941 66.949996948 1.3020272255 1.0585553646 1.3020272255
 1393.4849854  -999.250000 15.300999641 15.364136696 12.250000954 0.0340016037 0.4975584149 2.0265185833 1.9859999418 86.377853394 142.79107666 146.37319946 1.3860040903 66.449996948 1.2790185213 0.9624461532 1.2790185213
 1393.6373291  -999.250000 15.423000336 15.427636147 12.250000954 0.0310072061 0.4894662797 2.0135266781 2.0529999733 90.805900574 142.47251892 145.12699890 1.3780127764 65.449996948 1.2939760685 1.0079332590 1.2939760685
 1393.7897949  -999.250000 15.562998772 15.507523537 12.250000954 0.0200176276 0.4765613675 2.0036330223 2.0910000801 98.119140625 141.93049622 143.12660217 1.3809976578 65.199996948 1.3219776154 1.0984666348 1.3219776154
 1393.9421387  -999.250000 15.477001190 15.518282890 12.250000954 0.0190024022 0.4489686191 2.0024483204 2.1010000706 102.18149567 141.89616394 144.49780273 1.3790031672 64.449996948 1.3549472094 1.0281181335 1.3549472094
 1394.0946045  -999.250000 15.559000969 15.570520401 12.250000954 0.0249903854 0.4493784010 2.0075430870 2.0420000553 98.003356934 141.83370972 144.12530518 1.3750032187 64.949996948 1.3769823313 1.0124551058 1.3769823313
 1394.2469482  -999.250000 15.687000275 15.558263779 12.250000954 0.0379687734 0.4665049016 2.0129764080 2.0050001144 93.819709778 141.85722351 143.37620544 1.3640176058 62.825000763 1.4339087009 1.0781626701 1.4339087009
 1394.3994141  -999.250000 15.291999817 15.369158745 12.250000954 0.0439903848 0.5244604349 2.0123076439 1.9839999676 92.564002991 142.45861816 144.99870300 1.3749911785 65.699996948 1.4120175838 1.0182051659 1.4120175838
 1394.5517578  -999.250000 15.213000298 15.230131149 12.250000954 0.0420048051 0.5851953626 2.0089108944 2.0780000687 96.809600830 143.08581543 146.37390137 1.3959832191 63.200004578 1.3380593061 0.9606089592 1.3380593061
 1394.7042236  -999.250000 15.204000473 15.208422661 12.250000954 0.0250272434 0.5899789333 2.0134530067 2.1229999065 95.688903809 143.15087891 146.00030518 1.4199807644 60.575000763 1.2850424051 0.9479275346 1.2850424051
 1394.8565674  -999.250000 15.213000298 15.202412605 12.250000954 0.0120312255 0.5399806499 2.0262627602 2.1240000725 93.002151489 142.93185425 145.37550354 1.4489767551 63.200004578 1.2720103264 0.8967730999 1.2720103264
 1395.0090332  -999.250000 15.178999901 15.228277206 12.250000954 0.0120000001 0.4923942983 2.0341901779 2.1110000610 92.000801086 142.52323914 145.37500000 1.4699832201 63.699996948 1.3189623356 0.9074093699 1.3189623356
 1395.1613770  -999.250000 15.345000267 15.328067780 12.250000954 0.0219759811 0.4680877030 2.0271296501 2.0739998817 95.809951782 141.77558899 143.75129700 1.4819903374 64.449996948 1.4079287052 0.9661589861 1.4079287052
 1395.3138428  -999.250000 15.440999985 15.418764114 12.250000954 0.0329823717 0.4754021764 2.0096383095 2.0629999638 99.310203552 141.28215027 142.50100708 1.5029832125 64.699996948 1.4959295988 0.9893277884 1.4959295988
 1395.4661865  -999.250000 15.446000099 15.440336227 12.250000954 0.0320016034 0.4758386612 1.9964164495 2.0350000858 99.874549866 141.12855530 143.49919128 1.5239832401 64.699996948 1.5459599495 1.0565012693 1.5459599495
 1395.6185303  -999.250000 15.428000450 15.406274796 12.250000954 0.0240192153 0.4592533410 1.9953083992 2.0480000973 95.445106506 140.98016357 142.37680054 1.5589439869 61.575000763 1.5849375725 1.1208117008 1.5849375725
 1395.7709961  -999.250000 15.321999550 15.426397324 12.250000954 0.0190080125 0.4733445644 2.0040373802 2.0550000668 91.815910339 141.00115967 142.74969482 1.5959702730 64.949996948 1.5869984627 1.1551077366 1.5869984627
 1395.9233398  -999.250000 15.640000343 15.593171120 12.250000954 0.0209951960 0.5050183535 2.0156731606 2.0429999828 95.182601929 141.21783447 143.12440491 1.6079808474 62.700004578 1.5550512075 1.1578625441 1.5550512075
 1396.0758057  -999.250000 15.765999794 15.740845680 12.250000954 0.0279887822 0.5327512622 2.0224494934 2.0439999104 95.749549866 141.20446777 143.49969482 1.5950103998 63.450000763 1.5150320530 1.0862858295 1.5150320530
 1396.2281494  -999.250000 15.788999557 15.794213295 12.250000954 0.0289975964 0.5280753374 2.0227239132 2.0539999008 97.809700012 141.06443787 142.37680054 1.5780271292 65.699996948 1.4780592918 1.0910031796 1.4780592918
 1396.3806152  -999.250000 15.833000183 15.802738190 12.250000954 0.0240080133 0.5085470080 2.0233144760 2.1029999256 93.941108704 140.79779053 143.12440491 1.5540192127 65.199996948 1.4650104046 1.0847204924 1.4650104046
 1396.5329590  -999.250000 15.753999710 15.751160622 12.250000954 0.0220048036 0.5136833787 2.0277504921 2.0880000591 93.500350952 140.36824036 141.37640381 1.5310184956 64.949996948 1.4520103931 1.0408986807 1.4520103931
 1396.6854248  -999.250000 15.663999557 15.706501007 12.250000954 0.0289887805 0.5195857882 2.0296268463 2.1010000706 96.185852051 140.36688232 141.49989319 1.5180103779 64.699996948 1.4739823341 1.1856522560 1.4739823341
 1396.8377686  -999.250000 15.746998787 15.727654457 12.250000954 0.0349855870 0.5322294235 2.0247845650 2.0920000076 91.628654480 140.86982727 142.74899292 1.5120047331 64.949996948 1.4680048227 1.2240422964 1.4680048227
 1396.9902344  -999.250000 15.751000404 15.755696297 12.250000954 0.0340008028 0.5288682580 2.0160152912 2.1199998856 96.309249878 141.31611633 143.49940491 1.5090023279 66.199996948 1.4580079317 1.1154667139 1.4580079317
 1397.1425781  -999.250000 15.773999214 15.795514107 12.250000954 0.0270056091 0.5391469598 2.0084373951 2.0940001011 88.506263733 141.45101929 143.50000000 1.5159944296 64.449996948 1.4380159378 1.1053807735 1.4380159378
 1397.2950439  -999.250000 15.883999825 15.884757996 12.250000954 0.0230032019 0.5138909221 2.0085484982 2.0690000057 96.993194580 141.31423950 143.37510681 1.5070071220 63.950000763 1.4449944496 1.1873073578 1.4449944496
 1397.4473877  -999.250000 15.996000290 15.927885056 12.250000954 0.0230000000 0.5109891295 2.0165286064 2.0220000744 87.507614136 141.21618652 142.75050354 1.5069999695 64.199996948 1.4719784260 1.0939743519 1.4719784260
 1397.5998535  -999.250000 15.831000328 15.803445816 12.250000954 0.0309935939 0.5186315775 2.0289525986 2.0069999695 92.121299744 141.33033752 143.37449646 1.5069999695 63.699996948 1.4720000029 1.1131308079 1.4720000029
 1397.7521973  -999.250000 15.555998802 15.623287201 12.250000954 0.0379943885 0.5093997717 2.0397517681 2.0380001068 88.690757751 141.38316345 143.49989319 1.4960088730 66.699996948 1.4610087872 1.2215820551 1.4610087872
 1397.9045410  -999.250000 15.555998802 15.586080551 12.250000954 0.0519775823 0.5059610009 2.0448002815 2.0199999809 95.926391602 141.42187500 143.12559509 1.4930047989 64.949996948 1.4450256824 1.2008816004 1.4450256824
 1398.0570068  -999.250000 15.678001404 15.629641533 12.250000954 0.0549975969 0.5100568533 2.0414726734 2.0399999619 95.125648499 141.48844910 143.74949646 1.4910016060 64.949996948 1.4549920559 1.2072962523 1.4549920559
 1398.2093506  -999.250000 15.602999687 15.626791954 12.250000954 0.0500080064 0.5106182098 2.0301587582 2.0450000763 94.126602173 141.60653687 143.37559509 1.4820144176 64.449996948 1.4510064125 1.2558842897 1.4510064125
 1398.3618164  -999.250000 15.625000000 15.647006989 12.250000954 0.0360112153 0.4852012396 2.0139038563 2.0399999619 90.066261292 141.91943359 144.12440491 1.4790023565 64.199996948 1.4400088787 1.2743499279 1.4400088787
