# LAS format log file from PETREL
# Project units are specified as depth units
#==================================================================
~Version information
VERS.   2.0:
WRAP.   NO:
#==================================================================
~Well
STRT .m      485.02883911 :
STOP .m      3207.3493652 :
STEP .m     0.00000000 :
NULL .        -999.250000 :
COMP.           : COMPANY
WELL.  15/9-15   : WELL
FLD.            : FIELD
LOC.            : LOCATION
SRVC.           : SERVICE COMPANY
DATE.  2018-09-11 14:48:00   : Log Export Date {yyyy-MM-dd HH:mm:ss}
PROV.           : PROVINCE
UWI.   15/9-15   : UNIQUE WELL ID
API.            : API NUMBER
#==================================================================
~Curve
DEPT .m                   : DEPTH
Lithology_geolink ._      : Lithology_geolink
DCAL .in                  : DCAL
CALI .in                  : CALI
BS .in                    : BS
DRHO .g/cm3               : DRHO
NPHI .m3/m3               : NPHI
RHOB .g/cm3               : RHOB
PEF .b/e                  : PEF
GR .gAPI                  : GR
DTC .us/ft                : DTC
DT .us/ft                 : DT
RDEP .ohm.m               : RDEP
SP .mV                    : SP
RSHA .ohm.m               : RSHA
RXO .ohm.m                : RXO
RMED .ohm.m               : RMED
~Parameter
#==================================================================
~Ascii
# ...
 2475.5246582 10.000000000 13.031000137 13.031249046 12.250000954 -0.039000001 0.1827465147 2.5867230892 -206.1410065 9.9919996262 67.650955200 67.375000000 2.8710000515 84.762001038 3.0899999142 1.3004602194 3.0899999142
 2475.6772461 10.000000000 13.032999992 13.032268524 12.250000954 -0.030999999 0.1654500067 2.5800628662 243.28300476 8.7030000687 67.733062744 67.375000000 2.9260001183 85.262001038 3.0269999504 1.4001798630 3.0269999504
 2475.8295898 10.000000000 13.031999588 13.020406723 12.250000954 -0.029999999 0.1559552103 2.5807609558 941.03100586 8.6560001373 67.734405518 67.750000000 2.9379999638 84.481002808 2.9690001011 1.4968417883 2.9690001011
 2475.9819336 10.000000000 12.984000206 12.981907845 12.250000954 -0.030999999 0.1542427242 2.5882840157 1578.9420166 7.9879999161 67.894226074 67.563003540 2.9709999561 84.137001038 3.0880000591 1.5313341618 3.0880000591
 2476.1342773 10.000000000 12.927999496 12.943153381 12.250000954 -0.035000000 0.1544496566 2.5930902958 113.65799713 7.9489998817 67.815032959 67.000000000 2.9800000191 83.262001038 3.4670000076 1.5170400143 3.4670000076
 2476.2868652 10.000000000 12.934000015 12.965686798 12.250000954 -0.041000001 0.1514500082 2.5986573696 -122.3050003 8.6250000000 67.327781677 66.188003540 2.9820001125 82.887001038 3.6840000153 1.5265567303 3.6840000153
 2476.4392090 10.000000000 13.068000793 13.052870750 12.250000954 -0.041000001 0.1527999938 2.6048693657 -251.6109924 9.3129997253 66.705398560 66.000000000 2.9860000610 84.418998718 3.5469999313 1.6214274168 3.5469999313
 2476.5915527 10.000000000 13.138999939 13.131530762 12.250000954 -0.043000001 0.1568335295 2.6062207222 -466.8439941 10.319999695 66.460006714 66.563003540 3.0209999084 84.512001038 3.2579998970 1.8019442558 3.2579998970
 2476.7438965 10.000000000 13.178999901 13.174902916 12.250000954 -0.041999999 0.1588068306 2.5966308117 110.11499786 10.008000374 66.837585449 67.375000000 3.0409998894 84.793998718 3.0209999084 1.9541399479 3.0209999084
 2476.8964844 10.000000000 13.201999664 13.199621201 12.250000954 -0.037999999 0.1485400051 2.5739872456 81.609001160 9.6560001373 67.572372437 68.188003540 3.0039999485 84.387001038 3.0569999218 2.0326938629 3.0569999218
 2477.0488281 10.000000000 13.215000153 13.219983101 12.250000954 -0.017000001 0.1507100016 2.5556240082 83.250000000 8.3360004425 68.264221191 68.375000000 2.9379999638 84.606002808 3.2209999561 1.9914784431 3.2209999561
 2477.2011719 10.000000000 13.248000145 13.218729019 12.250000954 -0.013000000 0.1509895474 2.5518283844 64.072998047 8.6479997635 68.396881104 67.188003540 2.8480000496 82.981002808 3.2269999981 1.8069322109 3.2269999981
 2477.3535156 10.000000000 13.161999702 13.175352097 12.250000954 -0.011000000 0.1595462710 2.5599942207 78.315002441 9.6409997940 67.813896179 67.000000000 2.7660000324 83.074996948 3.2439999580 1.7014800310 3.2439999580
 2477.5058594 10.000000000 13.130999565 13.142763138 12.250000954 -0.016000001 0.1640228331 2.5577249527 66.448997498 10.633000374 67.494628906 67.750000000 2.6250000000 83.106002808 3.1700000763 1.6619545221 3.1700000763
 2477.6584473 10.000000000 13.147999763 13.138422012 12.250000954 -0.013000000 0.1620299965 2.5427868366 73.092002869 9.9530000687 67.874168396 68.000000000 2.3729999065 83.231002808 2.9570000172 1.6464096308 2.9570000172
 2477.8107910 10.000000000 13.126000404 13.103006363 12.250000954 -0.028000001 0.1609717011 2.5305190086 68.383003235 9.9449996948 68.335769653 68.563003540 2.5680000782 83.606002808 2.5000000000 1.6564096212 2.5000000000
 2477.9631348 10.000000000 13.010999680 13.011943817 10.116586685 -0.039000001 0.1615690291 2.5286569595 92.128997803 8.9379997253 68.887176514 69.563003540 2.4860000610 83.856002808 2.5209999084 1.6515659094 2.5209999084
 2478.1154785 10.000000000 12.900999069 12.916756630 8.5000000000 -0.043000001 0.1667317152 2.5347270966 87.378997803 8.6409997940 69.681961060 70.188003540 2.3949999809 84.637001038 2.4509999752 1.5619400740 2.4509999752
 2478.2680664 10.000000000 12.855999947 12.871648788 8.5000000000 -0.044000000 0.1703000069 2.5421948433 69.181999207 7.6760001183 70.262718201 70.000000000 2.3440001011 83.887001038 2.6170001030 1.4074822664 2.6170001030
 2478.4204102 10.000000000 12.875000000 12.885930061 8.5000000000 -0.037000000 0.1633699983 2.5509810448 143.81199646 8.3669996262 70.301918030 69.750000000 2.3359999657 83.856002808 2.6480000019 1.3454855680 2.6480000019
 2478.5727539 10.000000000 12.937999725 12.926566124 8.5000000000 -0.033000000 0.1667046398 2.5511119366 306.37600708 9.0159997940 70.084884644 69.563003540 2.3380000591 83.981002808 2.6129999161 1.4259850979 2.6129999161
 2478.7250977 10.000000000 12.954000473 12.942692757 8.5000000000 -0.028000001 0.1708233953 2.5427808762 -152.2019958 10.328000069 69.953239441 69.750000000 2.3789999485 84.637001038 2.5450000763 1.5370000601 2.5450000763
 2478.8776855 10.000000000 12.923999786 12.907300949 8.5000000000 -0.030999999 0.1794800013 2.5294039249 453.30801392 9.6479997635 70.040641785 70.000000000 2.4300000668 83.637001038 2.5959999561 1.5114361048 2.5959999561
 2479.0300293 10.000000000 12.826999664 12.848670006 8.5000000000 -0.037999999 0.1771200001 2.5195951462 3423.1379395 10.312999725 70.173255920 69.750000000 2.4670000076 83.418998718 2.7249999046 1.4392734766 2.7249999046
 2479.1823730 10.000000000 12.819001198 12.824901581 8.5000000000 -0.044000000 0.1699015647 2.5176999569 564.70898438 9.9840002060 70.076889038 69.563003540 2.4879999161 83.887001038 2.8459999561 1.5175360441 2.8459999561
 2479.3347168 10.000000000 12.835000038 12.827641487 8.5000000000 -0.039000001 0.1664155871 2.5212693214 96.501998901 10.968999863 69.791458130 69.000000000 2.5250000954 82.731002808 2.9300000668 1.6655199528 2.9300000668
 2479.4870605 10.000000000 12.821000099 12.809865952 8.5000000000 -0.034000002 0.1704635024 2.5233750343 60.585998535 10.968999863 69.251823425 68.000000000 2.5820000172 83.231002808 2.9769999981 1.7770999670 2.9769999981
 2479.6396484 10.000000000 12.762000084 12.736870766 8.5000000000 -0.029999999 0.1734700054 2.5227999687 14.715999603 10.633000374 68.528045654 67.750000000 2.6659998894 86.012001038 2.9590001106 1.8746360540 2.9590001106
 2479.7919922 10.000000000 12.602000237 12.659815788 8.5000000000 -0.035999998 0.1724715978 2.5235271454 -343.9540100 9.6479997635 68.085227966 67.563003540 2.7320001125 85.262001038 2.8499999046 2.0041635036 2.8499999046
 2479.9443359 10.000000000 12.678000450 12.680162430 8.5000000000 -0.041999999 0.1671984643 2.5330903530 -173.6750031 9.6639995575 68.075363159 68.375000000 2.8589999676 84.731002808 2.7790000439 2.1633994579 2.7790000439
 2480.0966797 10.000000000 12.762000084 12.758261681 8.5000000000 -0.044000000 0.1577351689 2.5465576649 -144.9810028 11.312999725 68.261787415 67.563003540 2.9900000095 84.731002808 2.9200000763 2.3078398705 2.9200000763
 2480.2492676 10.000000000 12.829999924 12.813701630 8.5000000000 -0.043000001 0.1453699917 2.5531101227 92.332000732 11.305000305 67.834083557 66.375000000 3.0980000496 86.387001038 3.2769999504 2.3825359344 3.2769999504
 2480.4016113 10.000000000 12.831000328 12.879899979 8.5000000000 -0.037000000 0.1358200014 2.5499374866 58.188999176 10.633000374 66.991210938 66.375000000 3.2190001011 89.856002808 3.7699999809 2.4771876335 3.7699999809
 2480.5539551 10.000000000 13.029999733 13.033206940 8.5000000000 -0.029999999 0.1463531107 2.5427029133 43.808998108 8.9379997253 66.381782532 65.000000000 3.3589999676 89.731002808 3.9279999733 2.8478283882 3.9279999733
 2480.7062988 10.000000000 13.239999771 13.226463318 8.5000000000 -0.017999999 0.1571626812 2.5396442413 24.464000702 9.2729997635 65.801498413 65.563003540 3.3829998970 89.481002808 3.9200000763 3.4424400330 3.9200000763
 2480.8588867 10.000000000 13.392999649 13.381014824 8.5000000000 -0.010000000 0.1595699936 2.5389847755 14.230999947 9.2729997635 65.745178223 65.750000000 3.3299999237 89.387001038 4.0000000000 3.6691734791 4.0000000000
 2481.0112305 10.000000000 13.494999886 13.461488724 8.5000000000 -0.008000000 0.1550199986 2.5394508839 10.529999733 10.930000305 65.997604370 65.750000000 3.2130000591 88.637001038 3.9200000763 3.0373399258 3.9200000763
