# LAS format log file from PETREL
# Project units are specified as depth units
#==================================================================
~Version information
VERS.   2.0:
WRAP.   NO:
#==================================================================
~Well
STRT .m      2122.4746094 :
STOP .m      4102.6074219 :
STEP .m     0.00000000 :
NULL .        -999.250000 :
COMP.           : COMPANY
WELL.  15/9-19A   : WELL
FLD.            : FIELD
LOC.            : LOCATION
SRVC.           : SERVICE COMPANY
DATE.  2018-09-11 14:48:01   : Log Export Date {yyyy-MM-dd HH:mm:ss}
PROV.           : PROVINCE
UWI.   15/9-19 A   : UNIQUE WELL ID
API.            : API NUMBER
#==================================================================
~Curve
DEPT .m                   : DEPTH
Lithology_geolink ._      : Lithology_geolink
CALI .in                  : CALI
RHOB .g/cm3               : RHOB
GR .gAPI                  : GR
RDEP .ohm.m               : RDEP
RSHA .ohm.m               : RSHA
RMED .ohm.m               : RMED
~Parameter
#==================================================================
~Ascii
# ...
 3331.1586914 11.000000000 9.0627002716 2.4941999912 5.2975544930 2.8224000931 24.877899170 2.9365000725
 3331.3110352 11.000000000 9.0445995331 2.4175999165 5.5761995316 2.1963000298 14.921299934 2.0652999878
 3331.4636230 11.000000000 9.0530996323 2.4477000237 6.6840233803 2.1077001095 10.740799904 1.9929000139
 3331.6159668 11.000000000 9.0439996719 2.4551999569 7.2886323929 2.0978000164 11.232000351 2.0176000595
 3331.7683105 11.000000000 9.0528001785 2.4558000565 6.9370660782 2.0924000740 12.266500473 2.0457000732
 3331.9206543 11.000000000 9.0830001831 2.4604001045 7.0595026016 2.0866000652 12.792599678 2.0527999401
 3332.0732422 11.000000000 9.0537996292 2.4633998871 7.1663293839 2.0827999115 13.140500069 2.0574998856
 3332.2255859 11.000000000 9.0367002487 2.4688000679 7.4081125259 2.0780000687 13.522399902 2.0603001118
 3332.3779297 11.000000000 9.0438003540 2.4846000671 6.5544710159 2.0662000179 14.379599571 2.0625000000
 3332.5302734 11.000000000 9.0327997208 2.4893000126 7.2239232063 2.0513000488 15.653699875 2.0622999668
 3332.6826172 11.000000000 9.0450000763 2.4865000248 7.4458909035 2.0366001129 17.052400589 2.0597999096
 3332.8352051 11.000000000 9.0517997742 2.4874000549 6.2569098473 2.0225999355 18.438800812 2.0548000336
 3332.9875488 11.000000000 9.0760002136 2.5002999306 7.0724878311 2.0097999573 19.651800156 2.0473001003
 3333.1398926 11.000000000 9.0638999939 2.5000000000 6.7256588936 1.9995000362 20.366199493 2.0390999317
 3333.2922363 11.000000000 9.0327997208 2.4693000317 6.6089730263 1.9946000576 19.994400024 2.0360000134
 3333.4448242 11.000000000 9.0399999619 2.4525001049 6.2176275253 1.9960000515 18.905399323 2.0404000282
 3333.5971680 11.000000000 9.0215997696 2.4498999119 5.8125491142 2.0034999847 17.642999649 2.0529999733
 3333.7495117 11.000000000 9.0678997040 2.4519000053 6.5963406563 2.0157999992 16.814300537 2.0722999573
 3333.9018555 11.000000000 9.0930995941 2.4512999058 6.4171795845 2.0301001072 17.079000473 2.0945000648
 3334.0544434 11.000000000 9.0859003067 2.4551999569 5.6614122391 2.0413999557 19.537000656 2.1124000549
 3334.2067871 11.000000000 9.0940999985 2.4542996883 5.3463039398 2.0502998829 24.975500107 2.1257998943
 3334.3591309 11.000000000 9.0666999817 2.4579000473 5.5748324394 2.0603001118 32.000499725 2.1386001110
 3334.5114746 11.000000000 9.0487003326 2.4735999107 6.3021330833 2.0769999027 37.158699036 2.1579999924
 3334.6638184 11.000000000 9.0305995941 2.5016999245 5.4931011200 2.1092998981 33.041301727 2.1960000992
 3334.8164063 11.000000000 9.0678997040 2.5167000294 5.8111853600 2.1714999676 24.809799194 2.2771999836
 3334.9687500 11.000000000 9.0818996429 2.5251998901 6.6755132675 2.2585000992 20.048400879 2.4033999443
 3335.1210938 11.000000000 9.0868997574 2.1463000774 6.5842485428 2.3626999855 20.446199417 2.5706999302
 3335.2734375 11.000000000 9.0645999908 1.2388999462 6.4842205048 2.4721999168 467.74371338 2.7648000717
 3335.4260254 11.000000000 9.0799999237 -0.008800000 6.4828019142 2.5706999302 2317.6831055 2.9593000412
 3335.5783691 11.000000000 9.0861997604 1.2646000385 6.4681234360 2.6310999393 8526.6601563 3.0859000683
 3335.7307129 11.000000000 9.0658998489 2.0234000683 6.2070193291 2.6668000221 10000.000000 3.1456999779
 3335.8830566 11.000000000 9.0830001831 2.1229999065 5.6331410408 2.6944000721 6798.5791016 3.1712999344
 3336.0356445 11.000000000 9.1079998016 1.9638999701 5.5051026344 2.7293999195 1862.9355469 3.1988999844
 3336.1879883 11.000000000 9.1140003204 2.2953999043 5.6832137108 2.7853999138 43.887401581 3.2655999660
 3336.3403320 11.000000000 9.1140003204 2.5144999027 6.6046214104 2.8689999580 35.951900482 3.3973999023
 3336.4926758 11.000000000 9.1008996964 2.5539999008 6.7811193466 2.9547998905 38.297901154 3.5408999920
 3336.6450195 11.000000000 9.0725002289 2.5418999195 7.3998150826 3.0215001106 45.896400452 3.6456000805
 3336.7976074 11.000000000 9.1128997803 2.5248000622 7.5669350624 3.0564999580 55.237598419 3.6819999218
 3336.9499512 11.000000000 9.1230001450 2.5099999905 7.0103936195 3.0543000698 63.500499725 3.6373999119
 3337.1022949 11.000000000 9.1371002197 2.4967999458 5.1868257523 3.0211999416 67.857101440 3.5318000317
 3337.2546387 11.000000000 9.1139001846 2.5083999634 5.0364732742 2.9865999222 71.286598206 3.4293999672
 3337.4072266 11.000000000 9.1132001877 2.5353999138 6.4026064873 2.9651999474 73.617202759 3.3575000763
 3337.5595703 11.000000000 9.0900001526 2.5557000637 6.3414015770 2.9635999203 73.412803650 3.3285000324
 3337.7119141 11.000000000 9.1202001572 2.5518999100 6.2176985741 2.9841001034 70.058097839 3.3466000557
 3337.8642578 11.000000000 9.1139001846 2.5422000885 6.3816728592 3.0253000259 67.180900574 3.4124000072
 3338.0168457 11.000000000 9.1178998947 2.5265998840 5.3947849274 3.0748999119 84.163101196 3.5037000179
 3338.1691895 11.000000000 9.1272001266 2.5190999508 5.1477937698 3.1215999126 1375.4724121 3.5912001133
 3338.3215332 11.000000000 9.1210002899 2.5236001015 6.5435590744 3.1596999168 5043.9970703 3.6570000648
 3338.4738770 11.000000000 9.0974998474 2.5378999710 7.1720948219 3.1860001087 10000.000000 3.6893999577
 3338.6262207 11.000000000 9.1169996262 2.5490000248 6.1322417259 3.1993000507 10000.000000 3.6833999157
 3338.7788086 11.000000000 9.1410999298 2.5436999798 5.2031860352 3.2005999088 10000.000000 3.6530001163
 3338.9311523 11.000000000 9.1027002335 2.5436000824 5.1122436523 3.1923000813 10000.000000 3.6131999493
 3339.0834961 11.000000000 9.1181001663 2.5494999886 5.8517127037 3.1740000248 7734.2753906 3.5631999969
 3339.2358398 11.000000000 9.1149997711 2.5555999279 5.3209080696 3.1459000111 3272.6108398 3.5016999245
 3339.3884277 11.000000000 9.1108999252 2.5485999584 5.3902859688 3.1096000671 197.70799255 3.4267001152
 3339.5407715 11.000000000 9.1058998108 2.5218999386 6.6345028877 3.0729999542 66.863197327 3.3515000343
 3339.6931152 11.000000000 9.1170997620 2.5046999454 7.4187445641 3.0436000824 34.832099915 3.2931001186
 3339.8454590 11.000000000 9.1090002060 2.5062999725 7.3984689713 3.0218000412 27.948099136 3.2535998821
 3339.9980469 11.000000000 9.1128997803 2.5204999447 6.8206272125 3.0046999454 28.491100311 3.2290999889
 3340.1503906 11.000000000 9.1269998550 2.5276999474 7.3923807144 2.9869000912 33.127300262 3.2093999386
 3340.3027344 11.000000000 9.1148996353 2.5171000957 7.6406030655 2.9563000202 41.269798279 3.1740999222
 3340.4550781 11.000000000 9.1302003860 2.5220000744 5.9560046196 2.9133999348 48.528099060 3.1205000877
 3340.6074219 11.000000000 9.1029996872 2.5262000561 4.7877416611 2.8638000488 51.248401642 3.0566999912
 3340.7600098 11.000000000 9.1008996964 2.5192000866 5.3978147507 2.8134999275 48.029499054 2.9907999039
 3340.9123535 11.000000000 9.0967998505 2.4962000847 6.2283682823 2.7697000504 39.378200531 2.9321999550
 3341.0646973 11.000000000 9.0947999954 2.4753999710 6.2829146385 2.7413001060 30.358999252 2.8917000294
 3341.2170410 11.000000000 9.0798997879 2.4707999229 6.8732051849 2.7276999950 24.470899582 2.8682000637
 3341.3696289 11.000000000 9.0587997437 2.4765999317 7.6454634666 2.7234001160 21.223100662 2.8564999104
 3341.5219727 11.000000000 9.0960998535 2.4821999073 6.4459271431 2.7235999107 20.268800735 2.8519999981
 3341.6743164 11.000000000 9.1323003769 2.4793999195 6.4292240143 2.7230999470 21.143299103 2.8489000797
 3341.8266602 11.000000000 9.1433000565 2.4821999073 7.9126377106 2.7160000801 23.271299362 2.8390998840
 3341.9792480 11.000000000 9.1603002548 2.5032999516 6.2386946678 2.7011001110 24.690500259 2.8208000660
 3342.1315918 11.000000000 9.1085996628 2.5169999599 5.3052940369 2.6835999489 25.287500381 2.8018000126
 3342.2839355 11.000000000 9.1160001755 2.5176000595 5.5274410248 2.6675999165 25.656200409 2.7876000404
 3342.4362793 11.000000000 9.1321001053 2.5039999485 6.9496178627 2.6572000980 26.166000366 2.7818999290
 3342.5886230 11.000000000 9.1602001190 2.4770998955 8.2023859024 2.6570999622 26.118600845 2.7855999470
 3342.7412109 11.000000000 9.1640996933 2.4618999958 8.0813016891 2.6682000160 23.712799072 2.7908000946
