# LAS format log file from PETREL
# Project units are specified as depth units
#==================================================================
~Version information
VERS.   2.0:
WRAP.   NO:
#==================================================================
~Well
STRT .m      472.33206177 :
STOP .m      3119.8261719 :
STEP .m     0.00000000 :
NULL .        -999.250000 :
COMP.           : COMPANY
WELL.  15/9-17   : WELL
FLD.            : FIELD
LOC.            : LOCATION
SRVC.           : SERVICE COMPANY
DATE.  2018-09-11 14:48:01   : Log Export Date {yyyy-MM-dd HH:mm:ss}
PROV.           : PROVINCE
UWI.   15/9-17   : UNIQUE WELL ID
API.            : API NUMBER
#==================================================================
~Curve
DEPT .m                   : DEPTH
Lithology_geolink ._      : Lithology_geolink
DCAL .in                  : DCAL
CALI .in                  : CALI
DRHO .g/cm3               : DRHO
SGR .gAPI                 : SGR
NPHI .m3/m3               : NPHI
RHOB .g/cm3               : RHOB
PEF .b/e                  : PEF
GR .gAPI                  : GR
DTC .us/ft                : DTC
DT .us/ft                 : DT
DTE .us/ft                : DTE
RDEP .ohm.m               : RDEP
SP .mV                    : SP
RSHA .ohm.m               : RSHA
RXO .ohm.m                : RXO
RMED .ohm.m               : RMED
~Parameter
#==================================================================
~Ascii
# ...
 1704.4866943  -999.250000 14.390999794 14.390999794 -0.002000000 52.026000977 0.4248594344 2.0768151283 2.8010001183 44.689804077 126.61223602 128.37620544 133.70527649 0.8349999785 38.520141602 1.3261386156 1.3261386156 0.8769999743
 1704.6390381  -999.250000 14.359000206 14.359000206 0.0010000000 54.167999268 0.4366333187 2.0364096165 2.8670001030 43.222530365 135.07980347 142.96487427 142.69560242 0.8270000219 39.465496063 1.1117157936 1.1117157936 0.8610000014
 1704.7915039  -999.250000 14.357999802 14.357999802 0.0060000001 54.699001312 0.4657590985 2.0187735558 2.8729999065 47.742740631 137.36488342 145.12159729 144.95317078 0.8199999928 38.726840973 1.0409038067 1.0409038067 0.8590000272
 1704.9438477  -999.250000 14.232999802 14.232999802 0.0080000004 55.522998810 0.4521754086 2.0186450481 2.8570001125 49.277320862 136.85528564 145.00030518 144.57521057 0.8190000057 38.096416473 1.0169318914 1.0169318914 0.8650000095
 1705.0963135  -999.250000 14.076998711 14.076998711 0.0020000001 56.075000763 0.4589199126 2.0253732204 2.8150000572 51.559341431 136.45040894 143.75199890 143.95832825 0.8109999895 36.174655914 1.0002484322 1.0002484322 0.8610000014
 1705.2486572  -999.250000 13.774000168 13.774000168 0.0010000000 56.283000946 0.4463134706 2.0389480591 2.8540000916 50.658176422 136.11708069 144.12409973 143.74536133 0.8029999733 37.161022186 1.0623283386 1.0623283386 0.8539999723
 1705.4011230  -999.250000 13.906999588 13.906999588 0.0040000002 56.304000854 0.4506051540 2.0457212925 2.8689999580 52.028793335 136.33526611 143.00180054 143.93005371 0.7950000167 36.884910583 1.1439800262 1.1439800262 0.8539999723
 1705.5534668  -999.250000 14.125000000 14.125000000 0.0060000001 56.958999634 0.4351213574 2.0396199226 2.7850000858 51.750675201 137.45719910 145.49398804 145.14874268 0.7889999747 36.948989868 1.1388679743 1.1388679743 0.8399999738
 1705.7059326  -999.250000 14.172000885 14.172000885 0.0020000001 58.796001434 0.4492925704 2.0289549828 2.7500000000 52.592647552 137.78765869 145.00080872 145.53726196 0.7779999971 37.651618958 1.1059278250 1.1059278250 0.8240000010
 1705.8582764  -999.250000 14.218999863 14.218999863 -0.003000000 59.898998260 0.4633803368 2.0180633068 2.6960000992 54.310245514 138.87078857 146.37280273 146.66258240 0.7670000196 37.127452850 1.0879720449 1.0879720449 0.8019999862
 1706.0107422  -999.250000 14.274999619 14.274999619 -0.004000000 59.741001129 0.4637479782 2.0128884315 2.7929999828 56.246898651 140.02482605 147.37339783 147.79177856 0.7549999952 36.185226440 1.0809799433 1.0809799433 0.8100000024
 1706.1630859  -999.250000 14.796000481 14.796000481 -0.005000000 57.569999695 0.4375367165 2.0130693913 2.8499999046 56.000400543 140.76850891 148.74780273 148.76718140 0.7500000000 36.220279694 1.0760279894 1.0760279894 0.8100000024
 1706.3154297  -999.250000 14.428000450 14.428000450 -0.006000000 55.368999481 0.4459631443 2.0191102028 2.8650000095 58.681545258 141.19168091 149.12409973 149.12322998 0.7490000129 37.159004211 1.0831249952 1.0831249952 0.8000000119
 1706.4678955  -999.250000 13.866000175 13.866000175 -0.009000000 54.424999237 0.4873720706 2.0209085941 2.7530000210 60.216548920 141.89897156 149.12500000 149.79286194 0.7549999952 36.921394348 1.1215032339 1.1215032339 0.7929999828
 1706.6202393  -999.250000 13.742999077 13.742999077 -0.012000000 56.379001617 0.5024032593 2.0136749744 2.6319999695 59.532649994 143.36622620 150.99548340 151.46087646 0.7739999890 36.676177979 0.9983963370 0.9983963370 0.7810000181
 1706.7727051  -999.250000 14.076998711 14.076998711 -0.013000000 58.900001526 0.4939353168 2.0040829182 2.5060000420 54.414211273 143.36036682 152.99679565 151.39805603 0.7850000262 37.996051788 1.0974366665 1.0974366665 0.7889999747
 1706.9250488  -999.250000 13.827999115 13.827999115 -0.014000000 59.951000214 0.4506918788 1.9997434616 2.4349999428 54.313224792 140.31990051 149.13430786 148.20770264 0.8000000119 37.322441101 1.2053394318 1.2053394318 0.8090000153
 1707.0775146  -999.250000 13.923001289 13.923001289 -0.011000000 57.810001373 0.4530228376 2.0025076866 2.4119999409 56.964744568 136.28511047 146.00500488 143.91856384 0.8130000234 37.589763641 1.0410000086 1.0410000086 0.8690000176
 1707.2298584  -999.250000 14.064000130 14.064000130 -0.007000000 55.020999908 0.4315933585 2.0058929920 2.4979999065 58.933269501 132.12513733 139.51560974 139.55960083 0.8180000186 36.954399109 1.0419688225 1.0419688225 0.9309999943
 1707.3823242  -999.250000 14.241000175 14.241000175 0.0020000001 54.581001282 0.4233099520 2.0095775127 2.5610001087 57.096958160 131.44432068 138.00241089 138.78701782 0.8249999881 37.077480316 1.2835729122 1.2835729122 0.9359999895
 1707.5346680  -999.250000 14.055000305 14.055000305 0.0040000002 56.504001617 0.4170525968 2.0126173496 2.6649999619 52.417259216 133.44912720 139.74580383 140.92291260 0.8330000043 37.646900177 1.4258158207 1.4258158207 0.9589999914
 1707.6871338  -999.250000 13.923001289 13.923001289 0.0070000002 58.643001556 0.4328610003 2.0206012726 2.8320000172 48.319557190 136.21601868 143.36918640 143.86206055 0.8379999995 37.894115448 1.3792347908 1.3792347908 0.9110000134
 1707.8394775  -999.250000 14.170999527 14.170999527 0.0080000004 59.798000336 0.4833649993 2.0294585228 2.9530000687 45.600532532 138.55789185 145.37019348 146.30473328 0.8360000253 37.834808350 1.1887558699 1.1887558699 0.8909999728
 1707.9919434  -999.250000 14.031999588 14.031999588 0.0060000001 60.395000458 0.4771403074 2.0366733074 2.9509999752 48.245742798 140.80229187 148.37019348 148.69946289 0.8330000043 36.452625275 1.1271986961 1.1271986961 0.8410000205
 1708.1442871  -999.250000 14.375000000 14.375000000 0.0010000000 61.636001587 0.4960263371 2.0357851982 2.8870000839 54.334236145 142.04237366 149.74780273 149.99496460 0.8240000010 36.383018494 0.9282121658 0.9282121658 0.8130000234
 1708.2966309  -999.250000 14.411000252 14.411000252 -0.007000000 63.132999420 0.4790127277 2.0277175903 2.8859999180 55.622947693 142.53132629 150.74839783 150.51303101 0.8059999943 38.232852936 0.9810224175 0.9810224175 0.7870000005
 1708.4490967  -999.250000 13.633000374 13.633000374 -0.001000000 63.097000122 0.4823841155 2.0251338482 3.1059999466 56.998897552 142.18095398 150.37530518 150.17413330 0.7870000005 37.281921387 0.9877837896 0.9877837896 0.7810000181
 1708.6014404  -999.250000 13.602000237 13.602000237 0.0000000000 60.727001190 0.4750741720 2.0281929970 3.3099999428 53.474655151 141.81730652 149.75100708 149.69107056 0.7779999971 36.474639893 0.9341827035 0.9341827035 0.7889999747
 1708.7539063  -999.250000 13.555999756 13.555999756 0.0049999999 58.022998810 0.4678189754 2.0344154835 3.1789999008 54.530147552 141.31407166 149.50019836 149.22328186 0.7779999971 36.641185760 0.9916490316 0.9916490316 0.8080000281
 1708.9062500  -999.250000 13.890999794 13.890999794 0.0000000000 56.212001801 0.4790751636 2.0295407772 2.8900001049 48.603507996 140.35823059 148.75120544 148.24073792 0.7960000038 37.315277100 1.1522033215 1.1522033215 0.8180000186
 1709.0587158  -999.250000 13.929999352 13.929999352 -0.003000000 56.407001495 0.4980136752 2.0185790062 2.6349999905 46.970302582 138.53306580 147.37609863 146.26300049 0.8130000234 37.221092224 0.9547972679 0.9547972679 0.8230000138
 1709.2110596  -999.250000 13.852999687 13.852999687 -0.006000000 56.708999634 0.4901127815 2.0094475746 2.5829999447 46.594303131 135.59843445 144.00270081 143.21334839 0.8249999881 36.868656158 1.1527638435 1.1527638435 0.8439999819
 1709.3635254  -999.250000 14.015999794 14.015999794 -0.003000000 57.000000000 0.4685870707 2.0081481934 2.4779999256 48.717300415 133.62263489 141.12730408 141.09388733 0.8220000267 37.236789703 1.0942202806 1.0942202806 0.8920000196
 1709.5158691  -999.250000 14.102000237 14.102000237 -0.006000000 56.419998169 0.4356124997 2.0043435097 2.4200000763 48.688026428 132.42637634 140.50050354 139.79833984 0.8199999928 36.172847748 1.1490920782 1.1490920782 0.8989999890
 1709.6683350  -999.250000 14.218000412 14.218000412 -0.007000000 56.361000061 0.4512141049 1.9951709509 2.4260001183 46.251953125 131.14909363 138.37670898 138.38575745 0.8180000186 35.697772980 1.1725970507 1.1725970507 0.8939999938
