# LAS format log file from PETREL
# Project units are specified as depth units
#==================================================================
~Version information
VERS.   2.0:
WRAP.   NO:
#==================================================================
~Well
STRT .m      1517.9528809 :
STOP .m      3212.6408691 :
STEP .m     0.00000000 :
NULL .        -999.250000 :
COMP.           : COMPANY
WELL.  15/9-23   : WELL
FLD.            : FIELD
LOC.            : LOCATION
SRVC.           : SERVICE COMPANY
DATE.  2018-09-11 14:48:03   : Log Export Date {yyyy-MM-dd HH:mm:ss}
PROV.           : PROVINCE
UWI.   15/9-23   : UNIQUE WELL ID
API.            : API NUMBER
#==================================================================
~Curve
DEPT .m                   : DEPTH
Lithology_geolink ._      : Lithology_geolink
DCAL .in                  : DCAL
CALI .in                  : CALI
BS .in                    : BS
ROP .m/h                  : ROP
DRHO .g/cm3               : DRHO
NPHI .m3/m3               : NPHI
RHOB .g/cm3               : RHOB
PEF .b/e                  : PEF
GR .gAPI                  : GR
DTC .us/ft                : DTC
DTS .us/ft                : DTS
RDEP .ohm.m               : RDEP
RMED .ohm.m               : RMED
~Parameter
#==================================================================
~Ascii
# ...
 1742.8952637  -999.250000 0.5915002823 12.841500282 12.250000954 53.732715607 0.0810000002 0.3910847604 2.1534008980 5.4394798279 106.08630371 141.98133850 330.11740112 0.7056037188 0.7105071545
 1743.0477295  -999.250000 0.5590000153 12.808999062 12.250000954 60.258838654 0.0806000009 0.3720999956 2.1547029018 5.4143085480 98.943000793 141.26539612 330.27951050 0.7101993561 0.7194177508
 1743.2000732  -999.250000 0.4292002022 12.679201126 12.250000954 68.841644287 0.0736000016 0.3720999956 2.1565105915 5.2325458527 99.582000732 139.64120483 336.50839233 0.7098065019 0.7305064797
 1743.3525391  -999.250000 0.3486995995 12.598699570 12.250000954 81.507232666 0.0662000030 0.3721281886 2.1696212292 4.9153180122 100.30670166 138.40122986 337.00299072 0.7179094553 0.7386028767
 1743.5048828  -999.250000 0.3234997094 12.573499680 12.250000954 84.570289612 0.0644999966 0.3897140324 2.1827981472 4.8017044067 96.307701111 137.48815918 335.35128784 0.7238003016 0.7404024005
 1743.6572266  -999.250000 0.4286002815 12.678600311 12.250000954 67.456390381 0.0645999983 0.4071908891 2.1804025173 4.8072438240 98.718002319 136.30638123 332.53921509 0.7242077589 0.7433999777
 1743.8096924  -999.250000 0.4307003319 12.680700302 12.250000954 55.970912933 0.0683000013 0.3958080113 2.1838004589 4.8620090485 104.19120026 135.51966858 330.98364258 0.7339000106 0.7434038520
 1743.9620361  -999.250000 0.4310998619 12.681098938 12.250000954 50.607215881 0.0691000000 0.4058067501 2.1844916344 4.8738994598 114.57230377 135.23483276 333.23486328 0.7339000106 0.7481999993
 1744.1145020  -999.250000 0.4378995597 12.687899590 12.250000954 49.498157501 0.0683000013 0.4141814113 2.1741068363 5.2477159500 115.60739899 135.03024292 333.88848877 0.7339048982 0.7481984496
 1744.2668457  -999.250000 0.4672003090 12.717200279 12.250000954 48.713241577 0.0714000016 0.3910059929 2.1828088760 5.2672195435 118.16600037 134.95297241 332.14767456 0.7400034666 0.7463056445
 1744.4193115  -999.250000 0.5034999847 12.753499985 12.250000954 50.637145996 0.0753000006 0.3985072970 2.1937038898 5.2912931442 118.16600037 134.66816711 330.70651245 0.7443044782 0.7534047365
 1744.5716553  -999.250000 0.4568995833 12.706899643 12.250000954 55.686332703 0.0758000016 0.4075939655 2.1981000900 5.1582999229 118.16600037 135.01608276 328.14248657 0.7499051094 0.7593151331
 1744.7241211  -999.250000 0.4568995833 12.706899643 12.250000954 58.474067688 0.0758000016 0.4000999928 2.1981046200 5.1583604813 108.14230347 135.63676453 327.08020020 0.7563052773 0.7781980634
 1744.8764648  -999.250000 0.4640999138 12.714099884 12.250000954 54.149700165 0.0637999997 0.4000793099 2.2009000778 5.1961002350 110.21769714 138.03996277 327.84649658 0.7596006393 0.7770048380
 1745.0289307  -999.250000 0.4640999138 12.714099884 12.250000954 53.164634705 0.0637999997 0.3743000031 2.2009074688 5.1961779594 105.96469879 137.73008728 332.18548584 0.7604261041 0.7830400467
 1745.1812744  -999.250000 0.6203002930 12.870300293 12.250000954 56.053321838 0.0659999996 0.3742999136 2.2055020332 5.2446169853 106.64469910 138.28231812 339.34320068 0.7767084241 0.8080356717
 1745.3337402  -999.250000 0.6232995987 12.873299599 12.250000954 65.844131470 0.0675999969 0.3742240071 2.2081115246 5.2660350800 108.47109985 139.91027832 339.55151367 0.7872865796 0.8525818586
 1745.4860840  -999.250000 0.4945001900 12.744500160 12.250000954 82.830680847 0.0688999966 0.3892011344 2.2152314186 5.1004128456 89.627899170 136.58628845 337.73208618 0.8413884640 0.9036865830
 1745.6384277  -999.250000 0.8891000748 13.139101028 12.250000954 89.775619507 0.0731000006 0.3905994296 2.2543680668 4.8670206070 97.457901001 134.21134949 324.82110596 0.9516196847 1.0115332603
 1745.7908936  -999.250000 0.4812001884 12.731200218 12.250000954 77.683258057 0.0428999998 0.3899009526 2.2143774033 4.1437253952 101.02960205 132.01165771 316.39318848 0.8513425589 0.8033675551
 1745.9432373  -999.250000 0.1563996971 12.406399727 12.250000954 63.400474548 0.0320999995 0.3911002278 2.1860885620 3.9263863564 99.898101807 130.33427429 298.45910645 0.7796818614 0.7628999949
 1746.0957031  -999.250000 0.1543999016 12.404399872 12.250000954 63.865577698 0.0333999991 0.3914096355 2.1718137264 4.0346465111 107.38700104 131.31140137 292.16839600 0.7570997477 0.7629202008
 1746.2480469  -999.250000 0.4560002685 12.706000328 12.250000954 67.836601257 0.0527000017 0.4034000039 2.1891000271 4.7163000107 113.17160034 131.31814575 292.38308716 0.7568239570 0.7881000042
 1746.4005127  -999.250000 0.4560002685 12.706000328 12.250000954 72.340454102 0.0527000017 0.4034056067 2.1891171932 4.7169704437 112.84719849 131.62307739 293.89871216 0.7867000103 0.7881239057
 1746.5528564  -999.250000 0.5504999161 12.800499916 12.250000954 76.278587341 0.0825999975 0.4103944004 2.2104001045 5.5531001091 112.52269745 132.34507751 299.12460327 0.7867032290 0.8179000020
 1746.7053223  -999.250000 0.5504999161 12.800499916 12.250000954 83.525382996 0.0825999975 0.4034198523 2.2103848457 5.5535488129 112.52269745 133.69932556 305.89761353 0.7907062769 0.8178556561
 1746.8576660  -999.250000 0.6065998077 12.856600761 12.250000954 91.671081543 0.0878999978 0.4158044159 2.2009000778 5.8333001137 113.43109894 134.09254456 316.50146484 0.7945800424 0.7901906967
 1747.0101318  -999.250000 0.6065998077 12.856600761 12.250000954 79.659385681 0.0878999978 0.4212490618 2.2009382248 5.8337721825 113.43109894 133.66061401 316.14971924 0.7696346641 0.7785887718
 1747.1624756  -999.250000 0.7313994169 12.981399536 12.250000954 71.356391907 0.1031000018 0.3895016611 2.2246968746 6.1280212402 110.04759979 132.54493713 314.86761475 0.7289000154 0.7715943456
 1747.3149414  -999.250000 0.6554002762 12.905402184 12.250000954 72.344467163 0.0998999998 0.3916368484 2.2207722664 6.0293464661 107.98970032 133.59933472 317.03417969 0.7288872004 0.7645000219
 1747.4672852  -999.250000 0.3881998062 12.638198853 12.250000954 73.398544312 0.0856999978 0.4146000147 2.2035806179 5.6212368011 108.12629700 134.24839783 313.49108887 0.7208936810 0.7645000219
 1747.6196289  -999.250000 0.4067001045 12.656700134 12.250000954 78.067604065 0.0656000003 0.4146000147 2.1794962883 5.1678786278 102.58589935 134.50000000 299.77301025 0.7129999995 0.7644673586
 1747.7720947  -999.250000 0.1997004002 12.449700356 12.250000954 84.806816101 0.0533000007 0.4145862460 2.1745991707 4.7665004730 103.38670349 134.50000000 298.16629028 0.7129914165 0.7236999869
 1747.9244385  -999.250000 0.1302004009 12.380200386 12.250000954 84.073493958 0.0496000014 0.3974014223 2.1735994816 4.6421265602 99.990097046 134.50000000 302.26568604 0.7023000121 0.7236958146
 1748.0769043  -999.250000 0.1552000195 12.405200005 12.250000954 77.324020386 0.0450000018 0.3991979957 2.1730995178 4.3009266853 98.409301758 134.50000000 309.99349976 0.7023006678 0.7184996009
 1748.2292480  -999.250000 0.1802998036 12.430299759 12.250000954 62.121849060 0.0403999984 0.3967340887 2.1726000309 3.9600000381 98.240699768 134.50001526 308.51998901 0.7031006813 0.7179994583
 1748.3817139  -999.250000 0.1802998036 12.430299759 12.250000954 53.301349640 0.0403999984 0.4392995238 2.1725862026 3.9598083496 101.47609711 134.52793884 299.71649170 0.7038993239 0.7173011303
 1748.5340576  -999.250000 0.0748996735 12.324899673 12.250000954 50.751213074 0.0311999992 0.4386930168 2.1552999020 3.7207000256 102.83409882 134.70216370 298.25698853 0.7030977011 0.7187020779
 1748.6865234  -999.250000 0.0748996735 12.324899673 12.250000954 50.406108856 0.0311999992 0.4299535453 2.1553018093 3.7209055424 98.041496277 134.90315247 298.38049316 0.7002015710 0.7212990522
 1748.8388672  -999.250000 0.1443995982 12.394399643 12.250000954 50.175365448 0.0357000008 0.3720046580 2.1577019691 3.9774055481 105.29280090 135.09375000 310.15890503 0.7020999789 0.7200989723
 1748.9913330  -999.250000 0.2138996124 12.463898659 12.250000954 57.249652863 0.0401999988 0.3778374493 2.1601006985 4.2338829041 105.29280090 135.14961243 316.84719849 0.7021027207 0.7188060880
