# LAS format log file from PETREL
# Project units are specified as depth units
#==================================================================
~Version information
VERS.   2.0:
WRAP.   NO:
#==================================================================
~Well
STRT .m      472.33206177 :
STOP .m      3119.8261719 :
STEP .m     0.00000000 :
NULL .        -999.250000 :
COMP.           : COMPANY
WELL.  15/9-17   : WELL
FLD.            : FIELD
LOC.            : LOCATION
SRVC.           : SERVICE COMPANY
DATE.  2018-09-11 14:48:01   : Log Export Date {yyyy-MM-dd HH:mm:ss}
PROV.           : PROVINCE
UWI.   15/9-17   : UNIQUE WELL ID
API.            : API NUMBER
#==================================================================
~Curve
DEPT .m                   : DEPTH
Lithology_geolink ._      : Lithology_geolink
DCAL .in                  : DCAL
CALI .in                  : CALI
DRHO .g/cm3               : DRHO
SGR .gAPI                 : SGR
NPHI .m3/m3               : NPHI
RHOB .g/cm3               : RHOB
PEF .b/e                  : PEF
GR .gAPI                  : GR
DTC .us/ft                : DTC
DT .us/ft                 : DT
DTE .us/ft                : DTE
RDEP .ohm.m               : RDEP
SP .mV                    : SP
RSHA .ohm.m               : RSHA
RXO .ohm.m                : RXO
RMED .ohm.m               : RMED
~Parameter
#==================================================================
~Ascii
# ...
 1528.4645996  -999.250000 14.930000305 14.930000305 0.0189999994 57.179000854 0.4940673411 2.0085775852 3.5269999504 54.238967896 130.09332275 138.01470947 137.34475708 1.0870000124 37.495159149 1.0312145948 1.0312145948 1.1189999580
 1528.6170654  -999.250000 14.930000305 14.930000305 0.0299999993 56.269001007 0.4799254239 2.0104458332 3.4019999504 51.723007202 127.80752563 135.12960815 134.96801758 1.0970000029 37.462219238 1.4898461103 1.4898461103 1.2779999971
 1528.7694092  -999.250000 14.930000305 14.930000305 0.0299999993 56.096000671 0.4697130024 2.0032684803 3.2909998894 49.723804474 128.06491089 133.75329590 135.20455933 1.1349999905 36.531253815 1.4570679665 1.4570679665 1.3309999704
 1528.9218750  -999.250000 14.930000305 14.930000305 0.0529999994 57.791999817 0.4653628767 2.0027060509 3.2829999924 52.308841705 130.21173096 137.49398804 137.43821716 1.1579999924 35.005573273 1.2629183531 1.2629183531 1.2280000448
 1529.0742188  -999.250000 14.930000305 14.930000305 0.0529999994 59.367000580 0.4707162976 1.9990373850 3.1689999104 59.420886993 131.89811707 137.74940491 139.30575562 1.1720000505 34.651981354 1.0382645130 1.0382645130 1.1330000162
 1529.2266846  -999.250000 14.803999901 14.803999901 0.0520000011 59.625000000 0.4746973217 1.9936305285 2.9249999523 62.994293213 134.99125671 142.11799622 142.58197021 1.1599999666 34.501628876 0.8862857819 0.8862857819 1.1089999676
 1529.3790283  -999.250000 14.569999695 14.569999695 0.0199999996 58.384998322 0.4901851714 1.9742352962 2.6110000610 63.343448639 136.43101501 144.49620056 144.02510071 1.1299999952 34.843112946 0.9373653531 0.9373653531 1.0549999475
 1529.5313721  -999.250000 14.578000069 14.578000069 0.0040000002 58.270000458 0.4809167087 1.9529031515 2.6589999199 60.226509094 136.90979004 143.50239563 144.57298279 1.1030000448 34.671085358 1.0126204491 1.0126204491 1.0549999475
 1529.6838379  -999.250000 14.663999557 14.663999557 0.0030000000 59.763999939 0.4726451933 1.9423962831 3.2420001030 62.309642792 138.68336487 146.49519348 146.46292114 1.0880000591 33.513420105 0.9341731071 0.9341731071 1.0240000486
 1529.8361816  -999.250000 14.711000443 14.711000443 0.0240000002 60.765998840 0.4706312418 1.9442416430 3.6619999409 65.492347717 138.92300415 147.12350464 146.82353210 1.0650000572 35.645648956 0.9701633453 0.9701633453 1.0390000343
 1529.9886475  -999.250000 14.750000000 14.750000000 0.0390000008 61.000000000 0.4589311182 1.9505093098 4.2329998016 56.389621735 138.95112610 146.37620544 146.75329590 1.0420000553 36.240131378 1.0044374466 1.0044374466 1.0629999638
 1530.1409912  -999.250000 14.750000000 14.750000000 0.0509999990 60.917999268 0.4510435462 1.9561593533 3.6870000362 51.823955536 139.46038818 147.37260437 147.18986511 1.0379999876 34.930374146 1.0938135386 1.0938135386 1.0540000200
 1530.2934570  -999.250000 14.750000000 14.750000000 0.0299999993 61.687000275 0.4283779263 1.9518944025 3.6180000305 50.720756531 139.48663330 147.00059509 147.31671143 1.0349999666 34.912448883 0.8484807611 0.8484807611 1.0390000343
 1530.4458008  -999.250000 14.663999557 14.663999557 0.0270000007 62.430000305 0.4566134214 1.9418327808 3.3629999161 54.304367065 140.18437195 147.74819946 147.98031616 1.0199999809 35.686851501 0.9474859834 0.9474859834 1.0240000486
 1530.5982666  -999.250000 14.663999557 14.663999557 0.0209999997 63.326000214 0.4712274969 1.9130029678 3.9570000172 55.436195374 140.81027222 148.49879456 148.80583191 1.0190000534 35.020214081 0.8409615755 0.8409615755 1.0089999437
 1530.7506104  -999.250000 14.530000687 14.530000687 0.0219999999 63.812999725 0.4784921408 1.8950465918 4.0689997673 55.687400818 141.57919312 149.49760437 149.43489075 1.0180000067 35.217479706 0.8332257867 0.8332257867 1.0000000000
 1530.9030762  -999.250000 14.311999321 14.311999321 0.0140000004 64.207000732 0.4735813141 1.8989814520 3.7179999352 56.748298645 141.84417725 149.50000000 149.76669312 1.0000000000 36.901832581 0.8788076639 0.8788076639 1.0089999437
 1531.0554199  -999.250000 14.147999763 14.147999763 0.0130000003 64.907997131 0.4658200145 1.9198673964 3.3229999542 56.656223297 142.69610596 150.12350464 150.73188782 0.9909999967 37.004970551 0.6324952245 0.6324952245 1.0299999714
 1531.2078857  -999.250000 14.046999931 14.046999931 0.0109999999 65.551002502 0.4658214450 1.9262754917 3.5150001049 51.352516174 143.69161987 151.99699402 151.69813538 0.9980000257 37.555992126 0.7361377478 0.7361377478 0.9819999933
 1531.3602295  -999.250000 14.125000000 14.125000000 0.0170000009 65.632003784 0.4664600194 1.9255669117 3.9769999981 56.804233551 143.27526855 151.50080872 151.27769470 1.0039999485 37.025802612 0.9382019639 0.9382019639 0.9980000257
 1531.5125732  -999.250000 14.218999863 14.218999863 0.0260000005 63.951000214 0.4976710677 1.9346092939 4.0079998970 61.426891327 142.90557861 150.75180054 150.89575195 1.0130000114 36.790481567 0.9793082476 0.9793082476 1.0000000000
 1531.6650391  -999.250000 14.211000443 14.211000443 0.0419999994 61.738998413 0.5170162916 1.9582091570 3.9809999466 62.467350006 142.87100220 150.99958801 150.99226379 1.0130000114 36.935279846 0.8359038830 0.8359038830 1.0429999828
 1531.8173828  -999.250000 14.116000175 14.116000175 0.0520000011 61.111999512 0.5021758080 1.9746317863 4.1700000763 59.005558014 142.63533020 150.99998474 150.58903503 1.0110000372 36.415721893 0.8165956736 0.8165956736 1.0540000200
 1531.9698486  -999.250000 13.991998672 13.991998672 0.0299999993 62.652000427 0.4559626579 1.9703365564 3.6819999218 52.785980225 142.41200256 149.75100708 150.38542175 1.0060000420 37.128803253 0.9390624762 0.9390624762 1.0570000410
 1532.1221924  -999.250000 13.921999931 13.921999931 0.0030000000 64.264999390 0.4404864609 1.9629563093 3.3159999847 56.369243622 143.50474548 151.12280273 151.61096191 1.0010000467 36.524147034 0.7456917763 0.7456917763 1.0369999409
 1532.2746582  -999.250000 13.883000374 13.883000374 -0.007000000 63.195999146 0.4507699311 1.9609961510 3.2000000477 54.751300812 144.67111206 152.74870300 152.74153137 1.0049999952 35.925636292 0.8896201849 0.8896201849 1.0169999599
 1532.4270020  -999.250000 13.953000069 13.953000069 -0.004000000 60.008998871 0.4673649967 1.9624025822 3.4709999561 59.309345245 144.85923767 152.99980164 152.98770142 1.0169999599 35.422340393 1.0173851252 1.0173851252 0.9940000176
 1532.5794678  -999.250000 13.991998672 13.991998672 0.0070000002 57.562999725 0.4829428494 1.9693613052 3.5179998875 57.220676422 144.55899048 153.12489319 152.55435181 1.0260000229 35.315086365 0.8890191913 0.8890191913 0.9570000172
 1532.7318115  -999.250000 14.046999931 14.046999931 0.0109999999 56.881999969 0.4882814884 1.9699878693 3.5590000153 58.561923981 142.73632813 151.75109863 150.69943237 1.0329999924 35.401981354 0.6872394085 0.6872394085 0.9829999804
 1532.8842773  -999.250000 14.125000000 14.125000000 0.0140000004 56.932998657 0.4891725779 1.9668983221 3.5409998894 54.534225464 140.23506165 148.50260925 148.10633850 1.0329999924 35.062374115 0.9445961714 0.9445961714 1.0410000086
 1533.0366211  -999.250000 14.156000137 14.156000137 0.0179999992 57.166000366 0.4736277759 1.9614406824 4.0399999619 55.124523163 138.86160278 146.75140381 146.65516663 1.0249999762 34.782016754 1.0677883625 1.0677883625 1.0880000591
 1533.1890869  -999.250000 14.218999863 14.218999863 0.0359999985 56.917999268 0.4723119736 1.9597841501 4.4380002022 53.845027924 138.61181641 146.00059509 146.32655334 1.0210000277 34.827972412 1.0232042074 1.0232042074 1.0889999866
 1533.3414307  -999.250000 14.218999863 14.218999863 0.0439999998 56.880001068 0.4980670214 1.9453309774 4.6510000229 51.376979828 139.05949402 146.74940491 146.95693970 1.0230000019 34.386383057 0.8829904199 0.8829904199 1.0809999704
 1533.4938965  -999.250000 14.180000305 14.180000305 0.0299999993 56.915000916 0.5024557114 1.9073677063 5.3070001602 56.526870728 140.78544617 147.37449646 148.67614746 1.0169999599 34.157562256 1.0871593952 1.0871593952 1.0650000572
 1533.6462402  -999.250000 14.125000000 14.125000000 0.0189999994 57.446998596 0.5048065186 1.8612354994 5.8819999695 57.468250275 143.20825195 151.12199402 151.17645264 1.0119999647 34.385601044 0.9376923442 0.9376923442 1.0520000458
