# LAS format log file from PETREL
# Project units are specified as depth units
#==================================================================
~Version information
VERS.   2.0:
WRAP.   NO:
#==================================================================
~Well
STRT .m      474.34408569 :
STOP .m      3047.1606445 :
STEP .m     0.00000000 :
NULL .        -999.250000 :
COMP.           : COMPANY
WELL.  15/9-9   : WELL
FLD.            : FIELD
LOC.            : LOCATION
SRVC.           : SERVICE COMPANY
DATE.  2018-09-11 14:48:05   : Log Export Date {yyyy-MM-dd HH:mm:ss}
PROV.           : PROVINCE
UWI.   15/9-9   : UNIQUE WELL ID
API.            : API NUMBER
#==================================================================
~Curve
DEPT .m                   : DEPTH
Lithology_geolink ._      : Lithology_geolink
DCAL .in                  : DCAL
CALI .in                  : CALI
DRHO .g/cm3               : DRHO
NPHI .m3/m3               : NPHI
RHOB .g/cm3               : RHOB
GR .gAPI                  : GR
DTC .us/ft                : DTC
DT .us/ft                 : DT
DTE .us/ft                : DTE
RDEP .ohm.m               : RDEP
SP .mV                    : SP
RSHA .ohm.m               : RSHA
RXO .ohm.m                : RXO
RMED .ohm.m               : RMED
~Parameter
#==================================================================
~Ascii
# ...
 1841.3720703  -999.250000 14.197999954 14.197999954 -0.004961569 0.5115244389 1.9769291878 54.871459961 152.55548096 162.08190918 160.03764343 0.7420600057 127.81036377 0.8011721373  -999.250000 0.8011721373
 1841.5244141  -999.250000 14.826998711 14.826998711 -0.011977565 0.5169287920 1.9523249865 54.847106934 155.07568359 164.18458557 162.82388306 0.7240720987 128.45640564 0.7521963120  -999.250000 0.7521963120
 1841.6768799  -999.250000 15.189000130 15.189000130 -0.015987191 0.5211132169 1.9486379623 51.585479736 155.88105774 163.26075745 163.58323669 0.6961120963 128.70799255 0.7271000743  -999.250000 0.7271000743
 1841.8292236  -999.250000 14.892000198 14.892000198 -0.013009615 0.5095366240 1.9574999809 52.988456726 155.37281799 163.09764099 163.05174255 0.6671161652 128.57951355 0.7090721130  -999.250000 0.7090721130
 1841.9816895  -999.250000 14.758999825 14.758999825 -0.017983986 0.5076374412 1.9641951323 55.754127502 154.32276917 160.57810974 162.02574158 0.6530560255 129.13476563 0.6910720468  -999.250000 0.6910720468
 1842.1340332  -999.250000 14.734998703 14.734998703 -0.020990385 0.5039448738 1.9669364691 57.769550323 154.03359985 162.51315308 161.66972351 0.6629599333 128.59019470 0.7019559741  -999.250000 0.7019559741
 1842.2864990  -999.250000 14.482001305 14.482001305 -0.023992788 0.5234415531 1.9768067598 56.372383118 154.66453552 162.19030762 162.24168396 0.6839159727 128.92663574 0.7219199538  -999.250000 0.7219199538
 1842.4388428  -999.250000 14.078000069 14.078000069 -0.016025621 0.5254123807 2.0028595924 56.538455963 154.68827820 162.42207336 162.24618530 0.7069078684 128.39813232 0.7528758049  -999.250000 0.7528758049
 1842.5913086  -999.250000 13.630001068 13.630001068 -0.016997596 0.5189161897 2.0492537022 60.163269043 153.96211243 161.38914490 161.59991455 0.7408638597 128.13703918 0.7609679699  -999.250000 0.7609679699
 1842.7436523  -999.250000 13.359999657 13.359999657 -0.021983987 0.5035119057 2.1279027462 58.701721191 150.81919861 157.52751160 158.26229858 0.7678918242 128.09915161 0.7729519010  -999.250000 0.7729519010
 1842.8961182  -999.250000 13.420999527 13.420999527 -0.009031249 0.4831851423 2.2411167622 54.759487152 142.36210632 140.74391174 149.33403015 0.7699935436 127.39326477 0.8726795316  -999.250000 0.8726795316
 1843.0484619  -999.250000 13.366999626 13.366999626 0.0547950342 0.4649430513 2.3409018517 53.490047455 133.65075684 137.40917969 140.26928711 0.7660160065 127.36509705 1.0433155298  -999.250000 1.0433155298
 1843.2009277  -999.250000 13.661999702 13.661999702 0.1058773994 0.4451434016 2.3535294533 50.617912292 131.32788086 137.04612732 137.90130615 0.7659999728 126.13993835 1.1745800972  -999.250000 1.1745800972
 1843.3532715  -999.250000 13.730999947 13.730999947 0.0721088871 0.4587151706 2.2695209980 54.069889069 134.31558228 142.56880188 140.94242859 0.7620160580 126.34416962 0.9887485504  -999.250000 0.9887485504
 1843.5056152  -999.250000 14.170000076 14.170000076 0.0281410273 0.4966675639 2.1660220623 57.148139954 142.52433777 157.25302124 149.59648132 0.7699679136 125.31514740 0.8017491698  -999.250000 0.8017491698
 1843.6580811  -999.250000 14.262000084 14.262000084 0.0110544432 0.5026067495 2.1035411358 63.122833252 150.13381958 160.24818420 157.67341614 0.7660160065 125.87274170 0.7312802076  -999.250000 0.7312802076
 1843.8104248  -999.250000 14.182001114 14.182001114 0.0090064099 0.5059864521 2.0776827335 62.073436737 152.34469604 160.34066772 159.86227417 0.7321361899 126.48355103 0.7549038529  -999.250000 0.7549038529
 1843.9628906  -999.250000 14.506999969 14.506999969 0.0020224180 0.4648453891 2.0670952797 58.672912598 151.27484131 157.64085388 158.68218994 0.7080960870 126.91329193 0.7769119143  -999.250000 0.7769119143
 1844.1152344  -999.250000 14.050000191 14.050000191 -0.000990385 0.4626880288 2.0659596920 54.461509705 148.55384827 153.56234741 155.88320923 0.6990360618 127.76656342 0.7799879313  -999.250000 0.7799879313
 1844.2677002  -999.250000 13.958000183 13.958000183 -0.004990384 0.4504790306 2.0745356083 56.253646851 146.53959656 154.05197144 153.85400391 0.7009919882 127.47119904 0.7760160565  -999.250000 0.7760160565
 1844.4200439  -999.250000 14.527000427 14.527000427 0.0009807847 0.4558282793 2.0881075859 57.558818817 145.81340027 151.03314209 153.08876038 0.7059799433 128.04370117 0.7760000229  -999.250000 0.7760000229
 1844.5725098  -999.250000 14.621000290 14.621000290 0.0049935845 0.4552723169 2.0991663933 64.907302856 147.43176270 157.75094604 154.67021179 0.7199440002 127.89559937 0.7829719782  -999.250000 0.7829719782
 1844.7248535  -999.250000 14.008000374 14.008000374 0.0159735791 0.4659072161 2.1024124622 65.934761047 150.48359680 159.23614502 157.92074585 0.7319518924 127.91590881 0.7839959860  -999.250000 0.7839959860
 1844.8773193  -999.250000 13.640999794 13.640999794 0.0130048078 0.4797445536 2.0982170105 73.765136719 151.17213440 158.60954285 158.64959717 0.7369799614 128.31240845 0.7800160050  -999.250000 0.7800160050
 1845.0296631  -999.250000 13.871999741 13.871999741 0.0139975986 0.4874292910 2.0918307304 69.480827332 150.22203064 156.57019043 157.65072632 0.7379959822 128.18452454 0.7849799991  -999.250000 0.7849799991
 1845.1821289  -999.250000 14.020000458 14.020000458 0.0120032048 0.4861841202 2.0881595612 71.471168518 149.30546570 156.47926331 156.79196167 0.7389968038 128.52989197 0.7909807563  -999.250000 0.7909807563
 1845.3344727  -999.250000 13.782999992 13.782999992 0.0139967958 0.4934308529 2.0860414505 60.282962799 149.89968872 157.80567932 157.31851196 0.7419880033 127.98120880 0.8049439788  -999.250000 0.8049439788
 1845.4868164  -999.250000 14.116999626 14.116999626 0.0060192156 0.4786396325 2.0835537910 60.100471497 151.48080444 159.97729492 158.92675781 0.7439920306 128.57658386 0.8169518709  -999.250000 0.8169518709
 1845.6392822  -999.250000 14.614000320 14.614000320 0.0040032053 0.4771855772 2.0842428207 57.246170044 153.12202454 161.85748291 160.67915344 0.7449960113 128.62481689 0.8110240102  -999.250000 0.8110240102
 1845.7916260  -999.250000 15.281000137 15.281000137 0.0079903929 0.4801380932 2.0917644501 62.985519409 153.30361938 161.24250793 160.91072083 0.7410160303 128.61903381 0.7990481257  -999.250000 0.7990481257
 1845.9440918  -999.250000 16.371999741 16.371999741 0.0199807696 0.5075996518 2.1001045704 66.157867432 151.08163452 155.40147400 158.52188110 0.7320359945 128.47558594 0.7810720801  -999.250000 0.7810720801
 1846.0964355  -999.250000 16.629999161 16.629999161 0.0209975969 0.4947720468 2.0976700783 68.590209961 149.29406738 156.51840210 156.62283325 0.7220400572 127.64333344 0.7839879394  -999.250000 0.7839879394
 1846.2489014  -999.250000 15.904000282 15.904000282 0.0050256411 0.4651687741 2.0802862644 69.726280212 150.28868103 158.98609924 157.75601196 0.7140319943 127.49658203 0.7740400434  -999.250000 0.7740400434
 1846.4012451  -999.250000 15.461999893 15.461999893 -0.002980785 0.4364052415 2.0627837181 66.902076721 151.76588440 160.34358215 159.34915161 0.7070280910 126.51693726 0.7759920359  -999.250000 0.7759920359
 1846.5537109  -999.250000 15.925000191 15.925000191 -0.009988782 0.4478037059 2.0587356091 65.724815369 151.85726929 159.11994934 159.39781189 0.7169599533 126.72514343 0.7570760846  -999.250000 0.7570760846
 1846.7060547  -999.250000 15.815999985 15.815999985 -0.007007206 0.5071315169 2.0675268173 63.559947968 147.99034119 156.38796997 155.26086426 0.7249679565 126.01684570 0.7689518929  -999.250000 0.7689518929
 1846.8585205  -999.250000 15.685001373 15.685001373 -0.005003205 0.5154773593 2.0820307732 61.651580811 134.70268250 126.40547180 141.34782410 0.7210160494 125.67436218 0.7909119129  -999.250000 0.7909119129
 1847.0108643  -999.250000 15.734000206 15.734000206 0.0129567655 0.4831003547 2.0968980789 55.492771149 119.69664001 120.21740723 125.64870453 0.7219960093 126.19787598 0.8537475467  -999.250000 0.8537475467
 1847.1633301  -999.250000 15.043999672 15.043999672 0.0239823721 0.4432477355 2.1072974205 58.261283875 114.28365326 118.46157074 119.96134949 0.7289775610 126.03352356 0.8699487448  -999.250000 0.8699487448
