# LAS format log file from PETREL
# Project units are specified as depth units
#==================================================================
~Version information
VERS.   2.0:
WRAP.   NO:
#==================================================================
~Well
STRT .m      489.99996948 :
STOP .m      1530.0000000 :
STEP .m     0.00000000 :
NULL .        -999.250000 :
COMP.           : COMPANY
WELL.  15/9-22   : WELL
FLD.            : FIELD
LOC.            : LOCATION
SRVC.           : SERVICE COMPANY
DATE.  2018-09-11 14:48:02   : Log Export Date {yyyy-MM-dd HH:mm:ss}
PROV.           : PROVINCE
UWI.   15/9-22   : UNIQUE WELL ID
API.            : API NUMBER
#==================================================================
~Curve
DEPT .m                   : DEPTH
Lithology_geolink ._      : Lithology_geolink
BS .in                    : BS
GR .gAPI                  : GR
RDEP .ohm.m               : RDEP
RMED .ohm.m               : RMED
~Parameter
#==================================================================
~Ascii
# ...
 1255.0000000  -999.250000 17.500000000 96.634002686 1.1510000229 0.9700000286
 1255.0999756  -999.250000 17.500000000 96.650001526 1.1480000019 0.9720000029
 1255.2000732  -999.250000 17.500000000 94.929000854 1.1239999533 0.9689999819
 1255.3000488  -999.250000 17.500000000 93.119003296 1.1139999628 0.9710000157
 1255.4000244  -999.250000 17.500000000 91.609001160 1.1310000420 0.9599999785
 1255.5000000  -999.250000 17.500000000 88.810997009 1.1149792671 0.9479963779
 1255.6000977  -999.250000 17.500000000 84.480003357 1.0980024338 0.9449999928
 1255.6999512  -999.250000 17.500000000 81.024223328 1.1000000238 0.9449999928
 1255.7999268  -999.250000 17.500000000 81.476440430 1.0939999819 0.9470000267
 1255.8999023  -999.250000 17.500000000 86.063781738 1.1009999514 0.9570000172
 1256.0000000  -999.250000 17.500000000 90.426681519 1.0880000591 0.9549999833
 1256.0999756  -999.250000 17.500000000 91.586997986 1.0930000544 0.9470000267
 1256.1999512  -999.250000 17.500000000 90.722999573 1.0959999561 0.9380000234
 1256.3000488  -999.250000 17.500000000 89.818000793 1.0930000544 0.9309999943
 1256.4000244  -999.250000 17.500000000 89.735000610 1.0829999447 0.9269999862
 1256.5000000  -999.250000 17.500000000 89.248001099 1.0599999428 0.9100000262
 1256.6000977  -999.250000 17.500000000 86.941001892 1.0440000296 0.8899999857
 1256.7000732  -999.250000 17.500000000 83.010002136 1.0329999924 0.8689877987
 1256.8000488  -999.250000 17.500000000 78.888999939 1.0329829454 0.8590109944
 1256.8999023  -999.250000 17.500000000 77.231025696 1.0190000534 0.8679999709
 1257.0000000  -999.250000 17.500000000 80.297256470 1.0180000067 0.8780000210
 1257.0999756  -999.250000 17.500000000 85.272918701 1.0240000486 0.8870000243
 1257.1999512  -999.250000 17.500000000 88.014656067 1.0149999857 0.8790000081
 1257.2999268  -999.250000 17.500000000 89.666000366 1.0249999762 0.8769999743
 1257.4000244  -999.250000 17.500000000 91.523002625 1.0230000019 0.8769999743
 1257.5000000  -999.250000 17.500000000 93.658996582 1.0369999409 0.9020000100
 1257.5999756  -999.250000 17.500000000 95.962997437 1.0399999619 0.9359999895
 1257.7000732  -999.250000 17.500000000 98.559997559 1.0479999781 0.9430000186
 1257.8000488  -999.250000 17.500000000 100.92199707 1.0559999943 0.9430000186
 1257.9000244  -999.250000 17.500000000 101.67299652 1.0610109568 0.9480171204
 1258.0001221  -999.250000 17.500000000 99.952003479 1.0699927807 0.9620219469
 1258.0999756  -999.250000 17.500000000 96.833816528 1.0670000315 0.9710000157
 1258.1999512  -999.250000 17.500000000 94.277122498 1.0709999800 0.9639999866
 1258.2999268  -999.250000 17.500000000 94.042564392 1.0789999962 0.9520000219
 1258.4000244  -999.250000 17.500000000 95.719947815 1.0770000219 0.9530000091
 1258.5000000  -999.250000 17.500000000 96.716003418 1.0729999542 0.9530000091
 1258.5999756  -999.250000 17.500000000 96.263999939 1.0779999495 0.9570000172
 1258.7000732  -999.250000 17.500000000 94.438003540 1.0789999962 0.9710000157
 1258.8000488  -999.250000 17.500000000 91.897003174 1.0820000172 0.9800000191
 1258.9000244  -999.250000 17.500000000 89.205001831 1.0839999914 0.9779999852
 1259.0000000  -999.250000 17.500000000 86.527999878 1.0889999866 0.9750000238
 1259.1000977  -999.250000 17.500000000 84.489997864 1.0810036659 0.9689939022
 1259.1999512  -999.250000 17.500000000 82.205795288 1.0839999914 0.9639999866
 1259.2999268  -999.250000 17.500000000 80.359252930 1.0930000544 0.9629999995
 1259.3999023  -999.250000 17.500000000 80.577461243 1.0880000591 0.9639999866
 1259.5000000  -999.250000 17.500000000 83.401550293 1.0800000429 0.9589999914
 1259.5999756  -999.250000 17.500000000 87.345001221 1.1039999723 0.9509999752
 1259.6999512  -999.250000 17.500000000 89.821998596 1.1009999514 0.9520000219
 1259.8000488  -999.250000 17.500000000 89.831001282 1.0930000544 0.9490000010
 1259.9000244  -999.250000 17.500000000 88.547996521 1.0959999561 0.9530000091
 1260.0000000  -999.250000 17.500000000 88.267997742 1.1089999676 0.9580000043
 1260.1000977  -999.250000 17.500000000 90.439002991 1.1130000353 0.9620000124
 1260.2000732  -999.250000 17.500000000 93.697998047 1.1230195761 0.9609853625
 1260.3000488  -999.250000 17.500000000 95.598999023 1.1389951706 0.9489828944
 1260.3999023  -999.250000 17.500000000 94.424430847 1.1349999905 0.9350000024
 1260.5000000  -999.250000 17.500000000 90.707542419 1.1410000324 0.9240000248
 1260.5999756  -999.250000 17.500000000 86.670928955 1.1449999809 0.9219999909
 1260.6999512  -999.250000 17.500000000 85.659225464 1.1590000391 0.9190000296
 1260.7999268  -999.250000 17.500000000 86.870002747 1.1519999504 0.9210000038
 1260.9000244  -999.250000 17.500000000 87.684997559 1.1729999781 0.9150000215
 1261.0000000  -999.250000 17.500000000 87.808998108 1.1970000267 0.9200000167
 1261.0999756  -999.250000 17.500000000 87.996002197 1.1699999571 0.9549999833
 1261.2000732  -999.250000 17.500000000 89.972000122 1.1679999828 0.9879999757
 1261.3000488  -999.250000 17.500000000 92.934997559 1.1820000410 1.0060000420
 1261.4000244  -999.250000 17.500000000 95.111000061 1.1910281181 1.0069999695
 1261.5001221  -999.250000 17.500000000 95.957000732 1.2139780521 1.0070170164
 1261.5999756  -999.250000 17.500000000 96.697090149 1.2050000429 1.0140000582
 1261.6999512  -999.250000 17.500000000 98.174194336 1.1940000057 1.0110000372
 1261.7999268  -999.250000 17.500000000 98.121070862 1.2250000238 0.9649999738
 1261.9000244  -999.250000 17.500000000 96.081489563 1.2330000401 0.9649999738
 1262.0000000  -999.250000 17.500000000 93.785003662 1.2239999771 0.9819999933
 1262.0999756  -999.250000 17.500000000 91.796997070 1.2180000544 0.9929999709
 1262.1999512  -999.250000 17.500000000 90.968002319 1.2209999561 0.9959999919
 1262.3000488  -999.250000 17.500000000 91.747001648 1.2319999933 0.9909999967
 1262.4000244  -999.250000 17.500000000 94.120002747 1.2359999418 1.0019999743
 1262.5000000  -999.250000 17.500000000 97.956001282 1.2350000143 1.0030000210
 1262.6000977  -999.250000 17.500000000 102.38899994 1.2470023632 1.0089877844
 1262.6999512  -999.250000 17.500000000 106.42506409 1.2480000257 1.0039999485
 1262.7999268  -999.250000 17.500000000 109.21360016 1.2569999695 1.0069999695
 1262.8999023  -999.250000 17.500000000 110.32229614 1.2599999905 1.0080000162
 1263.0000000  -999.250000 17.500000000 110.67256927 1.2719999552 1.0180000067
 1263.0999756  -999.250000 17.500000000 110.48223877 1.2810000181 1.0429999828
 1263.1999512  -999.250000 17.500000000 110.66100311 1.2840000391 1.0559999943
 1263.3000488  -999.250000 17.500000000 113.81400299 1.2869999409 1.0709999800
 1263.4000244  -999.250000 17.500000000 119.23100281 1.2899999619 1.0759999752
 1263.5000000  -999.250000 17.500000000 122.69000244 1.2970000505 1.0829999447
 1263.6000977  -999.250000 17.500000000 120.77300262 1.2899999619 1.0590000153
 1263.7000732  -999.250000 17.500000000 113.46800232 1.2969768047 1.0649853945
 1263.8000488  -999.250000 17.500000000 105.04699707 1.2779914141 1.0529878139
 1263.8999023  -999.250000 17.500000000 99.178169250 1.2710000277 1.0429999828
 1264.0000000  -999.250000 17.500000000 97.553977966 1.2599999905 1.0340000391
 1264.0999756  -999.250000 17.500000000 99.388755798 1.2439999580 1.0199999809
 1264.1999512  -999.250000 17.500000000 102.08071136 1.2350000143 1.0000000000
 1264.2999268  -999.250000 17.500000000 103.35099792 1.2220000029 0.9879999757
 1264.4000244  -999.250000 17.500000000 102.27100372 1.2120000124 0.9739999771
 1264.5000000  -999.250000 17.500000000 100.63999939 1.2120000124 0.9779999852
 1264.5999756  -999.250000 17.500000000 99.349998474 1.2100000381 0.9829999804
 1264.7000732  -999.250000 17.500000000 98.481002808 1.1979999542 0.9779999852
 1264.8000488  -999.250000 17.500000000 98.397003174 1.1920000315 0.9850000143
 1264.9000244  -999.250000 17.500000000 99.227996826 1.1810121536 0.9700012207
 1265.0001221  -999.250000 17.500000000 101.11399841 1.1909927130 0.9709707499
 1265.0999756  -999.250000 17.500000000 102.77497101 1.1879999638 0.9589999914
