# LAS format log file from PETREL
# Project units are specified as depth units
#==================================================================
~Version information
VERS.   2.0:
WRAP.   NO:
#==================================================================
~Well
STRT .m      489.99996948 :
STOP .m      1530.0000000 :
STEP .m     0.00000000 :
NULL .        -999.250000 :
COMP.           : COMPANY
WELL.  15/9-22   : WELL
FLD.            : FIELD
LOC.            : LOCATION
SRVC.           : SERVICE COMPANY
DATE.  2018-09-11 14:48:02   : Log Export Date {yyyy-MM-dd HH:mm:ss}
PROV.           : PROVINCE
UWI.   15/9-22   : UNIQUE WELL ID
API.            : API NUMBER
#==================================================================
~Curve
DEPT .m                   : DEPTH
Lithology_geolink ._      : Lithology_geolink
BS .in                    : BS
GR .gAPI                  : GR
RDEP .ohm.m               : RDEP
RMED .ohm.m               : RMED
~Parameter
#==================================================================
~Ascii
# ...
 1448.8000488  -999.250000 17.500000000 115.46099854 1.2170000076 1.0850000381
 1448.9000244  -999.250000 17.500000000 109.70099640 1.2219927311 1.0969963074
 1449.0001221  -999.250000 17.500000000 105.62799835 1.2159878016 1.0939878225
 1449.0999756  -999.250000 17.500000000 103.98600769 1.2109999657 1.0889999866
 1449.1999512  -999.250000 17.500000000 105.93961334 1.2100000381 1.1000000238
 1449.2999268  -999.250000 17.500000000 110.72615051 1.2000000477 1.0770000219
 1449.4000244  -999.250000 17.500000000 116.76263428 1.1940000057 1.0640000105
 1449.5000000  -999.250000 17.500000000 120.31865692 1.1890000105 1.0490000248
 1449.5999756  -999.250000 17.500000000 119.38700104 1.1829999685 1.0529999733
 1449.6999512  -999.250000 17.500000000 114.81900024 1.1770000458 1.0429999828
 1449.8000488  -999.250000 17.500000000 109.90100098 1.1890000105 1.0509999990
 1449.9000244  -999.250000 17.500000000 108.01200104 1.1849999428 1.0379999876
 1450.0000000  -999.250000 17.500000000 108.55000305 1.1900000572 1.0429999828
 1450.1000977  -999.250000 17.500000000 108.83699799 1.1850218773 1.0520219803
 1450.1999512  -999.250000 17.500000000 107.50762177 1.1940000057 1.0609999895
 1450.2999268  -999.250000 17.500000000 106.45828247 1.2059999704 1.0729999542
 1450.3999023  -999.250000 17.500000000 106.22357178 1.2020000219 1.0880000591
 1450.5000000  -999.250000 17.500000000 105.55481720 1.2200000286 1.1169999838
 1450.5999756  -999.250000 17.500000000 104.39741516 1.2189999819 1.0650000572
 1450.6999512  -999.250000 17.500000000 103.86529541 1.2050000429 1.0679999590
 1450.8000488  -999.250000 17.500000000 104.44999695 1.1990000010 1.0770000219
 1450.9000244  -999.250000 17.500000000 105.20899963 1.2070000172 1.0750000477
 1451.0000000  -999.250000 17.500000000 105.57299805 1.2029999495 1.0559999943
 1451.1000977  -999.250000 17.500000000 105.80400085 1.2089999914 1.0720000267
 1451.2000732  -999.250000 17.500000000 104.80100250 1.2149976492 1.0740036964
 1451.3000488  -999.250000 17.500000000 102.84799957 1.2129951715 1.0770000219
 1451.3999023  -999.250000 17.500000000 101.33884430 1.2089999914 1.0770000219
 1451.5000000  -999.250000 17.500000000 100.89353943 1.2159999609 1.0709999800
 1451.5999756  -999.250000 17.500000000 101.54820251 1.2300000191 1.0740000010
 1451.6999512  -999.250000 17.500000000 102.61170197 1.2189999819 1.0770000219
 1451.7999268  -999.250000 17.500000000 104.38466644 1.2150000334 1.0889999866
 1451.9000244  -999.250000 17.500000000 106.77700043 1.2000000477 1.0709999800
 1452.0000000  -999.250000 17.500000000 107.58699799 1.2059999704 1.0509999990
 1452.0999756  -999.250000 17.500000000 106.29599762 1.2059999704 1.0570000410
 1452.2000732  -999.250000 17.500000000 104.02600098 1.2100000381 1.0709999800
 1452.3000488  -999.250000 17.500000000 102.04699707 1.2089999914 1.0770000219
 1452.4000244  -999.250000 17.500000000 100.93599701 1.2190097570 1.0770146847
 1452.5001221  -999.250000 17.500000000 101.57800293 1.2269512415 1.0890244246
 1452.5999756  -999.250000 17.500000000 104.71016693 1.2070000172 1.0989999771
 1452.6999512  -999.250000 17.500000000 108.83196259 1.2059999704 1.1330000162
 1452.7999268  -999.250000 17.500000000 110.83955383 1.2059999704 1.1119999886
 1452.9000244  -999.250000 17.500000000 110.11488342 1.2389999628 1.1059999466
 1453.0000000  -999.250000 17.500000000 108.15739441 1.2159999609 1.0950000286
 1453.0999756  -999.250000 17.500000000 108.02100372 1.2170000076 1.0829999447
 1453.1999512  -999.250000 17.500000000 110.66200256 1.1909999847 1.0570000410
 1453.3000488  -999.250000 17.500000000 114.32900238 1.1720000505 1.0349999666
 1453.4000244  -999.250000 17.500000000 115.59100342 1.1759999990 1.0319999456
 1453.5000000  -999.250000 17.500000000 112.22100067 1.1619999409 1.0240000486
 1453.6000977  -999.250000 17.500000000 105.52799988 1.1530244350 1.0130268335
 1453.7000732  -999.250000 17.500000000 100.52400208 1.1629951000 1.0239816904
 1453.7999268  -999.250000 17.500000000 99.502250671 1.1590000391 1.0089999437
 1453.8999023  -999.250000 17.500000000 101.47617340 1.1660000086 1.0249999762
 1454.0000000  -999.250000 17.500000000 104.36048126 1.1749999523 1.0460000038
 1454.0999756  -999.250000 17.500000000 106.24569702 1.1670000553 1.0360000134
 1454.1999512  -999.250000 17.500000000 106.71685791 1.1779999733 1.0449999571
 1454.3000488  -999.250000 17.500000000 105.52100372 1.1870000362 1.0679999590
 1454.4000244  -999.250000 17.500000000 102.79599762 1.1849999428 1.0460000038
 1454.5000000  -999.250000 17.500000000 98.560997009 1.1840000153 1.0529999733
 1454.6000977  -999.250000 17.500000000 94.292999268 1.1959999800 1.0620000362
 1454.7000732  -999.250000 17.500000000 92.317001343 1.1940023899 1.0600353479
 1454.8000488  -999.250000 17.500000000 93.105003357 1.1960121393 1.0889927149
 1454.8999023  -999.250000 17.500000000 97.183021545 1.2059999704 1.0829999447
 1455.0000000  -999.250000 17.500000000 103.72801208 1.1900000572 1.0509999990
 1455.0999756  -999.250000 17.500000000 109.52691650 1.1799999475 1.0279999971
 1455.1999512  -999.250000 17.500000000 112.98577881 1.1979999542 1.0740000010
 1455.2999268  -999.250000 17.500000000 114.10726929 1.1820000410 1.0700000525
 1455.4000244  -999.250000 17.500000000 114.01112366 1.1809999943 1.0590000153
 1455.5000000  -999.250000 17.500000000 112.59899902 1.1840000153 1.0629999638
 1455.5999756  -999.250000 17.500000000 109.48100281 1.1670000553 1.0449999571
 1455.7000732  -999.250000 17.500000000 105.35700226 1.1890000105 1.0360000134
 1455.8000488  -999.250000 17.500000000 101.89099884 1.1690000296 1.0249999762
 1455.9000244  -999.250000 17.500000000 98.887001038 1.1690024137 1.0470000505
 1456.0001221  -999.250000 17.500000000 95.831001282 1.1709706783 1.0470024347
 1456.0999756  -999.250000 17.500000000 92.875617981 1.1590000391 1.0479999781
 1456.1999512  -999.250000 17.500000000 92.158866882 1.1629999876 1.0570000410
 1456.2999268  -999.250000 17.500000000 94.061676025 1.1469999552 1.0039999485
 1456.4000244  -999.250000 17.500000000 97.052352905 1.1449999809 1.0019999743
 1456.5000000  -999.250000 17.500000000 100.59167480 1.1449999809 1.0039999485
 1456.5999756  -999.250000 17.500000000 106.16799927 1.1480000019 1.0269999504
 1456.6999512  -999.250000 17.500000000 114.88600159 1.1540000439 1.0349999666
 1456.8000488  -999.250000 17.500000000 122.95400238 1.1699999571 1.0329999924
 1456.9000244  -999.250000 17.500000000 124.91100311 1.1779999733 1.0240000486
 1457.0000000  -999.250000 17.500000000 122.28099823 1.1809999943 1.0310000181
 1457.1000977  -999.250000 17.500000000 116.31099701 1.1840000153 1.0400389433
 1457.2000732  -999.250000 17.500000000 111.00499725 1.1840072870 1.0560085773
 1457.2999268  -999.250000 17.500000000 109.67762756 1.1900000572 1.0629999638
 1457.3999023  -999.250000 17.500000000 110.35234070 1.1729999781 1.0219999552
 1457.5000000  -999.250000 17.500000000 109.36920166 1.1799999475 1.0269999504
 1457.5999756  -999.250000 17.500000000 107.08978271 1.1710000038 1.0319999456
 1457.6999512  -999.250000 17.500000000 105.34626007 1.1779999733 1.0319999456
 1457.8000488  -999.250000 17.500000000 104.92600250 1.1740000248 1.0319999456
 1457.9000244  -999.250000 17.500000000 104.94499969 1.1710000038 1.0230000019
 1458.0000000  -999.250000 17.500000000 104.96499634 1.1759999990 1.0449999571
 1458.0999756  -999.250000 17.500000000 105.65100098 1.1599999666 1.0210000277
 1458.2000732  -999.250000 17.500000000 107.40000153 1.1890000105 1.0219999552
 1458.3000488  -999.250000 17.500000000 110.37300110 1.1699767113 1.0009804964
 1458.3999023  -999.250000 17.500000000 113.95262146 1.1510000229 0.9850000143
 1458.4998779  -999.250000 17.500000000 117.55919647 1.1430000067 0.9840000272
 1458.5999756  -999.250000 17.500000000 119.54457855 1.1269999743 0.9779999852
 1458.6999512  -999.250000 17.500000000 117.78614807 1.1230000257 0.9549999833
 1458.7999268  -999.250000 17.500000000 113.21117401 1.1330000162 0.9399999976
 1458.9000244  -999.250000 17.500000000 107.31519318 1.1849999428 0.9620000124
