# LAS format log file from PETREL
# Project units are specified as depth units
#==================================================================
~Version information
VERS.   2.0:
WRAP.   NO:
#==================================================================
~Well
STRT .m      489.99996948 :
STOP .m      1530.0000000 :
STEP .m     0.00000000 :
NULL .        -999.250000 :
COMP.           : COMPANY
WELL.  15/9-22   : WELL
FLD.            : FIELD
LOC.            : LOCATION
SRVC.           : SERVICE COMPANY
DATE.  2018-09-11 14:48:02   : Log Export Date {yyyy-MM-dd HH:mm:ss}
PROV.           : PROVINCE
UWI.   15/9-22   : UNIQUE WELL ID
API.            : API NUMBER
#==================================================================
~Curve
DEPT .m                   : DEPTH
Lithology_geolink ._      : Lithology_geolink
BS .in                    : BS
GR .gAPI                  : GR
RDEP .ohm.m               : RDEP
RMED .ohm.m               : RMED
~Parameter
#==================================================================
~Ascii
# ...
 643.00000000  -999.250000 17.500000000 158.22099304 1.5129896402 1.4209768772
 643.09997559  -999.250000 17.500000000 164.67706299 1.4960000515 1.3830000162
 643.19995117  -999.250000 17.500000000 166.11300659 1.4859999418 1.3389999866
 643.29998779  -999.250000 17.500000000 163.64799500 1.4830000401 1.3339999914
 643.40002441  -999.250000 17.500000000 159.85400391 1.4589999914 1.3489999771
 643.50000000  -999.250000 17.500000000 156.88499451 1.4329999685 1.3179999590
 643.60003662  -999.250000 17.500000000 157.31599426 1.4279956818 1.2989749908
 643.69995117  -999.250000 17.500000000 160.53599548 1.4210000038 1.2580000162
 643.79998779  -999.250000 17.500000000 163.71299744 1.4099999666 1.2330000401
 643.90002441  -999.250000 17.500000000 162.68099976 1.3739999533 1.2810000181
 644.00000000  -999.250000 17.500000000 157.07099915 1.3559999466 1.2899999619
 644.10003662  -999.250000 17.500000000 151.34300232 1.3960000277 1.2790000439
 644.20001221  -999.250000 17.500000000 148.39300537 1.4179596901 1.2290189266
 644.29998779  -999.250000 17.500000000 147.82400513 1.3519999981 1.2599999905
 644.39996338  -999.250000 17.500000000 149.06199646 1.3489999771 1.2910000086
 644.50000000  -999.250000 17.500000000 151.69700623 1.3669999838 1.2799999714
 644.60003662  -999.250000 17.500000000 155.32899475 1.3769999743 1.2860000134
 644.70001221  -999.250000 17.500000000 158.89399719 1.3730000257 1.2469999790
 644.80004883  -999.250000 17.500000000 159.47500610 1.3850170374 1.2870042324
 644.89996338  -999.250000 17.500000000 155.78100586 1.4129999876 1.2940000296
 645.00000000  -999.250000 17.500000000 149.28900146 1.4179999828 1.2949999571
 645.09997559  -999.250000 17.500000000 145.12100220 1.4249999523 1.2949999571
 645.20001221  -999.250000 17.500000000 146.09100342 1.4309999943 1.2960000038
 645.30004883  -999.250000 17.500000000 148.38400269 1.4570000172 1.3040000200
 645.40002441  -999.250000 17.500000000 149.23899841 1.4600293636 1.3040097952
 645.50000000  -999.250000 17.500000000 148.57000732 1.5080000162 1.3200000525
 645.59997559  -999.250000 17.500000000 146.68200684 1.4739999771 1.2799999714
 645.70001221  -999.250000 17.500000000 144.91400146 1.5149999857 1.3150000572
 645.79998779  -999.250000 17.500000000 143.19500732 1.5349999666 1.3550000191
 645.90002441  -999.250000 17.500000000 142.10800171 1.5529901981 1.3529939651
 645.99993896  -999.250000 17.500000000 142.05007935 1.5369999409 1.3430000544
 646.09997559  -999.250000 17.500000000 142.90400696 1.5690000057 1.3650000095
 646.20001221  -999.250000 17.500000000 140.89799500 1.5369999409 1.3170000315
 646.29998779  -999.250000 17.500000000 135.50999451 1.5620000362 1.3380000591
 646.40002441  -999.250000 17.500000000 130.48100281 1.5620000362 1.3519999981
 646.50000000  -999.250000 17.500000000 128.91799927 1.5800116062 1.3670231104
 646.59997559  -999.250000 17.500000000 131.58636475 1.5989999771 1.4049999714
 646.69995117  -999.250000 17.500000000 136.26899719 1.5889999866 1.3780000210
 646.79998779  -999.250000 17.500000000 140.51300049 1.6089999676 1.3819999695
 646.90002441  -999.250000 17.500000000 143.10499573 1.6189999580 1.3849999905
 647.00000000  -999.250000 17.500000000 144.26499939 1.5959999561 1.4099999666
 647.10003662  -999.250000 17.500000000 146.35800171 1.6079884768 1.4370012283
 647.19995117  -999.250000 17.500000000 149.63600159 1.5889999866 1.4390000105
 647.29998779  -999.250000 17.500000000 150.41400146 1.6009999514 1.4140000343
 647.39996338  -999.250000 17.500000000 147.90199280 1.5839999914 1.4129999876
 647.50000000  -999.250000 17.500000000 143.69500732 1.6399999857 1.4340000153
 647.60003662  -999.250000 17.500000000 139.97000122 1.6770000458 1.4320000410
 647.70001221  -999.250000 17.500000000 138.99899292 1.6390287876 1.4300353527
 647.79998779  -999.250000 17.500000000 139.72656250 1.6859999895 1.4880000353
 647.89996338  -999.250000 17.500000000 140.82499695 1.6419999599 1.4650000334
 648.00000000  -999.250000 17.500000000 141.25999451 1.6790000200 1.5190000534
 648.10003662  -999.250000 17.500000000 142.25599670 1.6649999619 1.5099999905
 648.20001221  -999.250000 17.500000000 144.66499329 1.6510000229 1.5010000467
 648.30004883  -999.250000 17.500000000 147.33000183 1.6429957151 1.4689841270
 648.39996338  -999.250000 17.500000000 148.75500488 1.6360000372 1.4429999590
 648.50000000  -999.250000 17.500000000 147.56799316 1.6310000420 1.4010000229
 648.59997559  -999.250000 17.500000000 143.98300171 1.6339999437 1.3969999552
 648.70001221  -999.250000 17.500000000 138.17399597 1.5950000286 1.3830000162
 648.80004883  -999.250000 17.500000000 129.89999390 1.5850000381 1.4019999504
 648.90002441  -999.250000 17.500000000 122.09899902 1.6060194969 1.4369963408
 649.00000000  -999.250000 17.500000000 121.90299988 1.6380000114 1.4309999943
 649.09997559  -999.250000 17.500000000 128.69500732 1.6180000305 1.4259999990
 649.20001221  -999.250000 17.500000000 135.58399963 1.5970000029 1.4309999943
 649.29998779  -999.250000 17.500000000 142.10099792 1.5939999819 1.4290000200
 649.40002441  -999.250000 17.500000000 148.46600342 1.6160000563 1.4140000343
 649.50006104  -999.250000 17.500000000 152.91999817 1.6349719763 1.4189841747
 649.59997559  -999.250000 17.500000000 153.56399536 1.6119999886 1.4060000181
 649.70001221  -999.250000 17.500000000 149.77299500 1.6109999418 1.4349999428
 649.79998779  -999.250000 17.500000000 143.94900513 1.5920000076 1.4170000553
 649.90002441  -999.250000 17.500000000 136.84800720 1.6299999952 1.3980000019
 650.00000000  -999.250000 17.500000000 128.52400208 1.6579896212 1.4610011578
 650.09997559  -999.250000 17.500000000 121.50228882 1.6410000324 1.4630000591
 650.19995117  -999.250000 17.500000000 119.98799896 1.6109999418 1.4670000076
 650.29998779  -999.250000 17.500000000 126.82700348 1.6019999981 1.4379999638
 650.40002441  -999.250000 17.500000000 133.40800476 1.5900000334 1.4559999704
 650.50000000  -999.250000 17.500000000 134.18400574 1.5900000334 1.5049999952
 650.60003662  -999.250000 17.500000000 132.10099792 1.6340023279 1.4670518637
 650.69995117  -999.250000 17.500000000 130.38804626 1.6380000114 1.5520000458
 650.79998779  -999.250000 17.500000000 131.20300293 1.6799999475 1.5930000544
 650.89996338  -999.250000 17.500000000 135.05999756 1.6870000362 1.4379999638
 651.00000000  -999.250000 17.500000000 138.54200745 1.6799999475 1.3860000372
 651.10003662  -999.250000 17.500000000 138.64500427 1.5829999447 1.3930000067
 651.20001221  -999.250000 17.500000000 137.27600098 1.5830109119 1.4759731293
 651.29998779  -999.250000 17.500000000 136.44450378 1.6009999514 1.4320000410
 651.39996338  -999.250000 17.500000000 137.25500488 1.6130000353 1.4579999447
 651.50000000  -999.250000 17.500000000 137.92900085 1.5839999914 1.4210000038
 651.59997559  -999.250000 17.500000000 139.22700500 1.6050000191 1.4479999542
 651.70001221  -999.250000 17.500000000 142.62899780 1.5740000010 1.4689999819
 651.80004883  -999.250000 17.500000000 145.34599304 1.5479694605 1.4730098248
 651.89996338  -999.250000 17.500000000 145.80172729 1.5230000019 1.4809999466
 652.00000000  -999.250000 17.500000000 144.01699829 1.4960000515 1.4500000477
 652.09997559  -999.250000 17.500000000 141.79299927 1.4910000563 1.4170000553
 652.20001221  -999.250000 17.500000000 141.51300049 1.4390000105 1.3500000238
 652.30004883  -999.250000 17.500000000 142.05700684 1.4270000458 1.3159999847
 652.40002441  -999.250000 17.500000000 141.25799561 1.3920298815 1.2470079660
 652.50000000  -999.250000 17.500000000 139.60899353 1.4409999847 1.2599999905
 652.59997559  -999.250000 17.500000000 138.42300415 1.5520000458 1.3739999533
 652.70001221  -999.250000 17.500000000 138.35000610 1.5839999914 1.4090000391
 652.79998779  -999.250000 17.500000000 139.33799744 1.6440000534 1.4010000229
 652.90002441  -999.250000 17.500000000 139.54400635 1.5889999866 1.2999999523
 653.00006104  -999.250000 17.500000000 137.58200073 1.5450267792 1.5121684074
 653.09997559  -999.250000 17.500000000 135.09599304 1.5670000315 1.6499999762
