# LAS format log file from PETREL
# Project units are specified as depth units
#==================================================================
~Version information
VERS.   2.0:
WRAP.   NO:
#==================================================================
~Well
STRT .m      3164.4333496 :
STOP .m      4228.6425781 :
STEP .m     0.00000000 :
NULL .        -999.250000 :
COMP.           : COMPANY
WELL.  15/9-19B   : WELL
FLD.            : FIELD
LOC.            : LOCATION
SRVC.           : SERVICE COMPANY
DATE.  2018-09-11 14:48:02   : Log Export Date {yyyy-MM-dd HH:mm:ss}
PROV.           : PROVINCE
UWI.   15/9-19 B   : UNIQUE WELL ID
API.            : API NUMBER
#==================================================================
~Curve
DEPT .m                   : DEPTH
Lithology_geolink ._      : Lithology_geolink
CALI .in                  : CALI
RHOB .g/cm3               : RHOB
GR .gAPI                  : GR
DTC .us/ft                : DTC
RDEP .ohm.m               : RDEP
RSHA .ohm.m               : RSHA
RMED .ohm.m               : RMED
~Parameter
#==================================================================
~Ascii
# ...
 3796.5886230 7.0000000000 6.2779998779 2.3510999680 146.03839111 119.87564087 4.1735582352 2.7918732166 3.1182639599
 3796.7409668 7.0000000000 6.2884001732 2.3510000706 146.78002930 119.96052551 3.7110736370 2.4011397362 2.7217259407
 3796.8935547 7.0000000000 6.2645001411 2.3503999710 146.60620117 120.22644806 3.5080089569 2.2392461300 2.5512938499
 3797.0458984 7.0000000000 6.2476000786 2.3429000378 147.16467285 120.55377197 3.5738048553 2.3164341450 2.6122682095
 3797.1982422 7.0000000000 6.2576003075 2.3208999634 147.13993835 120.84721375 4.0141158104 2.6501388550 2.9673442841
 3797.3505859 6.0000000000 6.2855000496 2.3013000488 145.48956299 120.97897339 4.7726588249 3.2981696129 3.6189990044
 3797.5031738 6.0000000000 6.2950997353 2.3043000698 146.20889282 121.02722168 5.4946484566 3.8396258354 4.3039407730
 3797.6555176 6.0000000000 6.2902998924 2.3194999695 144.36538696 120.94483948 5.5408630371 3.7541201115 4.3478865623
 3797.8078613 6.0000000000 6.2915000916 2.3204998970 140.43887329 120.72099304 5.5803990364 3.7047629356 4.4021987915
 3797.9602051 6.0000000000 6.2705998421 2.3071999550 143.41535950 120.27973938 5.7667880058 3.9309747219 4.5884709358
 3798.1125488 6.0000000000 6.2500000000 2.3317000866 145.00262451 119.86045074 5.8206291199 4.0392160416 4.6316566467
 3798.2651367 6.0000000000 6.2547001839 2.3501000404 140.51776123 119.45472717 5.1473779678 3.6700284481 3.9761505127
 3798.4174805 6.0000000000 6.2678999901 2.3503000736 135.96073914 119.24438477 3.2404701710 1.9968743324 2.2787261009
 3798.5698242 6.0000000000 6.2913999557 2.3513998985 135.92582703 119.23575592 3.3476674557 2.0441365242 2.3582487106
 3798.7221680 6.0000000000 6.2940001488 2.3310999870 138.87930298 119.32614899 4.0773277283 2.6291649342 2.9511005878
 3798.8747559 6.0000000000 6.2670998573 2.3131999969 140.24971008 119.29110718 5.4670014381 3.6051123142 4.1368017197
 3799.0270996 6.0000000000 6.2519001961 2.3239998817 140.31332397 119.26224518 5.9969372749 3.8893795013 4.6358604431
 3799.1794434 6.0000000000 6.2562999725 2.3438999653 139.57536316 118.98239136 6.0190601349 3.9381320477 4.6725511551
 3799.3317871 6.0000000000 6.2838001251 2.3606998920 137.36926270 118.29312134 5.3079261780 3.4588494301 4.0178446770
 3799.4843750 6.0000000000 6.2972002029 2.3763000965 137.22088623 117.42935944 4.5739517212 2.9267973900 3.3582038879
 3799.6367188 6.0000000000 6.2822999954 2.3814001083 137.49639893 116.88600159 3.7494988441 2.2723774910 2.6433548927
 3799.7890625 6.0000000000 6.2607998848 2.3415999413 138.54783630 116.64441681 4.0607724190 2.6326839924 2.9271886349
 3799.9414063 6.0000000000 6.2515001297 2.3199999332 135.26150513 116.77863312 4.4170608521 2.9962606430 3.2314045429
 3800.0937500 6.0000000000 6.2547998428 2.3327999115 130.39868164 117.42411804 4.2678942680 2.8470773697 3.1095030308
 3800.2463379 6.0000000000 6.2545003891 2.3373000622 129.15115356 118.81166077 4.2020039558 2.7707467079 3.0490970612
 3800.3986816 6.0000000000 6.2581000328 2.3294999599 131.17221069 119.98375702 4.2345547676 2.7853124142 3.0482807159
 3800.5510254 7.0000000000 6.2694001198 2.3183000088 137.60501099 120.76743317 4.3316183090 2.7932307720 3.0989277363
 3800.7033691 7.0000000000 6.2505998611 2.3031001091 143.28491211 121.16566467 4.5936031342 2.9381031990 3.3044538498
 3800.8559570 7.0000000000 6.2317004204 2.2990999222 146.34596252 121.45049286 5.4709835052 3.6277763844 4.0887489319
 3801.0083008 7.0000000000 6.2361001968 2.2978000641 147.52082825 121.57025909 6.4663448334 4.3704342842 5.0726184845
 3801.1606445 7.0000000000 6.2511000633 2.2888998985 148.16000366 121.41618347 8.7998046875 5.8873906136 6.9535102844
 3801.3129883 7.0000000000 6.2555999756 2.2899000645 147.40873718 120.96369171 9.2374734879 6.0673251152 7.2702760696
 3801.4655762 6.0000000000 6.2487998009 2.2799000740 144.12696838 120.26888275 8.2801551819 5.5184226036 6.5649075508
 3801.6179199 6.0000000000 6.2486996651 2.2639000416 142.99493408 119.67175293 6.3337898254 4.3409833908 4.9775428772
 3801.7702637 6.0000000000 6.2455000877 2.2690000534 143.13691711 119.07943726 5.6406145096 3.8308539391 4.3175415993
 3801.9226074 6.0000000000 6.2410998344 2.3071000576 139.96891785 118.60490417 4.7144885063 3.1162383556 3.4706065655
 3802.0749512 6.0000000000 6.2521996498 2.3278000355 137.61050415 118.17243958 4.2087001801 2.7660410404 3.0384380817
 3802.2275391 6.0000000000 6.2677998543 2.3315000534 136.55590820 118.50948334 4.0221471786 2.6052021980 2.8756852150
 3802.3798828 6.0000000000 6.2866997719 2.3408999443 137.87471008 118.97213745 4.1617150307 2.7617940903 3.0270612240
 3802.5322266 7.0000000000 6.2906999588 2.3297998905 142.80792236 119.36906433 4.3581018448 2.8827576637 3.1899347305
 3802.6845703 7.0000000000 6.2704000473 2.3101000786 147.93666077 119.28469086 4.4221181870 2.9190173149 3.2742087841
 3802.8371582 7.0000000000 6.2555999756 2.3096001148 151.90457153 118.96242523 4.7452893257 3.1168863773 3.5292887688
 3802.9895020 7.0000000000 6.2662000656 2.3217000961 152.48847961 118.22334290 4.8663039207 3.1748533249 3.6190462112
 3803.1418457 7.0000000000 6.2863998413 2.3362998962 152.47915649 117.49995422 4.7442374229 3.0835239887 3.5231628418
 3803.2941895 7.0000000000 6.2906999588 2.3575000763 152.20542908 116.03730774 4.7051191330 3.0986330509 3.4999423027
 3803.4467773 7.0000000000 6.2937002182 2.3785998821 151.22550964 114.60555267 4.6526784897 3.1176214218 3.4623463154
 3803.5991211 7.0000000000 6.3000001907 2.3828999996 150.28811646 113.90492249 4.0226926804 2.5945730209 2.9469838142
 3803.7514648 6.0000000000 6.2911000252 2.3735001087 146.92547607 113.91836548 3.8319308758 2.4537148476 2.8126285076
 3803.9038086 6.0000000000 6.2712001801 2.3738000393 142.05117798 114.26776886 4.1007361412 2.7747139931 3.0798051357
 3804.0561523 6.0000000000 6.2749996185 2.3808000088 140.66133118 114.18492889 4.3100066185 2.9701275826 3.2698233128
 3804.2087402 6.0000000000 6.2890000343 2.3912000656 139.30455017 113.95384216 4.1876921654 2.8613824844 3.1585161686
 3804.3610840 6.0000000000 6.2960000038 2.3928000927 138.60446167 114.15512085 3.6865766048 2.4507632256 2.7583436966
 3804.5134277 6.0000000000 6.2838001251 2.3824999332 137.70841980 114.48019409 3.4848084450 2.3029899597 2.5983834267
 3804.6657715 6.0000000000 6.2588000298 2.3722000122 133.78900146 114.28690338 3.3033230305 2.1724231243 2.4637260437
 3804.8183594 6.0000000000 6.2458000183 2.3766999245 134.05262756 113.35448456 3.4426739216 2.3119482994 2.6049630642
 3804.9707031 6.0000000000 6.2460002899 2.3949999809 138.67694092 112.60016632 3.5904121399 2.4517278671 2.7493126392
 3805.1230469 6.0000000000 6.2642998695 2.4059000015 140.50199890 111.83150482 3.6600055695 2.5312364101 2.8192324638
 3805.2753906 6.0000000000 6.3042001724 2.4184999466 137.38389587 111.46263123 3.5384109020 2.4290833473 2.7144796848
 3805.4279785 6.0000000000 6.3257999420 2.4223001003 135.51229858 111.10787964 3.2945830822 2.2308208942 2.5139164925
 3805.5803223 6.0000000000 6.3168997765 2.4131000042 136.26245117 111.25874329 2.8532087803 1.8947175741 2.1764199734
 3805.7326660 6.0000000000 6.2870001793 2.4093999863 137.60133362 111.72119141 2.8592534065 1.9060295820 2.1893544197
 3805.8850098 6.0000000000 6.2568006516 2.4102001190 138.49446106 111.84095001 3.2041528225 2.1738026142 2.4725160599
 3806.0373535 6.0000000000 6.2663998604 2.4126000404 137.65452576 111.74674988 3.2992086411 2.2375528812 2.5446393490
 3806.1899414 6.0000000000 6.3014998436 2.4156999588 135.54870605 111.52834320 3.1794533730 2.1455502510 2.4442141056
 3806.3422852 6.0000000000 6.2985000610 2.4163000584 133.49821472 111.99085999 3.0256495476 2.0521657467 2.3281295300
 3806.4946289 6.0000000000 6.2663002014 2.4140999317 132.70135498 112.46737671 2.8694391251 1.9684337378 2.2218172550
 3806.6469727 6.0000000000 6.2516999245 2.4094998837 132.11029053 112.88916779 2.7068684101 1.8647608757 2.1079611778
 3806.7995605 6.0000000000 6.2483005524 2.4038999081 130.84844971 113.11793518 2.6874067783 1.8403564692 2.0836949348
