# LAS format log file from PETREL
# Project units are specified as depth units
#==================================================================
~Version information
VERS.   2.0:
WRAP.   NO:
#==================================================================
~Well
STRT .m      474.34408569 :
STOP .m      3047.1606445 :
STEP .m     0.00000000 :
NULL .        -999.250000 :
COMP.           : COMPANY
WELL.  15/9-9   : WELL
FLD.            : FIELD
LOC.            : LOCATION
SRVC.           : SERVICE COMPANY
DATE.  2018-09-11 14:48:05   : Log Export Date {yyyy-MM-dd HH:mm:ss}
PROV.           : PROVINCE
UWI.   15/9-9   : UNIQUE WELL ID
API.            : API NUMBER
#==================================================================
~Curve
DEPT .m                   : DEPTH
Lithology_geolink ._      : Lithology_geolink
DCAL .in                  : DCAL
CALI .in                  : CALI
DRHO .g/cm3               : DRHO
NPHI .m3/m3               : NPHI
RHOB .g/cm3               : RHOB
GR .gAPI                  : GR
DTC .us/ft                : DTC
DT .us/ft                 : DT
DTE .us/ft                : DTE
RDEP .ohm.m               : RDEP
SP .mV                    : SP
RSHA .ohm.m               : RSHA
RXO .ohm.m                : RXO
RMED .ohm.m               : RMED
~Parameter
#==================================================================
~Ascii
# ...
 1502.5869141  -999.250000 15.543000221 15.543000221 0.0010000000 0.4616180360 2.0150327682 49.912719727 148.50128174 156.42616272 155.81076050 0.8510120511 121.73381805 0.8659999967  -999.250000 0.8659999967
 1502.7393799  -999.250000 16.084999084 16.084999084 0.0000008006 0.4545764923 2.0172476768 45.015865326 148.77421570 156.32841492 156.18734741 0.8500040174 121.55471802 0.8630119562  -999.250000 0.8630119562
 1502.8917236  -999.250000 16.301000595 16.301000595 -0.000999199 0.4698309302 2.0204463005 47.104949951 148.49334717 155.41169739 155.85504150 0.8490039706 122.20339203 0.8689759970  -999.250000 0.8689759970
 1503.0441895  -999.250000 16.483999252 16.483999252 0.0019975982 0.5302146077 2.0215215683 42.550319672 148.06999207 155.12191772 155.32502747 0.8509935737 122.00863647 0.8510577083  -999.250000 0.8510577083
 1503.1965332  -999.250000 16.040000916 16.040000916 0.0010008013 0.5266519189 2.0195701122 45.045982361 147.87442017 154.78436279 155.10787964 0.8480119705 121.98509216 0.8639479876  -999.250000 0.8639479876
 1503.3488770  -999.250000 15.631000519 15.631000519 0.0059919935 0.4936062098 2.0179738998 45.699436188 147.98226929 155.98516846 155.36317444 0.8450120687 121.26091766 0.8649960160  -999.250000 0.8649960160
 1503.5013428  -999.250000 15.875999451 15.875999451 0.0040016025 0.4591802955 2.0162975788 54.228313446 148.32846069 155.51292419 155.69062805 0.8420119882 121.85758972 0.8819319606  -999.250000 0.8819319606
 1503.6536865  -999.250000 16.315000534 16.315000534 0.0000064051 0.4513448179 2.0100808144 58.889808655 148.48193359 156.08369446 155.75511169 0.8360240459 121.01539612 0.8770200014  -999.250000 0.8770200014
 1503.8061523  -999.250000 16.503999710 16.503999710 -0.003996795 0.4880918562 1.9959598780 58.286983490 148.35128784 155.23342896 155.77917480 0.8270360231 120.63551331 0.8700280190  -999.250000 0.8700280190
 1503.9584961  -999.250000 15.989999771 15.989999771 -0.011987190 0.5221508741 1.9749702215 54.359451294 148.78245544 156.91024780 156.18585205 0.8200280666 120.46467590 0.8660160303  -999.250000 0.8660160303
 1504.1109619  -999.250000 15.864999771 15.864999771 -0.019993590 0.5226390958 1.9539217949 48.480422974 149.84396362 157.27955627 157.20451355 0.8120319843 119.69210815 0.8570359945  -999.250000 0.8570359945
 1504.2633057  -999.250000 16.277000427 16.277000427 -0.030991185 0.5260091424 1.9393807650 49.334922791 151.41311646 159.98313904 158.84266663 0.8080160618 119.79257965 0.8470400572  -999.250000 0.8470400572
 1504.4157715  -999.250000 16.049999237 16.049999237 -0.030999999 0.4954237342 1.9298287630 50.453208923 153.38606262 162.52581787 160.96495056 0.8070039749 118.94938660 0.8360440731  -999.250000 0.8360440731
 1504.5681152  -999.250000 15.251999855 15.251999855 -0.032998398 0.5052781105 1.9155904055 50.540794373 154.54043579 162.48121643 162.17732239 0.8109839559 118.89420319 0.8340079784  -999.250000 0.8340079784
 1504.7205811  -999.250000 15.145000458 15.145000458 -0.041992795 0.4956532717 1.8914982080 49.286014557 154.24073792 161.78381348 161.86079407 0.8169759512 119.05435944 0.8369880319  -999.250000 0.8369880319
 1504.8729248  -999.250000 15.286998749 15.286998749 -0.053990386 0.4865192473 1.8715711832 48.464973450 152.96083069 159.07586670 160.56632996 0.8169999719 118.62373352 0.8509439230  -999.250000 0.8509439230
 1505.0253906  -999.250000 14.894000053 14.894000053 -0.052001603 0.5013940930 1.8774638176 52.893890381 152.31765747 159.57835388 159.89151001 0.8179967999 119.30081940 0.8549872041  -999.250000 0.8549872041
 1505.1777344  -999.250000 14.649001122 14.649001122 -0.028019231 0.4988881648 1.9106682539 56.096870422 153.66601563 162.43951416 161.21345520 0.8239759803 119.47630310 0.8559960127  -999.250000 0.8559960127
 1505.3302002  -999.250000 15.194998741 15.194998741 -0.011013611 0.4925352633 1.9479817152 54.691261292 156.09515381 165.07168579 163.77020264 0.8339759111 120.56338501 0.8420336843  -999.250000 0.8420336843
 1505.4825439  -999.250000 15.428999901 15.428999901 -0.007003205 0.4777773321 1.9677474499 52.495521545 158.33898926 168.12022400 166.20193481 0.8429711461 121.08632660 0.8420000076  -999.250000 0.8420000076
 1505.6348877  -999.250000 15.514999390 15.514999390 -0.011991994 0.4619905949 1.9730653763 49.980045319 159.21000671 167.03750610 167.15785217 0.8489807248 121.20960999 0.8390095830  -999.250000 0.8390095830
 1505.7873535  -999.250000 15.371998787 15.371998787 -0.011000801 0.4643322825 1.9830138683 49.457828522 158.43334961 165.86575317 166.25326538 0.8499968052 122.27956390 0.8499647975  -999.250000 0.8499647975
 1505.9396973  -999.250000 14.637999535 14.637999535 -0.007006405 0.4713275135 2.0118644238 49.030025482 156.51721191 162.82575989 164.27299500 0.8519935608 122.18431854 0.8619615436  -999.250000 0.8619615436
 1506.0921631  -999.250000 14.390001297 14.390001297 0.0099863783 0.4786524177 2.0542228222 50.233066559 154.33767700 160.81382751 162.07307434 0.8579855561 122.95015717 0.8679855466  -999.250000 0.8679855466
 1506.2445068  -999.250000 14.310000420 14.310000420 0.0229791831 0.5086038113 2.0805854797 53.138011932 153.24993896 160.19596863 160.86874390 0.8629839420 122.74266815 0.8859423399  -999.250000 0.8859423399
 1506.3969727  -999.250000 13.369999886 13.369999886 0.0090112174 0.5014774203 2.0648722649 53.787967682 153.49697876 161.72930908 161.08181763 0.8709807396 122.26614380 0.9029591084  -999.250000 0.9029591084
 1506.5493164  -999.250000 13.074998856 13.074998856 -0.008985576 0.5168305635 2.0189712048 53.053768158 154.33102417 162.37594604 162.03129578 0.8719967604 122.61986542 0.9309103489  -999.250000 0.9309103489
 1506.7017822  -999.250000 13.463999748 13.463999748 -0.019991193 0.4942844510 1.9769124985 49.415836334 155.11203003 163.70979309 162.80889893 0.8660144210 121.52763367 0.9240168333  -999.250000 0.9240168333
 1506.8541260  -999.250000 12.972998619 12.972998619 -0.016003206 0.4745133519 1.9566202164 53.466236115 155.07220459 162.15499878 162.73796082 0.8640064001 122.31745148 0.8871185184  -999.250000 0.8871185184
 1507.0065918  -999.250000 13.788999557 13.788999557 -0.015000801 0.4716966450 1.9534856081 57.768112183 154.22863770 161.48660278 161.88644409 0.8560192585 121.16677856 0.8451009989  -999.250000 0.8451009989
 1507.1589355  -999.250000 15.053999901 15.053999901 -0.014000801 0.4985237718 1.9574211836 61.493045807 153.61956787 160.56396484 161.13179016 0.8470288515 120.86396027 0.8440032005  -999.250000 0.8440032005
 1507.3114014  -999.250000 15.045000076 15.045000076 -0.012001601 0.5537571311 1.9642189741 57.079097748 153.46562195 160.88821411 161.04655457 0.8420120478 120.37617493 0.8559711576  -999.250000 0.8559711576
 1507.4637451  -999.250000 15.206999779 15.206999779 -0.007004007 0.5397055745 1.9731644392 50.235969543 154.13716125 163.10487366 161.83668518 0.8330288529 119.89254761 0.8739423752  -999.250000 0.8739423752
 1507.6160889  -999.250000 15.532000542 15.532000542 0.0019855886 0.4851751924 1.9811855555 45.988201141 154.57522583 162.01155090 162.20475769 0.8240288496 119.57202148 0.8779872060  -999.250000 0.8779872060
 1507.7685547  -999.250000 15.019000053 15.019000053 0.0000016026 0.4518166184 1.9813048840 48.687652588 153.71885681 160.69621277 161.27919006 0.8180192113 118.74365234 0.8829839826  -999.250000 0.8829839826
 1507.9208984  -999.250000 14.583000183 14.583000183 -0.005990393 0.4825109839 1.9719250202 48.164268494 152.24560547 158.83496094 159.79464722 0.8140128255 119.06396484 0.8790128231  -999.250000 0.8790128231
 1508.0733643  -999.250000 14.479999542 14.479999542 -0.011995193 0.4989774227 1.9595526457 49.758441925 150.90031433 157.73252869 158.36578369 0.8080192208 118.94738007 0.8610576391  -999.250000 0.8610576391
 1508.2257080  -999.250000 14.347000122 14.347000122 -0.017990392 0.5270000696 1.9466018677 53.265560150 150.00048828 156.65644836 157.35459900 0.7980320454 119.50819397 0.8510320783  -999.250000 0.8510320783
 1508.3781738  -999.250000 14.652000427 14.652000427 -0.025993591 0.5438994765 1.9253457785 59.632793427 149.59724426 157.07398987 156.98713684 0.7940096259 120.19834137 0.8360360861  -999.250000 0.8360360861
