# LAS format log file from PETREL
# Project units are specified as depth units
#==================================================================
~Version information
VERS.   2.0:
WRAP.   NO:
#==================================================================
~Well
STRT .m      3164.4333496 :
STOP .m      4228.6425781 :
STEP .m     0.00000000 :
NULL .        -999.250000 :
COMP.           : COMPANY
WELL.  15/9-19B   : WELL
FLD.            : FIELD
LOC.            : LOCATION
SRVC.           : SERVICE COMPANY
DATE.  2018-09-11 14:48:02   : Log Export Date {yyyy-MM-dd HH:mm:ss}
PROV.           : PROVINCE
UWI.   15/9-19 B   : UNIQUE WELL ID
API.            : API NUMBER
#==================================================================
~Curve
DEPT .m                   : DEPTH
Lithology_geolink ._      : Lithology_geolink
CALI .in                  : CALI
RHOB .g/cm3               : RHOB
GR .gAPI                  : GR
DTC .us/ft                : DTC
RDEP .ohm.m               : RDEP
RSHA .ohm.m               : RSHA
RMED .ohm.m               : RMED
~Parameter
#==================================================================
~Ascii
# ...
 3589.3244629 11.000000000 6.6293997765 2.4876000881 18.007957458 74.711029053 2.2983832359 2.0950775146 2.1283674240
 3589.4770508 11.000000000 6.6545000076 2.4893000126 17.296052933 74.223281860 2.3498444557 2.1430649757 2.1700716019
 3589.6293945 11.000000000 6.6751003265 2.4943997860 17.217512131 73.530273438 2.2391939163 2.0387892723 2.0678853989
 3589.7817383 11.000000000 6.6925997734 2.5116999149 16.538698196 72.827316284 2.2977578640 2.0943741798 2.1211595535
 3589.9340820 11.000000000 6.7126998901 2.5213000774 15.351854324 72.339767456 2.3334701061 2.1401994228 2.1579253674
 3590.0864258 11.000000000 6.7040996552 2.5111999512 13.826914787 72.199096680 2.0656704903 1.8906766176 1.9246699810
 3590.2390137 11.000000000 6.6819000244 2.4983000755 12.902569771 72.386184692 2.1106548309 1.9393767118 1.9692088366
 3590.3913574 11.000000000 6.6721000671 2.4948000908 13.204887390 72.601181030 2.4392764568 2.2436757088 2.2523608208
 3590.5437012 11.000000000 6.6774997711 2.4942998886 13.260843277 72.776954651 2.4863526821 2.2903087139 2.2896473408
 3590.6960449 11.000000000 6.6686000824 2.4918000698 14.162053108 72.749374390 2.0828783512 1.9218090773 1.9452189207
 3590.8486328 11.000000000 6.6547999382 2.4893000126 15.503138542 72.545143127 1.9452840090 1.8033149242 1.8329071999
 3591.0009766 11.000000000 6.6483998299 2.4904999733 15.421035767 72.465278625 2.1272261143 1.9636986256 1.9909070730
 3591.1533203 11.000000000 6.6392998695 2.4846999645 15.076719284 72.511207581 2.1435637474 1.9628385305 1.9953448772
 3591.3056641 11.000000000 6.6508998871 2.4716000557 19.708885193 72.577423096 2.1833817959 1.9869568348 2.0234549046
 3591.4582520 11.000000000 6.6687998772 2.4679999352 25.751655579 72.654823303 2.2966709137 2.0846383572 2.1199636459
 3591.6105957 11.000000000 6.6624999046 2.4697999954 28.408575058 72.443984985 2.2876026630 2.0654036999 2.1086971760
 3591.7629395 11.000000000 6.6421999931 2.4561998844 23.085573196 72.311721802 2.2893593311 2.0678732395 2.1069507599
 3591.9152832 11.000000000 6.6333999634 2.4690999985 16.150140762 72.142471313 2.3262355328 2.1132464409 2.1384544373
 3592.0676270 11.000000000 6.6364006996 2.4865999222 14.056331635 72.376258850 2.2234675884 2.0174081326 2.0475130081
 3592.2202148 11.000000000 6.6335000992 2.4646999836 13.514564514 72.846900940 2.0788278580 1.8978877068 1.9311168194
 3592.3725586 11.000000000 6.6263995171 2.4690001011 13.318799019 73.595390320 2.1189348698 1.9254639149 1.9677753448
 3592.5249023 11.000000000 6.6261000633 2.4962999821 14.564764977 73.960540771 2.3278975487 2.0900731087 2.1394705772
 3592.6772461 11.000000000 6.6307001114 2.5104999542 15.103901863 73.859916687 2.4510123730 2.1977920532 2.2456204891
 3592.8298340 11.000000000 6.6319999695 2.5106000900 15.230841637 73.560150146 2.3958117962 2.1300003529 2.1957259178
 3592.9821777 11.000000000 6.6437001228 2.5021998882 15.520744324 73.232452393 2.2125012875 1.9742354155 2.0480356216
 3593.1345215 11.000000000 6.6524000168 2.4951999187 13.426400185 72.953277588 2.1511309147 1.9341425896 2.0081272125
 3593.2868652 11.000000000 6.6479001045 2.5000998974 11.058167458 72.691543579 2.2326900959 2.0230331421 2.0873999596
 3593.4394531 11.000000000 6.6596999168 2.5097999573 10.418827057 72.529312134 2.2265343666 2.0437941551 2.0874156952
 3593.5917969 11.000000000 6.6754994392 2.5016999245 11.644589424 72.501663208 2.2373738289 2.0733001232 2.0924556255
 3593.7441406 11.000000000 6.6666002274 2.4935998917 13.072379112 72.352371216 2.3457167149 2.1978845596 2.1894011497
 3593.8964844 11.000000000 6.6258001328 2.4885001183 13.682312012 72.269439697 2.3559432030 2.1881370544 2.1900405884
 3594.0488281 11.000000000 6.5940999985 2.4830999374 13.564600945 71.984947205 2.2584338188 2.0869138241 2.0908937454
 3594.2014160 11.000000000 6.5878000259 2.4820001125 13.065358162 71.575149536 2.4054512978 2.2213046551 2.2126531601
 3594.3537598 11.000000000 6.5959000587 2.4993999004 12.677773476 71.092498779 2.7953150272 2.5967044830 2.5407817364
 3594.5061035 11.000000000 6.6026000977 2.5111000538 12.227045059 70.906379700 2.8665885925 2.6613926888 2.5915279388
 3594.6584473 11.000000000 6.5978999138 2.5204000473 13.379157066 71.018486023 2.6721215248 2.4694347382 2.4215984344
 3594.8110352 11.000000000 6.6217999458 2.5327999592 14.975386620 71.260833740 2.3733959198 2.1790997982 2.1710073948
 3594.9633789 11.000000000 6.6444997787 2.5157999992 16.092899323 71.520927429 2.1853268147 1.9923143387 2.0177268982
 3595.1157227 11.000000000 6.6438999176 2.4965999126 16.150392532 71.603935242 2.2644128799 2.0636470318 2.0968174934
 3595.2680664 11.000000000 6.6444001198 2.4721999168 13.401198387 71.566078186 2.3341832161 2.1548850536 2.1696493626
 3595.4206543 11.000000000 6.6205000877 2.4583001137 11.530693054 71.366310120 2.0744168758 1.8963682652 1.9511631727
 3595.5729980 11.000000000 6.5998001099 2.4602999687 11.372939110 71.057548523 2.0486364365 1.8866174221 1.9398149252
 3595.7253418 11.000000000 6.6012992859 2.4653000832 11.585832596 70.837753296 2.1335239410 1.9597237110 2.0113155842
 3595.8776855 11.000000000 6.6038999557 2.4999001026 12.292623520 70.745323181 2.0862176418 1.9122959375 1.9587838650
 3596.0300293 11.000000000 6.6013998985 2.5095000267 12.742747307 70.882812500 2.1598987579 1.9725947380 2.0115439892
 3596.1826172 11.000000000 6.6006999016 2.5120999813 12.210556030 71.078590393 2.4713449478 2.2815654278 2.2886893749
 3596.3349609 11.000000000 6.6195998192 2.5357999802 12.122514725 71.385215759 2.6239860058 2.4469909668 2.4066467285
 3596.4873047 11.000000000 6.6258001328 2.5583999157 13.070430756 71.769767761 2.6777253151 2.5039157867 2.4358999729
 3596.6396484 11.000000000 6.6276001930 2.5508000851 15.958390236 72.120559692 2.7553400993 2.5756635666 2.4977097511
 3596.7922363 11.000000000 6.6368999481 2.5241999626 17.759832382 72.343750000 2.4679856300 2.3029875755 2.2538959980
 3596.9445801 11.000000000 6.6457004547 2.5090999603 18.019140244 72.235237122 2.2147209644 2.0815274715 2.0349938869
 3597.0969238 11.000000000 6.6445994377 2.4956998825 18.294319153 72.075424194 2.4780182838 2.3487966061 2.2812190056
 3597.2492676 11.000000000 6.6346001625 2.4925000668 18.615001678 72.343635559 3.0494248867 2.9689254761 2.7907700539
 3597.4018555 11.000000000 6.6287999153 2.4869999886 17.298463821 72.677749634 2.6266453266 2.5464539528 2.3965346813
 3597.5541992 11.000000000 6.6262001991 2.4886999130 14.419354439 72.506111145 1.9561998844 1.8474576473 1.8161522150
 3597.7065430 11.000000000 6.6335000992 2.4795999527 12.958125114 72.015914917 2.3925952911 2.2575781345 2.2228381634
 3597.8588867 11.000000000 6.6232995987 2.4958000183 12.911118507 71.280464172 2.6385748386 2.4928598404 2.4331004620
 3598.0114746 11.000000000 6.6519002914 2.5090000629 12.982584953 70.945671082 2.4346418381 2.2798364162 2.2455844879
 3598.1638184 11.000000000 6.6838998795 2.5144000053 12.354454041 70.716239929 2.0421297550 1.9479516745 1.9287731647
 3598.3161621 11.000000000 6.7044000626 2.5143001080 12.142068863 70.616813660 1.6877877712 1.6072299480 1.6014878750
 3598.4685059 11.000000000 6.7149004936 2.4939000607 14.054925919 70.562736511 2.3040823936 2.1874203682 2.1553490162
 3598.6208496 11.000000000 6.7122998238 2.4876000881 14.566699028 70.647789001 2.8534429073 2.6982517242 2.6217863560
 3598.7734375 11.000000000 6.7136998177 2.5118999481 12.883334160 70.641044617 2.6302740574 2.4805793762 2.4256901741
 3598.9257813 11.000000000 6.7379999161 2.5223000050 12.645775795 70.563560486 2.4043352604 2.2563891411 2.2359280586
 3599.0781250 11.000000000 6.7637000084 2.5367000103 13.192189217 70.415657043 2.5510492325 2.4368169308 2.3782312870
 3599.2304688 11.000000000 6.7750000954 2.5374000072 13.871270180 70.263786316 2.6440427303 2.5721175671 2.4601352215
 3599.3830566 11.000000000 6.7561001778 2.5253000259 14.286789894 70.131736755 2.6710193157 2.6455767155 2.4823780060
 3599.5354004 11.000000000 6.7367000580 2.5197999477 13.534564972 70.299179077 2.7704102993 2.7316846848 2.5689313412
