# LAS format log file from PETREL
# Project units are specified as depth units
#==================================================================
~Version information
VERS.   2.0:
WRAP.   NO:
#==================================================================
~Well
STRT .m      3164.4333496 :
STOP .m      4228.6425781 :
STEP .m     0.00000000 :
NULL .        -999.250000 :
COMP.           : COMPANY
WELL.  15/9-19B   : WELL
FLD.            : FIELD
LOC.            : LOCATION
SRVC.           : SERVICE COMPANY
DATE.  2018-09-11 14:48:02   : Log Export Date {yyyy-MM-dd HH:mm:ss}
PROV.           : PROVINCE
UWI.   15/9-19 B   : UNIQUE WELL ID
API.            : API NUMBER
#==================================================================
~Curve
DEPT .m                   : DEPTH
Lithology_geolink ._      : Lithology_geolink
CALI .in                  : CALI
RHOB .g/cm3               : RHOB
GR .gAPI                  : GR
DTC .us/ft                : DTC
RDEP .ohm.m               : RDEP
RSHA .ohm.m               : RSHA
RMED .ohm.m               : RMED
~Parameter
#==================================================================
~Ascii
# ...
 4014.2155762 2.0000000000 6.2177000046 2.7969999313 27.086105347 69.527877808 5.8179955482 6.9516234398 6.0844802856
 4014.3681641 2.0000000000 6.2077999115 2.5320000648 28.522899628 73.576774597 5.7993373871 6.5755667686 6.3656282425
 4014.5205078 2.0000000000 6.2002000809 2.4138000011 28.399507523 77.714248657 0.8274088502 1.2707388401 0.7991115451
 4014.6728516 2.0000000000 6.2016000748 2.3857998848 29.279787064 79.485473633 1.0845296383 1.9222089052 1.1206660271
 4014.8251953 2.0000000000 6.2007994652 2.3526000977 31.203353882 79.404052734 2.5999820232 4.6107916832 2.9081833363
 4014.9777832 2.0000000000 6.1778001785 2.2948000431 31.358654022 78.190750122 3.7045352459 7.1501259804 4.1378664970
 4015.1301270 2.0000000000 6.1607999802 2.2325000763 30.473073959 77.147254944 1.9692423344 4.1015319824 2.2874796391
 4015.2824707 2.0000000000 6.1620001793 2.3048999310 30.892694473 76.803161621 0.8114480972 1.6907211542 0.9661046267
 4015.4348145 2.0000000000 6.1842999458 2.4832003117 30.826185226 77.093338013 0.5298064351 1.0806589127 0.6573678255
 4015.5874023 2.0000000000 6.2019004822 2.6015000343 30.069862366 78.057800293 0.4714900851 0.9304385185 0.5750243068
 4015.7397461 2.0000000000 6.1936001778 2.4988999367 30.152797699 79.494667053 0.4685118496 0.9113312364 0.5826820731
 4015.8920898 2.0000000000 6.1662001610 2.3598999977 30.837459564 81.657073975 0.5380941033 0.9306030869 0.6336888075
 4016.0444336 2.0000000000 6.1525998116 2.3278000355 30.937824249 83.133285522 0.4722253084 0.8081154227 0.5645365715
 4016.1967773 2.0000000000 6.1578993797 2.3203001022 30.954574585 83.931114197 0.5502268672 0.9421366453 0.6495139599
 4016.3493652 2.0000000000 6.1725993156 2.3315000534 32.001926422 84.121475220 0.5046355724 0.8402179480 0.5958371758
 4016.5017090 2.0000000000 6.1847000122 2.3445999622 33.764183044 83.484329224 0.5268477201 0.8514375091 0.6191145778
 4016.6540527 2.0000000000 6.1855998039 2.3324999809 34.002975464 82.686943054 0.5567201376 0.8748844862 0.6906056404
 4016.8063965 2.0000000000 6.1854000092 2.3343000412 34.549495697 81.647636414 0.6317296624 0.9275947213 0.7565584779
 4016.9589844 2.0000000000 6.2045998573 2.3506999016 35.792427063 80.226715088 0.7128756642 0.9868099093 0.8553975821
 4017.1113281 2.0000000000 6.2353000641 2.4149000645 35.517196655 78.202514648 0.8308713436 1.0538911819 0.8870051503
 4017.2636719 2.0000000000 6.2501997948 2.4609000683 33.206443787 75.589927673 1.4360848665 2.1073575020 1.6378903389
 4017.4160156 2.0000000000 6.2554001808 2.4523000717 31.674263000 72.739677429 1.4892435074 2.0191435814 1.6943261623
 4017.5686035 16.000000000 6.2458000183 2.4558000565 30.903404236 70.544059753 1.6411567926 2.3584702015 1.7729856968
 4017.7209473 16.000000000 6.2156000137 2.4909999371 31.031036377 70.316169739 1.6893479824 2.5659794807 1.7989492416
 4017.8732910 16.000000000 6.2023005486 2.5237998962 32.239456177 71.422027588 1.2834026814 1.8062064648 1.3313953876
 4018.0256348 2.0000000000 6.2045001984 2.5355000496 33.337394714 73.622352600 1.4710171223 2.1825742722 1.4522565603
 4018.1782227 2.0000000000 6.1974000931 2.4730000496 35.643825531 75.844764709 0.8574926257 1.2927200794 0.9256588817
 4018.3305664 2.0000000000 6.1922001839 2.3905999660 36.897869110 77.676116943 0.4813963175 0.8005703688 0.5701916814
 4018.4829102 2.0000000000 6.1953001022 2.3238999844 36.878196716 79.371574402 0.4790969491 0.7820695639 0.5649920106
 4018.6352539 2.0000000000 6.1940999031 2.3076000214 37.126106262 80.413757324 0.4773147404 0.7632886767 0.5601875186
 4018.7875977 2.0000000000 6.1898999214 2.3183000088 37.815666199 81.385986328 0.5489275455 0.8807216287 0.6771098971
 4018.9401855 2.0000000000 6.1932001114 2.3317999840 38.728038788 82.688583374 0.6296118498 0.8337336183 0.7469775677
 4019.0925293 4.0000000000 6.2031002045 2.3341000080 38.989330292 84.461708069 1.0067039728 1.4043382406 1.1756787300
 4019.2448730 4.0000000000 6.2048997879 2.3180000782 38.821762085 86.528099060 0.7599939108 1.0541887283 0.9131017923
 4019.3972168 4.0000000000 6.1964998245 2.3074998856 39.170375824 87.959571838 0.7560417056 0.9223884344 0.8517496586
 4019.5498047 4.0000000000 6.1732001305 2.2985999584 38.970649719 88.755897522 0.6570041776 0.7901670337 0.7575467229
 4019.7021484 4.0000000000 6.1595001221 2.3064000607 39.394199371 89.002548218 0.5336138010 0.6552548409 0.5851174593
 4019.8544922 4.0000000000 6.1645002365 2.3197000027 40.950298309 89.160552979 0.4798851013 0.6271259785 0.5336812139
 4020.0068359 4.0000000000 6.1886000633 2.3129999638 40.698429108 89.130027771 0.4705966413 0.6432926059 0.5220025778
 4020.1594238 4.0000000000 6.1954998970 2.2995998859 39.903785706 88.837295532 0.4685092568 0.6387940645 0.5236073136
 4020.3117676 4.0000000000 6.1757998466 2.3001999855 39.088569641 88.460937500 0.4714381397 0.6681656837 0.5259481072
 4020.4641113 4.0000000000 6.1581001282 2.3034999371 38.385772705 87.548171997 0.4952248335 0.7091179490 0.5559177399
 4020.6164551 2.0000000000 6.1589999199 2.3080000877 39.054241180 85.910812378 0.5106958151 0.7202873826 0.5670099258
 4020.7687988 2.0000000000 6.1722002029 2.3956999779 39.079715729 83.296600342 0.5082544684 0.7125958800 0.5734017491
 4020.9213867 2.0000000000 6.1989998817 2.6034998894 38.338672638 80.864112854 0.6048539281 0.8346502185 0.6994107366
 4021.0737305 2.0000000000 6.2136001587 2.6714999676 36.771007538 79.810089111 0.7159594297 0.8515107632 0.7970959544
 4021.2260742 2.0000000000 6.2102999687 2.5362999439 35.780105591 80.366180420 1.2508311272 1.6050525904 1.3546543121
 4021.3784180 2.0000000000 6.2100000381 2.3601000309 36.284549713 81.790229797 0.8957774043 1.1385656595 0.9517328739
 4021.5310059 2.0000000000 6.2100000381 2.3078000546 37.436611176 83.306335449 0.5078740716 0.6188191772 0.5361143947
 4021.6833496 2.0000000000 6.2166004181 2.3606998920 37.565471649 84.252807617 0.4997882843 0.6248126626 0.5406095982
 4021.8356934 2.0000000000 6.2442002296 2.4493000507 38.044303894 84.139259338 0.4924702048 0.6326873899 0.5465431213
 4021.9880371 2.0000000000 6.2632999420 2.4800000191 37.108627319 83.116790771 0.4739238620 0.6248601079 0.5111328363
 4022.1406250 2.0000000000 6.2702999115 2.4921000004 34.936340332 81.610527039 0.4888793528 0.6623911858 0.5317116976
 4022.2929688 2.0000000000 6.2754001617 2.6110000610 32.171665192 80.054832458 0.5136153698 0.6907927990 0.5665171742
 4022.4453125 2.0000000000 6.2889003754 2.7634000778 29.778591156 77.951972961 0.5233051181 0.6864584684 0.5774455070
 4022.5976563 2.0000000000 6.3021998405 2.7049002647 27.091302872 76.687873840 0.5898076892 0.7862737179 0.7312631607
 4022.7500000 2.0000000000 6.3098998070 2.6561999321 25.160440445 75.862060547 1.2183777094 1.4566468000 1.2698705196
 4022.9025879 2.0000000000 6.3140006065 2.7204000950 24.188671112 75.461883545 1.7018097639 2.3559377193 1.8109912872
 4023.0549316 2.0000000000 6.3130998611 2.6816000938 24.310428619 74.706794739 1.3610947132 1.7121818066 1.4334355593
 4023.2072754 2.0000000000 6.3028998375 2.6549000740 27.825952530 73.953926086 0.6724737287 0.8908495307 0.7702676058
 4023.3596191 2.0000000000 6.2913999557 2.6412000656 33.473361969 73.846504211 0.6562700272 0.8598002791 0.7503187656
 4023.5122070 2.0000000000 6.2929000854 2.6273000240 38.064403534 74.221855164 0.7627948523 1.1101747751 0.8872556686
 4023.6645508 2.0000000000 6.3097996712 2.6368000507 39.217967987 74.801094055 0.9483227134 1.4140601158 1.0917313099
 4023.8168945 2.0000000000 6.3208999634 2.6273999214 38.757350922 75.733093262 1.0868728161 1.5756322145 1.2354061604
 4023.9692383 2.0000000000 6.3171005249 2.5239999294 36.416481018 76.603050232 0.9449927807 1.2838435173 0.9896318913
 4024.1218262 2.0000000000 6.2996997833 2.4418001175 32.849502563 78.006156921 0.7527216077 1.0609254837 0.7596926093
 4024.2741699 2.0000000000 6.2961001396 2.4319999218 31.165742874 78.865097046 0.4792623222 0.7888780832 0.5707480907
 4024.4265137 2.0000000000 6.2977995872 2.4100999832 29.695709229 79.857856750 0.5806679130 1.0244871378 0.7255092859
