# LAS format log file from PETREL
# Project units are specified as depth units
#==================================================================
~Version information
VERS.   2.0:
WRAP.   NO:
#==================================================================
~Well
STRT .m      3164.4333496 :
STOP .m      4228.6425781 :
STEP .m     0.00000000 :
NULL .        -999.250000 :
COMP.           : COMPANY
WELL.  15/9-19B   : WELL
FLD.            : FIELD
LOC.            : LOCATION
SRVC.           : SERVICE COMPANY
DATE.  2018-09-11 14:48:02   : Log Export Date {yyyy-MM-dd HH:mm:ss}
PROV.           : PROVINCE
UWI.   15/9-19 B   : UNIQUE WELL ID
API.            : API NUMBER
#==================================================================
~Curve
DEPT .m                   : DEPTH
Lithology_geolink ._      : Lithology_geolink
CALI .in                  : CALI
RHOB .g/cm3               : RHOB
GR .gAPI                  : GR
DTC .us/ft                : DTC
RDEP .ohm.m               : RDEP
RSHA .ohm.m               : RSHA
RMED .ohm.m               : RMED
~Parameter
#==================================================================
~Ascii
# ...
 3309.5180664 1.0000000000 6.9298000336 2.1528999805 31.238180161 101.35040283 0.2991000116 0.2741000056 0.3070999980
 3309.6706543 1.0000000000 6.9088997841 2.1338000298 31.597999573 101.44979858 0.2990993857 0.2741000056 0.3070993721
 3309.8229980 1.0000000000 6.8920998573 2.1259999275 31.317020416 100.58190155 0.2989073694 0.2739000022 0.3069064021
 3309.9753418 1.0000000000 6.8874001503 2.1291999817 31.078996658 99.617996216 0.3035086393 0.2809999883 0.3109093010
 3310.1276855 1.0000000000 6.8927998543 2.1370000839 30.142114639 98.518203735 0.3088923097 0.2910000086 0.3166910410
 3310.2802734 1.0000000000 6.9074006081 2.1373999119 30.089023590 97.989898682 0.3041553795 0.2870999873 0.3111419380
 3310.4326172 1.0000000000 6.9236993790 2.1394000053 30.128114700 97.727790833 0.3213958144 0.3028999865 0.3242008090
 3310.5849609 1.0000000000 6.9327998161 2.1431999207 30.575477600 97.663101196 0.3187961578 0.3021999896 0.3247024119
 3310.7373047 1.0000000000 6.9268999100 2.1459000111 31.682914734 97.902099609 0.3163841367 0.3021999896 0.3261895776
 3310.8898926 1.0000000000 6.9123001099 2.1436998844 31.817785263 98.354499817 0.3065054417 0.2955999970 0.3197003305
 3311.0422363 1.0000000000 6.9067001343 2.1401000023 31.905874252 99.039001465 0.3082008064 0.2919999957 0.3197950125
 3311.1945801 1.0000000000 6.9001998901 2.1347999573 31.328598022 99.445701599 0.3086746633 0.2933000028 0.3166847825
 3311.3469238 1.0000000000 6.9025998116 2.1322000027 31.015319824 99.608009338 0.2928857207 0.2831999958 0.3071964979
 3311.4992676 1.0000000000 6.9258999825 2.1368999481 30.653678894 99.630599976 0.2840173244 0.2781000137 0.3050158620
 3311.6518555 1.0000000000 6.9298000336 2.1380999088 30.084299088 99.718544006 0.2948460877 0.2926000059 0.3149393797
 3311.8041992 1.0000000000 6.9029002190 2.1389999390 31.364616394 100.10820770 0.3092238605 0.3106999993 0.3272203505
 3311.9565430 1.0000000000 6.8881998062 2.1468000412 33.680801392 100.80127716 0.3240990341 0.3294000030 0.3398996592
 3312.1088867 1.0000000000 6.8892006874 2.1489999294 34.302913666 101.59702301 0.3234261274 0.3255999982 0.3396311104
 3312.2614746 1.0000000000 6.8876996040 2.1398000717 33.002689362 101.67001343 0.2774265409 0.2775000036 0.2966631949
 3312.4138184 1.0000000000 6.9011998177 2.1271998882 32.689350128 101.08316040 0.2857362032 0.2601999938 0.2852254808
 3312.5661621 1.0000000000 6.9270000458 2.1201999187 33.405834198 100.55907440 0.3083140850 0.2734000087 0.3011055887
 3312.7185059 1.0000000000 6.9369997978 2.1193997860 34.610351563 100.23076630 0.3171102405 0.2852999866 0.3046059310
 3312.8710938 1.0000000000 6.9261999130 2.1212999821 34.766361237 100.14022827 0.3235003352 0.2903000116 0.3082999885
 3313.0234375 1.0000000000 6.8966002464 2.1291999817 34.410205841 100.08619690 0.3236176372 0.2903000116 0.3083092868
 3313.1757813 1.0000000000 6.8709998131 2.1340999603 33.917224884 99.893035889 0.3346102536 0.2980000079 0.3141068816
 3313.3281250 1.0000000000 6.8617000580 2.1396000385 34.058399200 99.415237427 0.3409830034 0.3039999902 0.3183903694
 3313.4804688 1.0000000000 6.8578000069 2.1419000626 34.431446075 98.565315247 0.3303900659 0.2939999998 0.3123996854
 3313.6330566 1.0000000000 6.8548994064 2.1338999271 34.712112427 98.259757996 0.3242230415 0.2942000031 0.3122163415
 3313.7854004 1.0000000000 6.8645005226 2.1340000629 35.400066376 98.466133118 0.3314200342 0.2993134558 0.3173147440
 3313.9377441 1.0000000000 6.8824000359 2.1463000774 34.945182800 99.173141479 0.3438999951 0.3076926470 0.3264926374
 3314.0900879 1.0000000000 6.8873004913 2.1540999413 35.185062408 99.323692322 0.3439030349 0.3031059206 0.3219046593
 3314.2426758 1.0000000000 6.8810000420 2.1459000111 36.591712952 99.001747131 0.3457753658 0.3067955375 0.3247878551
 3314.3950195 1.0000000000 6.8737001419 2.1452000141 35.597141266 98.080596924 0.3380918205 0.3053995371 0.3209982514
 3314.5473633 1.0000000000 6.8614997864 2.1507999897 34.378959656 97.515693665 0.3330060840 0.3051089644 0.3199072182
 3314.6997070 1.0000000000 6.8449001312 2.1452000141 34.851474762 97.138198853 0.3368157148 0.3107198775 0.3244174719
 3314.8522949 1.0000000000 6.8355998993 2.1466999054 34.651252747 96.953643799 0.3466041684 0.3231179118 0.3353220820
 3315.0046387 1.0000000000 6.8403000832 2.1545999050 34.947620392 96.749435425 0.3478826880 0.3286935985 0.3421899080
 3315.1569824 1.0000000000 6.8548007011 2.1538999081 34.709011078 96.777931213 0.3371150494 0.3247110546 0.3359131515
 3315.3093262 1.0000000000 6.9137997627 2.1480998993 33.967414856 96.982322693 0.3465279043 0.3316208422 0.3441267610
 3315.4616699 1.0000000000 6.9633998871 2.1500000954 33.914630890 97.182159424 0.3639059365 0.3446070552 0.3608109057
 3315.6142578 1.0000000000 6.9524998665 2.1587998867 34.057678223 97.283554077 0.3675945401 0.3490051329 0.3676035106
 3315.7666016 1.0000000000 6.9109997749 2.1551001072 33.520626068 97.207771301 0.3658727705 0.3505815864 0.3686777353
 3315.9189453 1.0000000000 6.8899002075 2.1496999264 33.164535522 97.065055847 0.3488868475 0.3390921652 0.3547858894
 3316.0712891 1.0000000000 6.8904004097 2.1463000774 33.122966766 96.914016724 0.3407101035 0.3342067301 0.3460076749
 3316.2238770 1.0000000000 6.8896999359 2.1375999451 32.918769836 96.802299500 0.3470012844 0.3383990526 0.3508016169
 3316.3762207 1.0000000000 6.8870000839 2.1405000687 33.969589233 96.771377563 0.3473916650 0.3380931020 0.3512947261
 3316.5285645 1.0000000000 6.8754000664 2.1461000443 35.271461487 96.942085266 0.3421961665 0.3337964714 0.3479979038
 3316.6809082 1.0000000000 6.8678002357 2.1433999538 34.746906281 97.430809021 0.3398067355 0.3316032290 0.3467012942
 3316.8334961 1.0000000000 6.8741993904 2.1463999748 33.255302429 98.118606567 0.3440038562 0.3335977793 0.3475025594
 3316.9858398 1.0000000000 6.8830995560 2.1547000408 32.914997101 99.087455750 0.3451953530 0.3328943849 0.3482975960
 3317.1381836 1.0000000000 6.8930001259 2.1501998901 34.035221100 99.679649353 0.3422921598 0.3293937445 0.3467963040
 3317.2905273 1.0000000000 6.8790001869 2.1449999809 35.104125977 100.02316284 0.3373974264 0.3254974484 0.3444982469
 3317.4428711 1.0000000000 6.8295998573 2.1459999084 33.558879852 100.06018066 0.3358072042 0.3239035308 0.3434043229
 3317.5954590 1.0000000000 6.8010997772 2.1470999718 32.366981506 99.982215881 0.3403201401 0.3261137605 0.3461108804
 3317.7478027 1.0000000000 6.8007998466 2.1473000050 33.544876099 99.862594604 0.3465975821 0.3303962946 0.3494977653
 3317.9001465 1.0000000000 6.8059000969 2.1524999142 33.967678070 99.547363281 0.3450903594 0.3280950189 0.3480966389
 3318.0524902 1.0000000000 6.8091001511 2.1596999168 35.200981140 99.026199341 0.3390902281 0.3249935806 0.3459951878
 3318.2050781 1.0000000000 6.8063998222 2.1642999649 35.308170319 98.151176453 0.3329983950 0.3209936023 0.3429999948
 3318.3574219 1.0000000000 6.7850999832 2.1670999527 33.647270203 97.520942688 0.3325025737 0.3190033734 0.3430014253
 3318.5097656 1.0000000000 6.7476000786 2.1628000736 32.881019592 97.238624573 0.3341040015 0.3211011291 0.3438985646
 3318.6621094 1.0000000000 6.6999998093 2.1519000530 32.582118988 97.254493713 0.3366075456 0.3218006492 0.3430019319
 3318.8146973 1.0000000000 6.6796998978 2.1463999748 32.717926025 97.561714172 0.3412926495 0.3221958280 0.3441958129
 3318.9670410 1.0000000000 6.6888999939 2.1435000896 32.600620270 98.066596985 0.3389855623 0.3208921552 0.3428905606
 3319.1193848 1.0000000000 6.7137999535 2.1345999241 32.301223755 98.751464844 0.3300043344 0.3160011470 0.3370020986
 3319.2717285 1.0000000000 6.7277002335 2.1308999062 32.692306519 98.856750488 0.3327043355 0.3167027235 0.3383030295
 3319.4240723 1.0000000000 6.6799001694 2.1389000416 33.755535126 98.512435913 0.3353926241 0.3183939159 0.3401902616
 3319.5766602 1.0000000000 6.5886001587 2.1431000233 33.837116241 98.220039368 0.3307995200 0.3145985603 0.3340998590
 3319.7290039 1.0000000000 6.5584001541 2.1412999630 33.286396027 97.997222900 0.3304939270 0.3136975765 0.3339975774
