# LAS format log file from PETREL
# Project units are specified as depth units
#==================================================================
~Version information
VERS.   2.0:
WRAP.   NO:
#==================================================================
~Well
STRT .m      485.02883911 :
STOP .m      3207.3493652 :
STEP .m     0.00000000 :
NULL .        -999.250000 :
COMP.           : COMPANY
WELL.  15/9-15   : WELL
FLD.            : FIELD
LOC.            : LOCATION
SRVC.           : SERVICE COMPANY
DATE.  2018-09-11 14:48:00   : Log Export Date {yyyy-MM-dd HH:mm:ss}
PROV.           : PROVINCE
UWI.   15/9-15   : UNIQUE WELL ID
API.            : API NUMBER
#==================================================================
~Curve
DEPT .m                   : DEPTH
Lithology_geolink ._      : Lithology_geolink
DCAL .in                  : DCAL
CALI .in                  : CALI
BS .in                    : BS
DRHO .g/cm3               : DRHO
NPHI .m3/m3               : NPHI
RHOB .g/cm3               : RHOB
PEF .b/e                  : PEF
GR .gAPI                  : GR
DTC .us/ft                : DTC
DT .us/ft                 : DT
RDEP .ohm.m               : RDEP
SP .mV                    : SP
RSHA .ohm.m               : RSHA
RXO .ohm.m                : RXO
RMED .ohm.m               : RMED
~Parameter
#==================================================================
~Ascii
# ...
 2295.0832520 5.0000000000 12.814000130 12.802224159 12.250000954 0.0729999989 0.3771695197 2.3263173103 2.4649999142 65.938003540 121.40918732 120.18799591 0.7179999948 86.699600220 0.8640000224 1.1228630543 0.8640000224
 2295.2355957 5.0000000000 12.791000366 12.794148445 12.250000954 0.0480000004 0.3785577714 2.3044481277 2.3759999275 64.938003540 120.69488525 119.00000000 0.7210000157 86.449996948 0.9020000100 1.1315648556 0.9020000100
 2295.3879395 5.0000000000 12.781000137 12.783439636 12.250000954 0.0170000009 0.3762936592 2.2871577740 2.3570001125 72.875000000 119.89240265 120.37500000 0.7279999852 87.199996948 0.9039999843 1.2913389206 0.9039999843
 2295.5405273 6.0000000000 12.781000137 12.780999184 12.250000954 0.0130000003 0.3660599887 2.2850680351 2.4489998817 77.375000000 120.09364319 119.56300354 0.7239999771 86.200401306 0.9219999909 1.4035449028 0.9219999909
 2295.6928711 6.0000000000 12.781000137 12.781740189 12.250000954 0.0240000002 0.3726394475 2.2882015705 2.4990000725 82.750000000 120.03764343 119.00000000 0.7229999900 86.452796936 0.9129999876 1.4084794521 0.9129999876
 2295.8452148 6.0000000000 12.784000397 12.786720276 12.250000954 0.0340000018 0.3568553627 2.2804157734 2.5169999599 84.375000000 119.60838318 119.75000000 0.7269999981 88.199996948 0.9210000038 1.2203913927 0.9210000038
 2295.9975586 6.0000000000 12.798000336 12.800007820 12.250000954 0.0399999991 0.3543439806 2.2750573158 2.5680000782 84.625000000 119.92005920 120.37500000 0.7189999819 86.199996948 0.9079999924 1.2731293440 0.9079999924
 2296.1501465 6.0000000000 12.819999695 12.822812080 12.250000954 0.0680000037 0.3491100073 2.2670798302 2.7079999447 86.750000000 120.60212708 121.00000000 0.7089999914 86.449195862 0.8909999728 1.3803050518 0.8909999728
 2296.3024902 6.0000000000 12.852999687 12.856809616 12.250000954 0.0900000036 0.3638300002 2.2683248520 2.8039999008 84.750000000 121.38265228 122.75000000 0.6919999719 85.949996948 0.8510000110 1.2754838467 0.8510000110
 2296.4548340 7.0000000000 12.900999069 12.904326439 12.250000954 0.1190000027 0.3728854954 2.2695510387 2.8959999084 88.000000000 122.31922150 121.74999237 0.6790000200 85.948799133 0.8510000110 1.1072528362 0.8510000110
 2296.6071777 7.0000000000 12.961999893 12.948339462 12.250000954 0.1180000007 0.3664203882 2.2758944035 2.8919999599 88.500000000 122.30828857 121.37500000 0.6710000038 85.199996948 0.8220000267 0.9767221212 0.8220000267
 2296.7597656 7.0000000000 12.967000008 12.973206520 12.250000954 0.1159999967 0.3667899966 2.2892799377 2.8469998837 91.438003540 121.94779968 122.18800354 0.6710000038 88.697593689 0.8100000024 0.9452589750 0.8100000024
 2296.9121094 6.0000000000 12.996999741 12.984498978 12.250000954 0.1019999981 0.3729600012 2.3037960529 2.6340000629 81.500000000 122.43423462 123.37500000 0.6719999909 87.199592590 0.7910000086 0.9630311728 0.7910000086
 2297.0644531 6.0000000000 12.976000786 12.971010208 12.250000954 0.0989999995 0.3897331357 2.3101305962 2.5130000114 75.000000000 123.22468567 122.99999237 0.6750000119 86.949600220 0.7929999828 0.9198985696 0.7929999828
 2297.2167969 5.0000000000 12.934999466 12.941801071 12.250000954 0.0700000003 0.3903290927 2.3032426834 2.3949999809 68.500000000 123.24034882 122.18800354 0.6790000200 86.699996948 0.8389999866 0.9330951571 0.8389999866
 2297.3691406 5.0000000000 12.921999931 12.925173759 12.250000954 0.0350000001 0.3837006390 2.3010573387 2.3689999580 67.500000000 122.36259460 120.18799591 0.6779999733 87.949996948 0.8690000176 1.2078697681 0.8690000176
 2297.5217285 5.0000000000 12.921999931 12.922985077 12.250000954 0.0109999999 0.3685200214 2.3083119392 2.4340000153 68.563003540 120.91154480 119.18800354 0.6819999814 85.199996948 0.9010000229 1.3702628613 0.9010000229
 2297.6740723 5.0000000000 12.925999641 12.931682587 12.250000954 0.0149999997 0.3618307114 2.3155405521 2.6510000229 64.250000000 119.67729187 118.56300354 0.6940000057 85.200393677 0.8999999762 1.3036215305 0.8999999762
 2297.8264160 5.0000000000 12.953000069 12.948382378 12.250000954 0.0179999992 0.3714844882 2.3164134026 2.7449998856 66.750000000 119.02987671 118.37500000 0.7049999833 85.449996948 0.8980000019 1.3272888660 0.8980000019
 2297.9787598 5.0000000000 12.961000443 12.959047318 12.250000954 0.0170000009 0.3816137314 2.3149526119 2.6670000553 70.563003540 118.87672424 119.18800354 0.7070000172 86.449996948 0.8899999857 1.3446754217 0.8899999857
 2298.1313477 5.0000000000 12.961000443 12.961000443 12.250000954 0.0170000009 0.3895800114 2.3159439564 2.4790000916 79.750000000 119.20569611 119.00000000 0.7020000219 84.952003479 0.9060000181 1.2748012543 0.9060000181
 2298.2836914 6.0000000000 12.961000443 12.961245537 12.250000954 0.0260000005 0.3911000192 2.3109035492 2.4179999828 78.188003540 119.39823151 119.18800354 0.6899999976 86.201599121 0.9150000215 1.2783194780 0.9150000215
 2298.4360352 6.0000000000 12.961999893 12.964713097 12.250000954 0.0250000004 0.4029110670 2.2971513271 2.4909999371 75.313003540 119.60486603 119.75000000 0.6759999990 87.194793701 0.9279999733 1.3219701052 0.9279999733
 2298.5883789 6.0000000000 12.973999977 12.977729797 12.250000954 0.0260000005 0.4067239165 2.2785785198 2.5409998894 71.875000000 120.71780396 124.18800354 0.6700000167 83.949996948 0.8690000176 1.3299326897 0.8690000176
 2298.7409668 6.0000000000 13.001000404 13.003092766 12.250000954 0.0199999996 0.4034599960 2.2670359612 2.5260000229 81.313003540 123.17238617 124.37500763 0.6620000005 86.953605652 0.8299999833 1.2623653412 0.8299999833
 2298.8933105 6.0000000000 13.036000252 13.025491714 12.250000954 0.0199999996 0.3871999979 2.2681200504 2.4549999237 84.750000000 124.48241425 123.75000000 0.6439999938 89.196388245 0.8280000091 1.1960970163 0.8280000091
 2299.0456543 6.0000000000 13.027999878 13.041302681 12.250000954 0.0219999999 0.3916229010 2.2837553024 2.3780000210 86.500000000 124.03297424 122.99999237 0.6359999776 86.950798035 0.8610000014 0.8828038573 0.8610000014
 2299.1979980 6.0000000000 13.074000359 13.078802109 12.250000954 0.0509999990 0.3770933449 2.3027012348 2.3710000515 78.625000000 122.96989441 119.75000000 0.6380000114 87.449996948 0.8820000291 1.0095388889 0.8820000291
 2299.3503418 6.0000000000 13.138999939 13.111777306 12.250000954 0.0850000009 0.3905883133 2.3058204651 2.4379999638 74.688003540 121.95703888 124.56300354 0.6660000086 87.199996948 0.8029999733 1.2459336519 0.8029999733
 2299.5029297 16.000000000 13.093000412 13.100258827 12.250000954 0.0979999974 0.4046200216 2.2910718918 2.4790000916 68.125000000 123.34558105 124.18800354 0.6880000234 85.701599121 0.7810000181 1.1113076210 0.7810000181
 2299.6552734 16.000000000 13.076999664 13.065362930 12.250000954 0.0790000036 0.4212833047 2.2929418087 2.5610001087 61.125000000 124.32968903 123.18800354 0.6999999881 86.700798035 0.8280000091 0.9067566395 0.8280000091
 2299.8076172 16.000000000 13.013999939 13.024197578 12.250000954 0.0680000037 0.3982070982 2.3352458477 2.8910000324 53.625000000 122.92433167 119.37500763 0.6970000267 87.199996948 0.9950000048 0.9414283633 0.9950000048
 2299.9599609 16.000000000 12.992999077 12.985023499 12.250000954 0.0890000015 0.3895039260 2.3880546093 3.1710000038 49.687999725 119.73616028 114.18800354 0.6899999976 86.449996948 1.1039999723 1.2361797094 1.1039999723
 2300.1123047 16.000000000 12.939999580 12.950938225 12.250000954 0.1039760038 0.3914668262 2.3947722912 3.0601775646 57.487499237 115.88409424 113.75070190 0.6939936280 86.199996948 1.0850304365 1.0201754570 1.0850304365
 2300.2646484 16.000000000 12.932000160 12.939875603 12.250000954 0.0900224373 0.3991476595 2.3542654514 2.6945865154 65.425285339 113.97277069 112.00280762 0.6999903917 86.449996948 0.9751763344 1.5055800676 0.9751763344
 2300.4172363 6.0000000000 12.956000328 12.945701599 12.250000954 0.0590000004 0.3966440260 2.3130466938 2.4860000610 75.813003540 114.55820465 120.37500000 0.7049999833 86.199996948 0.9079999924 1.4848302603 0.9079999924
 2300.5695801 6.0000000000 12.937999725 12.944612503 12.250000954 0.0619999990 0.4021311998 2.3021438122 2.5339999199 76.938003540 118.52960968 121.74999237 0.7049999833 82.949996948 0.8439999819 1.1799298525 0.8439999819
