# LAS format log file from PETREL
# Project units are specified as depth units
#==================================================================
~Version information
VERS.   2.0:
WRAP.   NO:
#==================================================================
~Well
STRT .m      1517.9528809 :
STOP .m      3212.6408691 :
STEP .m     0.00000000 :
NULL .        -999.250000 :
COMP.           : COMPANY
WELL.  15/9-23   : WELL
FLD.            : FIELD
LOC.            : LOCATION
SRVC.           : SERVICE COMPANY
DATE.  2018-09-11 14:48:03   : Log Export Date {yyyy-MM-dd HH:mm:ss}
PROV.           : PROVINCE
UWI.   15/9-23   : UNIQUE WELL ID
API.            : API NUMBER
#==================================================================
~Curve
DEPT .m                   : DEPTH
Lithology_geolink ._      : Lithology_geolink
DCAL .in                  : DCAL
CALI .in                  : CALI
BS .in                    : BS
ROP .m/h                  : ROP
DRHO .g/cm3               : DRHO
NPHI .m3/m3               : NPHI
RHOB .g/cm3               : RHOB
PEF .b/e                  : PEF
GR .gAPI                  : GR
DTC .us/ft                : DTC
DTS .us/ft                : DTS
RDEP .ohm.m               : RDEP
RMED .ohm.m               : RMED
~Parameter
#==================================================================
~Ascii
# ...
 1855.3664551  -999.250000 0.6420001984 12.892001152 12.250000954 17.527297974 0.0996000022 0.3855000138 2.2346000671 7.7421998978 144.22819519 134.38940430 338.20001221 0.6274999976 0.6917999983
 1855.5187988  -999.250000 0.5504999161 12.800499916 12.250000954 17.188798904 0.0978000015 0.4255000055 2.2404999733 7.4307999611 140.09509277 133.86560059 336.32409668 0.6444000006 0.7434999943
 1855.6712646  -999.250000 0.4968003631 12.746800423 12.250000954 16.966100693 0.0935000032 0.4255999923 2.2541000843 7.2284998894 144.66140747 132.98469543 333.56369019 0.7006000280 0.7222999930
 1855.8236084  -999.250000 0.4656000137 12.715598106 12.250000954 17.295198441 0.0971999988 0.4268999994 2.2846000195 7.1862001419 137.44439697 133.26220703 334.02420044 0.6814000010 0.7215999961
 1855.9759521  -999.250000 0.4576998055 12.707699776 12.250000954 19.038297653 0.0747999996 0.4162999988 2.2546000481 6.5970001221 142.37820435 134.26370239 334.94961548 0.6729000211 0.7103000283
 1856.1284180  -999.250000 0.4134998024 12.663499832 12.250000954 19.260398865 0.0537000000 0.4058000147 2.1995000839 6.1199998856 129.02879333 135.96800232 332.74557495 0.8725000024 0.6089000106
 1856.2807617  -999.250000 0.4800997078 12.730099678 12.250000954 18.930097580 0.0673000067 0.4350999892 2.1861999035 6.4780001640 129.78039551 137.01550293 324.68267822 0.6383000016 0.5907999873
 1856.4332275  -999.250000 0.4800997078 12.730099678 12.250000954 18.476900101 0.0673000067 0.4496000111 2.1861999035 6.4780001640 134.19970703 137.68060303 327.35052490 0.5756999850 0.5914999843
 1856.5855713  -999.250000 0.5495995879 12.799599648 12.250000954 16.404197693 0.0833000019 0.4438000023 2.2061998844 6.7505998611 135.35910034 138.13630676 336.94989014 0.5867000222 0.6205000281
 1856.7380371  -999.250000 0.5495995879 12.799599648 12.250000954 14.527200699 0.0833000019 0.4271999896 2.2061998844 6.7505998611 137.30439758 138.08729553 344.90911865 0.6126000285 0.6334999800
 1856.8903809  -999.250000 0.4055004120 12.655499458 12.250000954 13.622800827 0.0763999969 0.4169999957 2.2109999657 6.4075999260 137.53280640 137.26240540 347.44332886 0.6240000129 0.6427000165
 1857.0428467  -999.250000 0.3065004051 12.556499481 12.250000954 13.741999626 0.0652000010 0.4277999997 2.2053999901 6.1100997925 139.27189636 137.35859680 341.71920776 0.6324999928 0.6517000198
 1857.1951904  -999.250000 0.1018000022 12.351799965 12.250000954 14.082197189 0.0502000004 0.4189999998 2.1977999210 5.7080001831 147.74920654 137.88690186 343.37609863 0.6319000125 0.6632999778
 1857.3476563  -999.250000 0.0679998398 12.317999840 12.250000954 13.958401680 0.0384000018 0.4514000118 2.2123000622 5.0539999008 134.33540344 138.36470032 344.45303345 0.6347000003 0.6912999749
 1857.5000000  -999.250000 0.0679998398 12.317999840 12.250000954 14.247002602 0.0364999995 0.4436999857 2.2146999836 4.9496998787 134.03430176 138.31750488 346.10751343 0.6409999728 0.6822999716
 1857.6524658  -999.250000 0.1020001993 12.352001190 12.250000954 15.023399353 0.0337999985 0.4140999913 2.2074999809 4.7128000259 144.57389832 137.36070251 345.50418091 0.6385999918 0.6765000224
 1857.8048096  -999.250000 0.0535001829 12.303500175 12.250000954 16.254199982 0.0306000002 0.4011999965 2.1949999332 4.7102999687 137.87240601 137.57870483 339.66650391 0.5738999844 0.7024999857
 1857.9571533  -999.250000 -0.002699852 12.247299194 12.250000954 18.085197449 0.0243999995 0.3935000002 2.1760001183 4.6589999199 138.81449890 137.47869873 338.14181519 0.6687999964 0.7163000107
 1858.1096191  -999.250000 0.0664997101 12.316499710 12.250000954 19.325899124 0.0254999995 0.4092000127 2.1970999241 4.5219001770 134.10339355 137.71659851 343.51699829 0.6833000183 0.6517999768
 1858.2619629  -999.250000 0.0691995621 12.319198608 12.250000954 21.754302979 0.0297999997 0.4176999927 2.1995999813 4.7312002182 127.14779663 138.78280640 346.57015991 0.6523000002 0.6284999847
 1858.4144287  -999.250000 0.0483999252 12.298399925 12.250000954 22.384399414 0.0348000005 0.4061000049 2.2021000385 4.9832000732 135.82130432 139.13139343 343.77780151 0.6108999848 0.6258999705
 1858.5667725  -999.250000 0.0223998986 12.272400856 12.250000954 22.355102539 0.0264999997 0.4061000049 2.1837999821 4.5950999260 144.76759338 139.36920166 342.36538696 0.6111000180 0.6255000234
 1858.7192383  -999.250000 0.0223998986 12.272400856 12.250000954 23.258602142 0.0264999997 0.4365000129 2.1837999821 4.5950999260 149.03640747 138.05400085 343.26748657 0.6111000180 0.6251000166
 1858.8715820  -999.250000 0.0441999398 12.294199944 12.250000954 23.498697281 0.0278999992 0.4365000129 2.1967999935 4.5989999771 143.89450073 138.30670166 337.92111206 0.6133999825 0.6276999712
 1859.0240479  -999.250000 0.0441999398 12.294199944 12.250000954 23.158897400 0.0278999992 0.4275000095 2.1967999935 4.5989999771 138.82829285 137.57659912 334.64709473 0.6197999716 0.6279000044
 1859.1763916  -999.250000 0.0046997070 12.254699707 12.250000954 23.316600800 0.0265999995 0.4219000041 2.2100000381 4.5608000755 119.70149994 136.70089722 333.16870117 0.6220999956 0.6395999789
 1859.3288574  -999.250000 0.0102996798 12.260299683 12.250000954 24.083402634 0.0260000005 0.3973000050 2.2109999657 4.5418000221 119.76260376 136.77130127 332.52828979 0.6362000108 0.6456999779
 1859.4812012  -999.250000 0.0178003293 12.267801285 12.250000954 25.647499084 0.0252000000 0.3973000050 2.2123999596 4.5163998604 120.03459930 136.92579651 335.99090576 0.6263999939 0.6308000088
 1859.6336670  -999.250000 -0.011199949 12.238799095 12.250000954 26.012399673 0.0239000004 0.4262999892 2.2165999413 4.5812997818 123.18340302 137.61239624 342.95831299 0.6037999988 0.6136999726
 1859.7860107  -999.250000 -0.020500179 12.229500771 12.250000954 27.785699844 0.0234999992 0.4553000033 2.2179000378 4.6019001007 121.60440063 138.20159912 346.04837036 0.5885000229 0.6003000140
 1859.9383545  -999.250000 -0.045200352 12.204799652 12.250000954 35.443393707 0.0172000006 0.4553000033 2.1986999512 4.5461001396 120.03459930 138.55830383 349.97244263 0.5832999945 0.5963000059
 1860.0908203  -999.250000 -0.045200352 12.204799652 12.250000954 47.188404083 0.0172000006 0.4345999956 2.1986999512 4.5461001396 126.92669678 138.75759888 350.68579102 0.5819000006 0.5943999887
 1860.2431641  -999.250000 -0.046899799 12.203100204 12.250000954 49.103096008 0.0174000002 0.4138999879 2.2014999390 4.4745001793 126.92669678 138.62440491 351.30722046 0.5708000064 0.5716999769
 1860.3956299  -999.250000 -0.048899651 12.201100349 12.250000954 49.558982849 0.0176999997 0.4138999879 2.2044999599 4.3966999054 135.50500488 138.66670227 349.74688721 0.5489000082 0.5611000061
 1860.5479736  -999.250000 -0.010899540 12.239099503 12.250000954 49.235198975 0.0168999992 0.4029000103 2.1900000572 4.3450999260 146.10490417 139.21310425 343.98800659 0.5386000276 0.5570999980
 1860.7004395  -999.250000 -0.006299973 12.243700027 12.250000954 48.513889313 0.0166999996 0.4029000103 2.1882998943 4.3389000893 143.19830322 139.83740234 343.04089355 0.5568000078 0.5688999891
 1860.8527832  -999.250000 -0.055199616 12.194800377 12.250000954 53.437900543 0.0140000004 0.4029000103 2.1846001148 4.2722001076 146.48109436 139.05200195 340.97375488 0.5547999740 0.5724999905
 1861.0052490  -999.250000 -0.104200400 12.145799637 12.250000954 52.302097321 0.0111999996 0.4004999995 2.1809999943 4.2055001259 126.95709991 137.91510010 341.09890747 0.5544999838 0.5735999942
 1861.1575928  -999.250000 -0.064100273 12.185899734 12.250000954 45.892700195 0.0113000004 0.4004999995 2.1875998974 4.1812000275 127.24459839 138.75770569 341.50244141 0.5698999763 0.5735999942
 1861.3100586  -999.250000 -0.073599823 12.176400185 12.250000954 39.692489624 0.0135000004 0.3971000016 2.2053000927 4.5489997864 128.18260193 140.15580750 341.43209839 0.5698999763 0.5852000117
 1861.4624023  -999.250000 -0.094300278 12.155698776 12.250000954 37.263595581 0.0161000006 0.3971000016 2.2237000465 4.9731998444 123.00289917 140.27499390 340.63888550 0.5688999891 0.5842000246
