# LAS format log file from PETREL
# Project units are specified as depth units
#==================================================================
~Version information
VERS.   2.0:
WRAP.   NO:
#==================================================================
~Well
STRT .m      489.99996948 :
STOP .m      1530.0000000 :
STEP .m     0.00000000 :
NULL .        -999.250000 :
COMP.           : COMPANY
WELL.  15/9-22   : WELL
FLD.            : FIELD
LOC.            : LOCATION
SRVC.           : SERVICE COMPANY
DATE.  2018-09-11 14:48:02   : Log Export Date {yyyy-MM-dd HH:mm:ss}
PROV.           : PROVINCE
UWI.   15/9-22   : UNIQUE WELL ID
API.            : API NUMBER
#==================================================================
~Curve
DEPT .m                   : DEPTH
Lithology_geolink ._      : Lithology_geolink
BS .in                    : BS
GR .gAPI                  : GR
RDEP .ohm.m               : RDEP
RMED .ohm.m               : RMED
~Parameter
#==================================================================
~Ascii
# ...
 1316.2000732  -999.250000 17.500000000 108.71700287 1.2200000286 0.9480000138
 1316.3000488  -999.250000 17.500000000 104.54799652 1.2209999561 0.9700000286
 1316.4000244  -999.250000 17.500000000 100.53299713 1.2259999514 0.9929999709
 1316.5001221  -999.250000 17.500000000 98.845001221 1.2439829111 0.9849658608
 1316.6000977  -999.250000 17.500000000 98.571998596 1.2369987965 0.9710146785
 1316.6999512  -999.250000 17.500000000 97.776969910 1.2359999418 0.9829999804
 1316.7999268  -999.250000 17.500000000 96.689331055 1.2350000143 1.0019999743
 1316.9000244  -999.250000 17.500000000 96.210578918 1.2350000143 0.9620000124
 1317.0000000  -999.250000 17.500000000 96.797279358 1.2300000191 0.9629999995
 1317.0999756  -999.250000 17.500000000 97.637001038 1.2259999514 0.9559999704
 1317.1999512  -999.250000 17.500000000 97.281997681 1.1820000410 0.9300000072
 1317.3000488  -999.250000 17.500000000 96.058998108 1.2230000496 0.9419999719
 1317.4000244  -999.250000 17.500000000 94.071998596 1.2309999466 0.9530000091
 1317.5000000  -999.250000 17.500000000 91.416000366 1.2239999771 0.9750000238
 1317.6000977  -999.250000 17.500000000 89.456001282 1.2359999418 0.9869999886
 1317.7000732  -999.250000 17.500000000 89.741996765 1.2709804773 1.0049694777
 1317.7999268  -999.250000 17.500000000 91.771522522 1.2549999952 0.9800000191
 1317.8999023  -999.250000 17.500000000 93.101753235 1.2400000095 0.9760000110
 1318.0000000  -999.250000 17.500000000 92.273017883 1.2350000143 0.9879999757
 1318.0999756  -999.250000 17.500000000 89.025970459 1.2280000448 0.9850000143
 1318.1999512  -999.250000 17.500000000 83.584648132 1.2439999580 0.9929999709
 1318.3000488  -999.250000 17.500000000 77.019996643 1.2400000095 0.9840000272
 1318.4000244  -999.250000 17.500000000 71.376998901 1.2439999580 0.9800000191
 1318.5000000  -999.250000 17.500000000 69.117996216 1.2350000143 0.9869999886
 1318.5999756  -999.250000 17.500000000 72.639999390 1.2389999628 0.9810000062
 1318.7000732  -999.250000 17.500000000 80.836997986 1.2239999771 0.9879999757
 1318.8000488  -999.250000 17.500000000 89.022003174 1.2339669466 0.9749866128
 1318.9000244  -999.250000 17.500000000 93.446998596 1.2069951296 0.9639768004
 1318.9998779  -999.250000 17.500000000 95.125892639 1.2029999495 0.9449999928
 1319.0999756  -999.250000 17.500000000 96.186714172 1.2079999447 0.9340000153
 1319.1999512  -999.250000 17.500000000 97.061935425 1.2150000334 0.9290000200
 1319.2999268  -999.250000 17.500000000 97.333335876 1.2029999495 0.9340000153
 1319.4000244  -999.250000 17.500000000 97.252998352 1.2029999495 0.9570000172
 1319.5000000  -999.250000 17.500000000 97.666999817 1.2100000381 0.9639999866
 1319.5999756  -999.250000 17.500000000 99.209999084 1.2079999447 0.9779999852
 1319.7000732  -999.250000 17.500000000 100.80999756 1.2130000591 0.9729999900
 1319.8000488  -999.250000 17.500000000 99.678001404 1.2059999704 0.9459999800
 1319.9000244  -999.250000 17.500000000 96.486999512 1.1979999542 0.9319999814
 1320.0000000  -999.250000 17.500000000 95.442001343 1.2050061226 0.9490194917
 1320.1000977  -999.250000 17.500000000 97.865997314 1.2099829912 0.9649828672
 1320.1999512  -999.250000 17.500000000 100.67656708 1.1959999800 0.9509999752
 1320.2999268  -999.250000 17.500000000 101.42309570 1.1870000362 0.9409999847
 1320.3999023  -999.250000 17.500000000 99.609443665 1.1799999475 0.9350000024
 1320.5000000  -999.250000 17.500000000 96.058334351 1.1849999428 0.9240000248
 1320.5999756  -999.250000 17.500000000 92.300003052 1.1879999638 0.9250000119
 1320.6999512  -999.250000 17.500000000 90.496002197 1.1929999590 0.9259999990
 1320.8000488  -999.250000 17.500000000 90.109001160 1.1809999943 0.9340000153
 1320.9000244  -999.250000 17.500000000 89.120002747 1.1840000153 0.9419999719
 1321.0000000  -999.250000 17.500000000 86.125000000 1.1940000057 0.9459999800
 1321.1000977  -999.250000 17.500000000 82.863998413 1.1920000315 0.9340000153
 1321.2000732  -999.250000 17.500000000 81.196998596 1.1849975586 0.9280073047
 1321.2999268  -999.250000 17.500000000 81.274909973 1.1829999685 0.9340000153
 1321.3999023  -999.250000 17.500000000 82.082023621 1.1629999876 0.9300000072
 1321.5000000  -999.250000 17.500000000 82.370651245 1.1599999666 0.9300000072
 1321.5999756  -999.250000 17.500000000 83.370780945 1.1699999571 0.9459999800
 1321.6999512  -999.250000 17.500000000 85.729118347 1.2020000219 0.9369999766
 1321.8000488  -999.250000 17.500000000 87.254997253 1.2220000029 0.9480000138
 1321.9000244  -999.250000 17.500000000 87.324996948 1.2660000324 0.9980000257
 1322.0000000  -999.250000 17.500000000 85.246002197 1.2549999952 0.9829999804
 1322.0999756  -999.250000 17.500000000 81.002998352 1.2519999743 0.9779999852
 1322.2000732  -999.250000 17.500000000 76.169998169 1.2460000515 0.9670000076
 1322.3000488  -999.250000 17.500000000 73.418998718 1.2189865112 0.9309926629
 1322.4000244  -999.250000 17.500000000 74.432998657 1.2080036402 0.9249939322
 1322.4998779  -999.250000 17.500000000 78.541954041 1.2109999657 0.9200000167
 1322.5999756  -999.250000 17.500000000 83.542900085 1.2039999962 0.9459999800
 1322.6999512  -999.250000 17.500000000 85.655418396 1.2109999657 0.9509999752
 1322.7999268  -999.250000 17.500000000 84.953727722 1.2170000076 0.9610000253
 1322.9000244  -999.250000 17.500000000 83.467819214 1.2350000143 0.9789999723
 1323.0000000  -999.250000 17.500000000 81.551002502 1.2719999552 0.9959999919
 1323.0999756  -999.250000 17.500000000 80.972000122 1.2460000515 0.9869999886
 1323.2000732  -999.250000 17.500000000 83.091003418 1.2259999514 1.0000000000
 1323.3000488  -999.250000 17.500000000 86.599998474 1.2309999466 0.9860000014
 1323.4000244  -999.250000 17.500000000 89.029998779 1.2259999514 0.9710000157
 1323.5000000  -999.250000 17.500000000 87.455001831 1.2290292978 0.9720280766
 1323.6000977  -999.250000 17.500000000 82.795997620 1.2529755831 0.9950024486
 1323.6999512  -999.250000 17.500000000 79.163436890 1.2330000401 0.9969999790
 1323.7999268  -999.250000 17.500000000 77.533981323 1.2239999771 0.9869999886
 1323.8999023  -999.250000 17.500000000 76.432685852 1.2100000381 0.9829999804
 1324.0000000  -999.250000 17.500000000 74.985763550 1.2089999914 0.9720000029
 1324.0999756  -999.250000 17.500000000 73.816001892 1.2070000172 0.9430000186
 1324.1999512  -999.250000 17.500000000 73.685997009 1.1820000410 0.9150000215
 1324.3000488  -999.250000 17.500000000 74.039001465 1.1720000505 0.9169999957
 1324.4000244  -999.250000 17.500000000 73.958999634 1.1820000410 0.9290000200
 1324.5000000  -999.250000 17.500000000 73.311996460 1.1929999590 0.9419999719
 1324.6000977  -999.250000 17.500000000 72.995002747 1.1870000362 0.9359999895
 1324.7000732  -999.250000 17.500000000 74.374000549 1.1999914646 0.9569963813
 1324.8000488  -999.250000 17.500000000 77.655998230 1.1929841042 0.9540060759
 1324.8999023  -999.250000 17.500000000 80.595809937 1.1799999475 0.9589999914
 1325.0000000  -999.250000 17.500000000 81.069427490 1.1529999971 0.9419999719
 1325.0999756  -999.250000 17.500000000 78.961578369 1.1590000391 0.9300000072
 1325.1999512  -999.250000 17.500000000 75.820838928 1.1419999599 0.9269999862
 1325.3000488  -999.250000 17.500000000 73.974998474 1.1360000372 0.9089999795
 1325.4000244  -999.250000 17.500000000 74.522003174 1.1080000401 0.9020000100
 1325.5000000  -999.250000 17.500000000 76.393997192 1.1100000143 0.8989999890
 1325.5999756  -999.250000 17.500000000 77.513999939 1.1069999933 0.8930000067
 1325.7000732  -999.250000 17.500000000 76.335998535 1.0759999752 0.8759999871
 1325.8000488  -999.250000 17.500000000 73.386001587 1.0670000315 0.8579999804
 1325.9000244  -999.250000 17.500000000 71.056999207 1.0559999943 0.8369829059
 1325.9998779  -999.250000 17.500000000 72.599227905 1.0559999943 0.8230000138
 1326.0999756  -999.250000 17.500000000 78.729507446 1.0499999523 0.8169999719
 1326.1999512  -999.250000 17.500000000 87.232612610 1.0399999619 0.8140000105
 1326.2999268  -999.250000 17.500000000 95.467887878 1.0299999714 0.8149999976
