# LAS format log file from PETREL
# Project units are specified as depth units
#==================================================================
~Version information
VERS.   2.0:
WRAP.   NO:
#==================================================================
~Well
STRT .m      474.34408569 :
STOP .m      3047.1606445 :
STEP .m     0.00000000 :
NULL .        -999.250000 :
COMP.           : COMPANY
WELL.  15/9-9   : WELL
FLD.            : FIELD
LOC.            : LOCATION
SRVC.           : SERVICE COMPANY
DATE.  2018-09-11 14:48:05   : Log Export Date {yyyy-MM-dd HH:mm:ss}
PROV.           : PROVINCE
UWI.   15/9-9   : UNIQUE WELL ID
API.            : API NUMBER
#==================================================================
~Curve
DEPT .m                   : DEPTH
Lithology_geolink ._      : Lithology_geolink
DCAL .in                  : DCAL
CALI .in                  : CALI
DRHO .g/cm3               : DRHO
NPHI .m3/m3               : NPHI
RHOB .g/cm3               : RHOB
GR .gAPI                  : GR
DTC .us/ft                : DTC
DT .us/ft                 : DT
DTE .us/ft                : DTE
RDEP .ohm.m               : RDEP
SP .mV                    : SP
RSHA .ohm.m               : RSHA
RXO .ohm.m                : RXO
RMED .ohm.m               : RMED
~Parameter
#==================================================================
~Ascii
# ...
 1330.2225342  -999.250000 15.015999794 15.015999794 -0.030003207 0.4658929110 1.9120403528 60.587734222 149.38679504 158.29440308 156.82931519 1.1329640150 115.97827148 1.1439239979  -999.250000 1.1439239979
 1330.3748779  -999.250000 15.065999985 15.065999985 -0.028001603 0.4588079154 1.9192153215 67.123268127 150.87416077 159.36672974 158.41743469 1.1529198885 116.62240601 1.1559519768  -999.250000 1.1559519768
 1330.5273438  -999.250000 15.199000359 15.199000359 -0.029998397 0.5036656857 1.9274450541 68.831283569 150.41532898 156.66070557 157.83969116 1.1769231558 117.39253235 1.1769326925  -999.250000 1.1769326925
 1330.6796875  -999.250000 15.279998779 15.279998779 -0.031998400 0.5152739286 1.9368000031 65.724990845 148.71226501 155.18988037 156.09504700 1.1979159117 118.29238892 1.1899479628  -999.250000 1.1899479628
 1330.8320313  -999.250000 15.316999435 15.316999435 -0.028006407 0.5196624994 1.9465221167 62.333156586 147.83206177 154.58641052 155.03450012 1.2029799223 118.35575867 1.1989639997  -999.250000 1.1989639997
 1330.9844971  -999.250000 15.250000000 15.250000000 -0.022004807 0.5352275372 1.9529832602 64.053222656 147.52819824 154.94654846 154.78691101 1.2099720240 118.17771912 1.2059719563  -999.250000 1.2059719563
 1331.1368408  -999.250000 14.975999832 14.975999832 -0.021001602 0.5328996181 1.9530923367 66.712608337 147.28990173 154.68804932 154.69792175 1.2199599743 118.54551697 1.1960400343  -999.250000 1.1960400343
 1331.2893066  -999.250000 14.711999893 14.711999893 -0.025995994 0.5233284235 1.9488191605 66.358581543 146.83564758 153.54458618 154.10418701 1.2140239477 117.94441986 1.1840480566  -999.250000 1.1840480566
 1331.4416504  -999.250000 14.779000282 14.779000282 -0.025001602 0.4939878881 1.9468423128 65.537979126 146.17361450 153.03004456 153.38984680 1.2090200186 118.36230469 1.1899759769  -999.250000 1.1899759769
 1331.5941162  -999.250000 14.968999863 14.968999863 -0.021003205 0.4834319651 1.9485856295 65.402214050 145.95468140 153.16647339 153.24378967 1.2119879723 118.59108734 1.1979678869  -999.250000 1.1979678869
 1331.7464600  -999.250000 15.121999741 15.121999741 -0.017003207 0.5152219534 1.9493576288 64.268730164 146.51643372 154.47274780 153.81813049 1.2030359507 117.90675354 1.2179199457  -999.250000 1.2179199457
 1331.8989258  -999.250000 15.199000359 15.199000359 -0.017000001 0.5400705934 1.9448548555 60.840496063 147.09385681 154.73995972 154.39271545 1.2029999495 118.61314392 1.2060480118  -999.250000 1.2060480118
 1332.0512695  -999.250000 15.234000206 15.234000206 -0.021995993 0.5494427085 1.9356807470 61.867511749 146.78204346 153.39042664 154.02458191 1.2229199409 117.63394928 1.1950441599  -999.250000 1.1950441599
 1332.2037354  -999.250000 15.276000023 15.276000023 -0.021000801 0.5663123727 1.9280738831 62.444076538 146.00126648 152.98063660 153.19332886 1.2469038963 117.12403870 1.2019720078  -999.250000 1.2019720078
 1332.3560791  -999.250000 15.365000725 15.365000725 -0.024996795 0.5620573759 1.9238278866 64.361381531 145.23240662 151.79974365 152.43327332 1.2559640408 116.47560120 1.2099679708  -999.250000 1.2099679708
 1332.5085449  -999.250000 15.435000420 15.435000420 -0.031994399 0.5597373843 1.9206238985 61.738220215 144.82887268 151.80897522 151.98716736 1.2619807720 115.25392151 1.2518653870  -999.250000 1.2518653870
 1332.6608887  -999.250000 15.175000191 15.175000191 -0.032000002 0.5104082227 1.9210528135 66.736968994 145.11006165 152.93148804 152.37034607 1.2639920712 116.25695801 1.2639520168  -999.250000 1.2639520168
 1332.8133545  -999.250000 14.998000145 14.998000145 -0.029002402 0.4964442551 1.9271482229 69.434692383 145.58683777 153.07556152 152.88221741 1.2640000582 115.69183350 1.2699807882  -999.250000 1.2699807882
 1332.9656982  -999.250000 15.114999771 15.114999771 -0.017009616 0.4956231415 1.9336094856 74.671600342 145.74023438 152.65368652 152.95832825 1.2829239368 115.91011810 1.2480881214  -999.250000 1.2480881214
 1333.1180420  -999.250000 15.326000214 15.326000214 -0.021991994 0.5465650558 1.9305125475 72.372550964 146.04025269 153.86213684 153.27238464 1.2929599285 116.50859833 1.2280801535  -999.250000 1.2280801535
 1333.2705078  -999.250000 15.277000427 15.277000427 -0.031991988 0.5650565028 1.9179478884 67.413948059 146.56329346 153.80027771 153.77722168 1.2860280275 115.99707031 1.2150521278  -999.250000 1.2150521278
 1333.4228516  -999.250000 15.213999748 15.213999748 -0.042982388 0.6149197221 1.9085116386 64.205703735 146.88565063 154.24620056 154.16172791 1.2640881538 116.54080200 1.2120120525  -999.250000 1.2120120525
 1333.5753174  -999.250000 15.276000023 15.276000023 -0.041001603 0.6026899219 1.9079546928 64.301834106 147.76332092 155.90234375 155.10586548 1.2331241369 116.45734406 1.2299280167  -999.250000 1.2299280167
 1333.7276611  -999.250000 15.536999702 15.536999702 -0.038004804 0.5690053105 1.9124144316 68.872001648 148.99780273 156.87710571 156.43190002 1.2051122189 117.08248138 1.2300000191  -999.250000 1.2300000191
 1333.8801270  -999.250000 15.798999786 15.798999786 -0.041996796 0.5128750801 1.9183570147 66.471870422 150.53640747 159.01043701 157.92553711 1.1990239620 117.33499146 1.2190439701  -999.250000 1.2190439701
 1334.0324707  -999.250000 15.559000969 15.559000969 -0.041999999 0.4785173237 1.9288980961 65.606071472 151.71998596 159.91740417 159.16653442 1.2109519243 117.21847534 1.2010720968  -999.250000 1.2010720968
 1334.1849365  -999.250000 15.387000084 15.387000084 -0.030009607 0.4707406759 1.9456758499 64.054489136 151.45382690 158.39015198 158.97024536 1.2109999657 118.01878357 1.1701240540  -999.250000 1.1701240540
 1334.3372803  -999.250000 15.340000153 15.340000153 -0.017010417 0.4986775219 1.9648413658 62.917732239 150.19636536 156.83325195 157.69581604 1.2040280104 117.70328522 1.2108356953  -999.250000 1.2108356953
 1334.4897461  -999.250000 15.211001396 15.211001396 -0.006008807 0.5469750762 1.9818044901 60.013656616 149.11204529 156.27178955 156.49566650 1.1860576868 118.33396912 1.2369166613  -999.250000 1.2369166613
 1334.6420898  -999.250000 15.065999985 15.065999985 -0.003002404 0.5784541368 1.9891220331 62.016166687 147.99676514 154.12461853 155.28128052 1.1640881300 118.36388397 1.2399879694  -999.250000 1.2399879694
 1334.7945557  -999.250000 15.092000008 15.092000008 -0.003000000 0.5697184801 1.9801509380 66.609634399 147.11654663 154.36619568 154.41552734 1.1859294176 118.14071655 1.2061089277  -999.250000 1.2061089277
 1334.9468994  -999.250000 15.187000275 15.187000275 -0.011992789 0.5327882767 1.9612979889 65.314086914 146.97485352 154.47755432 154.31069946 1.2128919363 118.35214233 1.1611801386  -999.250000 1.1611801386
 1335.0992432  -999.250000 15.196999550 15.196999550 -0.013996798 0.4955591559 1.9483662844 60.356929779 146.82455444 153.38539124 153.99438477 1.2199720144 117.38488770 1.1560200453  -999.250000 1.1560200453
 1335.2517090  -999.250000 15.138999939 15.138999939 -0.007005609 0.4975115657 1.9474831820 55.937076569 146.67117310 154.10806274 153.79136658 1.2279679775 118.23954773 1.1400640011  -999.250000 1.1400640011
 1335.4040527  -999.250000 15.164999962 15.164999962 -0.006001601 0.5088942051 1.9464173317 60.455104828 146.53227234 153.72853088 153.76780701 1.2210279703 118.60055542 1.1499599218  -999.250000 1.1499599218
 1335.5565186  -999.250000 15.121000290 15.121000290 -0.012994391 0.5432421565 1.9351551533 62.725372314 145.82806396 152.54774475 153.16316223 1.2040680647 118.13587952 1.1699198484  -999.250000 1.1699198484
 1335.7088623  -999.250000 15.050999641 15.050999641 -0.022983987 0.5391171575 1.9195278883 64.052810669 145.31588745 152.36968994 152.53582764 1.1930440664 117.81528473 1.2048598528  -999.250000 1.2048598528
 1335.8613281  -999.250000 14.930000305 14.930000305 -0.024998398 0.5126762390 1.9082716703 59.469364166 145.30569458 152.19868469 152.37829590 1.1939959526 116.45246887 1.2089840174  -999.250000 1.2089840174
 1336.0136719  -999.250000 14.923000336 14.923000336 -0.036990386 0.4746923447 1.9006557465 54.485980988 145.58685303 153.14619446 152.77822876 1.2029639482 116.09342194 1.1761322021  -999.250000 1.1761322021
