# LAS format log file from PETREL
# Project units are specified as depth units
#==================================================================
~Version information
VERS.   2.0:
WRAP.   NO:
#==================================================================
~Well
STRT .m      3164.4333496 :
STOP .m      4228.6425781 :
STEP .m     0.00000000 :
NULL .        -999.250000 :
COMP.           : COMPANY
WELL.  15/9-19B   : WELL
FLD.            : FIELD
LOC.            : LOCATION
SRVC.           : SERVICE COMPANY
DATE.  2018-09-11 14:48:02   : Log Export Date {yyyy-MM-dd HH:mm:ss}
PROV.           : PROVINCE
UWI.   15/9-19 B   : UNIQUE WELL ID
API.            : API NUMBER
#==================================================================
~Curve
DEPT .m                   : DEPTH
Lithology_geolink ._      : Lithology_geolink
CALI .in                  : CALI
RHOB .g/cm3               : RHOB
GR .gAPI                  : GR
DTC .us/ft                : DTC
RDEP .ohm.m               : RDEP
RSHA .ohm.m               : RSHA
RMED .ohm.m               : RMED
~Parameter
#==================================================================
~Ascii
# ...
 3724.0461426 12.000000000 6.2410998344 2.5086998940 46.785800934 88.429740906 1.4131692648 1.3709509373 1.4007538557
 3724.1984863 12.000000000 6.2404999733 2.5127000809 47.548393250 88.329902649 1.3316335678 1.2780292034 1.3096311092
 3724.3508301 12.000000000 6.2365999222 2.5192000866 48.101787567 87.518898010 1.2906068563 1.2341457605 1.2669731379
 3724.5034180 12.000000000 6.2315998077 2.5332999229 46.084209442 85.958412170 1.4829512835 1.3883281946 1.4381669760
 3724.6557617 12.000000000 6.2199001312 2.5453000069 40.784893036 83.747329712 1.8423143625 1.7090998888 1.7710728645
 3724.8081055 12.000000000 6.2171998024 2.5481998920 36.790622711 82.021766663 2.2880563736 2.0210852623 2.1285591125
 3724.9604492 12.000000000 6.2289996147 2.5457003117 35.495201111 80.750457764 2.6969380379 2.3855838776 2.4767107964
 3725.1127930 12.000000000 6.2301993370 2.5427999496 35.371406555 79.726737976 2.6580126286 2.3129074574 2.4209256172
 3725.2653809 12.000000000 6.2190999985 2.5439999104 35.438400269 79.436958313 2.4788913727 2.1306362152 2.2497417927
 3725.4177246 12.000000000 6.2119002342 2.5322999954 35.813411713 79.831298828 2.4137723446 2.1105811596 2.2002925873
 3725.5700684 12.000000000 6.2013998032 2.5136001110 36.260337830 80.892051697 2.3341722488 2.0365157127 2.1332015991
 3725.7224121 12.000000000 6.1859998703 2.5013000965 38.284294128 81.859764099 2.2542569637 1.9837062359 2.0717008114
 3725.8750000 12.000000000 6.1754999161 2.5165998936 42.518386841 82.525558472 2.1021876335 1.8624256849 1.9471188784
 3726.0273438 12.000000000 6.1764998436 2.5490000248 43.261394501 82.889533997 1.8802943230 1.6834933758 1.7660964727
 3726.1796875 12.000000000 6.1728000641 2.5634000301 43.012737274 82.975685120 1.8768663406 1.6794501543 1.7640544176
 3726.3320313 12.000000000 6.1690001488 2.5580000877 44.470512390 82.835418701 1.9807796478 1.7732425928 1.8604280949
 3726.4846191 12.000000000 6.1645998955 2.5504000187 44.912082672 82.473831177 2.1548893452 1.9242386818 2.0023660660
 3726.6369629 12.000000000 6.1676998138 2.5471000671 43.908973694 81.982589722 2.1204156876 1.8739763498 1.9605973959
 3726.7893066 12.000000000 6.1763997078 2.5339999199 42.830406189 81.283874512 2.1305241585 1.8595556021 1.9592657089
 3726.9416504 12.000000000 6.1718001366 2.5153000355 41.897377014 80.455490112 2.3326652050 2.0189497471 2.1249310970
 3727.0939941 12.000000000 6.1701002121 2.5223999023 40.824916840 80.011009216 2.4355392456 2.1120851040 2.2065024376
 3727.2465820 12.000000000 6.1770000458 2.5671999454 42.148433685 79.766548157 2.3979182243 2.0407125950 2.1460103989
 3727.3989258 12.000000000 6.1807999611 2.5318000317 44.038753510 79.732841492 2.5966758728 2.2358975410 2.3398272991
 3727.5512695 12.000000000 6.1747999191 2.5174002647 45.132099152 79.886466980 2.8927600384 2.5455341339 2.6056897640
 3727.7036133 12.000000000 6.1703000069 2.5234000683 45.881050110 80.368202209 2.6806039810 2.3171014786 2.4120280743
 3727.8562012 12.000000000 6.1729006767 2.5176000595 47.470668793 80.683494568 2.4334197044 2.0684213638 2.1799514294
 3728.0085449 12.000000000 6.1800999641 2.5271000862 48.236515045 80.993202209 2.2840166092 1.9507474899 2.0715949535
 3728.1608887 12.000000000 6.1837000847 2.5315001011 46.436710358 81.309158325 2.4192054272 2.1049842834 2.1931910515
 3728.3132324 12.000000000 6.1791005135 2.5346999168 44.571422577 81.537193298 2.4849019051 2.1575312614 2.2499017715
 3728.4658203 12.000000000 6.1747999191 2.5432999134 43.585468292 81.407127380 2.4860472679 2.1768963337 2.2508420944
 3728.6181641 12.000000000 6.1730999947 2.5490999222 43.015308380 81.259368896 2.4695181847 2.1444981098 2.2327177525
 3728.7705078 12.000000000 6.1760005951 2.5501000881 43.082553864 81.056190491 2.4187092781 2.0811424255 2.1815285683
 3728.9228516 12.000000000 6.1816000938 2.5596001148 43.365871429 81.422454834 2.4866213799 2.1697006226 2.2615156174
 3729.0754395 12.000000000 6.1826004982 2.5573999882 43.230369568 81.833564758 2.4374337196 2.1074903011 2.2087216377
 3729.2277832 13.000000000 6.1786999702 2.5539999008 45.531097412 82.259605408 2.3856427670 2.0420548916 2.1531610489
 3729.3801270 13.000000000 6.1806001663 2.5499999523 48.836875916 82.450355530 2.3499934673 2.0140187740 2.1290009022
 3729.5324707 13.000000000 6.1793999672 2.5453000069 51.563068390 82.483909607 2.3459286690 2.0257604122 2.1295478344
 3729.6848145 13.000000000 6.1785998344 2.5511999130 52.039199829 82.363639832 2.3013188839 2.0009336472 2.0968418121
 3729.8374023 13.000000000 6.1823000908 2.5597999096 51.347251892 82.140426636 2.1878747940 1.8968094587 1.9979465008
 3729.9897461 12.000000000 6.1805000305 2.5585000515 48.895240784 81.773132324 2.0245296955 1.7442313433 1.8569223881
 3730.1420898 12.000000000 6.1806001663 2.5555999279 44.054332733 81.482421875 2.1677894592 1.8886882067 1.9957721233
 3730.2944336 12.000000000 6.1831998825 2.5550999641 39.651519775 81.436370850 2.3481948376 2.0683252811 2.1653392315
 3730.4470215 12.000000000 6.1838998795 2.5557999611 39.681251526 81.731803894 2.4075961113 2.0844545364 2.1902010441
 3730.5993652 12.000000000 6.1819000244 2.5504999161 45.467903137 82.139106750 2.4994902611 2.1946039200 2.2837107182
 3730.7517090 12.000000000 6.1845998764 2.5398001671 50.395195007 82.388038635 2.3058412075 2.0095047951 2.1029233932
 3730.9040527 12.000000000 6.1841993332 2.5398001671 52.135868073 81.912971497 1.8954782486 1.6387482882 1.7437582016
 3731.0566406 13.000000000 6.1786999702 2.5510001183 51.357482910 81.021766663 1.9456483126 1.6700476408 1.7812569141
 3731.2089844 13.000000000 6.1810007095 2.5499999523 48.073978424 79.760047913 2.3973786831 2.0592062473 2.1732990742
 3731.3613281 13.000000000 6.1844000816 2.5376999378 43.384040833 78.796813965 2.7580559254 2.3747162819 2.4844210148
 3731.5136719 12.000000000 6.1909999847 2.5427000523 41.599872589 78.369468689 2.9172601700 2.5092592239 2.6218764782
 3731.6660156 12.000000000 6.1910996437 2.5604999065 41.081977844 78.538200378 2.7675879002 2.3591277599 2.4824151993
 3731.8186035 12.000000000 6.1879997253 2.5704998970 40.198226929 79.225288391 2.6354291439 2.2520418167 2.3673732281
 3731.9709473 12.000000000 6.1879997253 2.5724000931 40.706848145 80.062751770 2.6445443630 2.2963361740 2.3902583122
 3732.1232910 12.000000000 6.1883001328 2.5699000359 42.048564911 80.535003662 2.6719245911 2.3808808327 2.4263534546
 3732.2756348 12.000000000 6.1918001175 2.5557999611 44.028530121 80.600051880 2.4996161461 2.2436347008 2.2719943523
 3732.4282227 12.000000000 6.1974000931 2.5366001129 48.230560303 80.817543030 2.0110251904 1.7667398453 1.8322135210
 3732.5805664 12.000000000 6.1961998940 2.5276999474 51.240932465 80.955451965 1.9571201801 1.7484138012 1.8056564331
 3732.7329102 12.000000000 6.1943001747 2.5325000286 52.070220947 81.112739563 2.2818434238 2.0067255497 2.0278298855
 3732.8852539 13.000000000 6.1827998161 2.5374999046 51.958553314 81.325614929 2.6829607487 2.3342711926 2.1092276573
 3733.0378418 13.000000000 6.1758999825 2.5436999798 52.366683960 81.710983276 2.8457963467 2.4412598610 2.3765368462
 3733.1901855 13.000000000 6.1860995293 2.5464000702 52.894947052 82.267753601 2.9687323570 2.5526587963 2.6367504597
 3733.3425293 13.000000000 6.1982002258 2.5344998837 55.297348022 82.676910400 2.6769337654 2.1530396938 2.3562674522
 3733.4948730 13.000000000 6.2057995796 2.5220000744 59.751670837 82.995025635 2.3858537674 1.9904463291 2.1485693455
 3733.6472168 13.000000000 6.2129001617 2.5306999683 60.352893829 83.200431824 2.0453338623 1.7699965239 1.8801729679
 3733.7998047 13.000000000 6.2192001343 2.5432000160 58.608055115 83.031806946 1.9419888258 1.7058129311 1.8012099266
 3733.9521484 13.000000000 6.2192001343 2.5462999344 59.622352600 82.441040039 2.0008900166 1.8033555746 1.8666746616
 3734.1044922 13.000000000 6.2164998055 2.5464999676 60.276638031 81.093765259 2.0570905209 1.8379814625 1.9131859541
 3734.2568359 13.000000000 6.2144999504 2.5594999790 59.736518860 79.133766174 2.0512228012 1.8264755011 1.9044808149
