# LAS format log file from PETREL
# Project units are specified as depth units
#==================================================================
~Version information
VERS.   2.0:
WRAP.   NO:
#==================================================================
~Well
STRT .m      472.33206177 :
STOP .m      3119.8261719 :
STEP .m     0.00000000 :
NULL .        -999.250000 :
COMP.           : COMPANY
WELL.  15/9-17   : WELL
FLD.            : FIELD
LOC.            : LOCATION
SRVC.           : SERVICE COMPANY
DATE.  2018-09-11 14:48:01   : Log Export Date {yyyy-MM-dd HH:mm:ss}
PROV.           : PROVINCE
UWI.   15/9-17   : UNIQUE WELL ID
API.            : API NUMBER
#==================================================================
~Curve
DEPT .m                   : DEPTH
Lithology_geolink ._      : Lithology_geolink
DCAL .in                  : DCAL
CALI .in                  : CALI
DRHO .g/cm3               : DRHO
SGR .gAPI                 : SGR
NPHI .m3/m3               : NPHI
RHOB .g/cm3               : RHOB
PEF .b/e                  : PEF
GR .gAPI                  : GR
DTC .us/ft                : DTC
DT .us/ft                 : DT
DTE .us/ft                : DTE
RDEP .ohm.m               : RDEP
SP .mV                    : SP
RSHA .ohm.m               : RSHA
RXO .ohm.m                : RXO
RMED .ohm.m               : RMED
~Parameter
#==================================================================
~Ascii
# ...
 2056.5307617  -999.250000 12.046999931 12.046999931 0.0080000004 44.173999786 0.5252900124 1.9431307316 3.7769999504 36.716495514 146.19189453 164.12539673 163.79573059 0.4509935975 41.884223938 0.5618015528 0.5618015528 0.5330255628
 2056.6831055  -999.250000 12.086001396 12.086001396 -0.004000000 44.233001709 0.4950999916 1.9628596306 3.1449999809 38.743499756 145.58164978 163.12820435 163.28921509 0.4649775624 39.628368378 0.5001345873 0.5001345873 0.4850769341
 2056.8356934  -999.250000 12.086001396 12.086001396 -0.013000000 44.825000763 0.4897000194 1.9926034212 3.2479999065 40.372394562 145.44451904 163.37460327 163.17504883 0.4830000103 39.310497284 0.5841763020 0.5841763020 0.4629999995
 2056.9880371  -999.250000 12.086001396 12.086001396 -0.016000001 44.946998596 0.4789899886 2.0335333347 3.7449998856 39.626201630 144.57238770 163.00059509 161.98075867 0.4979999959 40.423015594 0.6390128136 0.6390128136 0.4679999948
 2057.1403809  -999.250000 12.086001396 12.086001396 -0.028000001 43.179000854 0.4775299728 2.0963931084 3.8389999866 33.135417938 142.38014221 160.00480652 159.54803467 0.4960031807 40.060482025 0.6431506276 0.6431506276 0.4939583838
 2057.2927246  -999.250000 12.086001396 12.086001396 -0.020000000 42.054000854 0.4761600196 2.1399917603 3.4730000496 31.907953262 141.43592834 158.00320435 158.59745789 0.4800256193 39.474956512 0.6903488040 0.6903488040 0.6028252840
 2057.4453125  -999.250000 12.086001396 12.086001396 -0.017000001 42.847999573 0.4903200269 2.1139938831 2.9549999237 35.712902069 142.79948425 158.99839783 160.00975037 0.4729999900 39.903007507 0.8003045321 0.8003045321 0.7170000076
 2057.5976563  -999.250000 12.086001396 12.086001396 -0.006000000 45.445999146 0.5170800090 2.0540645123 2.7730000019 38.059242249 145.09539795 161.99519348 162.70126343 0.4720000029 40.875732422 1.2043621540 1.2043621540 0.6719999909
 2057.7500000  -999.250000 12.086001396 12.086001396 -0.010000000 47.311000824 0.5147100091 2.0092911720 2.7130000591 42.961139679 147.02908325 164.49598694 164.91687012 0.4769920111 41.438453674 0.6949711442 0.6949711442 0.5282303691
 2057.9023438  -999.250000 12.086001396 12.086001396 -0.009000000 47.083000183 0.5326899886 2.0007736683 2.7439999580 39.255958557 148.70433044 166.12239075 166.68058777 0.4799951911 42.028919220 0.6863775849 0.6863775849 0.4870657027
 2058.0546875  -999.250000 12.086001396 12.086001396 -0.010000000 46.124000549 0.5263600349 2.0019028187 2.7760000229 43.081699371 149.94232178 167.99400330 168.17098999 0.4620288610 42.421852112 0.8038077354 0.8038077354 0.4860016108
 2058.2072754  -999.250000 12.086001396 12.086001396 -0.011000000 45.396999359 0.5243299603 2.0009653568 2.8420000076 41.939853668 150.44044495 168.74880981 168.60942078 0.4289999902 40.804325104 0.6840801239 0.6840801239 0.4909999967
 2058.3596191  -999.250000 12.086001396 12.086001396 -0.012000000 46.090000153 0.5118399858 1.9946913719 2.8489999771 40.252704620 150.49394226 168.50038147 168.61418152 0.4120272100 40.140537262 0.7091698647 0.7091698647 0.4919984043
 2058.5119629  -999.250000 12.031000137 12.031000137 -0.016000001 46.465000153 0.5307899714 1.9839521646 3.0280001163 36.069709778 150.49984741 168.74961853 168.81112671 0.4030144215 42.489818573 0.7617824078 0.7617824078 0.4939967692
 2058.6643066  -999.250000 12.000000000 12.000000000 -0.014000000 46.018001556 0.5355899930 1.9737200737 3.1989998817 36.747802734 150.46459961 168.99920654 168.62619019 0.4059951901 43.002559662 0.6939695477 0.6939695477 0.4979935884
 2058.8168945  -999.250000 12.007999420 12.007999420 -0.018999999 45.116001129 0.5272800326 1.9643514156 3.4590001106 38.403343201 149.61444092 168.00160217 167.70411682 0.4149999917 42.201946259 0.6751666665 0.6751666665 0.4959999919
 2058.9692383  -999.250000 11.991999626 11.991999626 -0.014000000 45.389999390 0.5146499872 1.9644584656 3.5369999409 44.240634918 148.87043762 167.00160217 166.76600647 0.4239999950 42.203891754 0.7267563939 0.7267563939 0.4900000095
 2059.1215820  -999.250000 11.991999626 11.991999626 -0.016000001 46.667999268 0.5131999850 1.9703323841 3.4240000248 44.312900543 148.15637207 166.12640381 166.16029358 0.4369792044 42.553707123 0.6511859298 0.6511859298 0.4840095937
 2059.2739258  -999.250000 12.000000000 12.000000000 -0.012000000 46.904998779 0.5199199915 1.9898903370 3.4249999523 45.527099609 147.83329773 166.12500000 165.72335815 0.4519759417 41.833297729 0.7085136175 0.7085136175 0.4849984050
 2059.4265137  -999.250000 12.093999863 12.093999863 -0.011000000 45.133998871 0.4882699847 2.0050237179 3.2730000019 41.381660461 146.69857788 165.12660217 164.34024048 0.4609999955 41.777378082 0.5572371483 0.5572371483 0.5030000210
 2059.5788574  -999.250000 12.229000092 12.229000092 -0.011000000 43.799999237 0.4842300117 2.0110738277 3.2030000687 39.690704346 144.94378662 162.75379944 162.62287903 0.4670000076 41.767356873 0.6309583187 0.6309583187 0.5370000005
 2059.7312012  -999.250000 12.508000374 12.508000374 -0.011000000 44.561000824 0.4606600106 2.0088601112 2.8819999695 40.842147827 144.31532288 162.00120544 161.69010925 0.4729903936 40.825984955 0.6182307601 0.6182307601 0.5689488053
 2059.8835449  -999.250000 12.531000137 12.531000137 -0.012000000 45.425998688 0.4936399758 2.0010802746 2.8259999752 41.218399048 143.44612122 161.00158691 160.74940491 0.4799887836 41.428478241 0.6901152134 0.6901152134 0.5709967613
 2060.0358887  -999.250000 12.531000137 12.531000137 -0.013000000 45.237998962 0.4922299981 1.9921473265 3.0590000153 38.384101868 143.18217468 160.00320435 160.44761658 0.4899839759 41.020496368 0.7260304689 0.7260304689 0.5530288219
 2060.1884766  -999.250000 12.569999695 12.569999695 -0.005000000 44.243999481 0.4980500042 1.9789944887 3.6730000973 35.629405975 143.77479553 160.99838257 161.12950134 0.5000000000 40.322040558 0.7448654175 0.7448654175 0.5379999876
 2060.3408203  -999.250000 12.616999626 12.616999626 0.0040000002 43.549999237 0.4995500147 1.9630546570 4.5630002022 40.929485321 144.06246948 161.49919128 161.63999939 0.5029951930 39.806869507 0.7031506300 0.7031506300 0.5320096016
 2060.4931641  -999.250000 12.694999695 12.694999695 0.0299999993 43.171001434 0.5131999850 1.9579609632 5.8800001144 43.464946747 144.46878052 161.99919128 161.96054077 0.4930160344 40.623420715 0.7498015761 0.7498015761 0.5469759703
 2060.6455078  -999.250000 12.680000305 12.680000305 0.0599999987 42.529998779 0.5190100074 1.9532856941 6.3289999962 43.779998779 144.54336548 162.00000000 162.05694580 0.4850128293 40.884178162 0.6882483959 0.6882483959 0.5519919991
 2060.7980957  -999.250000 12.529998779 12.529998779 0.0640000030 42.035999298 0.5102800131 1.9380428791 6.5809998512 38.851913452 144.76943970 162.12480164 162.41833496 0.4799999893 40.586940765 0.8421570659 0.8421570659 0.5389999747
 2060.9504395  -999.250000 12.305000305 12.305000305 0.0509999990 41.398998260 0.5174400210 1.9270343781 6.3000001907 35.161907196 145.42082214 162.99859619 162.98057556 0.4819999933 40.722118378 0.5797275305 0.5797275305 0.5299999714
 2061.1027832  -999.250000 12.265999794 12.265999794 0.0390000008 42.013999939 0.4959999919 1.9303510189 6.1700000763 38.557540894 145.69636536 163.12480164 163.21986389 0.4839968085 40.475318909 0.4952628314 0.4952628314 0.5369887948
 2061.2551270  -999.250000 12.241999626 12.241999626 0.0149999997 43.846000671 0.4813600183 1.9432054758 5.3020000458 39.561397552 145.74638367 163.37460327 163.62168884 0.4839999974 41.172454834 0.5773136020 0.5773136020 0.5449872017
 2061.4077148  -999.250000 12.180000305 12.180000305 0.0020000001 45.604999542 0.4669100046 1.9623456001 4.3309998512 42.437999725 146.58290100 164.12500000 164.17454529 0.4850000143 41.262668610 0.6746570468 0.6746570468 0.5440000296
 2061.5600586  -999.250000 12.180000305 12.180000305 -0.011000000 46.256999969 0.5010300279 1.9729070663 4.0780000687 40.750000000 146.76681519 164.37500000 164.64343262 0.4860000014 41.593257904 0.5683910251 0.5683910251 0.5490000248
 2061.7124023  -999.250000 12.241999626 12.241999626 -0.007000000 45.828998566 0.5166500211 1.9832832813 3.9140000343 40.594249725 147.74873352 165.12379456 165.37661743 0.4860000014 42.049301147 0.6899999976 0.6899999976 0.5509967804
