# LAS format log file from PETREL
# Project units are specified as depth units
#==================================================================
~Version information
VERS.   2.0:
WRAP.   NO:
#==================================================================
~Well
STRT .m      2122.4746094 :
STOP .m      4102.6074219 :
STEP .m     0.00000000 :
NULL .        -999.250000 :
COMP.           : COMPANY
WELL.  15/9-19A   : WELL
FLD.            : FIELD
LOC.            : LOCATION
SRVC.           : SERVICE COMPANY
DATE.  2018-09-11 14:48:01   : Log Export Date {yyyy-MM-dd HH:mm:ss}
PROV.           : PROVINCE
UWI.   15/9-19 A   : UNIQUE WELL ID
API.            : API NUMBER
#==================================================================
~Curve
DEPT .m                   : DEPTH
Lithology_geolink ._      : Lithology_geolink
CALI .in                  : CALI
RHOB .g/cm3               : RHOB
GR .gAPI                  : GR
RDEP .ohm.m               : RDEP
RSHA .ohm.m               : RSHA
RMED .ohm.m               : RMED
~Parameter
#==================================================================
~Ascii
# ...
 2685.7448730  -999.250000 12.776499748 2.1768000126 33.046073914 0.5471000075 0.8033000231 0.5428000093
 2685.8972168  -999.250000 12.685299873 2.1428999901 35.825168610 0.5436999798 0.7639999986 0.5363000035
 2686.0498047  -999.250000 13.288999557 2.1521999836 41.956874847 0.5404999852 0.7540000081 0.5331000090
 2686.2021484  -999.250000 12.827799797 2.1886000633 44.024196625 0.5371000171 0.7570000291 0.5313000083
 2686.3544922  -999.250000 12.648599625 2.1932001114 43.388427734 0.5333999991 0.7477999926 0.5275999904
 2686.5068359  -999.250000 12.887200356 2.1923999786 43.136203766 0.5296999812 0.7231000066 0.5220000148
 2686.6594238  -999.250000 13.830100060 2.1960000992 40.636314392 0.5271000266 0.7014999986 0.5182999969
 2686.8117676  -999.250000 13.034899712 2.1865999699 37.373928070 0.5263000131 0.6922000051 0.5181000233
 2686.9641113  -999.250000 12.780099869 2.1728999615 35.308208466 0.5270000100 0.6919000149 0.5200999975
 2687.1164551  -999.250000 12.763699532 2.1603000164 33.449878693 0.5282999873 0.7012000084 0.5230000019
 2687.2687988  -999.250000 13.268500328 2.1677000523 35.665676117 0.5295000076 0.7190999985 0.5263000131
 2687.4213867  -999.250000 12.760699272 2.1956000328 40.319343567 0.5300999880 0.7314000130 0.5288000107
 2687.5737305  -999.250000 12.507800102 2.2311999798 40.855052948 0.5300999880 0.7217000127 0.5289999843
 2687.7260742  -999.250000 12.442000389 2.2456998825 37.355720520 0.5296999812 0.6959999800 0.5271000266
 2687.8784180  -999.250000 12.566800117 2.2179000378 37.101696014 0.5289000273 0.6796000004 0.5252000093
 2688.0310059  -999.250000 12.657199860 2.1814000607 38.059261322 0.5278000236 0.6866999865 0.5241000056
 2688.1833496  -999.250000 12.757300377 2.1584000587 37.104232788 0.5264999866 0.7056000233 0.5228999853
 2688.3356934  -999.250000 12.979599953 2.1257998943 36.031120300 0.5246999860 0.7177000046 0.5206999779
 2688.4880371  -999.250000 12.538400650 2.0927000046 34.840713501 0.5227000117 0.7246000171 0.5180000067
 2688.6406250  -999.250000 12.843400002 2.0977001190 35.739551544 0.5209000111 0.7437000275 0.5156999826
 2688.7929688  -999.250000 14.066399574 2.1291999817 36.837642670 0.5199000239 0.7820000052 0.5144000053
 2688.9453125  -999.250000 13.984998703 2.1570999622 36.868152618 0.5202000141 0.8187000155 0.5146999955
 2689.0976563  -999.250000 13.680000305 2.1603000164 38.549800873 0.5216000080 0.8281000257 0.5170000196
 2689.2502441  -999.250000 12.564999580 2.1500000954 38.263763428 0.5235000253 0.8119000196 0.5206000209
 2689.4025879  -999.250000 12.503000259 2.1645998955 38.226558685 0.5249999762 0.7878999710 0.5235999823
 2689.5549316  -999.250000 12.653400421 2.1928000450 38.787399292 0.5253999829 0.7627000213 0.5241000056
 2689.7072754  -999.250000 12.750499725 2.2269001007 39.352394104 0.5246000290 0.7386000156 0.5228000283
 2689.8596191  -999.250000 12.446400642 2.2641000748 40.658412933 0.5234000087 0.7228999734 0.5210999846
 2690.0122070  -999.250000 12.237400055 2.2665998936 41.113773346 0.5228000283 0.7185999751 0.5198000073
 2690.1645508  -999.250000 12.855199814 2.2313001156 36.949089050 0.5231999755 0.7203000188 0.5188999772
 2690.3168945  -999.250000 13.319000244 2.1898000240 35.393386841 0.5246000290 0.7203000188 0.5192000270
 2690.4692383  -999.250000 12.975600243 2.1573998928 38.203170776 0.5261999965 0.7182999849 0.5207999945
 2690.6218262  -999.250000 12.487699509 2.1640999317 36.857173920 0.5266000032 0.7189000249 0.5220999718
 2690.7741699  -999.250000 13.686300278 2.1958999634 40.092502594 0.5249999762 0.7156999707 0.5206000209
 2690.9265137  -999.250000 12.173000336 2.2084000111 44.999332428 0.5214999914 0.7013999820 0.5163000226
 2691.0788574  -999.250000 12.173900604 2.1891000271 41.790027618 0.5174000263 0.6851999760 0.5115000010
 2691.2314453  -999.250000 12.119099617 2.1596999168 38.430774689 0.5138999820 0.6776000261 0.5080999732
 2691.3837891  -999.250000 12.494799614 2.1589999199 37.848926544 0.5120999813 0.6751999855 0.5065000057
 2691.5361328  -999.250000 12.061400414 2.1672999859 36.300483704 0.5130000114 0.6728000045 0.5067999959
 2691.6884766  -999.250000 12.019000053 2.1501998901 33.754280090 0.5173000097 0.6773999929 0.5108000040
 2691.8408203  -999.250000 11.981200218 2.1113998890 31.846811295 0.5245000124 0.7064999938 0.5199999809
 2691.9934082  -999.250000 13.978199959 2.1038999557 33.473480225 0.5324000120 0.7670999765 0.5320000052
 2692.1457520  -999.250000 14.043300629 2.1484000683 35.149314880 0.5371999741 0.8227000237 0.5396999717
 2692.2980957  -999.250000 11.979900360 2.1893999577 35.805149078 0.5364999771 0.8206999898 0.5376999974
 2692.4504395  -999.250000 11.858800888 2.2019000053 38.078407288 0.5303999782 0.7753999829 0.5277000070
 2692.6030273  -999.250000 12.026499748 2.1889998913 34.573638916 0.5214999914 0.7506999969 0.5159000158
 2692.7553711  -999.250000 13.417200089 2.1931002140 29.578508377 0.5134999752 0.7742000222 0.5067999959
 2692.9077148  -999.250000 11.887000084 2.2551999092 27.771488190 0.5088000298 0.8222000003 0.5027999878
 2693.0600586  -999.250000 11.590000153 2.2546999454 28.195329666 0.5084000230 0.8409000039 0.5045999885
 2693.2126465  -999.250000 11.720400810 2.1558001041 33.335754395 0.5106999874 0.8005999923 0.5099999905
 2693.3649902  -999.250000 12.336298943 2.1440000534 40.267986298 0.5130000114 0.7350999713 0.5145000219
 2693.5173340  -999.250000 11.996000290 2.1858000755 41.272804260 0.5131000280 0.6869000196 0.5142999887
 2693.6696777  -999.250000 11.969300270 2.2079999447 39.716201782 0.5108000040 0.6628000140 0.5102999806
 2693.8220215  -999.250000 13.581999779 2.1812000275 39.987220764 0.5080000162 0.6575999856 0.5070999861
 2693.9746094  -999.250000 12.549698830 2.1401000023 34.798332214 0.5065000057 0.6697000265 0.5073999763
 2694.1269531  -999.250000 12.970700264 2.1342000961 31.444568634 0.5063999891 0.6876999736 0.5097000003
 2694.2792969  -999.250000 12.627799988 2.1361999512 34.557994843 0.5062000155 0.6923999786 0.5102000237
 2694.4316406  -999.250000 12.274200439 2.1475000381 38.438957214 0.5048000216 0.6797000170 0.5065000057
 2694.5842285  -999.250000 12.212300301 2.1628000736 37.266605377 0.5026000142 0.6658999920 0.4999000132
 2694.7365723  -999.250000 12.229299545 2.1547999382 36.802940369 0.5008000135 0.6733999848 0.4945999980
 2694.8889160  -999.250000 12.583100319 2.1510000229 38.543102264 0.5005999804 0.7055000067 0.4939000010
 2695.0412598  -999.250000 12.311500549 2.1408998966 38.471141815 0.5018000007 0.7286000252 0.4963999987
 2695.1938477  -999.250000 12.148099899 2.0539000034 36.386943817 0.5034000278 0.7142999768 0.4986000061
 2695.3461914  -999.250000 12.732400894 1.9882999659 38.764976501 0.5044999719 0.6848999858 0.4990000129
 2695.4985352  -999.250000 12.015899658 2.0383000374 39.947307587 0.5045999885 0.6696000099 0.4986999929
 2695.6508789  -999.250000 12.130100250 2.1270000935 37.102569580 0.5037999749 0.6650999784 0.4981000125
 2695.8032227  -999.250000 11.843699455 2.1818997860 36.087245941 0.5027999878 0.6554999948 0.4966999888
 2695.9558105  -999.250000 11.834699631 2.1984000206 39.370323181 0.5023999810 0.6373000145 0.4955999851
 2696.1081543  -999.250000 12.011499405 2.1809999943 43.579853058 0.5031999946 0.6225000024 0.4966999888
 2696.2604980  -999.250000 11.754599571 2.1461000443 42.145812988 0.5051000118 0.6229000092 0.5004000068
 2696.4128418  -999.250000 11.962499619 2.1542000771 36.204666138 0.5066000223 0.6349999905 0.5037000179
 2696.5654297  -999.250000 12.008299828 2.1575000286 33.992622375 0.5067999959 0.6452999711 0.5037000179
 2696.7177734  -999.250000 11.798399925 2.1398999691 36.033119202 0.5058000088 0.6481999755 0.5008000135
 2696.8701172  -999.250000 11.887800217 2.1531000137 35.796684265 0.5044999719 0.6481000185 0.4981999993
 2697.0224609  -999.250000 11.812800407 2.1591000557 37.473117828 0.5041999817 0.6492000222 0.4979999959
 2697.1750488  -999.250000 12.357799530 2.1549999714 36.651725769 0.5048000216 0.6521999836 0.4995000064
 2697.3273926  -999.250000 11.945300102 2.1644001007 36.873439789 0.5058000088 0.6539999843 0.5011000037
