# LAS format log file from PETREL
# Project units are specified as depth units
#==================================================================
~Version information
VERS.   2.0:
WRAP.   NO:
#==================================================================
~Well
STRT .m      489.99996948 :
STOP .m      1530.0000000 :
STEP .m     0.00000000 :
NULL .        -999.250000 :
COMP.           : COMPANY
WELL.  15/9-22   : WELL
FLD.            : FIELD
LOC.            : LOCATION
SRVC.           : SERVICE COMPANY
DATE.  2018-09-11 14:48:02   : Log Export Date {yyyy-MM-dd HH:mm:ss}
PROV.           : PROVINCE
UWI.   15/9-22   : UNIQUE WELL ID
API.            : API NUMBER
#==================================================================
~Curve
DEPT .m                   : DEPTH
Lithology_geolink ._      : Lithology_geolink
BS .in                    : BS
GR .gAPI                  : GR
RDEP .ohm.m               : RDEP
RMED .ohm.m               : RMED
~Parameter
#==================================================================
~Ascii
# ...
 846.99993896  -999.250000 17.500000000 184.04385376 1.0030000210 1.1000000238
 847.09997559  -999.250000 17.500000000 191.61737061 1.0039999485 1.0859999657
 847.20001221  -999.250000 17.500000000 192.89900208 1.0180000067 1.0770000219
 847.29998779  -999.250000 17.500000000 188.26899719 0.9850000143 1.0210000277
 847.40002441  -999.250000 17.500000000 181.56199646 0.9689999819 1.0509999990
 847.50000000  -999.250000 17.500000000 176.41700745 0.9720054865 1.0880305767
 847.59997559  -999.250000 17.500000000 172.92213440 0.9810000062 1.1380000114
 847.69995117  -999.250000 17.500000000 169.97860718 0.9649999738 1.1560000181
 847.79998779  -999.250000 17.500000000 167.08799744 0.9769999981 1.0989999771
 847.90002441  -999.250000 17.500000000 164.88900757 1.0700000525 1.0549999475
 848.00000000  -999.250000 17.500000000 164.80099487 1.1859999895 1.0620000362
 848.10003662  -999.250000 17.500000000 165.40299988 1.1789774895 1.1330451965
 848.19995117  -999.250000 17.500000000 164.68887329 1.1419999599 1.2070000172
 848.29998779  -999.250000 17.500000000 161.89671326 1.1699999571 1.2400000095
 848.40002441  -999.250000 17.500000000 157.72500610 1.2050000429 1.2719999552
 848.50000000  -999.250000 17.500000000 154.75500488 1.2489999533 1.2649999857
 848.60003662  -999.250000 17.500000000 154.67799377 1.2569999695 1.2510000467
 848.70001221  -999.250000 17.500000000 155.97799683 1.2679890394 1.1459823847
 848.79998779  -999.250000 17.500000000 157.25721741 1.2500000000 1.1169999838
 848.89996338  -999.250000 17.500000000 157.60800171 1.2150000334 1.1180000305
 849.00000000  -999.250000 17.500000000 156.99699402 1.2309999466 1.1109999418
 849.10003662  -999.250000 17.500000000 156.24600220 1.2569999695 1.1460000277
 849.20001221  -999.250000 17.500000000 155.18499756 1.2679982185 1.2170414925
 849.30004883  -999.250000 17.500000000 154.70899963 1.2650072575 1.2850005627
 849.39996338  -999.250000 17.500000000 155.69441223 1.2769999504 1.2860000134
 849.50000000  -999.250000 17.500000000 158.11799622 1.2760000229 1.2740000486
 849.59997559  -999.250000 17.500000000 160.87899780 1.2879999876 1.2200000286
 849.70001221  -999.250000 17.500000000 162.20500183 1.2589999437 1.2070000172
 849.80004883  -999.250000 17.500000000 161.02200317 1.2479988337 1.1739829779
 849.90002441  -999.250000 17.500000000 157.25199890 1.2469872236 1.1600164175
 850.00000000  -999.250000 17.500000000 152.95762634 1.2259999514 1.1870000362
 850.09997559  -999.250000 17.500000000 150.26400757 1.2319999933 1.1720000505
 850.20001221  -999.250000 17.500000000 148.10800171 1.2309999466 1.2259999514
 850.29998779  -999.250000 17.500000000 144.81900024 1.2730000019 1.2309999466
 850.40002441  -999.250000 17.500000000 140.06700134 1.2770091295 1.2690110207
 850.49993896  -999.250000 17.500000000 136.49136353 1.2920000553 1.2869999409
 850.59997559  -999.250000 17.500000000 135.43963623 1.2960000038 1.2810000181
 850.70001221  -999.250000 17.500000000 135.05799866 1.3109999895 1.2669999599
 850.79998779  -999.250000 17.500000000 133.91200256 1.3279999495 1.2180000544
 850.90002441  -999.250000 17.500000000 133.54100037 1.3589999676 1.1979999542
 851.00000000  -999.250000 17.500000000 134.52699280 1.3629988432 1.1980103254
 851.09997559  -999.250000 17.500000000 137.48419189 1.3609999418 1.2150000334
 851.19995117  -999.250000 17.500000000 141.31033325 1.3819999695 1.2730000019
 851.29998779  -999.250000 17.500000000 144.66900635 1.4049999714 1.3099999428
 851.40002441  -999.250000 17.500000000 146.66200256 1.3769999743 1.3739999533
 851.50000000  -999.250000 17.500000000 146.25799561 1.4069999456 1.3220000267
 851.60003662  -999.250000 17.500000000 143.42399597 1.3950005770 1.2849944830
 851.69995117  -999.250000 17.500000000 140.59571838 1.3960000277 1.2760000229
 851.79998779  -999.250000 17.500000000 140.02835083 1.3960000277 1.2330000401
 851.89996338  -999.250000 17.500000000 141.07899475 1.3890000582 1.2359999418
 852.00000000  -999.250000 17.500000000 142.30000305 1.3689999580 1.2389999628
 852.10003662  -999.250000 17.500000000 144.40100098 1.3359999657 1.2350000143
 852.20001221  -999.250000 17.500000000 148.61700439 1.3269927502 1.2409683466
 852.29998779  -999.250000 17.500000000 154.25955200 1.3150000572 1.1890000105
 852.39996338  -999.250000 17.500000000 158.43690491 1.3159999847 1.1640000343
 852.50000000  -999.250000 17.500000000 159.92399597 1.2829999924 1.1679999828
 852.60003662  -999.250000 17.500000000 158.96000671 1.2699999809 1.1840000153
 852.70001221  -999.250000 17.500000000 155.02600098 1.2519999743 1.1490000486
 852.80004883  -999.250000 17.500000000 147.41999817 1.2679945230 1.1630011797
 852.89996338  -999.250000 17.500000000 140.34532166 1.2589999437 1.1649999619
 853.00000000  -999.250000 17.500000000 140.42095947 1.2510000467 1.1820000410
 853.09997559  -999.250000 17.500000000 147.57699585 1.2419999838 1.1909999847
 853.20001221  -999.250000 17.500000000 156.25399780 1.2539999485 1.1779999733
 853.30004883  -999.250000 17.500000000 162.61300659 1.2720097303 1.1669939756
 853.40002441  -999.250000 17.500000000 165.66000366 1.2799706459 1.1619999409
 853.50000000  -999.250000 17.500000000 167.69276428 1.2319999933 1.1619999409
 853.59997559  -999.250000 17.500000000 170.06199646 1.2439999580 1.1180000305
 853.70001221  -999.250000 17.500000000 173.10000610 1.2180000544 1.1009999514
 853.79998779  -999.250000 17.500000000 176.49299622 1.2189999819 1.0909999609
 853.90002441  -999.250000 17.500000000 178.08500671 1.2079981565 1.1110017300
 854.00006104  -999.250000 17.500000000 174.05700684 1.2049963474 1.1140048504
 854.09997559  -999.250000 17.500000000 166.31773376 1.2020000219 1.1180000305
 854.20001221  -999.250000 17.500000000 157.72099304 1.2230000496 1.1640000343
 854.29998779  -999.250000 17.500000000 151.70599365 1.2649999857 1.2749999762
 854.40002441  -999.250000 17.500000000 150.39399719 1.2949999571 1.2920000553
 854.50000000  -999.250000 17.500000000 152.72700500 1.2819987535 1.2529994249
 854.59997559  -999.250000 17.500000000 155.25445557 1.2799999714 1.2519999743
 854.69995117  -999.250000 17.500000000 154.02250671 1.2549999952 1.2130000591
 854.79998779  -999.250000 17.500000000 150.27000427 1.2589999437 1.1909999847
 854.90002441  -999.250000 17.500000000 147.74800110 1.2460000515 1.1710000038
 855.00000000  -999.250000 17.500000000 147.86399841 1.2439999580 1.1829999685
 855.10003662  -999.250000 17.500000000 150.03500366 1.2409963608 1.2040690184
 855.19995117  -999.250000 17.500000000 153.11412048 1.2350000143 1.3170000315
 855.29998779  -999.250000 17.500000000 156.12516785 1.2139999866 1.3789999485
 855.39996338  -999.250000 17.500000000 157.76600647 1.1959999800 1.3380000591
 855.50000000  -999.250000 17.500000000 157.75399780 1.1909999847 1.2860000134
 855.60003662  -999.250000 17.500000000 157.50700378 1.1879999638 1.1849999428
 855.70001221  -999.250000 17.500000000 157.67999268 1.1830091476 1.1580060720
 855.79998779  -999.250000 17.500000000 158.21168518 1.1979999542 1.1679999828
 855.89996338  -999.250000 17.500000000 158.58477783 1.2100000381 1.1629999876
 856.00000000  -999.250000 17.500000000 157.25700378 1.2259999514 1.1529999971
 856.09997559  -999.250000 17.500000000 152.40199280 1.2220000029 1.1549999714
 856.20001221  -999.250000 17.500000000 148.18699646 1.2180000544 1.1699999571
 856.30004883  -999.250000 17.500000000 146.16200256 1.2240183353 1.1740086079
 856.39996338  -999.250000 17.500000000 145.25654602 1.2389999628 1.1809999943
 856.50000000  -999.250000 17.500000000 144.63238525 1.2330000401 1.2039999962
 856.59997559  -999.250000 17.500000000 143.94700623 1.2430000305 1.1950000525
 856.70001221  -999.250000 17.500000000 143.49299622 1.2510000467 1.1979999542
 856.80004883  -999.250000 17.500000000 145.50799561 1.2510000467 1.1849999428
 856.90002441  -999.250000 17.500000000 149.98500061 1.2480072975 1.1890006065
 857.00000000  -999.250000 17.500000000 154.06550598 1.2599999905 1.1900000572
 857.09997559  -999.250000 17.500000000 155.26327515 1.2840000391 1.2100000381
