# LAS format log file from PETREL
# Project units are specified as depth units
#==================================================================
~Version information
VERS.   2.0:
WRAP.   NO:
#==================================================================
~Well
STRT .m      2122.4746094 :
STOP .m      4102.6074219 :
STEP .m     0.00000000 :
NULL .        -999.250000 :
COMP.           : COMPANY
WELL.  15/9-19A   : WELL
FLD.            : FIELD
LOC.            : LOCATION
SRVC.           : SERVICE COMPANY
DATE.  2018-09-11 14:48:01   : Log Export Date {yyyy-MM-dd HH:mm:ss}
PROV.           : PROVINCE
UWI.   15/9-19 A   : UNIQUE WELL ID
API.            : API NUMBER
#==================================================================
~Curve
DEPT .m                   : DEPTH
Lithology_geolink ._      : Lithology_geolink
CALI .in                  : CALI
RHOB .g/cm3               : RHOB
GR .gAPI                  : GR
RDEP .ohm.m               : RDEP
RSHA .ohm.m               : RSHA
RMED .ohm.m               : RMED
~Parameter
#==================================================================
~Ascii
# ...
 2181.1484375  -999.250000 15.911599159  -999.250000 45.507900238 0.3903000057  -999.250000 2.8578999043
 2181.3010254  -999.250000 15.919099808  -999.250000 43.959701538 0.5303999782  -999.250000 5.4875998497
 2181.4533691  -999.250000 16.578199387  -999.250000 44.713390350 0.7681999803  -999.250000 11.370100021
 2181.6057129  -999.250000 18.282899857  -999.250000 45.581108093 0.8557000160  -999.250000 8.2131996155
 2181.7580566  -999.250000 18.926900864  -999.250000 47.207489014 0.8852000237  -999.250000 8.8330001831
 2181.9106445  -999.250000 18.451099396  -999.250000 43.374900818 0.9117000103  -999.250000 7.9970998764
 2182.0629883  -999.250000 18.512300491  -999.250000 45.030899048 0.8991000056  -999.250000 7.7934999466
 2182.2153320  -999.250000 19.361600876  -999.250000 48.136520386 0.8791999817  -999.250000 7.5774998665
 2182.3676758  -999.250000 19.520200729  -999.250000 48.791259766 0.8834999800  -999.250000 8.5413999557
 2182.5202637  -999.250000 19.465599060  -999.250000 49.534301758 0.8848000169  -999.250000 8.2833003998
 2182.6726074  -999.250000 19.122200012  -999.250000 48.927799225 0.8784000278  -999.250000 5.9717001915
 2182.8249512  -999.250000 18.885299683  -999.250000 48.893852234 0.9657999873  -999.250000 9.9933004379
 2182.9772949  -999.250000 17.257499695  -999.250000 49.242938995 0.9769999981  -999.250000 14.368200302
 2183.1296387  -999.250000 18.197200775  -999.250000 47.585662842 0.9848999977  -999.250000 17.858200073
 2183.2822266  -999.250000 19.474599838  -999.250000 45.131900787 0.9824000001  -999.250000 21.745199203
 2183.4345703  -999.250000 19.131700516  -999.250000 46.378799438 0.9631999731  -999.250000 22.970399857
 2183.5869141  -999.250000 18.613199234  -999.250000 49.607917786 0.9319000244  -999.250000 23.087400436
 2183.7392578  -999.250000 19.447399139  -999.250000 48.205558777 0.9451000094  -999.250000 18.522499084
 2183.8918457  -999.250000 18.575700760  -999.250000 47.233798981 0.9591000080  -999.250000 14.836500168
 2184.0441895  -999.250000 19.348899841  -999.250000 48.080799103 1.0062999725  -999.250000 10.615799904
 2184.1965332  -999.250000 19.845199585  -999.250000 43.887622833 1.0719000101  -999.250000 9.9697999954
 2184.3488770  -999.250000 19.658599854  -999.250000 40.081798553 1.0281000137  -999.250000 11.661000252
 2184.5014648  -999.250000 19.461999893  -999.250000 40.750701904 0.9948999882  -999.250000 13.253499985
 2184.6538086  -999.250000 19.846200943  -999.250000 45.775501251 0.9983000159  -999.250000 14.965900421
 2184.8061523  -999.250000 19.200000763  -999.250000 44.931255341 1.0995999575  -999.250000 12.283599854
 2184.9584961  -999.250000 18.482299805  -999.250000 45.089244843 1.1966999769  -999.250000 10.160099983
 2185.1108398  -999.250000 17.390899658  -999.250000 45.351280212 1.2776000500  -999.250000 8.4651002884
 2185.2634277  -999.250000 16.835100174  -999.250000 45.224300385 1.3424999714  -999.250000 6.8825998306
 2185.4157715  -999.250000 17.304199219  -999.250000 50.735969543 1.3680000305  -999.250000 5.2877998352
 2185.5681152  -999.250000 17.948400497  -999.250000 51.518455505 1.3847999573  -999.250000 4.6300001144
 2185.7204590  -999.250000 18.773799896  -999.250000 47.187652588 1.4047000408  -999.250000 4.8867001534
 2185.8730469  -999.250000 19.433599472  -999.250000 49.360000610 1.3967000246  -999.250000 5.4723000526
 2186.0253906  -999.250000 18.969800949  -999.250000 51.551200867 1.3673000336  -999.250000 6.1697998047
 2186.1777344  -999.250000 16.338699341  -999.250000 50.350025177 1.3434000015  -999.250000 6.9538002014
 2186.3300781  -999.250000 14.875499725  -999.250000 52.340805054 1.3576999903  -999.250000 7.0913000107
 2186.4826660  -999.250000 13.149900436  -999.250000 52.573398590 1.4413000345  -999.250000 5.7688999176
 2186.6350098  -999.250000 11.982000351  -999.250000 51.037200928 1.4990999699  -999.250000 4.5840997696
 2186.7873535  -999.250000 11.945699692  -999.250000 52.014633179 1.4852999449  -999.250000 4.5493998528
 2186.9396973  -999.250000 11.929900169  -999.250000 53.245128632 1.4721000195  -999.250000 5.0339999199
 2187.0920410  -999.250000 11.878700256  -999.250000 52.169628143 1.5027999878  -999.250000 5.9598999023
 2187.2446289  -999.250000 11.922100067  -999.250000 50.065299988 1.5801999569  -999.250000 6.0225000381
 2187.3969727  -999.250000 11.981399536  -999.250000 52.288337708 1.6014000177  -999.250000 5.2469000816
 2187.5493164  -999.250000 12.138798714  -999.250000 55.845695496 1.6714999676  -999.250000 4.6567001343
 2187.7016602  -999.250000 12.738699913  -999.250000 58.343597412 1.7929999828  -999.250000 4.0281000137
 2187.8542480  -999.250000 12.430500984  -999.250000 57.251598358 1.8018000126  -999.250000 3.9783999920
 2188.0065918  -999.250000 12.308800697  -999.250000 56.078300476 1.8287999630  -999.250000 3.5977001190
 2188.1589355  -999.250000 12.244500160  -999.250000 55.587085724 1.8516000509  -999.250000 3.5397000313
 2188.3112793  -999.250000 12.242600441  -999.250000 56.208400726 1.8518999815  -999.250000 3.6830000877
 2188.4638672  -999.250000 12.245300293  -999.250000 55.705001831 1.7986999750  -999.250000 3.6517999172
 2188.6162109  -999.250000 12.410500526  -999.250000 53.225200653 1.8200999498  -999.250000 3.2535998821
 2188.7685547  -999.250000 12.659899712  -999.250000 52.584327698 1.8415000439  -999.250000 2.9403998852
 2188.9208984  -999.250000 12.654500008  -999.250000 55.150981903 1.8658000231  -999.250000 2.7311999798
 2189.0734863  -999.250000 12.606800079  -999.250000 56.395500183 1.9893000126  -999.250000 2.6953999996
 2189.2258301  -999.250000 12.827099800  -999.250000 57.619098663 2.0411000252  -999.250000 2.8706998825
 2189.3781738  -999.250000 13.603199959  -999.250000 59.135971069 2.0423998833  -999.250000 3.1113998890
 2189.5305176  -999.250000 13.350998878  -999.250000 59.710681915 2.0727000237  -999.250000 2.9811999798
 2189.6828613  -999.250000 12.543498993  -999.250000 61.196514130 2.0959999561  -999.250000 2.8394999504
 2189.8354492  -999.250000 12.430998802  -999.250000 61.917701721 2.1038000584  -999.250000 2.7637999058
 2189.9877930  -999.250000 12.470899582  -999.250000 57.285621643 2.1003999710  -999.250000 2.7190001011
 2190.1401367  -999.250000 12.705800056  -999.250000 55.016231537 2.0975000858  -999.250000 2.6835000515
 2190.2924805  -999.250000 12.679900169  -999.250000 55.074199677 2.0973999500  -999.250000 2.6549999714
 2190.4450684  -999.250000 12.813899994  -999.250000 53.096599579 2.0987999439  -999.250000 2.6252999306
 2190.5974121  -999.250000 12.910900116  -999.250000 52.895099640 2.0931000710  -999.250000 2.5311000347
 2190.7497559  -999.250000 12.983599663  -999.250000 58.296943665 1.9722000360  -999.250000 3.2927000523
 2190.9020996  -999.250000 12.904700279  -999.250000 62.092422485 1.9472999573  -999.250000 3.1989998817
 2191.0546875  -999.250000 13.007100105  -999.250000 58.596401215 2.0025999546  -999.250000 2.7019999027
 2191.2070313  -999.250000 13.438199997  -999.250000 56.302600861 2.0350999832  -999.250000 2.7692000866
 2191.3593750  -999.250000 15.415201187  -999.250000 54.730518341 2.0692999363  -999.250000 2.9077000618
 2191.5117188  -999.250000 17.655899048  -999.250000 52.326553345 2.0750999451  -999.250000 2.9951999187
 2191.6640625  -999.250000 18.143999100  -999.250000 56.826869965 2.0608000755  -999.250000 3.0594999790
 2191.8166504  -999.250000 15.445098877  -999.250000 58.441200256 2.1324000359  -999.250000 3.2079000473
 2191.9689941  -999.250000 14.816801071  -999.250000 58.664939880 2.2374000549  -999.250000 3.2697999477
 2192.1213379  -999.250000 14.769300461  -999.250000 61.833114624 2.1126000881  -999.250000 2.9755001068
 2192.2736816  -999.250000 13.900500298  -999.250000 61.418972015 1.9362000227  -999.250000 2.4711000919
 2192.4262695  -999.250000 13.712900162  -999.250000 60.701801300 1.9451999664  -999.250000 2.4779999256
 2192.5786133  -999.250000 13.678500175  -999.250000 58.597099304 1.9450999498  -999.250000 2.7177999020
 2192.7309570  -999.250000 13.739799500  -999.250000 59.981380463 1.9347000122  -999.250000 2.7892999649
