# LAS format log file from PETREL
# Project units are specified as depth units
#==================================================================
~Version information
VERS.   2.0:
WRAP.   NO:
#==================================================================
~Well
STRT .m      474.34408569 :
STOP .m      3047.1606445 :
STEP .m     0.00000000 :
NULL .        -999.250000 :
COMP.           : COMPANY
WELL.  15/9-9   : WELL
FLD.            : FIELD
LOC.            : LOCATION
SRVC.           : SERVICE COMPANY
DATE.  2018-09-11 14:48:05   : Log Export Date {yyyy-MM-dd HH:mm:ss}
PROV.           : PROVINCE
UWI.   15/9-9   : UNIQUE WELL ID
API.            : API NUMBER
#==================================================================
~Curve
DEPT .m                   : DEPTH
Lithology_geolink ._      : Lithology_geolink
DCAL .in                  : DCAL
CALI .in                  : CALI
DRHO .g/cm3               : DRHO
NPHI .m3/m3               : NPHI
RHOB .g/cm3               : RHOB
GR .gAPI                  : GR
DTC .us/ft                : DTC
DT .us/ft                 : DT
DTE .us/ft                : DTE
RDEP .ohm.m               : RDEP
SP .mV                    : SP
RSHA .ohm.m               : RSHA
RXO .ohm.m                : RXO
RMED .ohm.m               : RMED
~Parameter
#==================================================================
~Ascii
# ...
 646.70843506  -999.250000 20.608997345 20.608997345 0.0129951946  -999.250000 2.2126538754 71.229148865 146.66130066 138.92961121 138.95938110 2.2939229012 93.579551697 1.7419583797  -999.250000 1.7419583797
 646.86083984  -999.250000 20.534999847 20.534999847 0.0030080096  -999.250000 2.2103734016 69.246391296 145.83685303 137.41586304 138.16101074 2.3278911114 94.279739380 1.7559552193  -999.250000 1.7559552193
 647.01324463  -999.250000 20.527999878 20.527999878 -0.006995994  -999.250000 2.2052841187 63.539863586 144.57714844 136.41818237 136.96601868 2.3638846874 93.546363831 1.7579935789  -999.250000 1.7579935789
 647.16564941  -999.250000 20.641000748 20.641000748 -0.003001602  -999.250000 2.2114052773 62.242553711 143.95796204 136.08106995 136.31399536 2.3799488544 92.075721741 1.7799295187  -999.250000 1.7799295187
 647.31805420  -999.250000 20.645000458 20.645000458 0.0029975972  -999.250000 2.2270247936 62.113151550 144.05805969 136.69126892 136.40957642 2.3889746666 95.570159912 1.8198878765  -999.250000 1.8198878765
 647.47045898  -999.250000 20.531999588 20.531999588 0.0259907898  -999.250000 2.2396523952 67.732490540 144.82139587 137.22750854 137.15365601 2.3830168247 96.059646606 1.8598878384  -999.250000 1.8598878384
 647.62286377  -999.250000 20.458002090 20.458002090 0.0130052064  -999.250000 2.2357397079 69.744392395 147.14247131 142.13420105 139.54142761 2.3760194778 94.184280396 1.8869242668  -999.250000 1.8869242668
 647.77526855  -999.250000 20.311000824 20.311000824 0.0130000003  -999.250000 2.2234444618 70.697235107 149.22988892 141.40808105 141.59913635 2.3759999275 91.689002991 1.8580813408  -999.250000 1.8580813408
 647.92767334  -999.250000 20.431997299 20.431997299 0.0090016015  -999.250000 2.2204613686 71.434410095 148.77033997 140.63018799 141.10983276 2.3610420227 92.208518982 1.7961738110  -999.250000 1.7961738110
 648.08007813  -999.250000 20.711999893 20.711999893 0.0189959947  -999.250000 2.2233846188 69.808303833 148.62629700 141.82064819 140.99032593 2.3470392227 92.623840332 1.7341737747  -999.250000 1.7341737747
 648.23248291  -999.250000 21.013999939 21.013999939 0.0180003997  -999.250000 2.2225148678 70.171707153 146.97525024 136.60665894 139.31288147 2.3320419788 93.156501770 1.7160503864  -999.250000 1.7160503864
 648.38488770  -999.250000 21.163999557 21.163999557 0.0150012011  -999.250000 2.2119271755 66.793708801 144.92425537 137.48049927 137.24804688 2.3110589981 95.221199036 1.7189915180  -999.250000 1.7189915180
 648.53729248  -999.250000 21.232999802 21.232999802 0.0000060072  -999.250000 2.2006440163 68.735443115 145.84391785 138.81625366 138.19198608 2.3030223846 94.163993835 1.7279747725  -999.250000 1.7279747725
 648.68963623  -999.250000 20.875000000 20.875000000 -0.002997597  -999.250000 2.1971344948 66.750595093 147.34284973 140.90827942 139.72146606 2.2960224152 95.134872437 1.7309902906  -999.250000 1.7309902906
 648.84204102  -999.250000 20.836999893 20.836999893 0.0019959952  -999.250000 2.2013468742 68.619499207 147.83435059 139.57331848 140.19938660 2.2770607471 96.442802429 1.7469487190  -999.250000 1.7469487190
 648.99444580  -999.250000 20.788000107 20.788000107 0.0079951948  -999.250000 2.2053289413 69.354415894 147.25148010 139.52713013 139.62811279 2.2600543499 96.689224243 1.7798942327  -999.250000 1.7798942327
 649.14685059  -999.250000 20.899999619 20.899999619 0.0060008015  -999.250000 2.2083263397 71.306213379 147.43418884 140.31845093 139.81019592 2.2440512180 98.781280518 1.8138910532  -999.250000 1.8138910532
 649.29925537  -999.250000 21.153001785 21.153001785 0.0020016020  -999.250000 2.2094867229 73.002319336 146.94172668 138.14013672 139.28327942 2.2270476818 96.134460449 1.7960504293  -999.250000 1.7960504293
 649.45166016  -999.250000 21.340999603 21.340999603 0.0049987985  -999.250000 2.2099907398 75.776885986 146.26911926 138.98660278 138.61500549 2.2010729313 94.041862488 1.7551149130  -999.250000 1.7551149130
 649.60406494  -999.250000 21.329999924 21.329999924 0.0249919910  -999.250000 2.2131552696 75.876960754 146.59013367 138.99298096 138.95709229 2.1820530891 94.709106445 1.7260812521  -999.250000 1.7260812521
 649.75646973  -999.250000 21.285999298 21.285999298 0.0349959955  -999.250000 2.2104632854 75.707069397 146.67665100 138.85139465 139.02708435 2.1750195026 93.988029480 1.7150309086  -999.250000 1.7150309086
 649.90887451  -999.250000 20.951999664 20.951999664 0.0230048057  -999.250000 2.1968429089 69.053665161 147.68437195 141.09469604 140.01533508 2.1580476761 93.142372131 1.7050280571  -999.250000 1.7050280571
 650.06127930  -999.250000 21.034000397 21.034000397 0.0060068080  -999.250000 2.1869258881 70.872268677 149.50125122 142.82714844 141.82621765 2.1410477161 96.838600159 1.6740869284  -999.250000 1.6740869284
 650.21368408  -999.250000 20.993999481 20.993999481 0.0050004004  -999.250000 2.2013847828 70.728057861 150.02218628 142.07612610 142.41075134 2.1230504513 96.782188416 1.6740000248  -999.250000 1.6740000248
 650.36608887  -999.250000 20.832002640 20.832002640 0.0239923913  -999.250000 2.2373473644 75.355148315 149.63580322 142.03410339 142.03067017 2.1120307446 97.971656799 1.6630308628  -999.250000 1.6630308628
 650.51849365  -999.250000 20.701000214 20.701000214 0.0459911898  -999.250000 2.2684121132 75.361999512 149.14520264 140.96400452 141.45603943 2.1050195694 93.665115356 1.6849383116  -999.250000 1.6849383116
 650.67089844  -999.250000 20.569000244 20.569000244 0.0589947924  -999.250000 2.2752475739 78.653678894 148.02426147 139.55892944 140.33935547 2.1159691811 94.362998962 1.6929775476  -999.250000 1.6929775476
 650.82324219  -999.250000 20.565000534 20.565000534 0.0540040061  -999.250000 2.2601068020 79.519302368 147.44560242 139.97863770 139.82441711 2.1299552917 92.930610657 1.7069551945  -999.250000 1.7069551945
 650.97564697  -999.250000 20.708000183 20.708000183 0.0370136164  -999.250000 2.2371120453 75.498229980 147.87234497 140.42456055 140.22756958 2.1389710903 92.100654602 1.7329167128  -999.250000 1.7329167128
 651.12805176  -999.250000 20.763000488 20.763000488 0.0270080101  -999.250000 2.2225391865 73.496604919 148.68959045 141.46267700 140.99333191 2.1459774971 94.585006714 1.7419711351  -999.250000 1.7419711351
 651.28045654  -999.250000 20.556999207 20.556999207 0.0309983976  -999.250000 2.2186999321 72.270484924 149.89151001 143.27119446 142.28421021 2.1469969749 94.539176941 1.7160832882  -999.250000 1.7160832882
 651.43286133  -999.250000 20.641000748 20.641000748 0.0250024032  -999.250000 2.2159893513 76.719215393 150.70272827 142.87911987 143.05938721 2.1350336075 94.679603577 1.6970533133  -999.250000 1.6970533133
 651.58526611  -999.250000 20.823999405 20.823999405 0.0100060068  -999.250000 2.2099442482 74.773780823 150.87002563 143.58799744 143.17607117 2.1270225048 95.463798523 1.6989943981  -999.250000 1.6989943981
 651.73767090  -999.250000 20.604000092 20.604000092 0.0000040048  -999.250000 2.2058322430 79.771995544 150.49491882 142.34051514 142.88111877 2.1230111122 96.015457153 1.7109663486  -999.250000 1.7109663486
 651.89007568  -999.250000 20.621002197 20.621002197 0.0019991992  -999.250000 2.2074298859 75.257804871 149.08749390 140.48820496 141.48632813 2.1229999065 98.294601440 1.7060140371  -999.250000 1.7060140371
 652.04248047  -999.250000 20.806001663 20.806001663 0.0079975976  -999.250000 2.2131652832 78.389739990 148.14556885 140.47502136 140.51757813 2.1289830208 95.094017029 1.7119832039  -999.250000 1.7119832039
 652.19488525  -999.250000 21.158000946 21.158000946 0.0159967970  -999.250000 2.2188844681 70.066337585 147.95114136 140.01530457 140.25297546 2.1389718056 93.568267822 1.7279552221  -999.250000 1.7279552221
 652.34729004  -999.250000 21.270999908 21.270999908 0.0130012017  -999.250000 2.2230744362 73.603584290 147.67420959 140.00004578 140.02212524 2.1539580822 94.223144531 1.7399663925  -999.250000 1.7399663925
 652.49969482  -999.250000 21.378002167 21.378002167 0.0189975966  -999.250000 2.2267587185 72.188568115 147.60314941 140.00000000 139.97215271 2.1799271107 93.377380371 1.7429915667  -999.250000 1.7429915667
