# LAS format log file from PETREL
# Project units are specified as depth units
#==================================================================
~Version information
VERS.   2.0:
WRAP.   NO:
#==================================================================
~Well
STRT .m      2122.4746094 :
STOP .m      4102.6074219 :
STEP .m     0.00000000 :
NULL .        -999.250000 :
COMP.           : COMPANY
WELL.  15/9-19A   : WELL
FLD.            : FIELD
LOC.            : LOCATION
SRVC.           : SERVICE COMPANY
DATE.  2018-09-11 14:48:01   : Log Export Date {yyyy-MM-dd HH:mm:ss}
PROV.           : PROVINCE
UWI.   15/9-19 A   : UNIQUE WELL ID
API.            : API NUMBER
#==================================================================
~Curve
DEPT .m                   : DEPTH
Lithology_geolink ._      : Lithology_geolink
CALI .in                  : CALI
RHOB .g/cm3               : RHOB
GR .gAPI                  : GR
RDEP .ohm.m               : RDEP
RSHA .ohm.m               : RSHA
RMED .ohm.m               : RMED
~Parameter
#==================================================================
~Ascii
# ...
 3706.6721191 6.0000000000 8.7603998184 2.5044999123 116.22743225 3.4513156414 3.0587685108 2.9366371632
 3706.8244629 6.0000000000 8.7685003281 2.4481999874 120.65438843 3.2659919262 3.1611700058 2.8429980278
 3706.9770508 6.0000000000 8.7571001053 2.4586999416 121.08448792 3.1497855186 3.3881361485 2.8691575527
 3707.1293945 6.0000000000 8.7327003479 2.4662001133 121.00934601 2.9110829830 3.4525969028 2.7838370800
 3707.2817383 6.0000000000 8.7202997208 2.4539000988 118.87618256 2.6995389462 3.3896012306 2.6661884785
 3707.4340820 6.0000000000 8.7763996124 2.4625000954 117.35032654 2.6518521309 3.4360504150 2.6491541862
 3707.5866699 6.0000000000 8.7674999237 2.4463000298 116.77522278 2.8285162449 3.6990780830 2.8027534485
 3707.7390137 6.0000000000 8.7821998596 2.3968000412 115.87010956 3.2290575504 4.0781922340 3.1142005920
 3707.8913574 6.0000000000 8.8211002350 2.3873999119 116.41744232 3.5562756062 4.2631044388 3.3152780533
 3708.0437012 6.0000000000 8.8226995468 2.3994998932 117.16728973 3.4435636997 4.0973329544 3.1573081017
 3708.1962891 6.0000000000 8.7854995728 2.4165000916 115.50395966 3.2163641453 3.9405508041 2.9562218189
 3708.3486328 6.0000000000 8.7624998093 2.4026000500 113.00850677 3.3169379234 4.1583499908 3.0575368404
 3708.5009766 6.0000000000 8.7692003250 2.4086999893 111.32568359 3.8519413471 4.8652658463 3.5187599659
 3708.6533203 6.0000000000 8.7412004471 2.4145998955 109.50236511 4.7251996994 5.9508590698 4.2304587364
 3708.8056641 6.0000000000 8.7533998489 2.4821999073 106.72527313 5.2712512016 6.5710148811 4.6827516556
 3708.9582520 6.0000000000 8.7714004517 2.4502000809 101.03345490 4.9792714119 6.0963649750 4.5255546570
 3709.1105957 6.0000000000 8.8641996384 2.4635000229 101.50492859 4.4241900444 5.3783512115 4.1737642288
 3709.2629395 6.0000000000 8.8711996078 2.4179000854 107.30423737 3.9115216732 4.8651218414 3.8179702759
 3709.4152832 6.0000000000 8.8810997009 2.4307000637 107.96235657 3.6052803993 4.5733342171 3.5983033180
 3709.5678711 6.0000000000 8.9385995865 2.4556999207 107.01176453 3.6353502274 4.5684061050 3.6663897038
 3709.7202148 6.0000000000 8.9259004593 2.4667999744 108.51834869 3.7114779949 4.6155242920 3.7528614998
 3709.8725586 6.0000000000 8.9349002838 2.4640998840 109.68041229 3.4610021114 4.3349504471 3.5002057552
 3710.0249023 6.0000000000 8.9162998199 2.4588000774 109.31170654 3.0011749268 3.7792823315 3.0469539165
 3710.1774902 6.0000000000 8.8957996368 2.4567000866 111.46885681 2.5556128025 3.2165005207 2.6182856560
 3710.3298340 6.0000000000 8.9267997742 2.4686000347 114.47137451 2.1684203148 2.7496478558 2.2431011200
 3710.4821777 7.0000000000 8.9343004227 2.4999001026 117.86073303 1.9248899221 2.4382984638 2.0026850700
 3710.6345215 7.0000000000 8.9477996826 2.4732999802 118.14139557 1.9297915697 2.3506400585 2.0127830505
 3710.7868652 7.0000000000 8.9329996109 2.5076000690 113.62223816 2.1082272530 2.4236650467 2.1981050968
 3710.9394531 6.0000000000 8.9347000122 2.5035998821 109.82264709 2.2346978188 2.5019745827 2.3225014210
 3711.0917969 6.0000000000 8.9271001816 2.4607999325 106.15804291 2.2704429626 2.5432338715 2.3531510830
 3711.2441406 6.0000000000 8.8690004349 2.4607000351 106.24253082 2.3035471439 2.5756480694 2.3857476711
 3711.3964844 6.0000000000 8.8692998886 2.4402000904 108.18402100 2.3001112938 2.5714137554 2.3797194958
 3711.5490723 6.0000000000 8.8599004745 2.4698998928 108.96482086 2.2421929836 2.5176863670 2.3152034283
 3711.7014160 6.0000000000 8.8507995605 2.4647998810 110.63145447 2.1690173149 2.4444174767 2.2359271049
 3711.8537598 6.0000000000 8.8713998795 2.4667000771 111.16495514 2.1176822186 2.3926830292 2.1814873219
 3712.0061035 6.0000000000 8.8620004654 2.4804000854 113.67558289 2.1472048759 2.4115393162 2.2112042904
 3712.1586914 7.0000000000 8.9201002121 2.4419999123 118.20447540 2.2891724110 2.5174303055 2.3529725075
 3712.3110352 7.0000000000 8.9484996796 2.4477000237 121.39170074 2.4423544407 2.6355106831 2.4960706234
 3712.4633789 7.0000000000 9.0535001755 2.4604001045 122.70191956 2.4686582088 2.6703443527 2.5017912388
 3712.6157227 7.0000000000 9.0413999557 2.4619998932 122.71813965 2.4300620556 2.6570215225 2.4466884136
 3712.7683105 7.0000000000 9.0507001877 2.4721000195 120.23777008 2.4492690563 2.6988329887 2.4603779316
 3712.9206543 6.0000000000 9.0664997101 2.5141999722 115.85346985 2.5451462269 2.8367786407 2.5595409870
 3713.0729980 6.0000000000 9.1061000824 2.4302000999 111.96964264 2.6991529465 3.0575459003 2.7214403152
 3713.2253418 6.0000000000 9.2047996521 2.4240000248 111.90823364 2.8663320541 3.2945201397 2.8940234184
 3713.3776855 6.0000000000 9.2115001678 2.4781000614 111.10338593 3.0545966625 3.4920670986 3.0762162209
 3713.5302734 6.0000000000 9.2096004486 2.4897999763 105.49631500 3.2628667355 3.6158022881 3.2607047558
 3713.6826172 6.0000000000 9.2243995667 2.5037999153 101.28099823 3.2892582417 3.5538997650 3.2564074993
 3713.8349609 6.0000000000 9.2398996353 2.4979000092 97.260826111 3.1024999619 3.3501269817 3.0588171482
 3713.9873047 6.0000000000 9.2363996506 2.4684000015 97.955352783 2.8821067810 3.1760575771 2.8540563583
 3714.1398926 6.0000000000 9.2461996078 2.4628000259 102.38666534 2.7181620598 3.1041147709 2.7216114998
 3714.2922363 6.0000000000 9.2403001785 2.4256999493 105.02874756 2.7074170113 3.2057366371 2.7513518333
 3714.4445801 6.0000000000 9.2385997772 2.4353001118 109.17599487 2.8950986862 3.5355708599 2.9852247238
 3714.5969238 6.0000000000 9.2656002045 2.4093999863 111.33604431 3.2595310211 4.0611143112 3.3880083561
 3714.7495117 6.0000000000 9.3247003555 2.3733000755 109.67985535 3.8504533768 4.6763153076 3.9806509018
 3714.9018555 6.0000000000 9.3434000015 2.3541998863 107.44258118 4.4917721748 5.0120625496 4.5401034355
 3715.0541992 6.0000000000 9.3375997543 2.3768000603 106.90889740 4.5655832291 4.6616630554 4.4781012535
 3715.2065430 6.0000000000 9.3655004501 2.3757998943 109.29946136 4.1391849518 4.0086469650 3.9755065441
 3715.3588867 6.0000000000 9.4295997620 2.4256000519 113.57619476 3.9084386826 3.6669933796 3.7145352364
 3715.5114746 6.0000000000 9.4570999146 2.4284000397 115.26942444 4.2907848358 3.9505431652 4.0655355453
 3715.6638184 6.0000000000 9.4735002518 2.4107000828 113.45086670 5.6424312592 5.3621349335 5.4236207008
 3715.8161621 6.0000000000 9.4945001602 2.3894999027 105.16802216 8.1692476273 9.4689121246 8.2880058289
 3715.9685059 6.0000000000 9.5022001266 2.5736999512 90.316253662 10.753716469 19.430541992 11.615531921
 3716.1210938 6.0000000000 9.4595003128 2.6315999031 72.395393372 11.776072502 35.321144104 12.219647408
 3716.2734375 6.0000000000 9.1559000015 2.6802999973 48.135719299 12.587599754 2423.1633301 11.211919785
 3716.4257813 16.000000000 8.9566001892 2.5669000149 32.282127380 15.999924660 9987.8642578 12.020299911
 3716.5781250 16.000000000 8.9506998062 2.5234999657 32.135459900 17.013662338 10000.000000 12.940948486
 3716.7307129 16.000000000 8.7061996460 2.4021999836 42.944545746 9.1399440765 7623.1909180 8.5967779160
 3716.8830566 6.0000000000 8.6909999847 2.4642000198 63.250316620 4.8157210350 26.665136337 4.9488439560
 3717.0354004 6.0000000000 8.6618003845 2.4601998329 84.180610657 4.0493192673 6.6842098236 4.0337595940
 3717.1877441 6.0000000000 8.8287000656 2.3940999508 99.719673157 4.7188234329 4.9660382271 4.2874903679
 3717.3400879 6.0000000000 8.8463001251 2.4036002159 113.07394409 5.4263319969 4.0074682236 4.5251383781
 3717.4926758 6.0000000000 8.9923000336 2.4484000206 121.44179535 4.7892260551 3.3669233322 4.0403790474
 3717.6450195 7.0000000000 8.9839000702 2.4389998913 131.19970703 3.4739096165 2.8926596642 3.1483304501
 3717.7973633 7.0000000000 8.9955997467 2.4337000847 136.00865173 2.7306895256 2.6126482487 2.5906927586
 3717.9497070 7.0000000000 9.0166997910 2.4530999660 129.89723206 2.5906457901 2.5923635960 2.4905188084
 3718.1022949 7.0000000000 9.0188999176 2.4532999992 120.63887024 2.5525603294 2.6891446114 2.4741258621
 3718.2546387 7.0000000000 8.9853000641 2.4323999882 113.22873688 2.3017024994 2.6958894730 2.2728230953
