# LAS format log file from PETREL
# Project units are specified as depth units
#==================================================================
~Version information
VERS.   2.0:
WRAP.   NO:
#==================================================================
~Well
STRT .m      485.02883911 :
STOP .m      3207.3493652 :
STEP .m     0.00000000 :
NULL .        -999.250000 :
COMP.           : COMPANY
WELL.  15/9-15   : WELL
FLD.            : FIELD
LOC.            : LOCATION
SRVC.           : SERVICE COMPANY
DATE.  2018-09-11 14:48:00   : Log Export Date {yyyy-MM-dd HH:mm:ss}
PROV.           : PROVINCE
UWI.   15/9-15   : UNIQUE WELL ID
API.            : API NUMBER
#==================================================================
~Curve
DEPT .m                   : DEPTH
Lithology_geolink ._      : Lithology_geolink
DCAL .in                  : DCAL
CALI .in                  : CALI
BS .in                    : BS
DRHO .g/cm3               : DRHO
NPHI .m3/m3               : NPHI
RHOB .g/cm3               : RHOB
PEF .b/e                  : PEF
GR .gAPI                  : GR
DTC .us/ft                : DTC
DT .us/ft                 : DT
RDEP .ohm.m               : RDEP
SP .mV                    : SP
RSHA .ohm.m               : RSHA
RXO .ohm.m                : RXO
RMED .ohm.m               : RMED
~Parameter
#==================================================================
~Ascii
# ...
 845.91192627  -999.250000 16.900999069 17.015268326 17.500000000 0.0099951942  -999.250000 2.0436792374 2.4389998913 89.677391052 144.51231384 143.12219238 1.5700401068 55.731998444 1.3960577250 -999.9000244 1.3960577250
 846.06433105  -999.250000 16.922000885 17.054573059 17.500000000 0.0099999998  -999.250000 2.0045590401 2.4509999752 88.127502441 146.89260864 145.37139893 1.5490336418 56.981876373 1.3650497198 -999.9000244 1.3650497198
 846.21673584  -999.250000 17.482000351 17.601163864 17.500000000 0.0070048058  -999.250000 1.9821954966 2.5469999313 80.575119019 148.80307007 147.99578857 1.5300303698 58.073497772 1.3400400877 -999.9000244 1.3400400877
 846.36914063  -999.250000 18.525999069 18.255697250 17.500000000 0.0060016019  -999.250000 1.9804233313 2.6349999905 77.193412781 149.74549866 149.49760437 1.5180191994 56.200275421 1.3499840498 -999.9000244 1.3499840498
 846.52154541  -999.250000 18.469999313 18.406536102 17.500000000 0.0069983983  -999.250000 1.9855967760 2.7279999256 76.064804077 149.96035767 149.99920654 1.5100128651 56.543823242 1.3649759293 -999.9000244 1.3649759293
 846.67395020  -999.250000 18.156000137 18.213926315 17.500000000 0.0070000002  -999.250000 1.9883475304 2.7200000286 76.437400818 149.24386597 150.12480164 1.5109984875 56.324974060 1.3729871511 -999.9000244 1.3729871511
 846.82635498  -999.250000 18.077999115 18.019378662 17.500000000 0.0040048058  -999.250000 1.9778897762 2.6610000134 74.815605164 147.97764587 148.75219727 1.5129967928 56.294025421 1.3620176315 -999.9000244 1.3620176315
 846.97875977  -999.250000 17.761999130 17.794534683 17.500000000 0.0069951946  -999.250000 1.9683946371 2.5929999352 76.560203552 146.62101746 147.50199890 1.5070096254 56.324100494 1.3719840050 -999.9000244 1.3719840050
 847.13116455  -999.250000 17.579000473 17.856260300 17.500000000 0.0149871847  -999.250000 1.9728847742 2.5250000954 80.556594849 145.26121521 146.12719727 1.4960176945 55.202255249 1.4069439173 -999.9000244 1.4069439173
 847.28356934  -999.250000 18.523000717 18.167707443 17.500000000 0.0289831720  -999.250000 2.0035383701 2.5179998875 81.124320984 145.24552917 144.37710571 1.4840143919 57.073650360 1.4199843407 -999.9000244 1.4199843407
 847.43597412  -999.250000 18.020999908 18.121105194 17.500000000 0.0309975967  -999.250000 2.0448815823 2.5859999657 88.116592407 146.15907288 145.74835205 1.4720144272 55.949661255 1.3940312862 -999.9000244 1.3940312862
 847.58837891  -999.250000 17.927000046 18.052705765 17.500000000 0.0250072088  -999.250000 2.0725910664 2.6289999485 86.002555847 148.39311218 145.99969482 1.4480288029 55.669597626 1.3500528336 -999.9000244 1.3500528336
 847.74078369  -999.250000 18.343999863 18.457477570 17.500000000 0.0200060066  -999.250000 2.0851702690 2.6380000114 84.002403259 150.61755371 149.99519348 1.4120432138 56.167945862 1.3200360537 -999.9000244 1.3200360537
 847.89318848  -999.250000 19.221000671 18.719963074 17.500000000 0.0100120138  -999.250000 2.0757758617 2.6489999294 84.000000000 152.29110718 150.99877930 1.3630589247 55.294036865 1.3140071630 -999.9000244 1.3140071630
 848.04553223  -999.250000 18.059999466 18.311094284 17.500000000 0.0119967964  -999.250000 2.0482082367 2.5920000076 86.683700562 154.07501221 153.37120056 1.3250609636 55.325000763 1.2880415916 -999.9000244 1.2880415916
 848.19793701  -999.250000 17.920999527 17.954664230 17.500000000 0.0070080101  -999.250000 1.9980657101 2.5390000343 92.553588867 155.87631226 156.99418640 1.3120208979 55.323825836 1.2320897579 -999.9000244 1.2320897579
 848.35034180  -999.250000 17.919000626 17.897113800 17.500000000 0.0040048058  -999.250000 1.9527066946 2.4979999065 84.451019287 156.86756897 162.11679077 1.3139967918 53.856925964 1.1661057472 -999.9000244 1.1661057472
 848.50274658  -999.250000 17.827999115 17.875202179 17.500000000 0.0049983980  -999.250000 1.9422320127 2.4590001106 79.008712769 156.30795288 163.12339783 1.3199903965 55.011699677 1.1520223618 -999.9000244 1.1520223618
 848.65515137  -999.250000 17.929000854 17.782159805 17.500000000 0.0099919904  -999.250000 1.9645322561 2.4070000648 74.257606506 154.98583984 160.00500488 1.3309823275 54.637290955 1.1849471331 -999.9000244 1.1849471331
 848.80755615  -999.250000 17.433000565 17.729511261 17.500000000 0.0129951946  -999.250000 1.9920032024 2.2509999275 74.812103271 153.60638428 156.75520325 1.3419823647 54.996200562 1.2389134169 -999.9000244 1.2389134169
 848.95996094  -999.250000 18.142999649 18.118831635 17.500000000 0.0169935934  -999.250000 2.0047249794 2.1570000648 79.742088318 152.65759277 153.38040161 1.3649631739 53.996788025 1.3028974533 -999.9000244 1.3028974533
 849.11236572  -999.250000 18.753000259 18.573717117 17.500000000 0.0279823802  -999.250000 2.0076246262 2.1110000610 78.127601624 152.84205627 152.12699890 1.4079310894 53.731613159 1.3349487782 -999.9000244 1.3349487782
 849.26477051  -999.250000 18.632999420 18.543586731 17.500000000 0.0329919904  -999.250000 2.0051050186 2.1530001163 80.309501648 152.86708069 153.99699402 1.4579198360 54.498184204 1.3359984159 -999.9000244 1.3359984159
 849.41717529  -999.250000 18.149999619 18.266849518 17.500000000 0.0140228374  -999.250000 1.9918828011 2.1689999104 74.819610596 150.99481201 153.50057983 1.5109363794 55.483852386 1.3320047855 -999.9000244 1.3320047855
 849.56958008  -999.250000 18.142999649 18.125272751 17.500000000 0.0070084105  -999.250000 1.9903868437 2.2000000477 73.127029419 148.11978149 150.00421143 1.5549471378 57.855247498 1.3509771824 -999.9000244 1.3509771824
 849.72198486  -999.250000 18.063999176 18.196113586 17.500000000 0.0050024027  -999.250000 2.0073463917 2.2090001106 69.317581177 145.51052856 147.12844849 1.5789711475 57.229347229 1.3869566917 -999.9000244 1.3869566917
 849.87438965  -999.250000 18.521999359 18.480447769 17.500000000 0.0069975974  -999.250000 2.0323820114 2.2460000515 79.550689697 144.15931702 144.37831116 1.5939819813 55.856750488 1.4189615250 -999.9000244 1.4189615250
 850.02679443  -999.250000 18.809999466 18.755052567 17.500000000 0.0089975968  -999.250000 2.0523045063 2.2590000629 82.309700012 144.21891785 143.75074768 1.6089819670 56.479385376 1.4309855700 -999.9000244 1.4309855700
 850.17913818  -999.250000 18.874000549 18.858524323 17.500000000 0.0139919911  -999.250000 2.0589544773 2.1919999123 89.488487244 144.60360718 144.49879456 1.6259728670 55.138702393 1.4240112305 -999.9000244 1.4240112305
 850.33154297  -999.250000 18.875000000 18.795068741 17.500000000 0.0189919900  -999.250000 2.0575101376 2.1630001068 79.953323364 145.25213623 144.50000000 1.6309920549 57.262077332 1.4090241194 -999.9000244 1.4090241194
 850.48394775  -999.250000 18.551000595 18.580440521 17.500000000 0.0199983977  -999.250000 2.0525996685 2.1480000019 80.187606812 145.63423157 145.74800110 1.6220144033 57.355297089 1.3970191479 -999.9000244 1.3970191479
 850.63635254  -999.250000 18.347000122 18.357284546 17.500000000 0.0140096117  -999.250000 2.0470118523 2.1370000839 76.006706238 145.19187927 145.75000000 1.6040288210 56.480899811 1.3860176802 -999.9000244 1.3860176802
 850.78875732  -999.250000 18.184999466 18.379297256 17.500000000 0.0120032039  -999.250000 2.0422978401 2.1640000343 80.867187500 144.43095398 145.00120544 1.5820353031 56.353195190 1.3760160208 -999.9000244 1.3760160208
 850.94116211  -999.250000 18.812999725 18.680732727 17.500000000 0.0159935933  -999.250000 2.0385348797 2.2309999466 80.189102173 144.17323303 144.00160217 1.5620321035 52.857589722 1.3580288887 -999.9000244 1.3580288887
 851.09356689  -999.250000 18.902000427 18.730262756 17.500000000 0.0229887869  -999.250000 2.0354278088 2.3150000572 78.253105164 144.39154053 144.12480164 1.5490208864 54.840988159 1.3380321264 -999.9000244 1.3380321264
 851.24597168  -999.250000 18.292999268 18.479171753 17.500000000 0.0230000000  -999.250000 2.0306065083 2.3459999561 70.512413025 144.08125305 144.74899292 1.5470032692 54.824378967 1.3180320263 -999.9000244 1.3180320263
 851.39837646  -999.250000 18.441999435 18.486145020 17.500000000 0.0140144173  -999.250000 2.0237574577 2.2860000134 71.623199463 143.34106445 143.75160217 1.5450031757 54.309581757 1.2990304232 -999.9000244 1.2990304232
