# LAS format log file from PETREL
# Project units are specified as depth units
#==================================================================
~Version information
VERS.   2.0:
WRAP.   NO:
#==================================================================
~Well
STRT .m      489.99996948 :
STOP .m      1530.0000000 :
STEP .m     0.00000000 :
NULL .        -999.250000 :
COMP.           : COMPANY
WELL.  15/9-22   : WELL
FLD.            : FIELD
LOC.            : LOCATION
SRVC.           : SERVICE COMPANY
DATE.  2018-09-11 14:48:02   : Log Export Date {yyyy-MM-dd HH:mm:ss}
PROV.           : PROVINCE
UWI.   15/9-22   : UNIQUE WELL ID
API.            : API NUMBER
#==================================================================
~Curve
DEPT .m                   : DEPTH
Lithology_geolink ._      : Lithology_geolink
BS .in                    : BS
GR .gAPI                  : GR
RDEP .ohm.m               : RDEP
RMED .ohm.m               : RMED
~Parameter
#==================================================================
~Ascii
# ...
 775.59997559  -999.250000 17.500000000 156.32771301 1.1410000324 1.1230000257
 775.70001221  -999.250000 17.500000000 154.43400574 1.0599999428 0.9929999709
 775.79998779  -999.250000 17.500000000 153.00700378 1.0559999943 1.0460000038
 775.90002441  -999.250000 17.500000000 152.82000732 1.1250000000 1.1959999800
 776.00000000  -999.250000 17.500000000 153.56100464 1.2200348377 1.3309919834
 776.09997559  -999.250000 17.500000000 153.89978027 1.2769999504 1.3179999590
 776.19995117  -999.250000 17.500000000 152.89100647 1.3209999800 1.3029999733
 776.29998779  -999.250000 17.500000000 151.73800659 1.3660000563 1.2710000277
 776.40002441  -999.250000 17.500000000 152.29200745 1.3780000210 1.2400000095
 776.50000000  -999.250000 17.500000000 153.73500061 1.3689999580 1.2940000296
 776.60003662  -999.250000 17.500000000 155.52900696 1.3550080061 1.3279846907
 776.69995117  -999.250000 17.500000000 157.36686707 1.3680000305 1.3029999733
 776.79998779  -999.250000 17.500000000 158.90100098 1.4290000200 1.3569999933
 776.89996338  -999.250000 17.500000000 159.34300232 1.4249999523 1.3430000544
 777.00000000  -999.250000 17.500000000 158.00700378 1.4170000553 1.3120000362
 777.10003662  -999.250000 17.500000000 155.10800171 1.4249999523 1.3270000219
 777.20001221  -999.250000 17.500000000 152.10699463 1.4259853363 1.3070018291
 777.29998779  -999.250000 17.500000000 149.66349792 1.4019999504 1.3099999428
 777.39996338  -999.250000 17.500000000 147.14199829 1.4090000391 1.2819999456
 777.50000000  -999.250000 17.500000000 147.04899597 1.3949999809 1.2500000000
 777.60003662  -999.250000 17.500000000 151.72999573 1.3880000114 1.2519999743
 777.70001221  -999.250000 17.500000000 157.89300537 1.3329999447 1.2130000591
 777.80004883  -999.250000 17.500000000 161.85000610 1.3439908028 1.2299908400
 777.89996338  -999.250000 17.500000000 163.78781128 1.3289999962 1.2150000334
 778.00000000  -999.250000 17.500000000 165.43800354 1.3150000572 1.1990000010
 778.09997559  -999.250000 17.500000000 169.76100159 1.3109999895 1.1909999847
 778.20001221  -999.250000 17.500000000 175.46899414 1.2890000343 1.1770000458
 778.30004883  -999.250000 17.500000000 179.46099854 1.2640317678 1.1230378151
 778.40002441  -999.250000 17.500000000 180.06300354 1.2899950743 1.1539865732
 778.50000000  -999.250000 17.500000000 177.92330933 1.2819999456 1.1319999695
 778.59997559  -999.250000 17.500000000 173.00300598 1.2860000134 1.1319999695
 778.70001221  -999.250000 17.500000000 166.28199768 1.2920000553 1.1579999924
 778.79998779  -999.250000 17.500000000 160.55000305 1.3229999542 1.1849999428
 778.90002441  -999.250000 17.500000000 156.11599731 1.3470011950 1.2050184011
 779.00006104  -999.250000 17.500000000 152.80499268 1.3489950895 1.2350146770
 779.09997559  -999.250000 17.500000000 152.98388672 1.3450000286 1.2469999790
 779.20001221  -999.250000 17.500000000 156.97399902 1.3380000591 1.2450000048
 779.29998779  -999.250000 17.500000000 162.46800232 1.3559999466 1.2539999485
 779.40002441  -999.250000 17.500000000 167.64300537 1.3780000210 1.2790000439
 779.50000000  -999.250000 17.500000000 171.11300659 1.4060006142 1.3069804907
 779.59997559  -999.250000 17.500000000 173.06781006 1.4069999456 1.2749999762
 779.69995117  -999.250000 17.500000000 174.46728516 1.4129999876 1.2899999619
 779.79998779  -999.250000 17.500000000 175.26400757 1.4279999733 1.3129999638
 779.90002441  -999.250000 17.500000000 173.89300537 1.4290000200 1.3250000477
 780.00000000  -999.250000 17.500000000 170.21800232 1.4359999895 1.3350000381
 780.10003662  -999.250000 17.500000000 163.73300171 1.4340158701 1.3260085583
 780.19995117  -999.250000 17.500000000 154.66354370 1.4600000381 1.3400000334
 780.29998779  -999.250000 17.500000000 145.85136414 1.4299999475 1.3710000515
 780.39996338  -999.250000 17.500000000 141.87699890 1.4110000134 1.3179999590
 780.50000000  -999.250000 17.500000000 145.63600159 1.4060000181 1.2530000210
 780.60003662  -999.250000 17.500000000 154.56500244 1.4270000458 1.1979999542
 780.70001221  -999.250000 17.500000000 162.93099976 1.4239835739 1.2170403004
 780.79998779  -999.250000 17.500000000 165.77726746 1.3969999552 1.2829999924
 780.89996338  -999.250000 17.500000000 163.57499695 1.4079999924 1.3480000496
 781.00000000  -999.250000 17.500000000 159.36700439 1.4520000219 1.3869999647
 781.09997559  -999.250000 17.500000000 156.25500488 1.4650000334 1.3819999695
 781.20001221  -999.250000 17.500000000 156.51400757 1.4620000124 1.3650000095
 781.30004883  -999.250000 17.500000000 158.77999878 1.4369732141 1.3529487848
 781.39996338  -999.250000 17.500000000 160.27607727 1.4149999619 1.3109999895
 781.50000000  -999.250000 17.500000000 161.32699585 1.3739999533 1.2530000210
 781.59997559  -999.250000 17.500000000 162.92900085 1.3559999466 1.2519999743
 781.70001221  -999.250000 17.500000000 165.78300476 1.3439999819 1.2350000143
 781.80004883  -999.250000 17.500000000 168.29699707 1.3270000219 1.2239999771
 781.90002441  -999.250000 17.500000000 169.26800537 1.3310103416 1.1960054636
 782.00000000  -999.250000 17.500000000 169.64976501 1.3480000496 1.2050000429
 782.09997559  -999.250000 17.500000000 169.19599915 1.3639999628 1.2280000448
 782.20001221  -999.250000 17.500000000 167.36700439 1.3569999933 1.3409999609
 782.29998779  -999.250000 17.500000000 163.55700684 1.3559999466 1.3860000372
 782.40002441  -999.250000 17.500000000 159.17900085 1.3489645720 1.3739377260
 782.50006104  -999.250000 17.500000000 157.46600342 1.2909780741 1.2720707655
 782.59997559  -999.250000 17.500000000 158.71723938 1.2730000019 1.3300000429
 782.70001221  -999.250000 17.500000000 159.76800537 1.2749999762 1.4270000458
 782.79998779  -999.250000 17.500000000 159.50999451 1.2710000277 1.3719999790
 782.90002441  -999.250000 17.500000000 159.42700195 1.1879999638 1.3810000420
 783.00000000  -999.250000 17.500000000 160.15100098 1.1289408207 1.3790175915
 783.10003662  -999.250000 17.500000000 160.68400574 1.0318558216 1.4079291821
 783.19995117  -999.250000 17.500000000 160.02780151 0.7960000038 1.2920000553
 783.29998779  -999.250000 17.500000000 157.49400330 0.4329999983 0.6010000110
 783.40002441  -999.250000 17.500000000 153.38099670 0.3280000091 0.2599999905
 783.50000000  -999.250000 17.500000000 149.21099854 0.3199999928 0.2599999905
 783.60003662  -999.250000 17.500000000 146.49299622 0.3650341928 0.4501446784
 783.69995117  -999.250000 17.500000000 146.12022400 0.4210000038 0.6869999766
 783.79998779  -999.250000 17.500000000 146.51075745 0.6039999723 1.1610000134
 783.89996338  -999.250000 17.500000000 146.58999634 0.8960000277 1.4809999466
 784.00000000  -999.250000 17.500000000 147.24400330 0.9660000205 1.4539999962
 784.10003662  -999.250000 17.500000000 149.21400452 1.0570000410 1.3530000448
 784.20001221  -999.250000 17.500000000 153.22999573 1.1070140600 1.3540872335
 784.29998779  -999.250000 17.500000000 158.23695374 1.1299999952 1.4969999790
 784.39996338  -999.250000 17.500000000 160.85440063 1.1809999943 1.3899999857
 784.50000000  -999.250000 17.500000000 158.95100403 1.2109999657 1.3689999580
 784.59997559  -999.250000 17.500000000 152.92700195 1.2159999609 1.3669999838
 784.70001221  -999.250000 17.500000000 145.75199890 1.2209999561 1.3650000095
 784.80004883  -999.250000 17.500000000 140.69599915 1.2720500231 1.3738901615
 784.89996338  -999.250000 17.500000000 138.96905518 1.3129999638 1.2840000391
 785.00000000  -999.250000 17.500000000 139.48599243 1.3380000591 1.3059999943
 785.09997559  -999.250000 17.500000000 140.02499390 1.3450000286 1.2619999647
 785.20001221  -999.250000 17.500000000 139.19700623 1.3500000238 1.2840000391
 785.29998779  -999.250000 17.500000000 137.65499878 1.4040000439 1.3059999943
 785.40002441  -999.250000 17.500000000 136.02499390 1.3969633579 1.2779890299
 785.49993896  -999.250000 17.500000000 134.13830566 1.3370000124 1.2599999905
 785.59997559  -999.250000 17.500000000 132.40699768 1.2910000086 1.2690000534
 785.70001221  -999.250000 17.500000000 131.36599731 1.2610000372 1.2200000286
