# LAS format log file from PETREL
# Project units are specified as depth units
#==================================================================
~Version information
VERS.   2.0:
WRAP.   NO:
#==================================================================
~Well
STRT .m      1517.9528809 :
STOP .m      3212.6408691 :
STEP .m     0.00000000 :
NULL .        -999.250000 :
COMP.           : COMPANY
WELL.  15/9-23   : WELL
FLD.            : FIELD
LOC.            : LOCATION
SRVC.           : SERVICE COMPANY
DATE.  2018-09-11 14:48:03   : Log Export Date {yyyy-MM-dd HH:mm:ss}
PROV.           : PROVINCE
UWI.   15/9-23   : UNIQUE WELL ID
API.            : API NUMBER
#==================================================================
~Curve
DEPT .m                   : DEPTH
Lithology_geolink ._      : Lithology_geolink
DCAL .in                  : DCAL
CALI .in                  : CALI
BS .in                    : BS
ROP .m/h                  : ROP
DRHO .g/cm3               : DRHO
NPHI .m3/m3               : NPHI
RHOB .g/cm3               : RHOB
PEF .b/e                  : PEF
GR .gAPI                  : GR
DTC .us/ft                : DTC
DTS .us/ft                : DTS
RDEP .ohm.m               : RDEP
RMED .ohm.m               : RMED
~Parameter
#==================================================================
~Ascii
# ...
 2080.3088379  -999.250000 0.6013001800 12.851300240 12.250000954 28.618902206 0.0533000007 0.4291999936 2.3071000576 6.7059001923 89.013999939 140.75740051 354.24349976 0.4995000064 0.5227000117
 2080.4611816  -999.250000 0.8378000259 13.087800026 12.250000954 27.844102859 0.1041999981 0.4041000009 2.5773999691 6.4657001495 80.056396484 142.16079712 357.19207764 0.5012000203 0.5167999864
 2080.6135254  -999.250000 0.9770002365 13.227001190 12.250000954 24.353300095 0.0851999968 0.4469999969 2.5129001141 6.4221000671 82.270401001 140.52430725 360.05050659 0.5042999983 0.5256999731
 2080.7661133  -999.250000 0.9545001984 13.204501152 12.250000954 20.750900269 0.0007000000 0.4359000027 2.2683999538 5.9548997879 74.924598694 137.84100342 361.94000244 0.4914000034 0.5626000166
 2080.9184570  -999.250000 0.4637002945 12.713700294 12.250000954 19.218399048 0.0071999999 0.3975000083 2.2265000343 5.6838998795 71.193496704 136.69140625 360.25085449 0.5662999749 0.6887000203
 2081.0708008  -999.250000 0.1556997001 12.405699730 12.250000954 18.217201233 0.0215000007 0.4140999913 2.2277998924 5.5676999092 80.333503723 135.88369751 359.10449219 0.7139000297 0.7245000005
 2081.2231445  -999.250000 0.5121002197 12.762100220 12.250000954 16.549701691 0.0636000037 0.4453999996 2.2590000629 5.8046998978 90.022300720 135.87600708 356.89398193 0.5983999968 0.5583999753
 2081.3757324  -999.250000 0.5473002791 12.797300339 12.250000954 14.173701286 0.0640000030 0.4469000101 2.2593998909 5.8092999458 94.325500488 134.60749817 351.79080200 0.4855999947 0.5005000234
 2081.5280762  -999.250000 0.5473002791 12.797300339 12.250000954 15.049900055 0.0640000030 0.4390999973 2.2593998909 5.8092999458 96.637901306 132.91839600 345.96749878 0.4918000102 0.4990000129
 2081.6804199  -999.250000 1.4975999594 13.747600555 12.250000954 18.362699509 0.0843999982 0.4327999949 2.2895998955 6.9889001846 89.406501770 132.43800354 347.11999512 0.4921000004 0.5059999824
 2081.8327637  -999.250000 1.4975999594 13.747600555 12.250000954 27.597097397 0.0843999982 0.4426000118 2.2895998955 6.9889001846 93.300796509 132.28169250 351.05218506 0.4936000109 0.5092999935
 2081.9851074  -999.250000 1.0078999996 13.257900238 12.250000954 32.913093567 0.0832000002 0.4287999868 2.2643001080 6.9447999001 88.260696411 132.47549438 349.28338623 0.4916000068 0.5095999837
 2082.1376953  -999.250000 1.0078999996 13.257900238 12.250000954 33.572013855 0.0832000002 0.4453000128 2.2643001080 6.9447999001 88.697303772 133.00639343 345.26586914 0.4981999993 0.5160999894
 2082.2900391  -999.250000 0.6367998123 12.886799812 12.250000954 31.093105316 0.0926000029 0.4580999911 2.2616999149 7.2021999359 88.333999634 133.32589722 348.04339600 0.5005999804 0.5175999999
 2082.4423828  -999.250000 0.7587003112 13.008700371 12.250000954 28.992601395 0.0930999964 0.4762000144 2.2383000851 7.4882998466 88.902297974 133.79420471 349.55169678 0.4797999859 0.5073999763
 2082.5947266  -999.250000 0.8458003998 13.095799446 12.250000954 30.360399246 0.1062000021 0.4230999947 2.2427999973 7.9474000931 89.853103638 132.79499817 352.39828491 0.4641000032 0.4848000109
 2082.7473145  -999.250000 0.8477001190 13.097701073 12.250000954 36.084693909 0.1295000017 0.4208999872 2.2813999653 8.4209003448 90.632797241 132.60159302 349.51589966 0.4591999948 0.4758000076
 2082.8996582  -999.250000 0.9887999892 13.238801003 12.250000954 37.770084381 0.1178999990 0.4282000065 2.2827000618 8.4541997910 90.115097046 131.90240479 344.20950317 0.4573000073 0.4659999907
 2083.0520020  -999.250000 1.2615000010 13.511500359 12.250000954 34.620006561 0.0952000022 0.4088000059 2.2839999199 8.5184001923 89.332099915 130.27059937 343.56259155 0.4553999901 0.4677000046
 2083.2043457  -999.250000 0.6162996292 12.866299629 12.250000954 27.522401810 0.0864999965 0.4083000124 2.2897000313 7.5563998222 82.586700439 132.03750610 348.59829712 0.4808999896 0.4779999852
 2083.3569336  -999.250000 0.4301995933 12.680198669 12.250000954 21.829401016 0.0866999999 0.4086000025 2.3027000427 7.2515997887 87.116401672 132.64360046 349.56091309 0.5361999869 0.5054000020
 2083.5092773  -999.250000 0.6157998443 12.865799904 12.250000954 17.922300339 0.0733999982 0.4122999907 2.3029999733 6.8020000458 95.359298706 134.40080261 350.34201050 0.5666999817 0.5468999743
 2083.6616211  -999.250000 0.9232997894 13.173299789 12.250000954 14.663801193 0.0513000004 0.4255999923 2.3034000397 6.0571999550 92.067100525 134.45880127 341.19131470 0.5419999957 0.5167000294
 2083.8139648  -999.250000 0.3749999702 12.624999046 12.250000954 12.683300972 0.0458999984 0.4345000088 2.2509999275 5.8165998459 93.047302246 134.31509399 340.49700928 0.5037999749 0.5141000152
 2083.9663086  -999.250000 0.2442999035 12.494299889 12.250000954 13.444998741 0.0458999984 0.4171000123 2.2358999252 5.7533001900 98.190002441 132.97369385 342.88748169 0.5105999708 0.5169000030
 2084.1188965  -999.250000 0.2638998032 12.513899803 12.250000954 16.929798126 0.0496999994 0.4095999897 2.2307000160 5.7449002266 98.162498474 130.02949524 354.36730957 0.5188000202 0.5314999819
 2084.2712402  -999.250000 0.2638998032 12.513899803 12.250000954 20.653699875 0.0496999994 0.4273999929 2.2307000160 5.7449002266 94.744796753 129.34069824 356.52593994 0.5406000018 0.5322999954
 2084.4235840  -999.250000 0.4710999131 12.721099854 12.250000954 22.915599823 0.0715000033 0.4334999919 2.2546999454 6.3779997826 85.230300903 130.55839539 351.21188354 0.5169000030 0.5139999986
 2084.5759277  -999.250000 0.5040997863 12.754099846 12.250000954 23.845899582 0.0728000030 0.4596000016 2.2471001148 6.4816999435 88.309402466 131.93350220 344.66961670 0.4767000079 0.4878000021
 2084.7285156  -999.250000 0.6641998291 12.914200783 12.250000954 24.984901428 0.0798000023 0.4354999959 2.2126998901 6.9913997650 94.055702209 133.12910461 337.29528809 0.4918999970 0.4981999993
 2084.8808594  -999.250000 0.8136996627 13.063699722 12.250000954 27.335102081 0.0988000035 0.4327999949 2.2190001011 7.5472998619 88.900596619 135.32400513 326.36468506 0.4808000028 0.5012999773
 2085.0332031  -999.250000 0.6803999543 12.930398941 12.250000954 31.125993729 0.1222999990 0.4686000049 2.2771000862 7.8418002129 87.960403442 136.14059448 322.53488159 0.4560999870 0.4717000127
 2085.1855469  -999.250000 0.4349003136 12.684899330 12.250000954 30.157396317 0.0900999978 0.4494999945 2.2651998997 7.0408000946 88.948501587 136.41000366 334.83999634 0.4507000148 0.4519000053
 2085.3381348  -999.250000 0.3524999917 12.602499008 12.250000954 25.335899353 0.0627000034 0.4530000091 2.2242999077 6.5748000145 89.516700745 136.94560242 338.99438477 0.4386000037 0.4523999989
 2085.4904785  -999.250000 0.4665003121 12.716501236 12.250000954 23.477899551 0.0658999979 0.4517999887 2.2560000420 6.3576002121 89.792999268 138.37469482 345.24319458 0.4431000054 0.4544000030
 2085.6428223  -999.250000 0.6485996842 12.898599625 12.250000954 23.403997421 0.0854000002 0.4300000072 2.2939000130 6.7017998695 88.595497131 138.68460083 346.45181274 0.4375999868 0.4548000097
 2085.7951660  -999.250000 0.7241001725 12.974099159 12.250000954 23.109500885 0.0489999987 0.4237000048 2.2137999535 6.8457999229 89.786903381 138.45370483 349.85638428 0.4370999932 0.4501999915
 2085.9475098  -999.250000 0.6389998794 12.888998985 12.250000954 21.723804474 0.0891000032 0.4350999892 2.2227001190 7.7375001907 91.132698059 138.27330017 351.51345825 0.4445999861 0.4553999901
 2086.1000977  -999.250000 0.6479998231 12.897998810 12.250000954 21.273099899 0.1033999994 0.4302999973 2.2418000698 7.9580001831 94.234397888 138.46560669 351.69110107 0.4463000000 0.4918999970
 2086.2524414  -999.250000 0.6431999207 12.893199921 12.250000954 24.133399963 0.1168999970 0.4120000005 2.2702999115 8.0319995880 94.059997559 138.46859741 353.31610107 0.4654000103 0.5207999945
 2086.4047852  -999.250000 0.5980997086 12.848098755 12.250000954 27.054704666 0.1138999984 0.4280000031 2.2818000317 8.0640001297 89.147903442 138.19920349 355.31539917 0.4938000143 0.4731999934
