# LAS format log file from PETREL
# Project units are specified as depth units
#==================================================================
~Version information
VERS.   2.0:
WRAP.   NO:
#==================================================================
~Well
STRT .m      2122.4746094 :
STOP .m      4102.6074219 :
STEP .m     0.00000000 :
NULL .        -999.250000 :
COMP.           : COMPANY
WELL.  15/9-19A   : WELL
FLD.            : FIELD
LOC.            : LOCATION
SRVC.           : SERVICE COMPANY
DATE.  2018-09-11 14:48:01   : Log Export Date {yyyy-MM-dd HH:mm:ss}
PROV.           : PROVINCE
UWI.   15/9-19 A   : UNIQUE WELL ID
API.            : API NUMBER
#==================================================================
~Curve
DEPT .m                   : DEPTH
Lithology_geolink ._      : Lithology_geolink
CALI .in                  : CALI
RHOB .g/cm3               : RHOB
GR .gAPI                  : GR
RDEP .ohm.m               : RDEP
RSHA .ohm.m               : RSHA
RMED .ohm.m               : RMED
~Parameter
#==================================================================
~Ascii
# ...
 3202.0759277 5.0000000000 9.3217000961 2.0945000648 50.726352692 0.9096000195 0.9886000156 0.8328999877
 3202.2282715 5.0000000000 8.9342002869 2.1993000507 49.831253052 0.9023000002 1.0307999849 0.8302999735
 3202.3808594 5.0000000000 8.9415998459 2.2780001163 53.115425110 0.9035000205 1.0855000019 0.8417999744
 3202.5332031 5.0000000000 8.9305000305 2.2764999866 54.611808777 0.9124000072 1.1562999487 0.8676000237
 3202.6855469 5.0000000000 8.9545001984 2.2904999256 48.918544769 0.9272999763 1.2263000011 0.9003999829
 3202.8378906 5.0000000000 9.0240001678 2.3387000561 46.265789032 0.9452000260 1.2531000376 0.9300000072
 3202.9904785 5.0000000000 9.0447998047 2.3271000385 52.960437775 0.9635999799 1.2275999784 0.9521999955
 3203.1428223 5.0000000000 9.0698003769 2.2892999649 58.066421509 0.9801999927 1.1842999458 0.9685000181
 3203.2951660 5.0000000000 9.1233997345 2.2955000401 56.056438446 0.9933000207 1.1445000172 0.9794999957
 3203.4475098 5.0000000000 9.1290998459 2.3276998997 53.739910126 1.0020999908 1.1136000156 0.9837999940
 3203.5998535 5.0000000000 9.3200998306 2.3427999020 52.501663208 1.0062999725 1.1060999632 0.9836000204
 3203.7524414 5.0000000000 9.3684997559 2.3531000614 53.232322693 1.0070999861 1.1390000582 0.9857000113
 3203.9047852 5.0000000000 9.3836002350 2.3341000080 57.136337280 1.0059000254 1.2007999420 0.9915000200
 3204.0571289 6.0000000000 9.3894996643 2.2744998932 60.650569916 1.0034999847 1.2300000191 0.9939000010
 3204.2094727 6.0000000000 9.3835000992 2.2372000217 62.464893341 0.9990000129 1.1771999598 0.9851999879
 3204.3620605 6.0000000000 9.3804998398 2.2321000099 64.049468994 0.9914000034 1.0899000168 0.9664000273
 3204.5144043 6.0000000000 9.3835000992 2.2764999866 60.960563660 0.9800999761 1.0267000198 0.9420999885
 3204.6667480 6.0000000000 9.4470996857 2.3092000484 58.937038422 0.9668999910 0.9815000296 0.9162999988
 3204.8190918 5.0000000000 10.050600052 2.3045001030 58.322364807 0.9549000263 0.9384999871 0.8945000172
 3204.9716797 6.0000000000 10.295000076 2.2890999317 60.682006836 0.9469000101 0.9143000245 0.8849999905
 3205.1240234 6.0000000000 10.021900177 2.2943999767 63.162624359 0.9431999922 0.9283000231 0.8909999728
 3205.2763672 6.0000000000 9.2903995514 2.2818999290 58.888065338 0.9417999983 0.9837999940 0.9060999751
 3205.4287109 6.0000000000 9.2309999466 2.2909998894 53.432945251 0.9397000074 1.0712000132 0.9190999866
 3205.5810547 5.0000000000 9.1405000687 2.3603999615 52.148792267 0.9361000061 1.1625000238 0.9255999923
 3205.7336426 5.0000000000 9.1381998062 2.3861999512 53.123928070 0.9326000214 1.2222000360 0.9325000048
 3205.8859863 5.0000000000 9.1485004425 2.2867000103 59.663505554 0.9308000207 1.2551000118 0.9485999942
 3206.0383301 5.0000000000 9.0971002579 2.2258000374 61.355403900 0.9298999906 1.3128000498 0.9711999893
 3206.1906738 5.0000000000 8.7840995789 2.2399001122 54.708446503 0.9271000028 1.4002000093 0.9825000167
 3206.3432617 5.0000000000 8.7180995941 2.2513000965 53.572387695 0.9204000235 1.4107999802 0.9704999924
 3206.4956055 5.0000000000 8.6528997421 2.2651000023 54.415447235 0.9110000134 1.3148000240 0.9452999830
 3206.6479492 5.0000000000 8.6801996231 2.2939000130 56.426773071 0.9021000266 1.2186000347 0.9251000285
 3206.8002930 5.0000000000 8.9872999191 2.2318999767 57.503650665 0.8950999975 1.1758999825 0.9167000055
 3206.9528809 5.0000000000 8.6500997543 2.1535000801 55.345867157 0.8885999918 1.1619999409 0.9139999747
 3207.1052246 5.0000000000 8.8034000397 2.1768999100 55.043182373 0.8794999719 1.1324000359 0.9049999714
 3207.2575684 5.0000000000 9.8805999756 2.2184000015 52.745590210 0.8658999801 1.0866999626 0.8845999837
 3207.4099121 5.0000000000 8.9718999863 2.2637000084 47.747016907 0.8481000066 1.0657000542 0.8590000272
 3207.5622559 5.0000000000 8.9216003418 2.2513999939 47.605628967 0.8350999951 1.0779000521 0.8453000188
 3207.7148438 5.0000000000 9.2839002609 2.2411000729 54.184936523 0.8242999911 1.0884000063 0.8345999718
 3207.8671875 5.0000000000 8.5648002625 2.2211000919 53.212379456 0.8033999801 1.1109000444 0.8179000020
 3208.0195313 2.0000000000 8.5619001389 2.2040998936 46.214328766 0.7773000002 1.1008000374 0.7947000265
 3208.1718750 2.0000000000 8.5525999069 2.1947000027 34.945838928 0.7505000234 1.0549999475 0.7655000091
 3208.3244629 2.0000000000 8.5536003113 2.1947999001 27.182703018 0.7077999711 1.0220999718 0.7225999832
 3208.4768066 2.0000000000 8.5546998978 2.2032001019 26.297502518 0.6822000146 1.1137000322 0.6998000145
 3208.6291504 2.0000000000 8.5256004333 2.2046000957 26.242885590 0.6640999913 1.2202999592 0.6776000261
 3208.7814941 2.0000000000 8.5228996277 2.2121999264 25.514337540 0.6492999792 1.2683000565 0.6542999744
 3208.9340820 2.0000000000 8.5327997208 2.2144999504 26.740627289 0.6398000121 1.2426999807 0.6392999887
 3209.0864258 2.0000000000 8.5284996033 2.2144999504 26.446674347 0.6389999986 1.2311999798 0.6388000250
 3209.2387695 2.0000000000 8.5619001389 2.2144000530 24.737043381 0.6366000175 1.1953999996 0.6370999813
 3209.3911133 2.0000000000 8.5750999451 2.2133998871 22.786626816 0.6380000114 1.1844999790 0.6452000141
 3209.5434570 2.0000000000 8.5570001602 2.2156000137 23.670751572 0.6409999728 1.2345000505 0.6600000262
 3209.6960449 2.0000000000 8.5227003098 2.2225999832 26.409807205 0.6388000250 1.3059999943 0.6672000289
 3209.8483887 2.0000000000 8.5177001953 2.2306001186 25.787704468 0.6298999786 1.4097000360 0.6614000201
 3210.0007324 2.0000000000 8.5377998352 2.2256000042 25.593111038 0.6208000183 1.4984999895 0.6509000063
 3210.1530762 2.0000000000 8.5388002396 2.2218000889 24.276426315 0.6172999740 1.4865000248 0.6462000012
 3210.3056641 2.0000000000 8.5509004593 2.2163999081 25.197414398 0.6172999740 1.4549000263 0.6474999785
 3210.4580078 2.0000000000 8.5509004593 2.2295999527 28.320989609 0.6194000244 1.4614000320 0.6521000266
 3210.6103516 2.0000000000 8.5459003448 2.2276000977 29.219766617 0.6219000220 1.5176000595 0.6564000249
 3210.7626953 2.0000000000 8.5359001160 2.2212998867 26.621147156 0.6237999797 1.5849000216 0.6575999856
 3210.9152832 2.0000000000 8.5268001556 2.2225000858 24.102029800 0.6244999766 1.6204999685 0.6552000046
 3211.0676270 2.0000000000 8.5004997253 2.2167000771 23.982185364 0.6244999766 1.6182999611 0.6500999928
 3211.2199707 2.0000000000 8.5359001160 2.2032999992 25.499464035 0.6248000264 1.5884000063 0.6445000172
 3211.3723145 2.0000000000 8.5520000458 2.2009999752 26.923318863 0.6261000037 1.5440000296 0.6414999962
 3211.5246582 2.0000000000 8.5479001999 2.2200999260 26.242992401 0.6292999983 1.4780999422 0.6434999704
 3211.6772461 2.0000000000 8.5346002579 2.2708001137 24.933898926 0.6345000267 1.3543000221 0.6500999928
 3211.8295898 2.0000000000 8.5900001526 2.3236000538 27.058786392 0.6413999796 1.1847000122 0.6601999998
 3211.9819336 2.0000000000 8.6360998154 2.3266999722 34.318855286 0.6493999958 1.0413000584 0.6732000113
 3212.1342773 2.0000000000 8.6721000671 2.3206999302 48.331851959 0.6571000218 0.9627000093 0.6868000031
 3212.2868652 5.0000000000 8.7716999054 2.3055000305 58.873550415 0.6629999876 0.9427999854 0.6965000033
 3212.4392090 5.0000000000 8.7145996094 2.2276000977 70.144531250 0.6656000018 0.9775999784 0.6991999745
 3212.5915527 5.0000000000 8.6609001160 2.1672000885 64.302307129 0.6643000245 1.0726000071 0.6956999898
 3212.7438965 5.0000000000 8.5618000031 2.1540000439 49.905086517 0.6590999961 1.2032999992 0.6880999804
 3212.8964844 5.0000000000 8.5215997696 2.1424999237 42.539051056 0.6498000026 1.2983000278 0.6768000126
 3213.0488281 2.0000000000 8.5508003235 2.1359999180 35.161521912 0.6353999972 1.3148000240 0.6607000232
 3213.2011719 2.0000000000 8.5537996292 2.1442000866 31.138837814 0.6154999733 1.2901999950 0.6391999722
 3213.3535156 2.0000000000 8.5458002090 2.1468000412 28.333093643 0.5910000205 1.2691999674 0.6129999757
 3213.5058594 2.0000000000 8.5550003052 2.1424999237 28.171304703 0.5647000074 1.2408000231 0.5841000080
 3213.6584473 2.0000000000 8.5608997345 2.1463999748 31.063457489 0.5401999950 1.1762000322 0.5565999746
