# LAS format log file from PETREL
# Project units are specified as depth units
#==================================================================
~Version information
VERS.   2.0:
WRAP.   NO:
#==================================================================
~Well
STRT .m      474.34408569 :
STOP .m      3047.1606445 :
STEP .m     0.00000000 :
NULL .        -999.250000 :
COMP.           : COMPANY
WELL.  15/9-9   : WELL
FLD.            : FIELD
LOC.            : LOCATION
SRVC.           : SERVICE COMPANY
DATE.  2018-09-11 14:48:05   : Log Export Date {yyyy-MM-dd HH:mm:ss}
PROV.           : PROVINCE
UWI.   15/9-9   : UNIQUE WELL ID
API.            : API NUMBER
#==================================================================
~Curve
DEPT .m                   : DEPTH
Lithology_geolink ._      : Lithology_geolink
DCAL .in                  : DCAL
CALI .in                  : CALI
DRHO .g/cm3               : DRHO
NPHI .m3/m3               : NPHI
RHOB .g/cm3               : RHOB
GR .gAPI                  : GR
DTC .us/ft                : DTC
DT .us/ft                 : DT
DTE .us/ft                : DTE
RDEP .ohm.m               : RDEP
SP .mV                    : SP
RSHA .ohm.m               : RSHA
RXO .ohm.m                : RXO
RMED .ohm.m               : RMED
~Parameter
#==================================================================
~Ascii
# ...
 2530.8295898 11.000000000 12.545999527 12.545999527 -0.004004808 0.1840217859 2.4368586540 14.992437363 78.931861877 75.381614685 75.857574463 2.4234745502 150.74917603 2.4357306957 0.2450144291 2.4357306957
 2530.9821777 11.000000000 12.472999573 12.472999573 -0.006990385 0.1892732382 2.4582078457 15.230246544 78.253128052 74.711212158 75.136390686 2.3175094128 150.99879456 2.3175671101 0.2440032065 2.3175671101
 2531.1345215 11.000000000 12.414999962 12.414999962 -0.005006410 0.1896189451 2.4672281742 16.573680878 78.263725281 75.467109680 75.107231140 2.2454607487 151.26528931 2.2544031143 0.2440000027 2.2544031143
 2531.2868652 11.000000000 12.388999939 12.388999939 -0.002014400 0.1778169125 2.4704914093 14.685129166 78.594596863 75.459091187 75.473487854 2.2062501907 151.71609497 2.2261795998 0.2519616187 2.2261795998
 2531.4392090 11.000000000 12.371999741 12.371999741 0.0149182687 0.1751326919 2.4784290791 13.636023521 78.860099792 76.222076416 75.766990662 2.1841411591 151.77662659 2.1882436275 0.2559807897 2.1882436275
 2531.5917969 11.000000000 12.369001389 12.369001389 0.0219775643 0.1819281131 2.4902710915 12.399958611 78.860839844 75.089492798 75.648780823 2.1750431061 152.21487427 2.1292836666 0.2599871755 2.1292836666
 2531.7441406 11.000000000 12.371999741 12.371999741 0.0229967944 0.1890970320 2.5000057220 12.731919289 78.417633057 75.203231812 75.224006653 2.1561214924 152.01728821 2.1598017216 0.2619935870 2.1598017216
 2531.8964844 11.000000000 12.364999771 12.364999771 0.0080720000 0.1894583553 2.5045452118 12.316011429 78.679077148 75.780281067 75.564620972 2.1271860600 152.23857117 2.1341667175 0.2699616253 2.1341667175
 2532.0488281 11.000000000 12.347999573 12.347999573 -0.000956731 0.1884648204 2.5008623600 11.453159332 79.717842102 77.371749878 76.633743286 2.1051411629 152.00352478 2.1757309437 0.2580576837 2.1757309437
 2532.2014160 11.000000000 12.312000275 12.312000275 -0.001996795 0.1820107400 2.4873518944 11.946400642 81.250198364 79.326606750 78.222045898 2.0761394501 151.99304199 2.1949086189 0.2589967847 2.1949086189
 2532.3537598 11.000000000 12.248000145 12.248000145 -0.000006410 0.1839038581 2.4679586887 13.765156746 82.056388855 78.640357971 79.022415161 2.0650529861 151.25953674 2.2328174114 0.2789359093 2.2328174114
 2532.5061035 11.000000000 12.158000946 12.158000946 -0.001993590 0.1829530746 2.4506967068 16.731479645 82.633140564 80.600349426 79.546615601 2.0729486942 150.76217651 2.2856607437 0.3158814311 2.2856607437
 2532.6584473 11.000000000 11.855000496 11.855000496 -0.004985600 0.1863336861 2.4407689571 16.348892212 82.999778748 79.286415100 79.903686523 2.1068363190 150.48931885 2.2024044991 0.3378944099 2.2024044991
 2532.8107910 11.000000000 10.958999634 10.958999634 0.0009711539 0.1837823987 2.4388999939 15.842437744 82.679618835 79.564628601 79.489387512 2.1696972847 150.01628113 2.0696394444 0.3190913498 2.0696394444
 2532.9633789 11.000000000 9.9139995575 9.9139995575 0.0059839743 0.1921630055 2.4358720779 14.735551834 83.000297546 79.916870117 79.689376831 2.2009005547 149.70201111 2.0131795406 0.2970705032 2.0131795406
 2533.1157227 11.000000000 9.9149999619 9.9149999619 0.0069967951 0.1944926083 2.4262440205 15.847413063 82.737068176 79.248153687 79.584205627 2.1990063190 148.87765503 2.1704936028 0.2999903858 2.1704936028
 2533.2680664 11.000000000 10.871000290 10.871000290 0.0010288000 0.1928778291 2.4156224728 16.421249390 82.524436951 79.328605652 79.394737244 2.1631729603 149.45918274 2.4864783287 0.3039807975 2.4864783287
 2533.4204102 11.000000000 11.826000214 11.826000214 0.0010000000 0.1986918747 2.4162282944 17.147504807 83.347892761 80.956138611 80.180770874 2.1301586628 149.76852417 2.5098941326 0.3577404022 2.5098941326
 2533.5729980 11.000000000 12.204000473 12.204000473 0.0059839743 0.2133031040 2.4285528660 16.501091003 84.731765747 82.324630737 81.597267151 2.1080706120 150.31025696 2.2358813286 0.4138205051 2.2358813286
 2533.7253418 11.000000000 12.246998787 12.246998787 0.0079935901 0.2108181268 2.4396634102 16.547843933 85.663238525 83.062644958 82.609832764 2.1109905243 151.31178284 1.9439358711 0.3601730764 1.9439358711
 2533.8776855 11.000000000 12.260001183 12.260001183 0.0050144000 0.2010669857 2.4453048706 17.389938354 85.892410278 82.618148804 82.801597595 2.0881104469 150.60443115 1.8414895535 0.3948320150 1.8414895535
 2534.0300293 11.000000000 12.293000221 12.293000221 0.0069903848 0.1993580312 2.4507873058 17.770181656 85.484619141 82.214935303 82.273269653 2.0412259102 150.69056702 1.8419952393 0.4029615223 1.8419952393
 2534.1826172 11.000000000 12.305000305 12.305000305 0.0109871794 0.1925917268 2.4566528797 16.921733856 83.745658875 78.787017822 80.589630127 1.9871730804 150.38099670 1.9825481176 0.4089807868 1.9825481176
 2534.3349609 11.000000000 12.300999641 12.300999641 0.0090064099 0.1896394044 2.4570019245 15.997961044 82.105827332 79.139831543 79.080497742 1.9351665974 151.39472961 2.0517787933 0.4099967778 2.0517787933
 2534.4873047 11.000000000 12.290999413 12.290999413 0.0030192309 0.1899489760 2.4507746696 15.813583374 82.226196289 79.318428040 79.195465088 1.9349999428 151.29632568 2.0789134502 0.3661410213 2.0789134502
 2534.6396484 11.000000000 12.282999992 12.282999992 0.0010096000 0.1954435110 2.4443788528 14.554072380 82.236709595 78.939826965 79.225738525 2.0345201492 151.70899963 2.0232686996 0.3510720134 2.0232686996
 2534.7922363 11.000000000 12.282999992 12.282999992 0.0010000000 0.2008227855 2.4406826496 13.254159927 82.980758667 81.008338928 79.920944214 2.1017851830 151.48971558 1.8395897150 0.3230897486 1.8395897150
 2534.9445801 11.000000000 12.291999817 12.291999817 0.0019967949 0.1940618008 2.4347136021 12.828355789 83.738739014 80.417922974 80.664039612 2.0860512257 151.00854492 2.2118012905 0.3648653924 2.2118012905
 2535.0969238 11.000000000 12.368000031 12.368000031 0.0059871795 0.1842813790 2.4231870174 14.073990822 83.537757874 80.562530518 80.514533997 2.0610802174 150.73786926 2.6446120739 0.3470577002 2.6446120739
 2535.2492676 11.000000000 12.492000580 12.492000580 -0.015894400 0.1748652756 2.4056234360 14.163586617 83.718879700 80.729194641 80.593826294 2.0490577221 149.75672913 2.5902686119 0.3499855995 2.5902686119
 2535.4016113 11.000000000 12.473999977 12.473999977 -0.024956731 0.1746508181 2.3956060410 13.306144714 83.407669067 79.751724243 80.196006775 2.0549712181 149.49821472 2.1043460369 0.4276250005 2.1043460369
 2535.5541992 11.000000000 12.470000267 12.470000267 -0.018022435 0.1853057444 2.4106221199 14.662624359 82.447937012 78.488052368 79.283538818 2.0839071274 149.02751160 1.8468204737 0.4240128100 1.8468204737
 2535.7065430 11.000000000 12.467999458 12.467999458 -0.008032052 0.1883303821 2.4380171299 17.605550766 82.802772522 81.009872437 79.678901672 2.1149005890 149.46957397 1.9217565060 0.3980833292 1.9217565060
 2535.8588867 11.000000000 12.456999779 12.456999779 -0.000038400 0.1957144439 2.4581778049 17.313455582 83.311241150 79.590881348 80.200714111 2.1269423962 149.30082703 2.0872032642 0.3641631901 2.0872032642
 2536.0112305 11.000000000 12.458999634 12.458999634 0.0069663464 0.1943567246 2.4688217640 16.675077438 82.166473389 78.413642883 79.033866882 2.1100816727 149.93891907 2.1805529594 0.3779326975 2.1805529594
 2536.1638184 11.000000000 12.449999809 12.449999809 0.0099903848 0.1921869665 2.4695951939 13.410487175 81.245895386 77.714225769 78.063034058 2.1050159931 149.75061035 2.2836697102 0.3710224330 2.2836697102
 2536.3161621 11.000000000 12.425000191 12.425000191 0.0020256410 0.1852821708 2.4616029263 12.359346390 80.372581482 76.665367126 77.229553223 2.1259326935 149.51875305 2.2540960312 0.3670128286 2.2540960312
 2536.4685059 11.000000000 12.376999855 12.376999855 -0.000990385 0.1826284528 2.4512844086 12.253330231 79.896888733 76.705871582 76.703460693 2.1808238029 149.46118164 2.2510094643 0.3949102759 2.2510094643
 2536.6208496 11.000000000 12.305999756 12.305999756 -0.004980800 0.1806893200 2.4423019886 11.989272118 79.920417786 76.474128723 76.632690430 2.2904717922 149.12162781 2.1962640285 0.3940047920 2.1962640285
