# LAS format log file from PETREL
# Project units are specified as depth units
#==================================================================
~Version information
VERS.   2.0:
WRAP.   NO:
#==================================================================
~Well
STRT .m      1517.9528809 :
STOP .m      3212.6408691 :
STEP .m     0.00000000 :
NULL .        -999.250000 :
COMP.           : COMPANY
WELL.  15/9-23   : WELL
FLD.            : FIELD
LOC.            : LOCATION
SRVC.           : SERVICE COMPANY
DATE.  2018-09-11 14:48:03   : Log Export Date {yyyy-MM-dd HH:mm:ss}
PROV.           : PROVINCE
UWI.   15/9-23   : UNIQUE WELL ID
API.            : API NUMBER
#==================================================================
~Curve
DEPT .m                   : DEPTH
Lithology_geolink ._      : Lithology_geolink
DCAL .in                  : DCAL
CALI .in                  : CALI
BS .in                    : BS
ROP .m/h                  : ROP
DRHO .g/cm3               : DRHO
NPHI .m3/m3               : NPHI
RHOB .g/cm3               : RHOB
PEF .b/e                  : PEF
GR .gAPI                  : GR
DTC .us/ft                : DTC
DTS .us/ft                : DTS
RDEP .ohm.m               : RDEP
RMED .ohm.m               : RMED
~Parameter
#==================================================================
~Ascii
# ...
 3092.5495605 3.0000000000 0.6560000181 9.1560001373 8.5000000000 16.824499130 -0.006900000 0.3901999891 2.1454000473 5.0507001877 50.816299438 157.42808533 331.70309448 1.0310000181 1.0332000256
 3092.7019043 18.000000000 1.1852999926 9.6852998734 8.5000000000 17.235099792 -0.000300000 0.4311999977 1.9779000282 3.1642000675 50.680000305 146.21940613 328.81719971 1.1820000410 1.2094000578
 3092.8542480 18.000000000 1.0448999405 9.5448999405 8.5000000000 15.106698990 -0.085500002 0.5246999860 1.5102000237 2.5936999321 47.044498444 141.34730530 308.58911133 1.7022999525 1.8320000172
 3093.0068359 18.000000000 0.8570994735 9.3570995331 8.5000000000 13.873600006 -0.094700001 0.5281000137 1.3170000315 2.1496000290 31.215499878 135.60360718 317.25711060 2.5422000885 2.9609000683
 3093.1591797 18.000000000 0.3760004044 8.8760004044 8.5000000000 13.461501122 -0.079599999 0.5406000018 1.3120000362 1.8939000368 23.071599960 133.71029663 316.82681274 3.8554000854 4.9475002289
 3093.3115234 18.000000000 0.9942998290 9.4942998886 8.5000000000 14.130299568 -0.055500001 0.4950000048 1.4316999912 1.9405000210 26.641799927 133.91310120 325.74081421 4.6845002174 6.2041997910
 3093.4638672 3.0000000000 1.7009999752 10.201000214 8.5000000000 13.361398697 -0.020199999 0.4411000013 1.7305999994 2.4040000439 38.726699829 134.54080200 324.27319336 4.6125998497 6.4949998856
 3093.6164551 3.0000000000 0.5165997148 9.0165996552 8.5000000000 11.307101250 0.0060999999 0.3088000119 2.1310999393 3.7604000568 47.137901306 135.23060608 306.13000488 3.4066998959 4.9526000023
 3093.7687988 3.0000000000 -0.003100395 8.4968996048 8.5000000000 8.7079010010 0.0242999997 0.1717000008 2.3484001160 4.2231998444 34.542800903 135.77499390 283.99618530 1.9379999638 2.6793000698
 3093.9211426 3.0000000000 0.0221996326 8.5221996307 8.5000000000 7.3302993774 0.0264999997 0.1368999928 2.3782000542 4.4330000877 29.181400299 135.12190247 275.91738892 1.0009000301 1.1410000324
 3094.0734863 3.0000000000 0.0597000085 8.5597000122 8.5000000000 8.2604999542 0.0318999998 0.1648000032 2.3998999596 4.9313001633 39.598999023 134.69149780 275.29910278 0.8582999706 0.8015000224
 3094.2260742 5.0000000000 0.0079002380 8.5079002380 8.5000000000 12.910598755 0.0346999988 0.1890999973 2.4249000549 4.9100999832 72.012603760 135.11019897 275.36138916 0.9420999885 0.7824000120
 3094.3784180 5.0000000000 0.0513000414 8.5513000488 8.5000000000 13.718800545 0.0346000008 0.2310999930 2.4453001022 4.9340000153 74.965698242 136.01780701 279.25930786 1.4839999676 1.0310000181
 3094.5307617 3.0000000000 0.1613997966 8.6613998413 8.5000000000 13.699702263 0.0381000005 0.2433999926 2.4261999130 4.7055997849 58.702400208 135.63459778 279.80389404 2.2153000832 1.6246999502
 3094.6831055 3.0000000000 0.3420000076 8.8420000076 8.5000000000 13.907701492 0.0197000001 0.2567999959 2.2918000221 4.8942999840 49.235099792 135.69540405 277.16470337 2.0994999409 1.7325999737
 3094.8354492 3.0000000000 0.3309002221 8.8309001923 8.5000000000 13.755100250 0.0163000003 0.2075999975 2.2602999210 4.5187001228 39.029499054 134.62289429 272.32040405 1.2060999870 1.2996000051
 3094.9880371 3.0000000000 0.1886997074 8.6886997223 8.5000000000 12.846198082 0.0274000000 0.1834000051 2.3115999699 4.6451997757 32.708198547 132.72880554 261.46578979 0.8901000023 0.9872999787
 3095.1403809 3.0000000000 0.0926999971 8.5927000046 8.5000000000 10.727601051 0.0342000015 0.1582999974 2.3503999710 4.4605998993 23.043800354 130.65730286 246.79559326 0.7947000265 0.8787000179
 3095.2927246 3.0000000000 0.0476999208 8.5476999283 8.5000000000 8.8695001602 0.0337000005 0.1362999976 2.3585999012 4.2522997856 17.394100189 128.55880737 237.44929504 0.7340999842 0.8065000176
 3095.4450684 3.0000000000 0.0536003076 8.5536003113 8.5000000000 7.4530005455 0.0331000015 0.1298000067 2.3627998829 4.3029999733 17.030500412 126.52260590 243.19621277 0.6297000051 0.6259999871
 3095.5976563 3.0000000000 0.0649003983 8.5649003983 8.5000000000 7.4140014648 0.0333000049 0.1330000013 2.3703999519 4.3589000702 20.771699905 126.76689148 257.94241333 0.5823000073 0.5611000061
 3095.7500000 3.0000000000 0.1325998008 8.6325998306 8.5000000000 8.2261009216 0.0294000003 0.1447000057 2.3682000637 4.1637997627 36.207000732 131.47099304 264.13610840 0.5202000141 0.5031999946
 3095.9023438 3.0000000000 0.1443005055 8.6443004608 8.5000000000 8.2688007355 0.0326000005 0.1583999991 2.3677000999 4.3246002197 52.842899323 141.87739563 259.26879883 0.5047000051 0.4758000076
 3096.0546875 3.0000000000 0.1063994989 8.6063995361 8.5000000000 9.1602001190 0.0335000008 0.2070000023 2.3629000187 4.4107999802 60.023300171 152.75540161 264.14260864 0.5533000231 0.5062000155
 3096.2072754 3.0000000000 -0.003000259 8.4969997406 8.5000000000 10.614699364 0.0348000005 0.2281000018 2.3752000332 4.5855998993 59.602500916 155.65280151 264.29760742 0.8123000264 0.7217000127
 3096.3596191 3.0000000000 -0.025300028 8.4746999741 8.5000000000 11.660200119 0.0285000000 0.2179999948 2.3980000019 4.4088997841 55.070598602 156.16760254 269.02978516 1.6003999710 1.6732000113
 3096.5119629 3.0000000000 0.0340995789 8.5340995789 8.5000000000 12.282400131 0.0320000015 0.2055000067 2.4358999729 4.3007998466 50.082500458 151.08328247 282.81579590 1.8077000380 2.0546998978
 3096.6643066 3.0000000000 0.0581998788 8.5581998825 8.5000000000 11.460099220 0.0368000008 0.1926999986 2.4628000259 4.4759001732 47.902801514 149.63491821 283.56689453 1.6540999413 2.0250999928
 3096.8166504 3.0000000000 0.0621995851 8.5621995926 8.5000000000 10.452500343 0.0348000005 0.1969999969 2.4461998940 4.2993001938 42.855300903 160.94032288 308.97320557 1.4283000231 1.6421999931
 3096.9692383 3.0000000000 0.1218996048 8.6218996048 8.5000000000 9.7560997009 0.0295000002 0.2304999977 2.3982000351 4.0353999138 45.469501495 165.13099670 323.40399170 1.4865000248 1.4042999744
 3097.1215820 3.0000000000 0.3381995559 8.8381996155 8.5000000000 9.0215978622 0.0120999999 0.3009999990 2.2894999981 4.1925001144 56.244899750 161.98440552 319.46780396 2.6635999680 2.2985000610
 3097.2739258 3.0000000000 0.4813995063 8.9813995361 8.5000000000 8.4630012512 0.0010000000 0.3485000134 2.1582000256 4.0093998909 57.011798859 163.91659546 302.58938599 3.5720000267 3.0176999569
 3097.4262695 3.0000000000 0.3725003898 8.8725004196 8.5000000000 8.7586994171 -0.005600000 0.3623000085 2.0708000660 3.7737998962 58.910499573 163.41908264 281.43920898 3.5713000298 3.0845999718
 3097.5788574 3.0000000000 0.0785999298 8.5785999298 8.5000000000 9.9746017456 0.0131999999 0.3542000055 2.1461999416 3.6997001171 54.722900391 165.26029968 276.50311279 3.2908999920 3.0137000084
 3097.7312012 3.0000000000 -0.040900227 8.4590997696 8.5000000000 11.190098763 0.0256999992 0.3025999963 2.2472999096 3.6809000969 46.670101166 164.16470337 280.96728516 3.0743999481 2.9565000534
 3097.8835449 3.0000000000 0.1278000027 8.6277999878 8.5000000000 11.726597786 0.0239000004 0.2976000011 2.2664000988 3.7195000648 46.638698578 161.75059509 296.73699951 3.3568999767 3.6236999035
 3098.0358887 3.0000000000 0.5256996155 9.0256996155 8.5000000000 12.130101204 0.0295000002 0.3048000038 2.1967000961 3.5992999077 48.081798553 157.84390259 305.42059326 3.4447000027 3.7481000423
 3098.1884766 5.0000000000 -0.035200119 8.4647998810 8.5000000000 12.177000999 0.0487999991 0.3578000069 2.2360999584 3.3993000984 55.113601685 155.46260071 304.96530151 3.2929000854 3.2402999401
 3098.3408203 5.0000000000 0.0675001070 8.5675001144 8.5000000000 12.881400108 0.0390999988 0.3309000134 2.3447999954 4.1722002029 62.430698395 155.91119385 309.14709473 3.2002999783 3.0222001076
 3098.4931641 5.0000000000 -0.002499580 8.4975004196 8.5000000000 13.641098976 0.0278999992 0.3009000123 2.3963000774 4.8059000969 63.989601135 157.62358093 313.60998535 3.0346999168 2.8780000210
 3098.6455078 5.0000000000 0.0531997755 8.5531997681 8.5000000000 12.414299011 0.0249000005 0.2955000103 2.3979001045 4.5841999054 68.064300537 158.53460693 313.92385864 2.8520998955 2.9040000439
