# LAS format log file from PETREL
# Project units are specified as depth units
#==================================================================
~Version information
VERS.   2.0:
WRAP.   NO:
#==================================================================
~Well
STRT .m      2122.4746094 :
STOP .m      4102.6074219 :
STEP .m     0.00000000 :
NULL .        -999.250000 :
COMP.           : COMPANY
WELL.  15/9-19A   : WELL
FLD.            : FIELD
LOC.            : LOCATION
SRVC.           : SERVICE COMPANY
DATE.  2018-09-11 14:48:01   : Log Export Date {yyyy-MM-dd HH:mm:ss}
PROV.           : PROVINCE
UWI.   15/9-19 A   : UNIQUE WELL ID
API.            : API NUMBER
#==================================================================
~Curve
DEPT .m                   : DEPTH
Lithology_geolink ._      : Lithology_geolink
CALI .in                  : CALI
RHOB .g/cm3               : RHOB
GR .gAPI                  : GR
RDEP .ohm.m               : RDEP
RSHA .ohm.m               : RSHA
RMED .ohm.m               : RMED
~Parameter
#==================================================================
~Ascii
# ...
 2310.2312012  -999.250000 11.538999557 2.1159000397 62.530551910 1.0745999813 1.2771999836 1.0348999500
 2310.3837891  -999.250000 11.515600204 2.1082999706 62.046398163 1.0738999844 1.2840000391 1.0335999727
 2310.5361328  -999.250000 11.548999786 2.1061999798 59.472824097 1.0735000372 1.2993999720 1.0328999758
 2310.6884766  -999.250000 11.538999557 2.0959000587 58.019428253 1.0737999678 1.3215999603 1.0334999561
 2310.8408203  -999.250000 11.530999184 2.0926001072 56.917366028 1.0749000311 1.3430000544 1.0357999802
 2310.9934082  -999.250000 11.536999702 2.0987000465 57.052299500 1.0766999722 1.3516000509 1.0394999981
 2311.1457520  -999.250000 11.534899712 2.1094999313 60.098899841 1.0787999630 1.3450000286 1.0428999662
 2311.2980957  -999.250000 11.538100243 2.1291000843 60.413795471 1.0807000399 1.3361999989 1.0450999737
 2311.4504395  -999.250000 11.514799118 2.1347000599 57.604610443 1.0822000504 1.3380000591 1.0463000536
 2311.6030273  -999.250000 11.531999588 2.1335000992 59.299301147 1.0831999779 1.3499000072 1.0472999811
 2311.7553711  -999.250000 11.530099869 2.1306002140 64.254402161 1.0836999416 1.3581999540 1.0483000278
 2311.9077148  -999.250000 11.529100418 2.1228001118 63.616321564 1.0839999914 1.3508000374 1.0487999916
 2312.0600586  -999.250000 11.537099838 2.1196999550 60.212261200 1.0841000080 1.3320000172 1.0492000580
 2312.2124023  -999.250000 11.523900032 2.1266000271 59.063533783 1.0836999416 1.3171000481 1.0499000549
 2312.3649902  -999.250000 11.527099609 2.1285998821 65.451202393 1.0828000307 1.3142000437 1.0506000519
 2312.5173340  -999.250000 11.535200119 2.1259999275 64.709693909 1.0808000565 1.3179999590 1.0505000353
 2312.6696777  -999.250000 11.525899887 2.1219000816 59.085025787 1.0776000023 1.3207999468 1.0490000248
 2312.8220215  -999.250000 11.543999672 2.1231999397 61.113632202 1.0728000402 1.3164999485 1.0454000235
 2312.9746094  -999.250000 11.585500717 2.1238000393 62.596801758 1.0662000179 1.3029999733 1.0386999846
 2313.1269531  -999.250000 11.572099686 2.1264998913 61.100700378 1.0583000183 1.2850999832 1.0288000107
 2313.2792969  -999.250000 11.586199760 2.1372001171 62.271522522 1.0499000549 1.2703000307 1.0166000128
 2313.4316406  -999.250000 11.590200424 2.1424002647 61.110565186 1.0424000025 1.2610000372 1.0046000481
 2313.5842285  -999.250000 11.595200539 2.1394999027 60.218200684 1.0369999409 1.2517999411 0.9951999784
 2313.7365723  -999.250000 11.580899239 2.1747999191 59.126998901 1.0345000029 1.2388000488 0.9901000261
 2313.8889160  -999.250000 11.593099594 2.2695999146 55.789146423 1.0349999666 1.2290999889 0.9901000261
 2314.0412598  -999.250000 11.600199699 2.2980000973 51.452354431 1.0384000540 1.2318999767 0.9968000054
 2314.1936035  -999.250000 11.597200394 2.2307000160 54.401855469 1.0439000130 1.2384999990 1.0101000071
 2314.3461914  -999.250000 11.594200134 2.2046000957 60.393501282 1.0504000187 1.2229000330 1.0227999687
 2314.4985352  -999.250000 11.589200020 2.2121000290 62.918251038 1.0563999414 1.1887999773 1.0252000093
 2314.6508789  -999.250000 11.597299576 2.2044000626 60.889461517 1.0608999729 1.1813000441 1.0174000263
 2314.8032227  -999.250000 11.334899902 2.1798000336 58.203605652 1.0634000301 1.2185000181 1.0091999769
 2314.9558105  -999.250000 11.288599968 2.1565001011 62.360599518 1.0638999939 1.2626999617 1.0047999620
 2315.1081543  -999.250000 11.300599098 2.1589999199 63.782699585 1.0630999804 1.2757999897 0.9961000085
 2315.2604980  -999.250000 11.266200066 2.1638998985 61.093410492 1.0627000332 1.2649999857 0.9790999889
 2315.4128418  -999.250000 11.264201164 2.1542000771 59.791984558 1.0650999546 1.2619999647 0.9653000236
 2315.5654297  -999.250000 11.272299767 2.1454999447 59.529800415 1.0714999437 1.2838000059 0.9677000046
 2315.7177734  -999.250000 11.270500183 2.1486001015 55.685501099 1.0817999840 1.3217999935 0.9853000045
 2315.8701172  -999.250000 11.250499725 2.1588997841 48.483940125 1.0946999788 1.3572000265 1.0074000359
 2316.0224609  -999.250000 11.231399536 2.1644001007 42.190780640 1.1093000174 1.3740999699 1.0302000046
 2316.1748047  -999.250000 11.227299690 2.1675999165 40.211063385 1.1246000528 1.3687000275 1.0599000454
 2316.3273926  -999.250000 11.232399940 2.1944000721 37.485198975 1.1390000582 1.3567999601 1.0988999605
 2316.4797363  -999.250000 11.252499580 2.2348001003 39.722614288 1.1482000351 1.3592000008 1.1373000145
 2316.6320801  -999.250000 11.256199837 2.2495000362 45.508617401 1.1474000216 1.3768999577 1.1592999697
 2316.7844238  -999.250000 11.227700233 2.2318999767 49.023674011 1.1338000298 1.3937000036 1.1542999744
 2316.9370117  -999.250000 11.251600266 2.2149000168 49.535598755 1.1095000505 1.3967000246 1.1222000122
 2317.0893555  -999.250000 11.255399704 2.2061998844 51.346298218 1.0807000399 1.3838000298 1.0743000507
 2317.2416992  -999.250000 11.242400169 2.1995000839 52.601287842 1.0548000336 1.3552000523 1.0289000273
 2317.3940430  -999.250000 11.230400085 2.1844999790 55.605480194 1.0364999771 1.3143999577 1.0003000498
 2317.5466309  -999.250000 11.230400085 2.1721999645 57.858200073 1.0273000002 1.2734999657 0.9914000034
 2317.6989746  -999.250000 11.219200134 2.1675000191 58.989498138 1.0250999928 1.2458000183 0.9945999980
 2317.8513184  -999.250000 11.234299660 2.1707999706 60.744190216 1.0269999504 1.2337000370 0.9993000031
 2318.0036621  -999.250000 11.235299110 2.1781001091 60.837253571 1.0298999548 1.2260999680 1.0018999577
 2318.1560059  -999.250000 11.251499176 2.1728999615 62.159976959 1.0324000120 1.2115999460 1.0042999983
 2318.3085938  -999.250000 11.243400574 2.1628000736 59.288799286 1.0334999561 1.1880999804 1.0062999725
 2318.4609375  -999.250000 11.244400024 2.1628000736 55.590827942 1.0329999924 1.1651999950 1.0040999651
 2318.6132813  -999.250000 11.257398605 2.1649000645 52.873252869 1.0307999849 1.1563999653 0.9958999753
 2318.7656250  -999.250000 11.227600098 2.1698000431 52.419021606 1.0271999836 1.1595000029 0.9843000174
 2318.9182129  -999.250000 11.135399818 2.1754999161 51.885101318 1.0232000351 1.1633000374 0.9725000262
 2319.0705566  -999.250000 11.087199211 2.1651000977 55.691799164 1.0200999975 1.1641000509 0.9635999799
 2319.2229004  -999.250000 11.067099571 2.1384999752 61.142463684 1.0196000338 1.1517000198 0.9613999724
 2319.3752441  -999.250000 11.059200287 2.1126999855 64.858352661 1.0228999853 1.1326999664 0.9682000279
 2319.5278320  -999.250000 11.014899254 1.9526000023 62.021598816 1.0303000212 1.1469000578 0.9815000296
 2319.6801758  -999.250000 11.006999969 1.6471999884 59.333301544 1.0406999588 1.1930999756 0.9968000054
 2319.8325195  -999.250000 10.995900154 1.7609000206 57.558444977 1.0521999598 1.2201000452 1.0127999783
 2319.9848633  -999.250000 10.965600014 2.0583000183 59.721424103 1.0626000166 1.2237000465 1.0299999714
 2320.1372070  -999.250000 10.978899956 2.1514000893 63.317432404 1.0707000494 1.2373000383 1.0449999571
 2320.2897949  -999.250000 10.960900307 2.1538999081 62.132598877 1.0748000145 1.2587000132 1.0521999598
 2320.4421387  -999.250000 10.939800262 2.1549000740 61.487232208 1.0738999844 1.2667000294 1.0490000248
 2320.5944824  -999.250000 10.883399963 2.1503000259 59.765663147 1.0680999756 1.2714999914 1.0354000330
 2320.7468262  -999.250000 10.836300850 2.1452999115 54.053363800 1.0607999563 1.2934999466 1.0173000097
 2320.8994141  -999.250000 10.811400414 2.1428999901 51.123600006 1.0570000410 1.3064999580 1.0096999407
 2321.0517578  -999.250000 10.739899635 2.1319000721 55.056999207 1.0594999790 1.2502000332 1.0257999897
 2321.2041016  -999.250000 10.700300217 2.0989999771 58.252380371 1.0666999817 1.1423000097 1.0563000441
 2321.3564453  -999.250000 10.654299736 2.0699000359 57.198402405 1.0736999512 1.0868999958 1.0726000071
 2321.5090332  -999.250000 10.620100021 2.0643000603 57.248298645 1.0772000551 1.1398999691 1.0608999729
 2321.6613770  -999.250000 10.581999779 2.0660998821 60.754501343 1.0781999826 1.2462999821 1.0390000343
 2321.8137207  -999.250000 10.557298660 2.0762000084 60.191600800 1.0803999901 1.3144999743 1.0311000347
