# LAS format log file from PETREL
# Project units are specified as depth units
#==================================================================
~Version information
VERS.   2.0:
WRAP.   NO:
#==================================================================
~Well
STRT .m      2122.4746094 :
STOP .m      4102.6074219 :
STEP .m     0.00000000 :
NULL .        -999.250000 :
COMP.           : COMPANY
WELL.  15/9-19A   : WELL
FLD.            : FIELD
LOC.            : LOCATION
SRVC.           : SERVICE COMPANY
DATE.  2018-09-11 14:48:01   : Log Export Date {yyyy-MM-dd HH:mm:ss}
PROV.           : PROVINCE
UWI.   15/9-19 A   : UNIQUE WELL ID
API.            : API NUMBER
#==================================================================
~Curve
DEPT .m                   : DEPTH
Lithology_geolink ._      : Lithology_geolink
CALI .in                  : CALI
RHOB .g/cm3               : RHOB
GR .gAPI                  : GR
RDEP .ohm.m               : RDEP
RSHA .ohm.m               : RSHA
RMED .ohm.m               : RMED
~Parameter
#==================================================================
~Ascii
# ...
 3072.9931641 6.0000000000 9.0369997025 2.3101000786 73.475105286 0.7164000273 0.7892000079 0.7052999735
 3073.1455078 6.0000000000 9.0479001999 2.3145999908 69.408538818 0.7206000090 0.7957999706 0.7105000019
 3073.2980957 6.0000000000 9.0455999374 2.3122000694 67.158493042 0.7249000072 0.8070999980 0.7160000205
 3073.4504395 6.0000000000 9.0438003540 2.3050000668 66.550666809 0.7293000221 0.8216999769 0.7213000059
 3073.6027832 6.0000000000 9.0289001465 2.2962999344 63.174915314 0.7339000106 0.8379999995 0.7268000245
 3073.7551270 6.0000000000 9.0289001465 2.2931001186 60.054897308 0.7390000224 0.8542000055 0.7325999737
 3073.9077148 6.0000000000 9.0298995972 2.2980999947 60.921092987 0.7447999716 0.8684999943 0.7391999960
 3074.0600586 6.0000000000 9.0307998657 2.2978999615 61.201152802 0.7509999871 0.8795999885 0.7462999821
 3074.2124023 6.0000000000 9.0277996063 2.2962000370 63.481040955 0.7573000193 0.8852999806 0.7531999946
 3074.3647461 6.0000000000 9.0339002609 2.2895998955 64.082038879 0.7633000016 0.8848000169 0.7591000199
 3074.5170898 6.0000000000 9.0290002823 2.2939000130 61.782886505 0.7685999870 0.8805999756 0.7638000250
 3074.6696777 5.0000000000 9.0350999832 2.3006999493 59.563449860 0.7731999755 0.8773000240 0.7677000165
 3074.8220215 5.0000000000 9.0268001556 2.3081998825 58.486724854 0.7773000002 0.8784999847 0.7714999914
 3074.9743652 5.0000000000 9.0369997025 2.3127000332 58.678985596 0.7807999849 0.8860999942 0.7754999995
 3075.1267090 5.0000000000 9.0207996368 2.3055000305 57.204135895 0.7839000225 0.8985000253 0.7795000076
 3075.2792969 5.0000000000 9.0054998398 2.3078999519 53.833301544 0.7861999869 0.9111999869 0.7828000188
 3075.4316406 5.0000000000 9.0227003098 2.3106000423 52.871833801 0.7878999710 0.9189000130 0.7849000096
 3075.5839844 5.0000000000 9.0218000412 2.3039000034 55.044609070 0.7886000276 0.9194999933 0.7860000134
 3075.7363281 5.0000000000 9.0258998871 2.3025999069 56.953880310 0.7882999778 0.9154999852 0.7857000232
 3075.8889160 5.0000000000 9.0319995880 2.3059999943 57.944221497 0.7868999839 0.9086999893 0.7835000157
 3076.0412598 5.0000000000 9.0297002792 2.2909998894 54.157279968 0.7847999930 0.8970999718 0.7792999744
 3076.1936035 5.0000000000 9.0256004333 2.2908999920 48.832538605 0.7824000120 0.8791999817 0.7746999860
 3076.3459473 5.0000000000 9.0430002213 2.3099999428 51.340961456 0.7803000212 0.8611999750 0.7717999816
 3076.4982910 5.0000000000 9.0277004242 2.3187003136 57.123348236 0.7786999941 0.8543999791 0.7716000080
 3076.6508789 6.0000000000 9.0338001251 1.7128000259 61.723045349 0.7774000168 0.8640999794 0.7728000283
 3076.8032227 6.0000000000 9.0288000107 0.7049000263 62.147132874 0.7756999731 0.8830999732 0.7732999921
 3076.9555664 6.0000000000 9.0327997208 1.4789999723 62.577610016 0.7732999921 0.8998000026 0.7717000246
 3077.1079102 6.0000000000 9.0410003662 2.1935000420 64.277641296 0.7702000141 0.9100000262 0.7682999969
 3077.2604980 6.0000000000 9.0310001373 2.3178000450 67.235359192 0.7673000097 0.9113000035 0.7638000250
 3077.4128418 6.0000000000 9.0339002609 2.3352999687 70.904914856 0.7651000023 0.8952000141 0.7591999769
 3077.5651855 6.0000000000 9.0227003098 2.3333001137 69.829139709 0.7642999887 0.8647999763 0.7555999756
 3077.7175293 6.0000000000 9.0247001648 2.3222999573 67.815162659 0.7652999759 0.8413000107 0.7545999885
 3077.8701172 6.0000000000 9.0237998962 2.3080000877 67.624298096 0.7677999735 0.8388000131 0.7569000125
 3078.0224609 6.0000000000 9.0349998474 2.3006999493 66.209968567 0.7713000178 0.8514999747 0.7616000175
 3078.1748047 6.0000000000 9.0278997421 2.3074998856 67.772491455 0.7748000026 0.8652999997 0.7664999962
 3078.3271484 6.0000000000 9.0258998871 2.3150999546 66.927459717 0.7778999805 0.8716999888 0.7699999809
 3078.4794922 5.0000000000 9.0310001373 2.3083999157 63.733650208 0.7803000212 0.8718000054 0.7717000246
 3078.6320801 5.0000000000 9.0158996582 2.3001000881 61.671791077 0.7822999954 0.8707000017 0.7728000283
 3078.7844238 5.0000000000 9.0361003876 2.3073999882 62.657012939 0.7842000127 0.8708999753 0.7745000124
 3078.9367676 5.0000000000 9.0398998260 2.3132998943 65.208801270 0.7860999703 0.8727999926 0.7767999768
 3079.0891113 6.0000000000 9.0307998657 2.3187999725 64.571159363 0.7878000140 0.8762000203 0.7792000175
 3079.2416992 6.0000000000 9.0298995972 2.3215999603 64.190307617 0.7892000079 0.8809999824 0.7811999917
 3079.3940430 6.0000000000 9.0290002823 2.3159999847 69.122177124 0.7900999784 0.8866999745 0.7827000022
 3079.5463867 6.0000000000 9.0187997818 2.3210999966 68.015190125 0.7907000184 0.8921999931 0.7835000157
 3079.6987305 6.0000000000 9.0227003098 2.3222999573 66.423400879 0.7911000252 0.8956999779 0.7836999893
 3079.8513184 6.0000000000 9.0178003311 2.3043999672 68.744667053 0.7918999791 0.8963000178 0.7835999727
 3080.0036621 6.0000000000 9.0299997330 2.2911999226 68.404647827 0.7935000062 0.8963000178 0.7843000293
 3080.1560059 5.0000000000 9.0339002609 2.3013000488 64.864181519 0.7964000106 0.8985000253 0.7868999839
 3080.3083496 5.0000000000 9.0298995972 2.3608999252 60.713752747 0.8008999825 0.9041000009 0.7921000123
 3080.4606934 5.0000000000 9.0278997421 2.4265000820 62.906337738 0.8066999912 0.9118000269 0.7993999720
 3080.6132813 5.0000000000 9.0269002914 2.2859001160 63.399417877 0.8129000068 0.9212999940 0.8079000115
 3080.7656250 5.0000000000 9.0328998566 2.1092998981 63.463397980 0.8184000254 0.9320999980 0.8155999780
 3080.9179688 5.0000000000 9.0278997421 2.2409999371 64.910079956 0.8220000267 0.9405000210 0.8205999732
 3081.0703125 5.0000000000 9.0258998871 2.3986999989 64.420082092 0.8231999874 0.9420999885 0.8213999867
 3081.2229004 6.0000000000 9.0298995972 2.3566000462 64.594421387 0.8220000267 0.9376999736 0.8184000254
 3081.3752441 6.0000000000 9.0298004150 2.3134000301 65.964599609 0.8191999793 0.9315000176 0.8133999705
 3081.5275879 6.0000000000 9.0218000412 2.3127999306 65.083717346 0.8156999946 0.9259999990 0.8079000115
 3081.6799316 6.0000000000 9.0277004242 2.3190999031 66.380737305 0.8123000264 0.9197999835 0.8026000261
 3081.8325195 6.0000000000 9.0318002701 2.3220000267 65.787063599 0.8094000220 0.9117000103 0.7982000113
 3081.9848633 6.0000000000 9.0247001648 2.3139998913 62.154327393 0.8076000214 0.9042000175 0.7954999804
 3082.1372070 5.0000000000 9.0307998657 2.3132998943 60.948226929 0.8070999980 0.9013000131 0.7953000069
 3082.2895508 5.0000000000 9.0298995972 2.3262000084 61.028270721 0.8077999949 0.9039999843 0.7972999811
 3082.4418945 5.0000000000 9.0380001068 2.3326001167 62.867595673 0.8094000220 0.9095000029 0.8004999757
 3082.5944824 5.0000000000 9.0318002701 2.3262000084 63.782241821 0.8113999963 0.9161999822 0.8041999936
 3082.7468262 6.0000000000 9.0418996811 2.3169999123 64.390319824 0.8131999969 0.9254999757 0.8079000115
 3082.8991699 6.0000000000 9.0197000504 2.3125998974 64.094573975 0.8141000271 0.9368000031 0.8105999827
 3083.0515137 6.0000000000 9.0108995438 2.3069999218 66.285469055 0.8137999773 0.9452999830 0.8111000061
 3083.2041016 6.0000000000 9.0310001373 2.3069999218 72.221984863 0.8120999932 0.9448999763 0.8090999722
 3083.3564453 6.0000000000 9.0218000412 2.3148000240 75.554870605 0.8090999722 0.9340000153 0.8047000170
 3083.5087891 6.0000000000 9.0327997208 2.3104999065 82.032508850 0.8047000170 0.9180999994 0.7986999750
 3083.6611328 6.0000000000 9.0247001648 2.3076000214 83.969116211 0.7993999720 0.9043999910 0.7914999723
 3083.8137207 6.0000000000 9.0237998962 2.3094999790 74.905059814 0.7933999896 0.8956999779 0.7832000256
 3083.9660645 6.0000000000 9.0389995575 2.3067998886 65.970520020 0.7876999974 0.8889999986 0.7749000192
 3084.1184082 6.0000000000 9.0115003586 2.3073000908 64.024497986 0.7832000256 0.8816999793 0.7682999969
 3084.2707520 5.0000000000 9.0075998306 2.3087999821 67.365531921 0.7803999782 0.8765000105 0.7649999857
 3084.4233398 5.0000000000 9.0136995316 2.3178000450 67.619102478 0.7796000242 0.8750000000 0.7649000287
 3084.5756836 5.0000000000 9.0258998871 2.3266999722 61.194213867 0.7804999948 0.8738999963 0.7666000128
