# LAS format log file from PETREL
# Project units are specified as depth units
#==================================================================
~Version information
VERS.   2.0:
WRAP.   NO:
#==================================================================
~Well
STRT .m      472.33206177 :
STOP .m      3119.8261719 :
STEP .m     0.00000000 :
NULL .        -999.250000 :
COMP.           : COMPANY
WELL.  15/9-17   : WELL
FLD.            : FIELD
LOC.            : LOCATION
SRVC.           : SERVICE COMPANY
DATE.  2018-09-11 14:48:01   : Log Export Date {yyyy-MM-dd HH:mm:ss}
PROV.           : PROVINCE
UWI.   15/9-17   : UNIQUE WELL ID
API.            : API NUMBER
#==================================================================
~Curve
DEPT .m                   : DEPTH
Lithology_geolink ._      : Lithology_geolink
DCAL .in                  : DCAL
CALI .in                  : CALI
DRHO .g/cm3               : DRHO
SGR .gAPI                 : SGR
NPHI .m3/m3               : NPHI
RHOB .g/cm3               : RHOB
PEF .b/e                  : PEF
GR .gAPI                  : GR
DTC .us/ft                : DTC
DT .us/ft                 : DT
DTE .us/ft                : DTE
RDEP .ohm.m               : RDEP
SP .mV                    : SP
RSHA .ohm.m               : RSHA
RXO .ohm.m                : RXO
RMED .ohm.m               : RMED
~Parameter
#==================================================================
~Ascii
# ...
 824.37628174  -999.250000 18.016000748 18.016000748 0.0370000005 67.563003540  -999.250000 2.1690077782 2.2929999828 56.685897827 135.37982178 137.00090027 137.20951843 1.7310023308 22.653207779  -999.250000  -999.250000 1.4919772148
 824.52868652  -999.250000 18.187999725 18.187999725 0.0280000009 66.125000000  -999.250000 2.1637794971 2.5429999828 63.982429504 136.31803894 137.37409973 138.09353638 1.7319996357 23.051836014  -999.250000  -999.250000 1.5469779968
 824.68103027  -999.250000 18.312999725 18.312999725 0.0140000004 68.375000000  -999.250000 2.1575949192 2.5880000591 68.051612854 137.82736206 139.49404907 139.69633484 1.7539823055 22.631481171  -999.250000  -999.250000 1.5529952049
 824.83343506  -999.250000 17.812999725 17.812999725 0.0049999999 66.438003540  -999.250000 2.1508328915 2.6329998970 65.008583069 138.29975891 140.49719238 140.24192810 1.7619935274 22.786918640  -999.250000  -999.250000 1.5460056067
 824.98583984  -999.250000 17.641000748 17.641000748 0.0089999996 64.813003540  -999.250000 2.1493701935 2.5079998970 59.576068878 137.84542847 140.12590027 139.64241028 1.7590023279 22.448513031  -999.250000  -999.250000 1.5370070934
 825.13824463  -999.250000 17.766000748 17.766000748 0.0089999996 62.625000000  -999.250000 2.1448056698 2.3650000095 57.848133087 136.58041382 138.75331116 138.39266968 1.7420067787 22.820608139  -999.250000  -999.250000 1.5300028324
 825.29064941  -999.250000 18.047000885 18.047000885 0.0099999998 65.250000000  -999.250000 2.1333577633 2.2929999828 58.716899872 136.05728149 137.50300598 137.94384766 1.7290052176 24.476045609  -999.250000  -999.250000 1.5130068064
 825.44305420  -999.250000 18.016000748 18.016000748 0.0089999996 66.063003540  -999.250000 2.1131243706 2.2230000496 59.124023438 136.41784668 138.49760437 138.25186157 1.7190040350 25.344886780  -999.250000  -999.250000 1.4870103598
 825.59545898  -999.250000 18.250000000 18.250000000 0.0209999997 70.000000000  -999.250000 2.1055264473 2.2599999905 57.348281860 135.75611877 138.12590027 137.66093445 1.7130024433 25.265439987  -999.250000  -999.250000 1.4650088549
 825.74786377  -999.250000 18.141000748 18.141000748 0.0189999994 65.875000000  -999.250000 2.1090340614 2.3589999676 61.459091187 134.79405212 136.75331116 136.58471680 1.7080019712 24.353548050  -999.250000  -999.250000 1.4550040960
 825.90026855  -999.250000 18.047000885 18.047000885 0.0189999994 65.750000000  -999.250000 2.1181986332 2.4609999657 64.306167603 134.57688904 136.00180054 136.31565857 1.6920064688 23.756631851  -999.250000  -999.250000 1.4639964104
 826.05267334  -999.250000 18.077999115 18.077999115 0.0160000008 63.969001770  -999.250000 2.1242330074 2.3810000420 67.367645264 135.62181091 136.49879456 137.52340698 1.6650108099 23.801836014  -999.250000  -999.250000 1.4899896383
 826.20507813  -999.250000 17.968999863 17.968999863 0.0419999994 67.938003540  -999.250000 2.1368710995 2.3180000782 70.118392944 138.10955811 139.36808777 139.97235107 1.6420091391 23.564851761  -999.250000  -999.250000 1.4999959469
 826.35748291  -999.250000 18.000000000 18.000000000 0.0599999987 68.813003540  -999.250000 2.1450064182 2.2769999504 69.938453674 139.78729248 141.49488831 141.68435669 1.6280056238 23.941904068  -999.250000  -999.250000 1.4790084362
 826.50988770  -999.250000 17.968999863 17.968999863 0.0610000007 68.125000000  -999.250000 2.1388492584 2.3519999981 64.513069153 140.51008606 142.49760437 142.33071899 1.6250011921 23.036767960  -999.250000  -999.250000 1.4430143833
 826.66229248  -999.250000 17.922000885 17.922000885 0.0489999987 65.938003540  -999.250000 2.1191034317 2.2950000763 62.785129547 139.97366333 142.37530518 141.89369202 1.6309976578 23.028207779  -999.250000  -999.250000 1.4050152302
 826.81463623  -999.250000 17.797000885 17.797000885 0.0309999995 68.000000000  -999.250000 2.0963580608 2.2300000191 65.305908203 139.01502991 141.00386047 140.86779785 1.6329984665 23.427137375  -999.250000  -999.250000 1.3840167522
 826.96704102  -999.250000 17.797000885 17.797000885 0.0209999997 66.875000000  -999.250000 2.0815105438 2.2030000687 74.976715088 138.56896973 140.37649536 140.46452332 1.6300023794 22.603948593  -999.250000  -999.250000 1.3959903717
 827.11944580  -999.250000 17.906000137 17.906000137 0.0179999992 73.625000000  -999.250000 2.0748884678 2.2360000610 75.124702454 138.45150757 140.49969482 140.35639954 1.6299999952 21.750324249  -999.250000  -999.250000 1.4349687099
 827.27185059  -999.250000 18.031000137 18.031000137 0.0120000001 72.313003540  -999.250000 2.0739381313 2.2420001030 76.870796204 138.23735046 140.12590027 140.10200500 1.6349979639 21.360105515  -999.250000  -999.250000 1.4559915066
 827.42425537  -999.250000 17.906000137 17.906000137 0.0130000003 73.563003540  -999.250000 2.0785818100 2.2599999905 76.126800537 138.33677673 140.00030518 140.18182373 1.6449959278 21.966983795  -999.250000  -999.250000 1.4649964571
 827.57666016  -999.250000 18.062999725 18.062999725 0.0099999998 66.563003540  -999.250000 2.0759973526 2.2339999676 77.933647156 138.55844116 140.49879456 140.42884827 1.6749879122 23.536918640  -999.250000  -999.250000 1.4739964008
 827.72906494  -999.250000 18.266000748 18.266000748 0.0120000001 65.250000000  -999.250000 2.0699949265 2.2730000019 74.383560181 138.81550598 140.37530518 140.61242676 1.6959915161 23.601177216  -999.250000  -999.250000 1.5209811926
 827.88146973  -999.250000 18.077999115 18.077999115 0.0099999998 69.063003540  -999.250000 2.0670709610 2.3299999237 72.504508972 139.36788940 140.99850464 141.22029114 1.7059959173 24.726495743  -999.250000  -999.250000 1.5359940529
 828.03387451  -999.250000 18.000000000 18.000000000 0.0130000003 72.000000000  -999.250000 2.0780470371 2.3789999485 71.876502991 139.63021851 141.74819946 141.53103638 1.7069996595 24.935396194  -999.250000  -999.250000 1.5250043869
 828.18627930  -999.250000 17.843999863 17.843999863 0.0189999994 70.125000000  -999.250000 2.0996890068 2.4449999332 71.999702454 139.13151550 141.37590027 141.03401184 1.6930055618 23.778207779  -999.250000  -999.250000 1.5090063810
 828.33868408  -999.250000 17.812999725 17.812999725 0.0309999995 69.063003540  -999.250000 2.1168367863 2.4449999332 70.815856934 138.38468933 140.37739563 140.20767212 1.6510168314 23.590532303  -999.250000  -999.250000 1.5129984617
 828.49108887  -999.250000 17.858999252 17.858999252 0.0329999998 72.125000000  -999.250000 2.1114366055 2.4360001087 72.184700012 137.56164551 139.75149536 139.44238281 1.6170135736 21.646699905  -999.250000  -999.250000 1.5139997005
 828.64349365  -999.250000 17.875000000 17.875000000 0.0250000004 74.563003540  -999.250000 2.0942327976 2.3949999809 75.367340088 136.89340210 138.75239563 138.76060486 1.5900108814 21.829919815  -999.250000  -999.250000 1.4920088053
 828.79589844  -999.250000 17.983999252 17.983999252 0.0179999992 73.688003540  -999.250000 2.0758643150 2.3480000496 77.807144165 136.94679260 138.50059509 138.73297119 1.5630108118 22.308343887  -999.250000  -999.250000 1.4750068188
 828.94824219  -999.250000 17.672000885 17.672000885 0.0130000003 70.313003540  -999.250000 2.0691757202 2.3710000515 78.747375488 137.81489563 138.99859619 139.66255188 1.5580040216 22.579669952  -999.250000  -999.250000 1.4380296469
 829.10064697  -999.250000 17.625000000 17.625000000 0.0170000009 72.813003540  -999.250000 2.0816276073 2.4019999504 73.076675415 139.57368469 140.99519348 141.48262024 1.5699903965 22.765542984  -999.250000  -999.250000 1.3750504255
 829.25305176  -999.250000 17.562999725 17.562999725 0.0299999993 73.125000000  -999.250000 2.1001029015 2.4790000916 68.885063171 141.06980896 142.74578857 143.00320435 1.5729975700 22.256481171  -999.250000  -999.250000 1.3450241089
 829.40545654  -999.250000 17.718999863 17.718999863 0.0260000005 72.375000000  -999.250000 2.1073861122 2.4389998913 65.196861267 141.42559814 143.99699402 143.34512329 1.5779979229 22.814451218  -999.250000  -999.250000 1.3779867887
 829.55786133  -999.250000 17.766000748 17.766000748 0.0250000004 72.063003540  -999.250000 2.1018073559 2.3829998970 66.434997559 140.02729797 142.37890625 141.80947876 1.5859967470 23.375324249  -999.250000  -999.250000 1.4569684267
