# LAS format log file from PETREL
# Project units are specified as depth units
#==================================================================
~Version information
VERS.   2.0:
WRAP.   NO:
#==================================================================
~Well
STRT .m      489.99996948 :
STOP .m      1530.0000000 :
STEP .m     0.00000000 :
NULL .        -999.250000 :
COMP.           : COMPANY
WELL.  15/9-22   : WELL
FLD.            : FIELD
LOC.            : LOCATION
SRVC.           : SERVICE COMPANY
DATE.  2018-09-11 14:48:02   : Log Export Date {yyyy-MM-dd HH:mm:ss}
PROV.           : PROVINCE
UWI.   15/9-22   : UNIQUE WELL ID
API.            : API NUMBER
#==================================================================
~Curve
DEPT .m                   : DEPTH
Lithology_geolink ._      : Lithology_geolink
BS .in                    : BS
GR .gAPI                  : GR
RDEP .ohm.m               : RDEP
RMED .ohm.m               : RMED
~Parameter
#==================================================================
~Ascii
# ...
 979.59997559  -999.250000 17.500000000 51.868461609 0.6729999781 0.7210000157
 979.70001221  -999.250000 17.500000000 50.417999268 0.6740000248 0.7260000110
 979.79998779  -999.250000 17.500000000 49.424999237 0.6740000248 0.7220000029
 979.90002441  -999.250000 17.500000000 49.436000824 0.6699969769 0.7169908285
 979.99993896  -999.250000 17.500000000 48.814758301 0.6650000215 0.7020000219
 980.09997559  -999.250000 17.500000000 47.374877930 0.6610000134 0.7030000091
 980.20001221  -999.250000 17.500000000 46.733394623 0.6620000005 0.7089999914
 980.29998779  -999.250000 17.500000000 47.687000275 0.6639999747 0.7120000124
 980.40002441  -999.250000 17.500000000 49.291999817 0.6650000215 0.7129999995
 980.50000000  -999.250000 17.500000000 49.592998505 0.6660018563 0.7170018554
 980.59997559  -999.250000 17.500000000 47.821083069 0.6690000296 0.7200000286
 980.69995117  -999.250000 17.500000000 45.231163025 0.6719999909 0.7239999771
 980.79998779  -999.250000 17.500000000 43.893817902 0.6759999990 0.7350000143
 980.90002441  -999.250000 17.500000000 44.404998779 0.6740000248 0.7409999967
 981.00000000  -999.250000 17.500000000 45.633998871 0.6729999781 0.7429999709
 981.10003662  -999.250000 17.500000000 45.962001801 0.6729993820 0.7359975576
 981.19995117  -999.250000 17.500000000 44.889312744 0.6719999909 0.7319999933
 981.29998779  -999.250000 17.500000000 41.622993469 0.6719999909 0.7189999819
 981.40002441  -999.250000 17.500000000 37.791000366 0.6690000296 0.7210000157
 981.50000000  -999.250000 17.500000000 35.812999725 0.6669999957 0.7179999948
 981.60003662  -999.250000 17.500000000 37.742000580 0.6650024652 0.7170073390
 981.70001221  -999.250000 17.500000000 42.715999603 0.6689994335 0.7289926410
 981.79998779  -999.250000 17.500000000 46.444721222 0.6679999828 0.7170000076
 981.89996338  -999.250000 17.500000000 46.676715851 0.6660000086 0.7129999995
 982.00000000  -999.250000 17.500000000 44.882999420 0.6639999747 0.7089999914
 982.10003662  -999.250000 17.500000000 41.962001801 0.6589999795 0.6949999928
 982.20001221  -999.250000 17.500000000 38.306999207 0.6549987793 0.6919999719
 982.30004883  -999.250000 17.500000000 35.043998718 0.6530042887 0.6920054555
 982.39996338  -999.250000 17.500000000 34.624256134 0.6600000262 0.7009999752
 982.50000000  -999.250000 17.500000000 37.326351166 0.6600000262 0.7009999752
 982.59997559  -999.250000 17.500000000 41.476001740 0.6610000134 0.7049999833
 982.70001221  -999.250000 17.500000000 44.596000671 0.6660000086 0.7120000124
 982.80004883  -999.250000 17.500000000 45.352001190 0.6750024557 0.7290036082
 982.90002441  -999.250000 17.500000000 44.551998138 0.6769969463 0.7319988012
 983.00000000  -999.250000 17.500000000 43.668537140 0.6719999909 0.7300000191
 983.09997559  -999.250000 17.500000000 44.005794525 0.6710000038 0.7020000219
 983.20001221  -999.250000 17.500000000 46.306999207 0.6700000167 0.6940000057
 983.29998779  -999.250000 17.500000000 48.712001801 0.6679999828 0.6990000010
 983.40002441  -999.250000 17.500000000 50.078998566 0.6730011702 0.7029932737
 983.49993896  -999.250000 17.500000000 50.002094269 0.6750000119 0.6919999719
 983.59997559  -999.250000 17.500000000 48.265060425 0.6750000119 0.6949999928
 983.70001221  -999.250000 17.500000000 45.226852417 0.6779999733 0.6990000010
 983.79998779  -999.250000 17.500000000 42.936000824 0.6819999814 0.6880000234
 983.90002441  -999.250000 17.500000000 42.824001312 0.6890000105 0.6840000153
 984.00000000  -999.250000 17.500000000 44.925998688 0.6950005889 0.6809957027
 984.09997559  -999.250000 17.500000000 48.095066071 0.6959999800 0.6740000248
 984.19995117  -999.250000 17.500000000 50.154487610 0.7070000172 0.7260000110
 984.29998779  -999.250000 17.500000000 49.230564117 0.7059999704 0.7310000062
 984.40002441  -999.250000 17.500000000 45.462001801 0.7139999866 0.7250000238
 984.50000000  -999.250000 17.500000000 40.923000336 0.7110000253 0.7059999704
 984.60003662  -999.250000 17.500000000 40.095001221 0.7089999914 0.6780213118
 984.69995117  -999.250000 17.500000000 42.317642212 0.7089999914 0.7129999995
 984.79998779  -999.250000 17.500000000 44.185859680 0.7139999866 0.7350000143
 984.89996338  -999.250000 17.500000000 45.447460175 0.7279999852 0.7400000095
 985.00000000  -999.250000 17.500000000 46.749000549 0.7390000224 0.7810000181
 985.10003662  -999.250000 17.500000000 48.862998962 0.7549999952 0.7850000262
 985.20001221  -999.250000 17.500000000 51.919998169 0.7379981279 0.7669969797
 985.29998779  -999.250000 17.500000000 55.827617645 0.7350000143 0.7620000243
 985.39996338  -999.250000 17.500000000 59.807140350 0.7350000143 0.7419999838
 985.50000000  -999.250000 17.500000000 61.091217041 0.7310000062 0.7379999757
 985.60003662  -999.250000 17.500000000 59.894001007 0.7269999981 0.7340000272
 985.70001221  -999.250000 17.500000000 56.849998474 0.7219884396 0.7460060716
 985.80004883  -999.250000 17.500000000 52.652999878 0.7029981613 0.7560103536
 985.89996338  -999.250000 17.500000000 48.785362244 0.6999999881 0.7730000019
 986.00000000  -999.250000 17.500000000 48.098419189 0.7059999704 0.7670000196
 986.09997559  -999.250000 17.500000000 50.549999237 0.7059999704 0.7630000114
 986.20001221  -999.250000 17.500000000 51.810001373 0.7059999704 0.7630000114
 986.30004883  -999.250000 17.500000000 50.080001831 0.7039988041 0.7680134177
 986.40002441  -999.250000 17.500000000 47.032001495 0.7029988170 0.7789871693
 986.50000000  -999.250000 17.500000000 45.588882446 0.7009999752 0.7580000162
 986.59997559  -999.250000 17.500000000 46.609375000 0.6980000138 0.7590000033
 986.70001221  -999.250000 17.500000000 48.917999268 0.6990000010 0.7609999776
 986.79998779  -999.250000 17.500000000 52.125000000 0.6980000138 0.7639999986
 986.90002441  -999.250000 17.500000000 55.241001129 0.6979981661 0.7589957118
 987.00006104  -999.250000 17.500000000 57.361999512 0.6950036287 0.7519963384
 987.09997559  -999.250000 17.500000000 57.422962189 0.6980000138 0.7490000129
 987.20001221  -999.250000 17.500000000 56.051834106 0.6959999800 0.7509999871
 987.29998779  -999.250000 17.500000000 54.773998260 0.6949999928 0.7609999776
 987.40002441  -999.250000 17.500000000 53.583999634 0.6990000010 0.7730000019
 987.50000000  -999.250000 17.500000000 51.955001831 0.7050036192 0.7739999890
 987.59997559  -999.250000 17.500000000 50.358974457 0.7110000253 0.7739999890
 987.69995117  -999.250000 17.500000000 49.951496124 0.7129999995 0.7799999714
 987.79998779  -999.250000 17.500000000 50.563625336 0.7170000076 0.7860000134
 987.90002441  -999.250000 17.500000000 51.414001465 0.7170000076 0.7919999957
 988.00000000  -999.250000 17.500000000 52.952999115 0.7189999819 0.7850000262
 988.10003662  -999.250000 17.500000000 56.061000824 0.7219981551 0.7809932828
 988.19995117  -999.250000 17.500000000 60.178485870 0.7189999819 0.7699999809
 988.29998779  -999.250000 17.500000000 62.008880615 0.7210000157 0.7549999952
 988.39996338  -999.250000 17.500000000 61.050170898 0.7030000091 0.7540000081
 988.50000000  -999.250000 17.500000000 59.376998901 0.7030000091 0.7540000081
 988.60003662  -999.250000 17.500000000 57.291000366 0.6970000267 0.7469999790
 988.70001221  -999.250000 17.500000000 54.701000214 0.7030048966 0.7249932885
 988.79998779  -999.250000 17.500000000 52.222515106 0.7110000253 0.7139999866
 988.89996338  -999.250000 17.500000000 51.153652191 0.7160000205 0.7039999962
 989.00000000  -999.250000 17.500000000 50.876167297 0.7099999785 0.6999999881
 989.09997559  -999.250000 17.500000000 50.508998871 0.7129999995 0.6980000138
 989.20001221  -999.250000 17.500000000 49.646999359 0.7139999866 0.7110000253
 989.30004883  -999.250000 17.500000000 49.201999664 0.7109902501 0.7120012045
 989.39996338  -999.250000 17.500000000 48.788249969 0.7030000091 0.7129999995
 989.50000000  -999.250000 17.500000000 47.185977936 0.7269999981 0.7039999962
 989.59997559  -999.250000 17.500000000 45.148487091 0.7229999900 0.7120000124
 989.70001221  -999.250000 17.500000000 45.055999756 0.7210000157 0.7179999948
