# LAS format log file from PETREL
# Project units are specified as depth units
#==================================================================
~Version information
VERS.   2.0:
WRAP.   NO:
#==================================================================
~Well
STRT .m      2122.4746094 :
STOP .m      4102.6074219 :
STEP .m     0.00000000 :
NULL .        -999.250000 :
COMP.           : COMPANY
WELL.  15/9-19A   : WELL
FLD.            : FIELD
LOC.            : LOCATION
SRVC.           : SERVICE COMPANY
DATE.  2018-09-11 14:48:01   : Log Export Date {yyyy-MM-dd HH:mm:ss}
PROV.           : PROVINCE
UWI.   15/9-19 A   : UNIQUE WELL ID
API.            : API NUMBER
#==================================================================
~Curve
DEPT .m                   : DEPTH
Lithology_geolink ._      : Lithology_geolink
CALI .in                  : CALI
RHOB .g/cm3               : RHOB
GR .gAPI                  : GR
RDEP .ohm.m               : RDEP
RSHA .ohm.m               : RSHA
RMED .ohm.m               : RMED
~Parameter
#==================================================================
~Ascii
# ...
 3460.2414551 11.000000000  -999.250000 2.5585000515 15.058400154 4.9261999130 18.284099579 4.9944000244
 3460.3937988 11.000000000  -999.250000 2.5890998840 15.189076424 4.9418997765 15.968899727 4.9938998222
 3460.5463867 11.000000000  -999.250000 2.5999000072 16.340152740 4.9362998009 14.415599823 4.9737000465
 3460.6987305 11.000000000  -999.250000 2.5873999596 16.201225281 4.9222002029 14.017499924 4.9530000687
 3460.8510742 11.000000000  -999.250000 2.5752999783 15.569513321 4.9109997749 13.942099571 4.9324998856
 3461.0034180 11.000000000  -999.250000 2.5783998966 15.119521141 4.9061999321 13.819100380 4.9141998291
 3461.1557617 11.000000000  -999.250000 2.5917999744 14.906979561 4.9057998657 13.720600128 4.9065999985
 3461.3083496 11.000000000  -999.250000 2.5913000107 15.100788116 4.9074997902 14.043499947 4.9187998772
 3461.4606934 11.000000000  -999.250000 2.5910000801 14.531614304 4.9113998413 14.822099686 4.9523000717
 3461.6130371 11.000000000  -999.250000 2.5954000950 13.708719254 4.9196000099 15.725899696 4.9956998825
 3461.7653809 11.000000000  -999.250000 2.5922000408 12.754957199 4.9331998825 16.670499802 5.0342001915
 3461.9179688 11.000000000  -999.250000 2.5776998997 12.011487961 4.9506001472 17.837400436 5.0597000122
 3462.0703125 11.000000000  -999.250000 2.5852999687 11.805828094 4.9674000740 18.568099976 5.0686998367
 3462.2226563 11.000000000  -999.250000 2.5882000923 11.353724480 4.9779000282 17.621200562 5.0620999336
 3462.3750000 11.000000000  -999.250000 2.5803999901 11.581665993 4.9786000252 15.748000145 5.0482001305
 3462.5275879 11.000000000  -999.250000 2.5924000740 13.193513870 4.9731001854 14.548100471 5.0374999046
 3462.6799316 11.000000000  -999.250000 2.6052000523 14.031358719 4.9732999802 14.135100365 5.0405001640
 3462.8322754 11.000000000  -999.250000 2.6066999435 13.634538651 4.9949002266 14.148699760 5.0734000206
 3462.9846191 11.000000000  -999.250000 2.6071000099 14.098454475 5.0468001366 14.908200264 5.1528000832
 3463.1369629 11.000000000  -999.250000 2.6108000278 15.675539970 5.1208000183 17.714700699 5.2799000740
 3463.2895508 11.000000000  -999.250000 2.6150000095 15.686191559 5.1897997856 25.756799698 5.4312000275
 3463.4418945 11.000000000  -999.250000 2.6196000576 14.946986198 5.2235999107 44.263000488 5.5650000572
 3463.5942383 11.000000000  -999.250000 2.6156001091 13.673642159 5.2157001495 63.956001282 5.6472001076
 3463.7465820 11.000000000  -999.250000 2.6112999916 12.467665672 5.1921000481 61.309299469 5.6824002266
 3463.8991699 11.000000000  -999.250000 2.6256000996 12.619549751 5.1873998642 46.209899902 5.7088999748
 3464.0515137 11.000000000  -999.250000 2.6307001114 12.796815872 5.2119998932 39.910701752 5.7487998009
 3464.2038574 11.000000000  -999.250000 2.6229000092 12.758063316 5.2435002327 41.803798676 5.7796001434
 3464.3562012 11.000000000  -999.250000 2.6296000481 13.312121391 5.2509999275 41.325500488 5.7730998993
 3464.5087891 11.000000000  -999.250000 2.6166000366 13.216057777 5.2245998383 32.472900391 5.7344999313
 3464.6611328 11.000000000  -999.250000 2.5894999504 12.563048363 5.1781997681 22.778900146 5.6809000969
 3464.8134766 11.000000000  -999.250000 2.5866999626 13.127093315 5.1269998550 17.730300903 5.6103000641
 3464.9658203 11.000000000  -999.250000 2.6010000706 13.560904503 5.0714001656 16.512800217 5.5114002228
 3465.1184082 11.000000000  -999.250000 2.6036999226 12.804412842 5.0068998337 17.512699127 5.3832998276
 3465.2707520 11.000000000  -999.250000 2.6064000130 12.780836105 4.9416999817 18.858999252 5.2381000519
 3465.4230957 11.000000000  -999.250000 2.6135001183 12.420678139 4.8991999626 18.459299088 5.1044001579
 3465.5754395 11.000000000  -999.250000 2.6045000553 12.137053490 4.8983001709 16.529100418 5.0232000351
 3465.7277832 11.000000000  -999.250000 2.6129999161 12.339747429 4.9340000153 14.955900192 5.0201997757
 3465.8803711 11.000000000  -999.250000 2.6291999817 12.641217232 4.9776000977 15.132699966 5.0796999931
 3466.0327148 11.000000000  -999.250000 2.6342000961 12.757214546 4.9984998703 17.753200531 5.1609001160
 3466.1850586 11.000000000  -999.250000 2.6133000851 12.241427422 4.9895000458 23.363700867 5.2396998405
 3466.3374023 11.000000000  -999.250000 2.6054999828 11.594673157 4.9696002007 32.688400269 5.3180999756
 3466.4899902 11.000000000  -999.250000 2.6110000610 10.579325676 4.9590997696 41.736499786 5.3958997726
 3466.6423340 11.000000000  -999.250000 2.5820000172 10.297749519 4.9636998177 41.186901093 5.4686999321
 3466.7946777 11.000000000  -999.250000 2.5968999863 10.265950203 4.9745001793 37.478099823 5.5395002365
 3466.9470215 11.000000000  -999.250000 2.6170001030 9.8966856003 4.9681000710 38.902599335 5.6012997627
 3467.0996094 11.000000000  -999.250000 2.5996999741 8.9290513992 4.9011001587 47.893100739 5.5996999741
 3467.2519531 11.000000000  -999.250000 2.5996000767 7.7081575394 4.7216000557 81.963302612 5.4256000519
 3467.4042969 11.000000000  -999.250000 2.6034998894 7.6748504639 4.4148001671 134.33580017 5.0085000992
 3467.5566406 11.000000000  -999.250000 2.5789999962 8.5169487000 4.0430002213 92.868896484 4.4369001389
 3467.7089844 11.000000000  -999.250000 2.5394999981 9.7355918884 3.7063000202 22.160299301 3.8919999599
 3467.8615723 11.000000000  -999.250000 2.5114998817 11.478308678 3.4705998898 8.4323997498 3.4946000576
 3468.0139160 11.000000000  -999.250000 2.5016000271 11.935570717 3.3322000504 5.5668997765 3.2495999336
 3468.1662598 11.000000000  -999.250000 2.5072000027 11.654552460 3.2369999886 5.3038001060 3.0850000381
 3468.3186035 11.000000000  -999.250000 2.5083000660 11.905692101 3.1278998852 5.9658999443 2.9214000702
 3468.4711914 11.000000000  -999.250000 2.4899001122 12.780796051 2.9934000969 6.6175999641 2.7460000515
 3468.6235352 11.000000000  -999.250000 2.4718999863 12.793980598 2.8696999550 6.8593001366 2.6089999676
 3468.7758789 11.000000000  -999.250000 2.4849998951 11.980905533 2.7983000278 6.8737998009 2.5511999130
 3468.9282227 11.000000000  -999.250000 2.5074000359 11.206681252 2.7929999828 6.5963001251 2.5687000751
 3469.0808105 11.000000000  -999.250000 2.5167000294 11.303541183 2.8373000622 5.9704999924 2.6329998970
 3469.2331543 11.000000000  -999.250000 2.5204000473 12.041515350 2.8986999989 5.5397000313 2.7193999290
 3469.3854980 11.000000000  -999.250000 2.5353999138 12.631355286 2.9463000298 5.6974000931 2.8108999729
 3469.5378418 11.000000000  -999.250000 2.5652000904 12.114031792 2.9630000591 6.2989001274 2.8935000896
 3469.6901855 11.000000000  -999.250000 2.5701999664 11.838980675 2.9509000778 7.0060000420 2.9586000443
 3469.8427734 11.000000000  -999.250000 2.5488998890 12.203014374 2.9256000519 7.4546999931 3.0107998848
 3469.9951172 11.000000000  -999.250000 2.5445001125 11.624229431 2.9038999081 7.6269001961 3.0594999790
 3470.1474609 11.000000000  -999.250000 2.5313999653 10.566895485 2.8926999569 8.1977996826 3.1027998924
 3470.2998047 11.000000000  -999.250000 2.5167000294 10.042378426 2.8891000748 9.6524000168 3.1219999790
 3470.4523926 11.000000000  -999.250000 2.5320999622 9.9956722260 2.8847999573 10.779999733 3.1052000523
 3470.6047363 11.000000000  -999.250000 2.5639998913 9.7330217361 2.8771998882 10.276599884 3.0690999031
 3470.7570801 11.000000000  -999.250000 2.5664000511 9.9421634674 2.8712000847 9.3589000702 3.0441000462
 3470.9094238 11.000000000  -999.250000 2.5404999256 10.480372429 2.8729999065 9.0586996078 3.0474998951
 3471.0620117 11.000000000  -999.250000 2.5434999466 11.302883148 2.8842000961 9.2755002975 3.0790998936
 3471.2143555 11.000000000  -999.250000 2.5385000706 12.415715218 2.8996000290 9.6084995270 3.1294000149
 3471.3666992 11.000000000  -999.250000 2.5420000553 12.502862930 2.9091000557 9.7576999664 3.1781001091
 3471.5190430 11.000000000  -999.250000 2.5606999397 12.039044380 2.9028000832 9.6010999680 3.1979000568
 3471.6713867 11.000000000  -999.250000 2.5529000759 12.386781693 2.8759000301 9.1239995956 3.1721000671
 3471.8239746 11.000000000  -999.250000 2.5244998932 12.364737511 2.8311998844 8.5345001221 3.1085999012
