# LAS format log file from PETREL
# Project units are specified as depth units
#==================================================================
~Version information
VERS.   2.0:
WRAP.   NO:
#==================================================================
~Well
STRT .m      485.02883911 :
STOP .m      3207.3493652 :
STEP .m     0.00000000 :
NULL .        -999.250000 :
COMP.           : COMPANY
WELL.  15/9-15   : WELL
FLD.            : FIELD
LOC.            : LOCATION
SRVC.           : SERVICE COMPANY
DATE.  2018-09-11 14:48:00   : Log Export Date {yyyy-MM-dd HH:mm:ss}
PROV.           : PROVINCE
UWI.   15/9-15   : UNIQUE WELL ID
API.            : API NUMBER
#==================================================================
~Curve
DEPT .m                   : DEPTH
Lithology_geolink ._      : Lithology_geolink
DCAL .in                  : DCAL
CALI .in                  : CALI
BS .in                    : BS
DRHO .g/cm3               : DRHO
NPHI .m3/m3               : NPHI
RHOB .g/cm3               : RHOB
PEF .b/e                  : PEF
GR .gAPI                  : GR
DTC .us/ft                : DTC
DT .us/ft                 : DT
RDEP .ohm.m               : RDEP
SP .mV                    : SP
RSHA .ohm.m               : RSHA
RXO .ohm.m                : RXO
RMED .ohm.m               : RMED
~Parameter
#==================================================================
~Ascii
# ...
 1212.4338379  -999.250000 13.682999611 13.722999573 12.250000954 0.0410048105 0.4916482568 1.9159384966 2.5020000935 92.558296204 150.76092529 152.37388611 1.2229944468 62.200000763 1.2000168562 1.0585743189 1.2000168562
 1212.5863037  -999.250000 13.689000130 13.701810837 12.250000954 0.0429967977 0.4927572012 1.9213166237 2.5220000744 86.817604065 153.32211304 158.49508667 1.2449823618 60.950099945 1.1750199795 1.2068628073 1.1750199795
 1212.7386475  -999.250000 13.746999741 13.738674164 12.250000954 0.0549807698 0.5094065070 1.9210219383 2.3940000534 94.244041443 154.07920837 161.99719238 1.2749758959 61.075000763 1.1670064926 1.2928102016 1.1670064926
 1212.8911133  -999.250000 13.770999908 13.762161255 12.250000954 0.0709871799 0.5274965763 1.9081186056 2.1370000839 96.373298645 152.04827881 162.99920654 1.2759991884 60.575599670 1.1490144730 1.0162494183 1.1490144730
 1213.0434570  -999.250000 13.758999825 13.764898300 12.250000954 0.0779887959 0.5372188687 1.8834030628 1.9759999514 107.55403900 148.18559265 159.12809753 1.2909879684 61.325000763 1.2089519501 0.7652166486 1.2089519501
 1213.1959229  -999.250000 13.770999908 13.781847000 12.250000954 0.0799983963 0.5073919296 1.8657079935 1.9329999685 108.49925232 145.50090027 150.50691223 1.2820070982 58.950099945 1.2639560699 0.9291231632 1.2639560699
 1213.3482666  -999.250000 13.826999664 13.830242157 12.250000954 0.0760064051 0.4805559814 1.8705990314 1.9750000238 108.12529755 145.40539551 147.37750244 1.3099775314 59.075302124 1.3129607439 1.2589435577 1.3129607439
 1213.5007324  -999.250000 13.896000862 13.902765274 12.250000954 0.0819951966 0.4647379220 1.8886618614 2.0109999180 102.75430298 146.78672791 148.99870300 1.3559631109 59.451301575 1.3120008707 1.4252194166 1.3120008707
 1213.6530762  -999.250000 13.991998672 13.997528076 12.250000954 0.0909855887 0.4875465930 1.8933087587 1.9900000095 103.68724823 148.40904236 151.74780273 1.3919711113 61.075199127 1.2760288715 1.3814768791 1.2760288715
 1213.8054199  -999.250000 14.109999657 14.075635910 12.250000954 0.0810160264 0.4763163328 1.8823146820 1.9299999475 99.881103516 149.26235962 153.99639893 1.4119678736 61.325000763 1.2809920311 1.1679040194 1.2809920311
 1213.9578857  -999.250000 14.088000298 14.093151093 12.250000954 0.0580368266 0.4711464643 1.8756395578 1.9129999876 98.001502991 148.57965088 156.12329102 1.4419759512 61.576103210 1.3009840250 1.0010384321 1.3009840250
 1214.1102295  -999.250000 14.087000847 14.095372200 12.250000954 0.0410272442 0.4829021394 1.8754800558 1.9700000286 94.880004883 147.30918884 153.50418091 1.4410015345 62.950000763 1.3339471817 0.9960522056 1.3339471817
 1214.2626953  -999.250000 14.119999886 14.142693520 12.250000954 0.0629647747 0.5023532510 1.8714932203 2.0559999943 96.623596191 146.87217712 150.75219727 1.4210159779 61.699501038 1.3519855738 1.0816730261 1.3519855738
 1214.4150391  -999.250000 14.244999886 14.235991478 12.250000954 0.0789743662 0.5128464103 1.8613064289 2.2079999447 96.687904358 147.85154724 150.99958801 1.4150096178 61.075000763 1.3699711561 1.0817338228 1.3699711561
 1214.5675049  -999.250000 14.333000183 14.324974060 12.250000954 0.0979695767 0.5110045075 1.8564047813 2.2279999256 96.375251770 150.20988464 151.99919128 1.3990129232 61.699199677 1.3739967346 1.0296372175 1.3739967346
 1214.7198486  -999.250000 14.387999535 14.333893776 12.250000954 0.0830240324 0.5161634088 1.8510273695 2.1679999828 94.876205444 153.09426880 156.99598694 1.3690240383 60.700000763 1.3580129147 0.9676641226 1.3580129147
 1214.8723145  -999.250000 14.222999573 14.260736465 12.250000954 0.0730160102 0.5460280776 1.8329824209 2.0409998894 97.747695923 155.82138062 161.12170410 1.3470176458 60.575702667 1.3170328140 1.0016878843 1.3170328140
 1215.0246582  -999.250000 14.211999893 14.167444229 12.250000954 0.0630160272 0.5457012653 1.8090052605 2.0420000553 91.443061829 158.10795593 164.99690247 1.3310128450 61.450000763 1.2390624285 0.9141871929 1.2390624285
 1215.1771240  -999.250000 14.020000458 14.065343857 12.250000954 0.0699943900 0.5415699482 1.7888524532 2.1649999619 84.505554199 158.52725220 168.49717712 1.3160120249 61.825000763 1.2000312805 0.8415222168 1.2000312805
 1215.3294678  -999.250000 14.012999535 14.045234680 12.250000954 0.0759903863 0.5121644139 1.7716602087 2.1429998875 83.875503540 157.68122864 170.37350464 1.2710360289 61.825401306 1.1440448761 0.8040640950 1.1440448761
 1215.4819336  -999.250000 14.137000084 14.084698677 12.250000954 0.0730024055 0.4953403175 1.7544524670 1.9720000029 85.748497009 156.83406067 170.00030518 1.2410240173 62.325401306 1.1400032043 0.6916477084 1.1400032043
 1215.6342773  -999.250000 14.048000336 14.081887245 12.250000954 0.0610192157 0.5033142567 1.7372602224 1.8580000401 89.934646606 155.98773193 166.00318909 1.2170192003 62.824901581 1.1409991980 0.7238871455 1.1409991980
 1215.7866211  -999.250000 14.097001076 14.085471153 12.250000954 0.0330448709 0.5022734404 1.7115528584 2.0190000534 83.510307312 153.36613464 159.38560486 1.2080143690 62.700004578 1.1689552069 0.7918180823 1.1689552069
 1215.9390869  -999.250000 14.098999977 14.097275734 12.250000954 0.0260112099 0.5298036337 1.7031847239 2.2909998894 79.191459656 149.32495117 154.12921143 1.2070008516 62.699604034 1.1670016050 0.8532102108 1.1670016050
 1216.0914307  -999.250000 14.093998909 14.096458435 12.250000954 0.0329887830 0.5496024489 1.7329483032 2.3110001087 78.501098633 145.93400574 147.76020813 1.2020080090 62.200000763 1.2019439936 0.9838038087 1.2019439936
 1216.2438965  -999.250000 14.098999977 14.091124535 12.250000954 0.0439823866 0.5589276552 1.7705365419 2.1519999504 81.247795105 144.34941101 146.75080872 1.2059967518 62.199501038 1.2139903307 1.1330432892 1.2139903307
 1216.3962402  -999.250000 14.071999550 14.078622818 12.250000954 0.0519871823 0.5554684401 1.7924582958 1.9839999676 86.554496765 144.03085327 147.74839783 1.2020064592 61.575000763 1.2279776335 1.2176723480 1.2279776335
 1216.5487061  -999.250000 14.071999550 14.076432228 12.250000954 0.0320320278 0.5471001267 1.8067208529 1.9299999475 84.814407349 143.93666077 146.37609863 1.1860128641 59.950901031 1.2289991379 1.1945091486 1.2289991379
 1216.7010498  -999.250000 14.090001106 14.093458176 12.250000954 0.0240128208 0.5445460677 1.8245452642 1.8389999866 85.812202454 144.09504700 147.49909973 1.1830023527 61.075000763 1.1960264444 1.1074939966 1.1960264444
 1216.8535156  -999.250000 14.121999741 14.120805740 12.250000954 0.0160128102 0.5188817382 1.8447618484 1.7710000277 80.379356384 144.34156799 147.74980164 1.1820008755 60.199802399 1.1730183363 1.1341081858 1.1730183363
 1217.0058594  -999.250000 14.149000168 14.149516106 12.250000954 0.0209919866 0.4732498229 1.8601746559 1.6870000362 81.062454224 144.42788696 147.75000000 1.1630152464 59.950000763 1.1570128202 1.1864829063 1.1570128202
 1217.1583252  -999.250000 14.178000450 14.168180466 12.250000954 0.0190016013 0.4584453702 1.8682622910 1.6490000486 77.815605164 145.01045227 147.75000000 1.1510096788 58.078605652 1.1699895859 1.1224700212 1.1699895859
 1217.3106689  -999.250000 14.166999817 14.174375534 12.250000954 0.0259887911 0.4957301021 1.8666858673 1.6230000257 88.241638184 145.68069458 151.37210083 1.1460040808 62.573696136 1.1620063782 1.0323088169 1.1620063782
 1217.4631348  -999.250000 14.185998917 14.194163322 12.250000954 0.0289975945 0.5238525271 1.8556180000 1.6460000277 93.495796204 145.41244507 148.50230408 1.1390056610 60.949699402 1.1170359850 1.0769915581 1.1170359850
 1217.6154785  -999.250000 14.237999916 14.212940216 12.250000954 0.0299983975 0.5057537556 1.8386991024 1.6349999905 101.68144226 144.97509766 148.12530518 1.1350032091 60.575500488 1.1080071926 1.1005406380 1.1080071926
 1217.7678223  -999.250000 14.187999725 14.209376335 12.250000954 0.0260064099 0.4850364327 1.8249636889 1.6019999981 93.825614929 144.47885132 148.74899292 1.1340014935 61.199699402 1.1050047874 1.0909692049 1.1050047874
 1217.9202881  -999.250000 14.225000381 14.242280006 12.250000954 0.0100256205 0.4766400754 1.8221023083 1.5770000219 90.127952576 143.57160950 145.50260925 1.1140159369 60.825603485 1.1479655504 1.0902549028 1.1479655504
