# LAS format log file from PETREL
# Project units are specified as depth units
#==================================================================
~Version information
VERS.   2.0:
WRAP.   NO:
#==================================================================
~Well
STRT .m      472.33206177 :
STOP .m      3119.8261719 :
STEP .m     0.00000000 :
NULL .        -999.250000 :
COMP.           : COMPANY
WELL.  15/9-17   : WELL
FLD.            : FIELD
LOC.            : LOCATION
SRVC.           : SERVICE COMPANY
DATE.  2018-09-11 14:48:01   : Log Export Date {yyyy-MM-dd HH:mm:ss}
PROV.           : PROVINCE
UWI.   15/9-17   : UNIQUE WELL ID
API.            : API NUMBER
#==================================================================
~Curve
DEPT .m                   : DEPTH
Lithology_geolink ._      : Lithology_geolink
DCAL .in                  : DCAL
CALI .in                  : CALI
DRHO .g/cm3               : DRHO
SGR .gAPI                 : SGR
NPHI .m3/m3               : NPHI
RHOB .g/cm3               : RHOB
PEF .b/e                  : PEF
GR .gAPI                  : GR
DTC .us/ft                : DTC
DT .us/ft                 : DT
DTE .us/ft                : DTE
RDEP .ohm.m               : RDEP
SP .mV                    : SP
RSHA .ohm.m               : RSHA
RXO .ohm.m                : RXO
RMED .ohm.m               : RMED
~Parameter
#==================================================================
~Ascii
# ...
 2584.5971680 11.000000000 12.352001190 12.352001190 -0.005000000 14.692999840 0.0478632189 2.6119444370 5.7430000305 10.625000000 64.168930054 61.594001770 61.823127747 5.3790001869 42.579341888 8.0192050934 8.0192050934 6.9730000496
 2584.7497559 11.000000000 12.352001190 12.352001190 -0.001000000 15.394000053 0.0499043986 2.6130440235 5.9260001183 13.390999794 64.767791748 62.187999725 62.456199646 5.7300000191 42.030136108 19.943624496 19.943624496 6.8979997635
 2584.9020996 11.000000000 12.352001190 12.352001190 -0.003000000 15.302000046 0.0606371947 2.6083803177 5.9359998703 13.569999695 65.768692017 63.000000000 63.310993195 5.7659997940 42.423473358 7.3703927994 7.3703927994 6.1020002365
 2585.0544434 11.000000000 12.352001190 12.352001190 0.0030000000 14.541000366 0.0713639557 2.6046073437 5.7189998627 12.890999794 66.689971924 63.999996185 64.183441162 5.9530000687 42.234630585 9.4852771759 9.4852771759 4.9650001526
 2585.2067871 11.000000000 12.352001190 12.352001190 0.0020000001 13.680000305 0.0800559893 2.5994994640 5.7179999352 13.069999695 66.677032471 64.750000000 64.222229004 6.0549998283 42.494930267 10.273357391 10.273357391 5.0900001526
 2585.3591309 11.000000000 12.352001190 12.352001190 0.0049999999 13.425999641 0.0775443688 2.6012730598 5.6469998360 12.468999863 65.370361328 63.594001770 62.909339905 6.1449999809 42.450531006 5.5195441246 5.5195441246 5.2930002213
 2585.5117188 11.000000000 12.352001190 12.352001190 -0.002000000 13.276000023 0.0677735731 2.6039485931 5.8959999084 11.508000374 63.099693298 61.594001770 60.717472076 6.0900001526 42.977005005 10.223707199 10.223707199 6.3670001030
 2585.6640625 11.000000000 12.352001190 12.352001190 0.0000000000 12.817000389 0.0575252920 2.6153323650 6.0879998207 10.116999626 61.982074738 58.780998230 59.563419342 6.0859999657 43.159202576 8.1791620255 8.1791620255 7.5390000343
 2585.8164063 11.000000000 12.352001190 12.352001190 -0.005000000 12.340000153 0.0483679026 2.6187329292 5.8109998703 11.069999695 62.855339050 60.375000000 60.397392273 6.1479997635 42.872661591 12.650414467 12.650414467 8.7500000000
 2585.9687500 11.000000000 12.352001190 12.352001190 -0.007000000 12.196000099 0.0533119366 2.6189942360 5.4899997711 11.305000305 63.400039673 60.780998230 60.766174316 6.2270002365 43.625888824 18.507198334 18.507198334 9.1090002060
 2586.1213379 11.000000000 12.352001190 12.352001190 -0.005000000 12.395999908 0.0670219809 2.6170177460 5.0799999237 12.241999626 63.601219177 60.780998230 61.144744873 6.2969999313 43.791755676 13.010151863 13.010151863 8.0159997940
 2586.2736816 11.000000000 12.352001190 12.352001190 -0.007000000 12.973999977 0.0801046491 2.6121804714 5.3579998016 11.515999794 64.588157654 61.780998230 62.215068817 6.3670001030 44.152896881 9.0082883835 9.0082883835 6.8359999657
 2586.4260254 11.000000000 12.352001190 12.352001190 -0.006000000 13.649000168 0.0829992518 2.6076524258 5.2140002251 11.977000237 65.704795837 63.187999725 63.226692200 6.3709998131 43.657798767 9.1918554306 9.1918554306 6.2420001030
 2586.5783691 11.000000000 12.352001190 12.352001190 -0.010000000 14.479999542 0.0825316161 2.6050438881 5.1570000648 12.194999695 66.046554565 63.594001770 63.573921204 6.0780000687 43.691123962 11.587664604 11.587664604 5.8709998131
 2586.7309570 11.000000000 12.352001190 12.352001190 -0.009000000 15.161999702 0.0835570544 2.6073541641 4.6599998474 12.453000069 65.978080750 63.594001770 63.601802826 5.7340002060 43.206119537 7.6478734016 7.6478734016 5.8400001526
 2586.8833008 11.000000000 12.352001190 12.352001190 -0.014000000 15.628000259 0.0888715610 2.6109926701 4.5830001831 13.866999626 66.070602417 63.594001770 63.718788147 5.6020002365 43.094867706 9.7864837646 9.7864837646 6.0549998283
 2587.0356445 11.000000000 12.352001190 12.352001190 -0.014000000 15.746999741 0.0898376629 2.6172409058 4.7039999962 13.616999626 66.250930786 63.999996185 63.686149597 5.5780000687 42.744674683 8.2216663361 8.2216663361 5.9060001373
 2587.1879883 11.000000000 12.352001190 12.352001190 -0.014000000 15.753000259 0.0883823559 2.6175999641 5.0190000534 13.343999863 65.651466370 63.187999725 63.176601410 5.4409999847 43.156234741 9.8793382645 9.8793382645 5.8670001030
 2587.3405762 11.000000000 12.352001190 12.352001190 -0.010000000 16.040000916 0.0898563266 2.6135413647 4.9260001183 14.281000137 65.873588562 63.000000000 63.509857178 5.4260001183 43.628856659 7.6016607285 7.6016607285 5.8280000687
 2587.4929199 11.000000000 12.352001190 12.352001190 -0.009000000 16.256000519 0.0918386132 2.6113178730 5.0460000038 14.281000137 66.792694092 64.375000000 64.341751099 5.5310001373 43.722244263 8.7438526154 8.7438526154 5.6170001030
 2587.6452637 11.000000000 12.352001190 12.352001190 -0.004000000 16.336000443 0.0972201601 2.6138429642 4.8400001526 14.984000206 67.005165100 64.563003540 64.610778809 5.6050000191 43.908031464 9.8945569992 9.8945569992 5.1640000343
 2587.7976074 11.000000000 12.352001190 12.352001190 -0.006000000 15.762000084 0.1035577655 2.6148483753 4.8629999161 12.890999794 66.758743286 64.750000000 64.437400818 5.6880002022 42.891559601 7.7501683235 7.7501683235 5.2500000000
 2587.9499512 11.000000000 12.352001190 12.352001190 -0.011000000 14.687999725 0.1083999202 2.6111307144 4.8319997787 10.788999557 65.822090149 63.999996185 63.331417084 5.7030000687 42.823085785 7.8645353317 7.8645353317 5.4800000191
 2588.1025391 11.000000000 12.352001190 12.352001190 -0.020000000 13.423000336 0.1083282381 2.6061804295 4.8000001907 10.352000237 64.228820801 62.000000000 61.919136047 5.6840000153 43.123836517 13.788075447 13.788075447 5.8130002022
 2588.2548828 11.000000000 12.352001190 12.352001190 -0.018999999 12.824999809 0.1015484929 2.6063718796 5.2259998322 9.6169996262 63.946453094 61.375000000 61.552913666 5.5120000839 43.512733459 8.5237112045 8.5237112045 6.5199999809
 2588.4072266 11.000000000 12.352001190 12.352001190 -0.018999999 12.682000160 0.1006194204 2.6012084484 5.0980000496 11.250000000 64.603958130 61.780998230 62.121215820 5.4530000687 43.507816315 13.325759888 13.325759888 6.7150001526
 2588.5595703 11.000000000 12.352001190 12.352001190 -0.013000000 12.784999847 0.1065088287 2.5961880684 5.2760000229 12.413999557 65.436355591 62.780998230 62.976829529 5.2810001373 44.303817749 11.930975914 11.930975914 6.2500000000
 2588.7121582 11.000000000 12.352001190 12.352001190 -0.014000000 12.791999817 0.1182790771 2.5889151096 4.9429998398 13.602000237 66.621368408 63.374996185 64.251152039 5.0700001717 44.185123444 12.524388313 12.524388313 5.5159997940
 2588.8645020 11.000000000 12.352001190 12.352001190 -0.014000000 13.371000290 0.1304710507 2.5838749409 5.1999998093 13.866999626 68.296287537 66.000000000 65.906929016 4.7659997940 43.440269470 7.9760851860 7.9760851860 4.9689998627
 2589.0168457 11.000000000 12.352001190 12.352001190 -0.015000000 14.166999817 0.1436010450 2.5769927502 5.2719998360 12.234000206 68.898300171 66.188003540 66.395179749 4.3709998131 42.513237000 9.8913202286 9.8913202286 4.5549998283
 2589.1691895 11.000000000 12.352001190 12.352001190 -0.018999999 14.657999992 0.1505025625 2.5700032711 5.6550002098 12.008000374 69.391685486 66.750000000 67.064140320 4.1719999313 43.567657471 5.7374806404 5.7374806404 4.2420001030
 2589.3217773 11.000000000 12.352001190 12.352001190 -0.016000001 14.743000031 0.1645645350 2.5637478828 5.4099998474 11.531000137 70.077247620 67.750000000 67.710624695 4.0430002213 43.991329193 10.390201569 10.390201569 3.8399999142
 2589.4741211 11.000000000 12.352001190 12.352001190 -0.015000000 14.857000351 0.1659712642 2.5544328690 5.3860001564 11.741999626 70.238914490 67.750000000 67.949829102 3.9489998817 42.550998688 7.9551153183 7.9551153183 3.6889998913
 2589.6264648 11.000000000 12.352001190 12.352001190 -0.010000000 15.338000298 0.1605074406 2.5525784492 5.2859997749 11.515999794 70.295089722 68.375000000 67.956993103 3.8810000420 43.449268341 4.2896828651 4.2896828651 3.7030000687
 2589.7788086 11.000000000 12.352001190 12.352001190 -0.009000000 15.831999779 0.1464367807 2.5545732975 5.3899998665 11.741999626 69.704284668 67.375000000 67.303428650 3.7950000763 43.438716888 4.7131843567 4.7131843567 3.8220000267
