# LAS format log file from PETREL
# Project units are specified as depth units
#==================================================================
~Version information
VERS.   2.0:
WRAP.   NO:
#==================================================================
~Well
STRT .m      2122.4746094 :
STOP .m      4102.6074219 :
STEP .m     0.00000000 :
NULL .        -999.250000 :
COMP.           : COMPANY
WELL.  15/9-19A   : WELL
FLD.            : FIELD
LOC.            : LOCATION
SRVC.           : SERVICE COMPANY
DATE.  2018-09-11 14:48:01   : Log Export Date {yyyy-MM-dd HH:mm:ss}
PROV.           : PROVINCE
UWI.   15/9-19 A   : UNIQUE WELL ID
API.            : API NUMBER
#==================================================================
~Curve
DEPT .m                   : DEPTH
Lithology_geolink ._      : Lithology_geolink
CALI .in                  : CALI
RHOB .g/cm3               : RHOB
GR .gAPI                  : GR
RDEP .ohm.m               : RDEP
RSHA .ohm.m               : RSHA
RMED .ohm.m               : RMED
~Parameter
#==================================================================
~Ascii
# ...
 4093.9206543 5.0000000000 8.0693998337 2.3949098587 45.602062225 1.0351999998 1.3436000347 1.0081000328
 4094.0732422 3.0000000000 8.0816001892 2.4010450840 42.236186981 1.0420999527 1.4153000116 1.0204999447
 4094.2255859 3.0000000000 8.0759000778 2.4152338505 41.039112091 1.0568000078 1.5108000040 1.0420000553
 4094.3779297 3.0000000000 8.0517997742 2.4985878468 40.473003387 1.0722999573 1.6155999899 1.0655000210
 4094.5302734 3.0000000000 8.0318002701 2.4909765720 39.130405426 1.0595999956 1.6746000051 1.0609999895
 4094.6828613 3.0000000000 8.0368003845 2.4762830734 37.637187958 1.0483000278 1.7036000490 1.0550999641
 4094.8352051 3.0000000000 7.9642996788 2.4398038387 37.529567719 1.0820000172 1.7714999914 1.0903999805
 4094.9875488 3.0000000000 7.9945001602 2.3799843788 39.159084320 1.1368999481 1.8723000288 1.1430000067
 4095.1398926 5.0000000000 7.9288001060 2.4326226711 44.157882690 1.1820000410 1.9680000544 1.1820000410
 4095.2924805 5.0000000000 8.1904001236 2.4466717243 50.834712982 1.2328000069 2.0557000637 1.2237999439
 4095.4448242 5.0000000000 8.2385997772 2.4377627373 56.231155396 1.2904000282 2.1268999577 1.2718000412
 4095.5971680 5.0000000000 8.3039999008 2.4145972729 59.258457184 1.3307000399 2.1647000313 1.3071999550
 4095.7495117 5.0000000000 8.1426000595 2.4130296707 60.116630554 1.3370000124 2.1531999111 1.3169000149
 4095.9018555 5.0000000000 8.1100997925 2.4313533306 60.621482849 1.3122999668 2.0873999596 1.3012000322
 4096.0541992 5.0000000000 8.0838003159 2.4021999836 60.790260315 1.2797000408 1.9895000458 1.2757999897
 4096.2065430 5.0000000000 7.9708995819 2.4079999924 61.326278687 1.2467999458 1.8710000515 1.2440999746
 4096.3593750 5.0000000000 7.9404001236 2.4165964127 61.312999725 1.2035000324 1.7300000191 1.1967999935
 4096.5117188 5.0000000000 7.7914996147 2.3220829964 60.608898163 1.1331000328 1.5594999790 1.1227999926
 4096.6640625 5.0000000000 7.7673001289 2.2856783867 60.386901855 1.0159000158 1.3617000580 1.0078999996
 4096.8164063 5.0000000000 7.9604005814 2.2791533470 59.419502258 0.8913999796 1.1993999481 0.8892999887
 4096.9687500 5.0000000000 8.2482004166 2.3582048416 57.068347931 0.8233000040 1.1395000219 0.8267999887
 4097.1210938 5.0000000000 8.2553997040 2.4221000671 54.013301849 0.8235999942 1.1950999498 0.8312000036
 4097.2734375 5.0000000000 8.2252998352 2.5085999966 52.112079620 0.8741999865 1.3526999950 0.8845000267
 4097.4257813 5.0000000000 8.0827999115 2.5179998875 50.225845337 0.9722999930 1.6222000122 0.9847999811
 4097.5781250 5.0000000000 7.9941000938 2.5727999210 49.959037781 1.1545000076 2.1221001148 1.1706000566
 4097.7309570 5.0000000000 7.9770994186 2.5462644100 52.337699890 1.4228999615 3.0132000446 1.4436000586
 4097.8833008 5.0000000000 7.9597001076 2.5662040710 56.866298676 1.6079000235 3.8879001141 1.6275999546
 4098.0356445 5.0000000000 7.9839997292 2.5364105701 60.787498474 1.6492999792 4.1090998650 1.6618000269
 4098.1879883 5.0000000000 8.2700996399 2.5396039486 64.532196045 1.7278000116 4.1212000847 1.7378000021
 4098.3403320 5.0000000000 8.3149995804 2.5096955299 69.291732788 1.8012000322 4.0981001854 1.8229000568
 4098.4926758 5.0000000000 8.2862997055 2.5083000660 71.809051514 1.7010999918 3.7472999096 1.7451000214
 4098.6450195 6.0000000000 8.2755002975 2.4830000401 73.659568787 1.5354000330 3.2755999565 1.5979000330
 4098.7973633 6.0000000000 8.2477998734 2.5055000782 73.734680176 1.4521000385 3.0041999817 1.5283000469
 4098.9501953 6.0000000000 8.2186002731 2.4675395489 75.251701355 1.4394999743 2.9328000546 1.5255999565
 4099.1025391 6.0000000000 8.2655000687 2.4487392902 77.921798706 1.4349999428 2.9147999287 1.5247000456
 4099.2548828 6.0000000000 8.2995996475 2.4610881805 78.185203552 1.4120999575 2.8424000740 1.4984999895
 4099.4072266 6.0000000000 8.3099002838 2.4884710312 77.758399963 1.3828999996 2.7246999741 1.4630000591
 4099.5595703 6.0000000000 8.2962999344 2.4793066978 77.428749084 1.3679000139 2.6287999153 1.4420000315
 4099.7119141 6.0000000000 8.3013000488 2.4503695965 79.157341003 1.3515000343 2.5462999344 1.4197000265
 4099.8642578 6.0000000000 8.3035001755 2.4721000195 80.200767517 1.3061000109 2.4265999794 1.3662999868
 4100.0166016 6.0000000000 8.3142995834 2.4730000496 79.203323364 1.2668000460 2.3157999516 1.3195999861
 4100.1689453 6.0000000000 8.2329998016 2.4558999538 78.673896790 1.2668000460 2.2630000114 1.3138999939
 4100.3217773 6.0000000000 8.0157003403 2.4692537785 78.659500122 1.2802000046 2.2276000977 1.3202999830
 4100.4741211 6.0000000000 8.0062999725 2.4549865723 80.242897034 1.2892999649 2.1754000187 1.3215999603
 4100.6264648 6.0000000000 7.9879999161 2.4817035198 83.011398315 1.2872999907 2.0833001137 1.3118000031
 4100.7788086 6.0000000000 8.0475997925 2.4516317844 84.996833801 1.2562999725 1.9333000183 1.2721999884
 4100.9311523 6.0000000000 8.0474996567 2.4304244518 86.421539307 1.2230999470 1.7856999636 1.2301000357
 4101.0834961 6.0000000000 8.2475996017 2.4381000996 88.247543335 1.2230000496 1.7020000219 1.2214000225
 4101.2358398 6.0000000000 8.2558002472 2.4249999523 89.381278992 1.2305999994 1.6618000269 1.2216000557
 4101.3881836 6.0000000000 8.2749996185 2.4458999634 89.010002136 1.2111999989 1.6226999760 1.1966999769
 4101.5405273 6.0000000000 8.2892999649 2.4584999084 87.946220398 1.1938999891 1.5938999653 1.1748000383
 4101.6928711 6.0000000000 8.2742004395 2.3491001129 87.473411560 1.2133376598 1.6019741297 1.1883566380
 4101.8452148 6.0000000000 8.2909002304 2.3675999641 86.590141296 1.2409116030 1.6305083036 1.2111269236
 4101.9975586 6.0000000000 8.2888002396 2.4697999954 84.365051270 1.2406013012 1.6474459171 1.2102031708
 4102.1499023 6.0000000000 8.2685003281 2.4600000381 82.782333374 1.2266448736 1.6484967470 1.1984378099
 4102.3022461 6.0000000000 8.2658004761 2.4502000809 82.094474792 1.2168313265 1.6389307976 1.1906250715
 4102.4550781 6.0000000000 8.2730998993 2.4584000111 81.427825928 1.2065999508 1.6145999432 1.1807999611
 4102.6074219 6.0000000000 8.2447004318 2.4786999226 81.650474548 1.1914000511 1.5745999813 1.1650999784
