# LAS format log file from PETREL
# Project units are specified as depth units
#==================================================================
~Version information
VERS.   2.0:
WRAP.   NO:
#==================================================================
~Well
STRT .m      472.33206177 :
STOP .m      3119.8261719 :
STEP .m     0.00000000 :
NULL .        -999.250000 :
COMP.           : COMPANY
WELL.  15/9-17   : WELL
FLD.            : FIELD
LOC.            : LOCATION
SRVC.           : SERVICE COMPANY
DATE.  2018-09-11 14:48:01   : Log Export Date {yyyy-MM-dd HH:mm:ss}
PROV.           : PROVINCE
UWI.   15/9-17   : UNIQUE WELL ID
API.            : API NUMBER
#==================================================================
~Curve
DEPT .m                   : DEPTH
Lithology_geolink ._      : Lithology_geolink
DCAL .in                  : DCAL
CALI .in                  : CALI
DRHO .g/cm3               : DRHO
SGR .gAPI                 : SGR
NPHI .m3/m3               : NPHI
RHOB .g/cm3               : RHOB
PEF .b/e                  : PEF
GR .gAPI                  : GR
DTC .us/ft                : DTC
DT .us/ft                 : DT
DTE .us/ft                : DTE
RDEP .ohm.m               : RDEP
SP .mV                    : SP
RSHA .ohm.m               : RSHA
RXO .ohm.m                : RXO
RMED .ohm.m               : RMED
~Parameter
#==================================================================
~Ascii
# ...
 2760.6193848 3.0000000000 9.0109996796 9.0109996796 -0.008000000 63.472000122 0.2661506534 2.3567800522 4.8880000114 67.375000000 88.975692749 86.375000000 86.516349792 2.5179998875 40.324501038 0.5861376524 0.5861376524 2.4900000095
 2760.7717285 3.0000000000 8.4530000687 8.4530000687 -0.023000000 59.955001831 0.2258086950 2.3181340694 4.0739998817 62.280998230 89.524803162 86.749992371 87.032463074 2.5550000668 38.850700378 0.6305865645 0.6305865645 2.9590001106
 2760.9240723 3.0000000000 8.4530000687 8.4530000687 -0.017000001 57.766998291 0.1938492656 2.2726900578 4.0120000839 55.437999725 92.755615234 87.563003540 90.271522522 2.8139998913 36.927467346 1.6271730661 1.6271730661 3.1349999905
 2761.0764160 3.0000000000 8.4530000687 8.4530000687 -0.014000000 60.463001251 0.1933963895 2.2585887909 4.5929999352 50.187999725 98.270950317 95.187995911 95.903472900 3.1679999828 35.401023865 6.7178668976 6.7178668976 4.5469999313
 2761.2290039 3.0000000000 8.4530000687 8.4530000687 -0.017000001 64.377998352 0.1974182129 2.2794575691 5.0929999352 49.062999725 102.30297089 98.563003540 99.942085266 3.7750000954 34.699100494 6.0095105171 6.0095105171 6.4650001526
 2761.3813477 3.0000000000 8.4530000687 8.4530000687 -0.017999999 64.872001648 0.2124501169 2.3150219917 5.6490001678 52.344001770 105.20462036 103.18800354 102.63514709 4.7890000343 34.624301910 5.2348704338 5.2348704338 6.7420001030
 2761.5336914 3.0000000000 8.4530000687 8.4530000687 -0.017999999 64.385002136 0.2187491804 2.3227677345 5.7899999619 55.000000000 103.79429626 102.37500000 101.34101105 5.8480000496 34.449100494 5.7817273140 5.7817273140 6.8709998131
 2761.6860352 3.0000000000 8.4530000687 8.4530000687 -0.011000000 65.938003540 0.2182353586 2.3267874718 5.9140000343 57.344001770 101.59815979 99.375007629 99.291526794 6.9609999657 34.374580383 8.7268371582 8.7268371582 7.3090000153
 2761.8386230 3.0000000000 8.4530000687 8.4530000687 -0.010000000 65.989997864 0.2153595388 2.3175439835 5.8920001984 57.844001770 100.70008850 98.563003540 98.328300476 7.6449999809 34.124179840 8.6291246414 8.6291246414 7.8400001526
 2761.9909668 3.0000000000 8.4530000687 8.4530000687 -0.014000000 64.350997925 0.2183430642 2.2874999046 5.5399999619 59.937999725 100.31302643 97.750000000 97.911415100 7.9140000343 34.024021149 9.9175558090 9.9175558090 8.3280000687
 2762.1433105 3.0000000000 8.4530000687 8.4530000687 -0.015000000 61.384998322 0.2264588326 2.2538416386 5.1100001335 55.625000000 100.70573425 97.999992371 98.367301941 7.5590000153 34.722702026 12.130284309 12.130284309 7.9689998627
 2762.2956543 3.0000000000 8.4530000687 8.4530000687 -0.015000000 58.199001312 0.2132433951 2.2325224876 4.6750001907 51.844001770 101.96074677 99.000000000 99.297286987 6.8629999161 35.949100494 10.432457924 10.432457924 7.0549998283
 2762.4479980 3.0000000000 8.4530000687 8.4530000687 -0.013000000 59.923999786 0.1966428608 2.2367806435 4.4930000305 47.780998230 102.52031708 100.00000000 100.13639832 5.9409999847 36.023620605 6.9802131653 6.9802131653 6.6170001030
 2762.6005859 3.0000000000 8.4530000687 8.4530000687 -0.012000000 67.680000305 0.1797586977 2.2631015778 4.6199998856 49.094001770 102.46968842 100.56300354 100.00279236 5.1129999161 36.274021149 7.1095247269 7.1095247269 6.4489998817
 2762.7529297 3.0000000000 8.4530000687 8.4530000687 -0.008000000 82.250999451 0.1855890006 2.3143339157 4.4229998589 51.344001770 101.29171753 99.188003540 98.845397949 4.4450001717 37.047500610 6.0273699760 6.0273699760 5.7270002365
 2762.9052734 3.0000000000 8.5089998245 8.5089998245 -0.001000000 92.063003540 0.1912687868 2.3628683090 3.9700000286 59.562999725 100.23178101 97.999992371 97.770439148 3.9879999161 38.970733643 6.2563972473 6.2563972473 4.7189998627
 2763.0576172 5.0000000000 8.6250000000 8.6250000000 -0.003000000 91.997001648 0.2341786772 2.3721079826 3.4749999046 71.438003540 99.281387329 97.188003540 96.816627502 3.6930000782 40.869773865 5.2556858063 5.2556858063 3.8710000515
 2763.2102051 5.0000000000 8.6330003738 8.6330003738 -0.007000000 81.758003235 0.2708383203 2.3456473351 3.3010001183 78.750000000 98.530891418 96.000000000 95.909233093 3.4389998913 42.973541260 3.8148958683 3.8148958683 3.2869999409
 2763.3625488 5.0000000000 8.6330003738 8.6330003738 -0.012000000 73.153999329 0.3045524657 2.3203675747 3.4089999199 73.938003540 97.707527161 95.563003540 95.205421448 3.2009999752 44.273899078 4.0938458443 4.0938458443 2.9159998894
 2763.5148926 5.0000000000 8.6319999695 8.6319999695 -0.010000000 67.878997803 0.2873383462 2.3323318958 3.5250000954 64.000000000 97.327781677 94.375007629 94.963279724 2.9979999065 44.672657013 3.9960784912 3.9960784912 2.8570001125
 2763.6672363 5.0000000000 8.5699996948 8.5699996948 -0.009000000 68.449996948 0.2551192641 2.3741352558 3.7939999104 55.125000000 96.609664917 96.000000000 94.200668335 2.7850000858 45.050060272 2.8014376163 2.8014376163 2.9000000954
 2763.8198242 5.0000000000 8.6020002365 8.6020002365 -0.012000000 70.285003662 0.2234672904 2.4096906185 4.2480001450 59.280998230 92.644683838 91.563011169 90.270797729 2.5859999657 44.774021149 4.3206753731 4.3206753731 3.1349999905
 2763.9721680 5.0000000000 8.6330003738 8.6330003738 0.0000000000 75.783996582 0.2070533633 2.4093308449 5.1440000534 64.938003540 89.683906555 87.000000000 87.310508728 2.3670001030 44.949100494 4.5334105492 4.5334105492 3.4839999676
 2764.1245117 5.0000000000 8.6330003738 8.6330003738 -0.005000000 80.024002075 0.2091920525 2.3758232594 6.0609998703 71.750000000 89.048629761 87.188003540 86.659904480 2.2170000076 45.173500061 6.0323891640 6.0323891640 3.6740000248
 2764.2768555 5.0000000000 8.6569995880 8.6569995880 0.0049999999 83.805999756 0.2353871763 2.3703069687 6.4530000687 70.625000000 88.015075684 85.750000000 85.523551941 2.1519999504 45.848140717 4.4049615860 4.4049615860 2.9549999237
 2764.4291992 5.0000000000 8.7340002060 8.7340002060 -0.013000000 82.704002380 0.2398877293 2.3727431297 6.4250001907 71.750000000 88.993141174 84.375007629 86.541519165 2.0720000267 46.199100494 3.7565624714 3.7565624714 2.1700000763
 2764.5817871 5.0000000000 8.6250000000 8.6250000000 0.0049999999 85.196998596 0.2570965290 2.3987123966 6.2899999619 75.000000000 91.448554993 90.375000000 89.034347534 1.9809999466 46.274021149 2.8586065769 2.8586065769 1.9500000477
 2764.7341309 5.0000000000 8.6639995575 8.6639995575 -0.002000000 86.388999939 0.2373245955 2.4030363560 5.4229998589 77.188003540 90.026496887 87.000000000 87.610237122 1.9029999971 46.299499512 2.1136729717 2.1136729717 1.9029999971
 2764.8864746 5.0000000000 8.7030000687 8.7030000687 0.0070000002 88.565002441 0.2401670069 2.4201245308 4.9869999886 73.500000000 90.568481445 87.999992371 88.135437012 1.7910000086 45.949100494 2.5312547684 2.5312547684 1.8580000401
 2765.0388184 5.0000000000 8.6649999619 8.6649999619 0.0099999998 88.800003052 0.2321042866 2.4362983704 4.8109998703 71.063003540 91.071899414 88.563003540 88.588996887 1.7130000591 45.800060272 1.4452227354 1.4452227354 1.8930000067
 2765.1914063 5.0000000000 8.7959995270 8.7959995270 0.0049999999 86.741996765 0.2534803152 2.4453315735 5.2059998512 75.688003540 91.323020935 88.750000000 88.681121826 1.7089999914 45.449100494 2.2046928406 2.2046928406 1.8930000067
 2765.3437500 5.0000000000 8.6730003357 8.6730003357 0.0109999999 85.575996399 0.2598076463 2.4492037296 5.6729998589 78.875000000 91.212890625 88.563003540 88.776336670 1.7020000219 45.523899078 1.4883316755 1.4883316755 1.9340000153
 2765.4960938 5.0000000000 8.9069995880 8.9069995880 -0.007000000 87.567001343 0.2645637989 2.4363520145 5.1649999619 78.813003540 91.045059204 89.188003540 88.747375488 1.6959999800 45.773620605 2.9397146702 2.9397146702 1.8569999933
 2765.6484375 5.0000000000 8.9989995956 8.9989995956 -0.005000000 88.254997253 0.2544761896 2.4370181561 4.7059998512 74.813003540 89.978622437 88.188003540 87.668838501 1.7359999418 45.800060272 2.1403572559 2.1403572559 1.9479999542
 2765.8010254 5.0000000000 8.7950000763 8.7950000763 -0.018999999 88.982002258 0.2645308971 2.4494874477 3.9089999199 77.250000000 89.065330505 86.563011169 86.674430847 1.8170000315 45.299259186 2.9803905487 2.9803905487 1.8700000048
