# LAS format log file from PETREL
# Project units are specified as depth units
#==================================================================
~Version information
VERS.   2.0:
WRAP.   NO:
#==================================================================
~Well
STRT .m      485.02883911 :
STOP .m      3207.3493652 :
STEP .m     0.00000000 :
NULL .        -999.250000 :
COMP.           : COMPANY
WELL.  15/9-15   : WELL
FLD.            : FIELD
LOC.            : LOCATION
SRVC.           : SERVICE COMPANY
DATE.  2018-09-11 14:48:00   : Log Export Date {yyyy-MM-dd HH:mm:ss}
PROV.           : PROVINCE
UWI.   15/9-15   : UNIQUE WELL ID
API.            : API NUMBER
#==================================================================
~Curve
DEPT .m                   : DEPTH
Lithology_geolink ._      : Lithology_geolink
DCAL .in                  : DCAL
CALI .in                  : CALI
BS .in                    : BS
DRHO .g/cm3               : DRHO
NPHI .m3/m3               : NPHI
RHOB .g/cm3               : RHOB
PEF .b/e                  : PEF
GR .gAPI                  : GR
DTC .us/ft                : DTC
DT .us/ft                 : DT
RDEP .ohm.m               : RDEP
SP .mV                    : SP
RSHA .ohm.m               : RSHA
RXO .ohm.m                : RXO
RMED .ohm.m               : RMED
~Parameter
#==================================================================
~Ascii
# ...
 1934.2000732  -999.250000 16.099000931 16.308280945 12.250000954 0.1189943925 0.5318511724 1.9951716661 3.5120000839 58.748321533 137.46653748 144.00320435 0.7779839635 71.199996948 0.8210400343 0.4594367146 0.8210400343
 1934.3524170  -999.250000 17.195999146 17.006891251 12.250000954 0.1090160087 0.5127661228 1.9933409691 3.4409999847 64.490791321 138.69453430 154.10877991 0.7919775844 71.949996948 0.7471184731 0.4268744588 0.7471184731
 1934.5048828  -999.250000 17.518999100 17.440467834 12.250000954 0.1040040106 0.4901761711 1.9732611179 3.4769999981 65.749000549 140.50932312 154.99929810 0.7830072045 73.199996948 0.7080312371 0.3837080300 0.7080312371
 1934.6572266  -999.250000 17.520999908 17.566574097 12.250000954 0.0950144082 0.4664969444 1.9570341110 3.5299999714 65.250801086 140.28410339 152.37918091 0.7690224051 73.449996948 0.6910272241 0.4202035367 0.6910272241
 1934.8096924  -999.250000 17.708000183 17.687883377 12.250000954 0.0880056098 0.4807470143 1.9614268541 3.5079998970 64.250801086 140.08985901 153.49908447 0.7500151992 74.949996948 0.6900007725 0.4013085067 0.6900007725
 1934.9620361  -999.250000 17.812000275 17.726402283 12.250000954 0.0850048065 0.5454043746 1.9930123091 3.4939999580 62.690502167 140.76545715 155.99598694 0.7190496325 71.949996948 0.6979871988 0.3457449079 0.6979871988
 1935.1145020  -999.250000 17.568000793 17.456947327 12.250000954 0.0999879837 0.6088484526 2.0264554024 3.4739999771 65.061103821 141.96884155 159.74699402 0.7060104012 72.199996948 0.7119888067 0.3311875761 0.7119888067
 1935.2668457  -999.250000 16.875999451 16.960496902 12.250000954 0.1219823733 0.6442350745 2.0325019360 3.4749999046 66.561798096 143.24551392 162.74758911 0.7059999704 71.199996948 0.7479711771 0.3023549020 0.7479711771
 1935.4193115  -999.250000 16.531999588 16.864013672 12.250000954 0.1329911947 0.6058816910 2.0042874813 3.4879999161 69.310798645 144.23051453 164.99819946 0.6850168109 72.449996948 0.7559936047 0.4001658559 0.7559936047
 1935.5716553  -999.250000 17.537000656 17.215433121 12.250000954 0.1300023943 0.5435100198 1.9758275747 3.4849998951 70.686904907 143.93386841 161.75260925 0.6710112095 73.199996948 0.7080384493 0.4282132983 0.7080384493
 1935.7241211  -999.250000 17.229999542 17.122255325 12.250000954 0.1210072041 0.5419422388 1.9661375284 3.4049999714 74.310104370 141.26907349 151.38330078 0.6510160565 72.949996948 0.7070007920 0.3464979231 0.7070007920
 1935.8764648  -999.250000 16.489000320 16.630594254 12.250000954 0.1190016046 0.5392863750 1.9657100439 3.2260000706 71.565208435 137.95790100 143.75610352 0.6450048089 71.699996948 0.6630352736 0.3086878061 0.6630352736
 1936.0289307  -999.250000 16.327999115 16.508707047 12.250000954 0.1160023957 0.5289465785 1.9332942963 3.1449999809 67.378349304 137.24172974 146.99739075 0.6400039792 72.699996948 0.6620007753 0.2817321420 0.6620007753
 1936.1812744  -999.250000 16.900999069 16.556432724 12.250000954 0.1209959909 0.5068953633 1.8674448729 3.2269999981 61.504707336 138.13781738 148.99839783 0.6489927769 74.199996948 0.6290264726 0.3618997633 0.6290264726
 1936.3337402  -999.250000 16.072000504 16.460905075 12.250000954 0.1100088060 0.4873412848 1.8281666040 3.4849998951 62.842926025 139.07029724 151.74780273 0.6749792099 73.699996948 0.6260023713 0.3566433191 0.6260023713
 1936.4860840  -999.250000 16.826999664 16.933687210 12.250000954 0.0970104188 0.4748200476 1.8592523336 3.7300000191 61.376178741 139.61692810 152.37448120 0.7089727521 74.699996948 0.6459839940 0.2798676193 0.6459839940
 1936.6384277  -999.250000 18.009000778 17.925697327 12.250000954 0.0920080096 0.4807755947 1.9447295666 3.9140000343 62.716850281 137.17730713 140.01982117 0.7169871926 72.449996948 0.6619743705 0.2590000033 0.6619743705
 1936.7908936  -999.250000 18.846000671 18.466674805 12.250000954 0.0959967971 0.5129284263 1.9737454653 3.9100000858 60.470806122 134.14923096 135.00401306 0.6760328412 72.199996948 0.7759086490 0.3032897413 0.7759086490
 1936.9432373  -999.250000 18.138000488 18.121877670 12.250000954 0.1149695814 0.5440551639 1.9073128700 3.7799999714 60.968200684 136.54376221 150.97436523 0.6759999990 72.949996948 0.8678526282 0.3558695912 0.8678526282
 1937.0957031  -999.250000 17.370000839 17.747201920 12.250000954 0.1159991920 0.5496610999 1.8405709267 3.6659998894 61.374675751 140.08851624 155.37149048 0.6670072079 72.699996948 0.7530921698 0.4169737995 0.7530921698
 1937.2480469  -999.250000 18.138000488 18.138456345 12.250000954 0.1090112031 0.5500391126 1.8438802958 3.5699999332 63.590450287 140.32238770 152.50460815 0.6989487410 73.699996948 0.6571537256 0.3541818261 0.6571537256
 1937.4005127  -999.250000 18.902000427 18.857814789 12.250000954 0.1129967943 0.5343651175 1.8920365572 3.5160000324 61.189926147 139.51068115 150.75140381 0.7249791622 72.949996948 0.6040424109 0.2988184988 0.6040424109
 1937.5528564  -999.250000 19.479999542 19.221483231 12.250000954 0.1169967949 0.5394676924 1.9428106546 3.4849998951 59.439403534 139.54794312 152.37368774 0.7050160170 72.699996948 0.6119935513 0.3147249818 0.6119935513
 1937.7053223  -999.250000 19.004999161 19.157875061 12.250000954 0.1199975982 0.5903483629 1.9723186493 3.5050001144 54.285125732 140.18261719 154.12359619 0.6700280309 71.949996948 0.6329832077 0.4146298766 0.6329832077
 1937.8576660  -999.250000 19.153999329 19.118282318 12.250000954 0.1249959916 0.5916969180 2.0023107529 3.5420000553 53.344753265 140.66760254 155.12419128 0.6520144343 73.449996948 0.6459895968 0.4234689474 0.6459895968
 1938.0101318  -999.250000 19.156999588 19.081766129 12.250000954 0.1309951991 0.5437070131 2.0253047943 3.5230000019 52.219902039 139.68090820 149.12980652 0.6330152154 71.949996948 0.6779743433 0.3724116981 0.6779743433
 1938.1624756  -999.250000 18.854999542 19.009006500 12.250000954 0.1419911832 0.4608992040 2.0256979465 3.5030000210 55.466396332 143.45181274 171.73187256 0.6260055900 70.949996948 0.6869927645 0.3419583738 0.6869927645
 1938.3149414  -999.250000 19.180000305 19.261142731 12.250000954 0.1360048056 0.4868480265 2.0111138821 3.6010000706 56.437225342 146.80310059 169.75160217 0.6299967766 71.949996948 0.6949936152 0.3370034397 0.6949936152
 1938.4672852  -999.250000 19.831001282 19.720296860 12.250000954 0.1389975995 0.5609112382 1.9849104881 3.5759999752 56.437999725 147.02053833 172.12309265 0.6329976320 70.949996948 0.6810112000 0.3687775731 0.6810112000
 1938.6196289  -999.250000 20.027999878 20.126073837 12.250000954 0.1340080053 0.5967440009 1.9612411261 3.5160000324 59.245498657 146.26112366 166.75860596 0.6070415974 72.449996948 0.6400656104 0.4274877608 0.6400656104
 1938.7720947  -999.250000 20.621997833 20.542989731 12.250000954 0.1260064095 0.5837509632 1.9420309067 3.3020000458 60.468025208 144.98968506 165.00140381 0.6069999933 73.199996948 0.6220144033 0.3617674708 0.6220144033
 1938.9244385  -999.250000 20.891000748 20.656555176 12.250000954 0.1230048090 0.5189759135 1.9245630503 3.1570000648 61.342601776 144.55780029 164.37600708 0.6079983711 72.699996948 0.6190048456 0.3978480399 0.6190048456
 1939.0769043  -999.250000 20.207000732 20.372236252 12.250000954 0.1259976029 0.5480930209 1.9046721458 3.0559999943 53.756084442 144.68426514 165.49909973 0.6199904084 74.949996948 0.6190000176 0.4014007151 0.6190000176
 1939.2292480  -999.250000 20.199001312 20.298089981 12.250000954 0.1269984096 0.5651789904 1.8637946844 3.0869998932 54.467849731 144.42993164 163.50318909 0.6609343886 73.199996948 0.6070191860 0.4136323631 0.6070191860
 1939.3817139  -999.250000 20.593000412 20.417287827 12.250000954 0.1210048050 0.5901000500 1.8327163458 3.2009999752 57.966197968 143.43411255 160.50241089 0.7169551253 73.699996948 0.6040023565 0.3650753200 0.6040023565
 1939.5340576  -999.250000 20.270999908 19.996345520 12.250000954 0.1180024073 0.5647411346 1.8320540190 3.4059998989 60.061321259 142.09056091 156.75300598 0.7160007954 72.949996948 0.6939278841 0.2754668593 0.6939278841
 1939.6865234  -999.250000 18.840000153 18.676828384 12.250000954 0.1100064069 0.5599974990 1.8806837797 3.6300001144 58.126552582 139.85061646 149.38090515 0.7050088048 72.949996948 0.7579487562 0.2963277996 0.7579487562
