# LAS format log file from PETREL
# Project units are specified as depth units
#==================================================================
~Version information
VERS.   2.0:
WRAP.   NO:
#==================================================================
~Well
STRT .m      3164.4333496 :
STOP .m      4228.6425781 :
STEP .m     0.00000000 :
NULL .        -999.250000 :
COMP.           : COMPANY
WELL.  15/9-19B   : WELL
FLD.            : FIELD
LOC.            : LOCATION
SRVC.           : SERVICE COMPANY
DATE.  2018-09-11 14:48:02   : Log Export Date {yyyy-MM-dd HH:mm:ss}
PROV.           : PROVINCE
UWI.   15/9-19 B   : UNIQUE WELL ID
API.            : API NUMBER
#==================================================================
~Curve
DEPT .m                   : DEPTH
Lithology_geolink ._      : Lithology_geolink
CALI .in                  : CALI
RHOB .g/cm3               : RHOB
GR .gAPI                  : GR
DTC .us/ft                : DTC
RDEP .ohm.m               : RDEP
RSHA .ohm.m               : RSHA
RMED .ohm.m               : RMED
~Parameter
#==================================================================
~Ascii
# ...
 3516.7822266 11.000000000 6.7196998596 2.5897998810 12.044314384 65.454658508 3.6784355640 3.1943888664 3.2268130779
 3516.9345703 11.000000000 6.7251000404 2.5671999454 11.429803848 64.679901123 3.8878614902 3.3748013973 3.4222319126
 3517.0871582 11.000000000 6.7315998077 2.5694999695 10.931131363 64.240882874 4.1761679649 3.6255221367 3.6920530796
 3517.2395020 11.000000000 6.7361001968 2.5992999077 9.8267078400 64.106628418 4.3434095383 3.7642095089 3.8498961926
 3517.3918457 11.000000000 6.7368998528 2.6048998833 8.4601612091 64.313377380 4.4733953476 3.8943128586 3.9717967510
 3517.5441895 11.000000000 6.7246999741 2.5690000057 8.2505016327 64.614044189 4.2203998566 3.6524198055 3.7199149132
 3517.6967773 11.000000000 6.6979002953 2.5485999584 9.0652866364 65.082817078 3.7848508358 3.2290844917 3.2936301231
 3517.8491211 11.000000000 6.6789994240 2.5722000599 10.214541435 65.649711609 3.9254579544 3.3801562786 3.4277501106
 3518.0014648 11.000000000 6.6711997986 2.5797998905 10.614799500 66.155448914 4.0235824585 3.4771904945 3.5209958553
 3518.1538086 11.000000000 6.6668000221 2.5766999722 10.865030289 66.558273315 3.8256485462 3.2842893600 3.3313608170
 3518.3063965 11.000000000 6.6696000099 2.5838999748 11.760388374 66.604637146 3.7311615944 3.2150709629 3.2443728447
 3518.4587402 11.000000000 6.6781001091 2.5908999443 12.971965790 66.397743225 3.6570730209 3.1438565254 3.1737515926
 3518.6110840 11.000000000 6.6834998131 2.5971999168 13.322011948 65.989669800 3.7652511597 3.2417089939 3.2685213089
 3518.7634277 11.000000000 6.6900000572 2.6033000946 12.082172394 65.534576416 3.9844415188 3.4344868660 3.4691202641
 3518.9160156 11.000000000 6.6955995560 2.6022000313 11.379673958 64.895004272 4.1978931427 3.6137220860 3.6692569256
 3519.0683594 11.000000000 6.7049999237 2.6057000160 11.306975365 64.208435059 4.4141058922 3.8076760769 3.8740928173
 3519.2207031 11.000000000 6.7202997208 2.6150999069 9.9194326401 63.481487274 4.5429921150 3.9178659916 3.9947905540
 3519.3730469 11.000000000 6.7220001221 2.6224999428 9.1937236786 63.097976685 4.8497571945 4.2084469795 4.3006644249
 3519.5253906 11.000000000 6.7171998024 2.6285998821 10.018887520 63.023624420 4.9474430084 4.2995495796 4.4030432701
 3519.6779785 11.000000000 6.6991000175 2.6126999855 10.384101868 63.476066589 4.7877717018 4.1440167427 4.2436351776
 3519.8303223 11.000000000 6.6736001968 2.6098999977 10.104407310 63.932933807 4.9344677925 4.3049678802 4.3791480064
 3519.9826660 11.000000000 6.6641001701 2.6092000008 10.108959198 64.141983032 4.8516788483 4.2222981453 4.2839884758
 3520.1350098 11.000000000 6.6659002304 2.6092000008 9.8968458176 64.070617676 4.5271286964 3.9099690914 3.9651422501
 3520.2875977 11.000000000 6.6746997833 2.6015000343 10.051343918 63.956302643 4.5458993912 3.9540324211 3.9923005104
 3520.4399414 11.000000000 6.6876997948 2.5978000164 10.500309944 63.832332611 4.8263030052 4.2447967529 4.2731046677
 3520.5922852 11.000000000 6.6965999603 2.6057999134 9.9443912506 63.478519440 5.0146937370 4.4292774200 4.4626903534
 3520.7446289 11.000000000 6.7195000648 2.5968999863 8.9424552917 63.115825653 4.8237257004 4.2281055450 4.2696180344
 3520.8972168 11.000000000 6.7305002213 2.6047000885 9.0396165848 62.693794250 4.5910024643 3.9827954769 4.0319943428
 3521.0495605 11.000000000 6.7252001762 2.6036000252 9.1060247421 62.504901886 4.7167892456 4.1063899994 4.1552906036
 3521.2019043 11.000000000 6.7189002037 2.5885000229 8.4979209900 62.443206787 4.9594802856 4.3496751785 4.3988857269
 3521.3542480 11.000000000 6.6977000237 2.6159000397 8.2007284164 62.448482513 5.1965107918 4.5834941864 4.6392006874
 3521.5065918 11.000000000 6.6666002274 2.6196999550 8.7190599442 62.437568665 5.2031483650 4.5798110962 4.6394314766
 3521.6591797 11.000000000 6.6449999809 2.6110999584 10.063518524 62.417552948 5.1091251373 4.4623942375 4.5350332260
 3521.8115234 11.000000000 6.6368999481 2.6192998886 9.7257776260 62.434413910 5.2105860710 4.5541753769 4.6389770508
 3521.9638672 11.000000000 6.6356000900 2.6303999424 9.1514701843 62.755004883 5.2640566826 4.6009092331 4.6868271828
 3522.1162109 11.000000000 6.6282000542 2.6256000996 9.1950855255 63.068412781 5.1122202873 4.4193863869 4.5167012215
 3522.2687988 11.000000000 6.6267995834 2.6203999519 8.8141336441 63.388854980 4.9382505417 4.2243747711 4.3309760094
 3522.4211426 11.000000000 6.6403999329 2.6163001060 9.2921056747 63.654460907 5.0782890320 4.3720374107 4.4788784981
 3522.5734863 11.000000000 6.6437001228 2.6194999218 9.5443496704 63.943180084 4.8836827278 4.2076225281 4.2777843475
 3522.7258301 11.000000000 6.6535000801 2.6122999191 9.3265075684 64.304595947 4.3739466667 3.7227828503 3.7689657211
 3522.8784180 11.000000000 6.6704993248 2.5892999172 9.3948040009 64.615699768 3.9667878151 3.3380990028 3.3737485409
 3523.0307617 11.000000000 6.6777000427 2.5926001072 9.7698869705 64.895408630 3.9320342541 3.3068394661 3.3579325676
 3523.1831055 11.000000000 6.6820006371 2.5927000046 9.8860559464 65.022323608 4.0783457756 3.4562189579 3.5031478405
 3523.3354492 11.000000000 6.6739993095 2.5952000618 9.5470075607 64.974510193 4.2937779427 3.6549518108 3.7198545933
 3523.4877930 11.000000000 6.6517000198 2.6094999313 9.4900999069 64.917800903 4.2793188095 3.6243631840 3.6910614967
 3523.6403809 11.000000000 6.6377000809 2.6161000729 10.114731789 64.917411804 3.8546786308 3.2275278568 3.2933382988
 3523.7927246 11.000000000 6.6171998978 2.6138999462 10.685649872 64.887535095 3.8489682674 3.2059435844 3.3062493801
 3523.9450684 11.000000000 6.6026000977 2.5971000195 10.840813637 64.657630920 4.4527115822 3.7943804264 3.8982062340
 3524.0974121 11.000000000 6.5963001251 2.5929000378 10.661467552 64.177658081 4.7717151642 4.0939459801 4.2139139175
 3524.2500000 11.000000000 6.5938000679 2.5926001072 10.139431000 63.591800690 4.9685969353 4.2475891113 4.4098958969
 3524.4023438 11.000000000 6.6008000374 2.6117999554 9.0899085999 63.279842377 5.1543231010 4.3998336792 4.5953149796
 3524.5546875 11.000000000 6.6180000305 2.6094999313 9.0962677002 63.244159698 5.0441775322 4.2962756157 4.4800796509
 3524.7070313 11.000000000 6.6331000328 2.5968000889 9.7611904144 63.467636108 5.0302715302 4.2812066078 4.4672636986
 3524.8596191 11.000000000 6.6357002258 2.6040000916 9.4453573227 63.928646088 5.0114388466 4.2844271660 4.4436326027
 3525.0119629 11.000000000 6.6419000626 2.6034998894 9.8682794571 64.567085266 4.6803579330 3.9809243679 4.1106882095
 3525.1643066 11.000000000 6.6387000084 2.5934000015 9.9170570374 65.303718567 4.3421640396 3.6841735840 3.7914836407
 3525.3166504 11.000000000 6.6312999725 2.5940001011 9.7034578323 65.938812256 4.0079236031 3.4181380272 3.4694447517
 3525.4689941 11.000000000 6.6350002289 2.5950000286 10.051603317 66.258903503 3.8355958462 3.2549142838 3.3102755547
 3525.6215820 11.000000000 6.6377000809 2.5940001011 10.553962708 66.257728577 3.8322558403 3.2629630566 3.2943077087
 3525.7739258 11.000000000 6.6153998375 2.5952999592 11.258889198 66.016799927 3.6009490490 3.0027163029 3.0790245533
 3525.9262695 11.000000000 6.5998997688 2.5901999474 11.188343048 65.640754700 3.8811852932 3.2625262737 3.3441445827
 3526.0783691 11.000000000 6.5949001312 2.5969889164 10.280699730 65.236602783 4.2459001541 3.5903999805 3.6833999157
 3526.2307129 11.000000000 6.5971999168 2.6064693928 9.5899000168 64.977401733 4.1343998909 3.4841001034 3.5720999241
 3526.3833008 11.000000000 6.5960998535 2.5951182842 9.3095998764 64.803596497 4.0882000923 3.4289000034 3.5227999687
 3526.5356445 11.000000000 6.5917000771 2.5909066200 9.5817003250 64.529296875 4.2154998779 3.4972000122 3.6359999180
 3526.6879883 11.000000000 6.5911002159 2.5927968025 8.9715003967 64.085502625 4.3884000778 3.6512000561 3.7985999584
 3526.8403320 11.000000000 6.6034002304 2.5966875553 9.0577001572 63.715198517 4.8836002350 4.1203999519 4.3035998344
 3526.9929199 11.000000000 6.6311001778 2.6040999889 9.2222995758 63.420898438 5.5177998543 4.7164998055 4.9140000343
