# LAS format log file from PETREL
# Project units are specified as depth units
#==================================================================
~Version information
VERS.   2.0:
WRAP.   NO:
#==================================================================
~Well
STRT .m      1517.9528809 :
STOP .m      3212.6408691 :
STEP .m     0.00000000 :
NULL .        -999.250000 :
COMP.           : COMPANY
WELL.  15/9-23   : WELL
FLD.            : FIELD
LOC.            : LOCATION
SRVC.           : SERVICE COMPANY
DATE.  2018-09-11 14:48:03   : Log Export Date {yyyy-MM-dd HH:mm:ss}
PROV.           : PROVINCE
UWI.   15/9-23   : UNIQUE WELL ID
API.            : API NUMBER
#==================================================================
~Curve
DEPT .m                   : DEPTH
Lithology_geolink ._      : Lithology_geolink
DCAL .in                  : DCAL
CALI .in                  : CALI
BS .in                    : BS
ROP .m/h                  : ROP
DRHO .g/cm3               : DRHO
NPHI .m3/m3               : NPHI
RHOB .g/cm3               : RHOB
PEF .b/e                  : PEF
GR .gAPI                  : GR
DTC .us/ft                : DTC
DTS .us/ft                : DTS
RDEP .ohm.m               : RDEP
RMED .ohm.m               : RMED
~Parameter
#==================================================================
~Ascii
# ...
 2980.0783691 7.0000000000 0.2279997021 12.477999687 12.250000954 38.724411011 0.0489000008 0.3188000023 2.4388999939 6.3811998367 163.23179626 140.54080200 250.16889954 1.3775999546 1.3809000254
 2980.2307129 6.0000000000 0.2482995987 12.498299599 12.250000954 41.761802673 0.0522000007 0.3233999908 2.4509999752 6.5325999260 171.11869812 140.68980408 250.29391479 1.4041999578 1.4196000099
 2980.3833008 6.0000000000 0.2052001655 12.455200195 12.250000954 39.287284851 0.0603000000 0.3413999975 2.4665999413 6.8262000084 168.84719849 140.83880615 250.41888428 1.4064999819 1.4495999813
 2980.5356445 6.0000000000 0.1667995006 12.416799545 12.250000954 34.987110138 0.0476000011 0.3298000097 2.4463000298 6.4636998177 195.48750305 140.98779297 250.54379272 1.3734999895 1.4605000019
 2980.6879883 6.0000000000 0.2133999169 12.463398933 12.250000954 36.939594269 0.0425000004 0.3197000027 2.4372000694 6.3375000954 183.97230530 141.13690186 250.66879272 1.3615000248 1.4309999943
 2980.8403320 6.0000000000 0.2192000896 12.469200134 12.250000954 40.029201508 0.0491999984 0.3172999918 2.4416999817 6.4464998245 165.74299622 141.28590393 250.79379272 1.3661999702 1.4103000164
 2980.9929199 6.0000000000 0.2107000053 12.460699081 12.250000954 43.307296753 0.0511999987 0.3379999995 2.4412999153 6.2188000679 153.68440247 141.43490601 250.91868591 1.3645000458 1.3983999491
 2981.1452637 6.0000000000 0.1722002029 12.422200203 12.250000954 45.556503296 0.0461999997 0.3328000009 2.4456000328 6.2757000923 156.04020691 141.58389282 251.04373169 1.3423000574 1.3625999689
 2981.2976074 6.0000000000 0.2244997025 12.474499702 12.250000954 40.442909241 0.0425999984 0.3334999979 2.4470999241 6.1751999855 159.39770508 141.73289490 251.16870117 1.2768000364 1.2922999859
 2981.4499512 6.0000000000 0.2251996994 12.475200653 12.250000954 38.282699585 0.0489999987 0.3513999879 2.4512000084 6.1247000694 164.60049438 141.88189697 251.29359436 1.2361999750 1.2602000237
 2981.6025391 6.0000000000 0.1982001960 12.448200226 12.250000954 36.583984375 0.0480000004 0.3524999917 2.4597001076 6.3477001190 160.53750610 142.03089905 251.41859436 1.3142000437 1.3776999712
 2981.7548828 6.0000000000 0.1809997857 12.431000710 12.250000954 35.536602020 0.0456999987 0.3181999922 2.4565999508 6.3319997787 168.35069275 142.17999268 251.54357910 1.4264999628 1.4617999792
 2981.9072266 6.0000000000 0.2117996067 12.461799622 12.250000954 37.919010162 0.0465999991 0.3052999973 2.4461998940 6.1297001839 158.08169556 142.32899475 251.66850281 1.4651999474 1.5185999870
 2982.0595703 6.0000000000 0.1865997016 12.436600685 12.250000954 42.748989105 0.0449000001 0.3043999970 2.4458000660 6.0430998802 159.71859741 142.47799683 251.79350281 1.4948999882 1.5479999781
 2982.2119141 6.0000000000 0.2471999973 12.497201920 12.250000954 48.255512238 0.0529000014 0.2940999866 2.4756000042 6.0901999474 178.99740601 142.62699890 251.91850281 1.4644000530 1.4629000425
 2982.3645020 6.0000000000 0.2391995937 12.489199638 12.250000954 44.937793732 0.0518999994 0.2879000008 2.4695999622 6.2300000191 177.07960510 142.77600098 252.04338074 1.3953000307 1.4144999981
 2982.5168457 6.0000000000 0.2110995948 12.461099625 12.250000954 40.913696289 0.0458000004 0.2917000055 2.4558999538 6.2488999367 188.72619629 142.92500305 252.16839600 1.4041999578 1.4380999804
 2982.6691895 6.0000000000 0.2284001857 12.478400230 12.250000954 39.097488403 0.0408000015 0.2764999866 2.4400000572 6.1480998993 158.21589661 143.07409668 252.29339600 1.4023000002 1.4492000341
 2982.8215332 6.0000000000 0.2150002122 12.465000153 12.250000954 39.761314392 0.0496000014 0.2707000077 2.4412999153 6.2911000252 149.21859741 143.22309875 252.41838074 1.4811999798 1.4680999517
 2982.9741211 6.0000000000 0.1341000050 12.384100914 12.250000954 41.051593781 0.0450999998 0.2320999950 2.4463000298 6.1767001152 152.47489929 143.37210083 252.54330444 1.6485999823 1.6065000296
 2983.1264648 6.0000000000 0.1178999022 12.367900848 12.250000954 37.416698456 0.0359000005 0.2320999950 2.4419999123 6.1413998604 154.98269653 143.52110291 252.66828918 1.7648999691 1.7382999659
 2983.2788086 6.0000000000 0.1202002019 12.370200157 12.250000954 36.201309204 0.0337000005 0.2782999873 2.4467999935 5.8818001747 158.01440430 143.67010498 252.79328918 1.7051999569 1.7898000479
 2983.4311523 6.0000000000 0.1519003063 12.401899338 12.250000954 34.865188599 0.0331999995 0.2806000113 2.4475998878 5.7476000786 159.79310608 143.81910706 252.91821289 1.5683000088 1.6441999674
 2983.5837402 6.0000000000 0.1825999916 12.432600975 12.250000954 34.739398956 0.0313000008 0.3231000006 2.4402999878 5.8228001595 156.34199524 143.96820068 253.04319763 1.5297000408 1.6001000404
 2983.7360840 6.0000000000 0.1601676792 12.410170555 12.250000954 32.626186371 0.0313557908 0.3032999933 2.4402968884 5.8229608536 152.31550598 144.11720276 253.16819763 1.4603999853 1.5678999424
 2983.8884277 6.0000000000 0.1377343982 12.387730598 12.250000954 33.095489502 0.0314115807 0.3005000055 2.4402930737 5.8231220245 151.73179626 144.26620483 253.29309082 1.3918999434 1.4566999674
 2984.0407715 6.0000000000 0.1153021008 12.365300179 12.250000954 38.367095947 0.0314673707 0.3228000104 2.4402899742 5.8232831955 144.73429871 144.41520691 253.41812134 1.3243000507 1.3689999580
 2984.1931152 6.0000000000 0.0928697661 12.342869759 12.250000954 41.210208893 0.0315231606 0.3142000139 2.4402859211 5.8234438896 150.48229980 144.56419373 253.54310608 1.3036999702 1.3509000540
 2984.3457031 6.0000000000 0.0704364777 12.320441246 12.250000954 41.458015442 0.0315789506 0.2865999937 2.4402830601 5.8236050606 144.84480286 144.71319580 253.66799927 1.2621999979 1.2855999470
 2984.4980469 6.0000000000 0.0480041504 12.298000336 12.250000954 42.705894470 0.0316347405 0.3034000099 2.4402790070 5.8237662315 150.21580505 144.86230469 253.79299927 1.1841000319 1.2342000008
 2984.6503906 6.0000000000 0.0255718194 12.275569916 12.250000954 42.816902161 0.0316905305 0.3386000097 2.4402759075 5.8239269257 148.29269409 145.01130676 253.91801453 1.2626999617 1.2958999872
 2984.8027344 6.0000000000 0.0031385417 12.253140450 12.250000954 38.471397400 0.0317463204 0.3345000148 2.4402730465 5.8240880966 152.32699585 145.16029358 254.04299927 1.3322999477 1.3578000069
 2984.9553223 6.0000000000 -0.019293791 12.230710030 12.250000954 36.134799957 0.0318021104 0.3027999997 2.4402689934 5.8242487907 141.54710388 145.30929565 254.16789246 1.3637000322 1.4112000465
 2985.1076660 6.0000000000 -0.041726105 12.208270073 12.250000954 36.411499023 0.0318579003 0.2899000049 2.4402658939 5.8244099617 143.76710510 145.45829773 254.29289246 1.4168000221 1.5042999983
 2985.2600098 6.0000000000 -0.064158440 12.185839653 12.250000954 35.401695251 0.0319136903 0.2951000035 2.4402620792 5.8245711327 150.75599670 145.60729980 254.41787720 1.4800000191 1.5607999563
 2985.4123535 6.0000000000 -0.086591721 12.163411140 12.250000954 32.472599030 0.0319694690 0.2978000045 2.4402589798 5.8247318268 152.90730286 145.75639343 254.54280090 1.4843000174 1.5492000580
 2985.5649414 6.0000000000 -0.109024003 12.140978813 12.250000954 30.663888931 0.0320252553 0.3337000012 2.4402549267 5.8248929977 158.55870056 145.90539551 254.66780090 1.4831000566 1.5473999977
 2985.7172852 6.0000000000 -0.131456405 12.118539810 12.250000954 32.557792664 0.0320810452 0.3413000107 2.4402520657 5.8250541687 160.55870056 146.05439758 254.79280090 1.4345999956 1.4953000546
 2985.8696289 6.0000000000 -0.153889701 12.096110344 12.250000954 38.252307892 0.0321368352 0.3156999946 2.4402489662 5.8252139091 158.15179443 146.20339966 254.91769409 1.3712999821 1.4222999811
 2986.0219727 6.0000000000 -0.176321998 12.073679924 12.250000954 35.612709045 0.0321926251 0.3091000021 2.4402449131 5.8253760338 165.05850220 146.35240173 255.04270935 1.3494000435 1.4079999924
 2986.1743164 6.0000000000 -0.198754281 12.051252365 12.250000954 31.733304977 0.0322484151 0.3535000086 2.4402420521 5.8255357742 173.40109253 146.50140381 255.16769409 1.3643000126 1.4095000029
