# LAS format log file from PETREL
# Project units are specified as depth units
#==================================================================
~Version information
VERS.   2.0:
WRAP.   NO:
#==================================================================
~Well
STRT .m      489.99996948 :
STOP .m      1530.0000000 :
STEP .m     0.00000000 :
NULL .        -999.250000 :
COMP.           : COMPANY
WELL.  15/9-22   : WELL
FLD.            : FIELD
LOC.            : LOCATION
SRVC.           : SERVICE COMPANY
DATE.  2018-09-11 14:48:02   : Log Export Date {yyyy-MM-dd HH:mm:ss}
PROV.           : PROVINCE
UWI.   15/9-22   : UNIQUE WELL ID
API.            : API NUMBER
#==================================================================
~Curve
DEPT .m                   : DEPTH
Lithology_geolink ._      : Lithology_geolink
BS .in                    : BS
GR .gAPI                  : GR
RDEP .ohm.m               : RDEP
RMED .ohm.m               : RMED
~Parameter
#==================================================================
~Ascii
# ...
 1520.2000732  -999.250000 17.500000000 139.34800720 1.0140000582 0.8590000272
 1520.3000488  -999.250000 17.500000000 135.53199768 1.0060000420 0.8640000224
 1520.4000244  -999.250000 17.500000000 133.83700562 1.0079890490 0.8360195756
 1520.5001221  -999.250000 17.500000000 133.48899841 0.9990195036 0.8520243764
 1520.5999756  -999.250000 17.500000000 133.95643616 1.0069999695 0.8619999886
 1520.6999512  -999.250000 17.500000000 135.02270508 1.0249999762 0.8920000196
 1520.7999268  -999.250000 17.500000000 135.62252808 1.0049999952 0.8379999995
 1520.9000244  -999.250000 17.500000000 134.31060791 1.0329999924 0.8299999833
 1521.0000000  -999.250000 17.500000000 130.66145325 1.0130000114 0.8240000010
 1521.0999756  -999.250000 17.500000000 125.99700165 1.0369999409 0.8119999766
 1521.2000732  -999.250000 17.500000000 121.55899811 1.0260000229 0.8159999847
 1521.3000488  -999.250000 17.500000000 118.50099945 1.0199999809 0.8619999886
 1521.4000244  -999.250000 17.500000000 117.63400269 1.0060000420 0.8629999757
 1521.5000000  -999.250000 17.500000000 117.61399841 1.0219938755 0.8749902248
 1521.6000977  -999.250000 17.500000000 117.64199829 1.0170048475 0.8670133948
 1521.6999512  -999.250000 17.500000000 118.89546967 1.0210000277 0.8780000210
 1521.7999268  -999.250000 17.500000000 121.53977203 1.0140000582 0.8799999952
 1521.8999023  -999.250000 17.500000000 124.31821442 0.9990000129 0.8690000176
 1522.0000000  -999.250000 17.500000000 125.53852081 0.9980000257 0.8590000272
 1522.0999756  -999.250000 17.500000000 124.50426483 1.0069999695 0.8679999709
 1522.1999512  -999.250000 17.500000000 122.07094574 1.0149999857 0.8750000000
 1522.3000488  -999.250000 17.500000000 119.01999664 1.0230000019 0.8679999709
 1522.4000244  -999.250000 17.500000000 117.46299744 1.0290000439 0.8899999857
 1522.5000000  -999.250000 17.500000000 118.78700256 1.0260000229 0.8980000019
 1522.6000977  -999.250000 17.500000000 122.45700073 1.0440000296 0.9240000248
 1522.7000732  -999.250000 17.500000000 126.91999817 1.0410146713 0.9230146408
 1522.8000488  -999.250000 17.500000000 130.48699951 1.0530146360 0.9350048900
 1522.8999023  -999.250000 17.500000000 131.70352173 1.0650000572 0.9390000105
 1523.0000000  -999.250000 17.500000000 130.00708008 1.0809999704 0.9649999738
 1523.0999756  -999.250000 17.500000000 126.32350159 1.0789999962 0.9729999900
 1523.1999512  -999.250000 17.500000000 123.53939819 1.0900000334 0.9890000224
 1523.2999268  -999.250000 17.500000000 122.68607330 1.0920000076 0.9629999995
 1523.4000244  -999.250000 17.500000000 122.74292755 1.0950000286 0.9720000029
 1523.5000000  -999.250000 17.500000000 122.63099670 1.0989999771 0.9969999790
 1523.5999756  -999.250000 17.500000000 122.50399780 1.1039999723 0.9860000014
 1523.7000732  -999.250000 17.500000000 123.08999634 1.1089999676 0.9769999981
 1523.8000488  -999.250000 17.500000000 125.12300110 1.1160000563 1.0000000000
 1523.9000244  -999.250000 17.500000000 127.20600128 1.1050072908 0.9890134335
 1524.0001221  -999.250000 17.500000000 128.30599976 1.1109950542 0.9999756217
 1524.0999756  -999.250000 17.500000000 128.29801941 1.1089999676 0.9900000095
 1524.1999512  -999.250000 17.500000000 127.53193665 1.1000000238 0.9819999933
 1524.2999268  -999.250000 17.500000000 127.00463867 1.1080000401 0.9729999900
 1524.4000244  -999.250000 17.500000000 127.19976044 1.1059999466 0.9689999819
 1524.5000000  -999.250000 17.500000000 127.08713531 1.1019999981 0.9829999804
 1524.5999756  -999.250000 17.500000000 125.31999969 1.1080000401 0.9959999919
 1524.6999512  -999.250000 17.500000000 122.04000092 1.1169999838 0.9789999723
 1524.8000488  -999.250000 17.500000000 118.55100250 1.1289999485 0.9819999933
 1524.9000244  -999.250000 17.500000000 116.83799744 1.1280000210 0.9900000095
 1525.0000000  -999.250000 17.500000000 117.70400238 1.1319999695 1.0019999743
 1525.1000977  -999.250000 17.500000000 120.46099854 1.1310073137 0.9959633946
 1525.1999512  -999.250000 17.500000000 123.42038727 1.1339999437 0.9810000062
 1525.2999268  -999.250000 17.500000000 124.99807739 1.1310000420 0.9639999866
 1525.3999023  -999.250000 17.500000000 124.76058960 1.1510000229 0.9940000176
 1525.5000000  -999.250000 17.500000000 123.91603088 1.1840000153 1.0429999828
 1525.5999756  -999.250000 17.500000000 123.70725250 1.2020000219 1.0859999657
 1525.6999512  -999.250000 17.500000000 124.23072052 1.2139999866 1.1219999790
 1525.8000488  -999.250000 17.500000000 124.39299774 1.2159999609 1.0959999561
 1525.9000244  -999.250000 17.500000000 122.51399994 1.2050000429 1.0369999409
 1526.0000000  -999.250000 17.500000000 119.00299835 1.1870000362 1.0149999857
 1526.1000977  -999.250000 17.500000000 116.04699707 1.1740000248 1.0060000420
 1526.2000732  -999.250000 17.500000000 115.47100067  -999.250000  -999.250000
 1526.3000488  -999.250000 17.500000000 118.10800171  -999.250000  -999.250000
 1526.3999023  -999.250000 17.500000000 122.53459167  -999.250000  -999.250000
 1526.5000000  -999.250000 17.500000000 126.01676178  -999.250000  -999.250000
 1526.5999756  -999.250000 17.500000000 125.55656433  -999.250000  -999.250000
 1526.6999512  -999.250000 17.500000000 122.40884399  -999.250000  -999.250000
 1526.7999268  -999.250000 17.500000000 120.13954163  -999.250000  -999.250000
 1526.9000244  -999.250000 17.500000000 119.58068085  -999.250000  -999.250000
 1527.0000000  -999.250000 17.500000000 120.09500122  -999.250000  -999.250000
 1527.0999756  -999.250000 17.500000000 121.39700317  -999.250000  -999.250000
 1527.2000732  -999.250000 17.500000000 122.77300262  -999.250000  -999.250000
 1527.3000488  -999.250000 17.500000000 123.02200317  -999.250000  -999.250000
 1527.4000244  -999.250000 17.500000000 121.91999817  -999.250000  -999.250000
 1527.5001221  -999.250000 17.500000000 120.50499725  -999.250000  -999.250000
 1527.5999756  -999.250000 17.500000000 119.59111023  -999.250000  -999.250000
 1527.6999512  -999.250000 17.500000000 119.18149567  -999.250000  -999.250000
 1527.7999268  -999.250000 17.500000000 119.37875366  -999.250000  -999.250000
 1527.9000244  -999.250000 17.500000000 120.19699860  -999.250000  -999.250000
 1528.0000000  -999.250000 17.500000000 121.21775818  -999.250000  -999.250000
 1528.0999756  -999.250000 17.500000000 121.27593231  -999.250000  -999.250000
 1528.1999512  -999.250000 17.500000000 118.92099762  -999.250000  -999.250000
 1528.3000488  -999.250000 17.500000000  -999.250000  -999.250000  -999.250000
 1528.4000244  -999.250000 17.500000000  -999.250000  -999.250000  -999.250000
 1528.5000000  -999.250000 17.500000000  -999.250000  -999.250000  -999.250000
 1528.6000977  -999.250000 17.500000000  -999.250000  -999.250000  -999.250000
 1528.7000732  -999.250000 17.500000000  -999.250000  -999.250000  -999.250000
 1528.7999268  -999.250000 17.500000000  -999.250000  -999.250000  -999.250000
 1528.8999023  -999.250000 17.500000000  -999.250000  -999.250000  -999.250000
 1529.0000000  -999.250000 17.500000000  -999.250000  -999.250000  -999.250000
 1529.0999756  -999.250000 17.500000000  -999.250000  -999.250000  -999.250000
 1529.1999512  -999.250000 17.500000000  -999.250000  -999.250000  -999.250000
 1529.3000488  -999.250000 17.500000000  -999.250000  -999.250000  -999.250000
 1529.4000244  -999.250000 17.500000000  -999.250000  -999.250000  -999.250000
 1529.5000000  -999.250000 17.500000000  -999.250000  -999.250000  -999.250000
 1529.6000977  -999.250000 17.500000000  -999.250000  -999.250000  -999.250000
 1529.7000732  -999.250000 17.500000000  -999.250000  -999.250000  -999.250000
 1529.8000488  -999.250000 17.500000000  -999.250000  -999.250000  -999.250000
 1529.8999023  -999.250000 17.500000000  -999.250000  -999.250000  -999.250000
 1530.0000000  -999.250000 17.500000000  -999.250000  -999.250000  -999.250000
