# LAS format log file from PETREL
# Project units are specified as depth units
#==================================================================
~Version information
VERS.   2.0:
WRAP.   NO:
#==================================================================
~Well
STRT .m      3164.4333496 :
STOP .m      4228.6425781 :
STEP .m     0.00000000 :
NULL .        -999.250000 :
COMP.           : COMPANY
WELL.  15/9-19B   : WELL
FLD.            : FIELD
LOC.            : LOCATION
SRVC.           : SERVICE COMPANY
DATE.  2018-09-11 14:48:02   : Log Export Date {yyyy-MM-dd HH:mm:ss}
PROV.           : PROVINCE
UWI.   15/9-19 B   : UNIQUE WELL ID
API.            : API NUMBER
#==================================================================
~Curve
DEPT .m                   : DEPTH
Lithology_geolink ._      : Lithology_geolink
CALI .in                  : CALI
RHOB .g/cm3               : RHOB
GR .gAPI                  : GR
DTC .us/ft                : DTC
RDEP .ohm.m               : RDEP
RSHA .ohm.m               : RSHA
RMED .ohm.m               : RMED
~Parameter
#==================================================================
~Ascii
# ...
 3869.1308594 6.0000000000 6.3916001320 2.4321000576 128.65298462 106.01405334 1.3320542574 1.1862589121 1.2799410820
 3869.2832031 6.0000000000 6.4724001884 2.3601999283 126.39867401 106.48298645 1.5526022911 1.4096866846 1.4922009706
 3869.4357910 6.0000000000 6.5345997810 2.3466000557 123.57116699 106.28733063 1.4287538528 1.2762598991 1.3676047325
 3869.5881348 6.0000000000 6.5359992981 2.3691999912 120.36124420 105.82670593 1.2274436951 1.1079808474 1.1821616888
 3869.7404785 6.0000000000 6.4966001511 2.3996999264 124.56993103 105.20449066 1.1924533844 1.0960329771 1.1583437920
 3869.8928223 6.0000000000 6.4650998116 2.4296000004 127.45614624 103.88855743 1.2257221937 1.1166080236 1.1856144667
 3870.0454102 6.0000000000 6.4573998451 2.4365999699 128.35876465 102.24046326 1.2393364906 1.1214774847 1.1944789886
 3870.1977539 6.0000000000 6.4482002258 2.4472000599 128.65452576 101.07552338 1.1883645058 1.0832842588 1.1567825079
 3870.3500977 6.0000000000 6.4979000092 2.4779000282 127.34987640 100.15383911 1.1662224531 1.0735020638 1.1459113359
 3870.5024414 6.0000000000 6.5441999435 2.4981000423 121.53260040 99.800521851 1.1802328825 1.0748190880 1.1530226469
 3870.6547852 6.0000000000 6.5411000252 2.4728999138 114.49272919 99.500663757 1.2007387877 1.0867377520 1.1671304703
 3870.8073730 6.0000000000 6.5310997963 2.4625999928 113.89273071 100.04156494 1.2248190641 1.1102213860 1.1861189604
 3870.9597168 6.0000000000 6.5334000587 2.4670000076 115.84154510 100.76791382 1.1743403673 1.0612461567 1.1355479956
 3871.1120605 6.0000000000 6.5676999092 2.4577999115 114.80836487 101.46749878 1.1373093128 1.0277967453 1.1033161879
 3871.2644043 6.0000000000 6.5919995308 2.4621999264 114.78855133 102.02732849 1.2055940628 1.0882544518 1.1758767366
 3871.4169922 6.0000000000 6.5963997841 2.4512999058 116.57432556 101.92452240 1.3266485929 1.1845995188 1.2861033678
 3871.5693359 6.0000000000 6.6006999016 2.4488000870 119.67062378 101.96347809 1.3728046417 1.2155144215 1.3182011843
 3871.7216797 6.0000000000 6.5935006142 2.4595999718 122.48995209 102.07342529 1.3132961988 1.1621079445 1.2565032244
 3871.8740234 6.0000000000 6.5718994141 2.4639000893 124.02646637 102.21733093 1.2486474514 1.1048368216 1.1962488890
 3872.0266113 6.0000000000 6.5675001144 2.4632000923 129.44117737 102.36238098 1.2784438133 1.1280192137 1.2269572020
 3872.1789551 6.0000000000 6.6696000099 2.4514999390 133.45008850 103.16784668 1.3542069197 1.1961212158 1.3069142103
 3872.3312988 6.0000000000 6.7525000572 2.4616999626 130.82304382 103.94541931 1.2336524725 1.0844603777 1.1908518076
 3872.4836426 6.0000000000 6.7565999031 2.4560999870 130.28874207 104.58302307 1.0796843767 0.9353733659 1.0363876820
 3872.6362305 6.0000000000 6.6131000519 2.4521000385 129.37303162 104.71956635 1.1949926615 1.0437248945 1.1536600590
 3872.7885742 6.0000000000 6.4839000702 2.4614000320 127.24002838 103.99066925 1.3174034357 1.1449663639 1.2658833265
 3872.9409180 6.0000000000 6.4597001076 2.4607000351 129.87002563 103.16246796 1.3819112778 1.1862896681 1.3177981377
 3873.0932617 6.0000000000 6.4647002220 2.4449999332 128.51416016 103.58409119 1.3890918493 1.1798945665 1.3166987896
 3873.2456055 6.0000000000 6.4660000801 2.4296000004 124.00244904 104.19952393 1.4463949203 1.2388960123 1.3783980608
 3873.3981934 6.0000000000 6.4951000214 2.4286999702 123.22352600 105.02651978 1.5053546429 1.2985646725 1.4393377304
 3873.5505371 6.0000000000 6.5371999741 2.4395999908 124.13757324 105.56027222 1.4599134922 1.2562534809 1.3886175156
 3873.7028809 6.0000000000 6.5441999435 2.4512999058 125.67784119 105.04521942 1.3435670137 1.1649044752 1.2747739553
 3873.8552246 6.0000000000 6.4867000580 2.4521000385 126.64458466 104.42819977 1.2607115507 1.1054137945 1.1963155270
 3874.0078125 6.0000000000 6.4270000458 2.4446001053 130.31427002 103.73847961 1.2679898739 1.1140860319 1.2061052322
 3874.1601563 6.0000000000 6.4033999443 2.4468998909 132.48609924 103.35742950 1.2960504293 1.1409423351 1.2389550209
 3874.3125000 6.0000000000 6.4261999130 2.4632999897 132.24053955 103.05973816 1.3275837898 1.1673754454 1.2733758688
 3874.4648438 6.0000000000 6.4650998116 2.4653999805 131.63739014 102.58106232 1.3799315691 1.2145149708 1.3207123280
 3874.6174316 6.0000000000 6.4698004723 2.4688000679 130.25428772 101.61556244 1.4621566534 1.2862936258 1.3909057379
 3874.7697754 6.0000000000 6.4470005035 2.4435000420 129.74859619 100.66728210 1.5421628952 1.3466228247 1.4550410509
 3874.9221191 6.0000000000 6.4499998093 2.4581000805 128.18942261 99.842391968 1.5813878775 1.3607721329 1.4805866480
 3875.0744629 6.0000000000 6.4668002129 2.4607000351 129.45588684 99.277023315 1.5736509562 1.3432910442 1.4721781015
 3875.2268066 6.0000000000 6.4643998146 2.4256000519 129.07205200 99.416046143 1.4805905819 1.2752503157 1.3960230350
 3875.3793945 6.0000000000 6.4605994225 2.4340999126 125.74099731 100.25806427 1.3500593901 1.1819462776 1.2857526541
 3875.5317383 6.0000000000 6.4713001251 2.4651000500 124.77487946 101.87072754 1.3379634619 1.1656761169 1.2715137005
 3875.6840820 6.0000000000 6.5247998238 2.4746999741 125.07523346 104.00537872 1.6890614033 1.4623326063 1.5915316343
 3875.8364258 6.0000000000 6.5574002266 2.4609999657 124.40681458 105.55024719 1.7268983126 1.4823679924 1.6108196974
 3875.9890137 6.0000000000 6.5522999763 2.4398000240 121.92194366 105.95352936 1.4763901234 1.2753839493 1.3737503290
 3876.1413574 6.0000000000 6.5020999908 2.4412999153 120.09654999 105.86994934 1.4109189510 1.2391595840 1.3270521164
 3876.2937012 6.0000000000 6.4408998489 2.4597001076 120.18921661 106.09011078 1.3601951599 1.2138254642 1.2970145941
 3876.4460449 6.0000000000 6.4230999947 2.4835000038 119.58225250 106.84832764 1.2325328588 1.1050338745 1.1814281940
 3876.5986328 6.0000000000 6.5227994919 2.5004000664 123.05710602 107.05554199 1.1908677816 1.0639413595 1.1368430853
 3876.7509766 6.0000000000 6.6185002327 2.4746000767 127.79634094 107.44202423 1.2431617975 1.1080422401 1.1814558506
 3876.9033203 6.0000000000 6.6171998978 2.4430000782 129.25392151 106.95439911 1.2815771103 1.1342804432 1.2162857056
 3877.0556641 6.0000000000 6.5998997688 2.4151999950 128.89147949 106.57678223 1.2672133446 1.1220074892 1.2073272467
 3877.2080078 6.0000000000 6.5960998535 2.4158999920 129.38127136 105.38131714 1.2131588459 1.0643483400 1.1619477272
 3877.3605957 6.0000000000 6.5388998985 2.4226999283 130.17077637 104.45795441 1.1872260571 1.0318284035 1.1290559769
 3877.5129395 6.0000000000 6.4624996185 2.4258999825 129.81665039 104.03972626 1.1019548178 0.9161655903 1.0219689608
 3877.6652832 6.0000000000 6.4299001694 2.4439001083 129.78564453 104.36823273 1.1361498833 0.9570503235 1.0649566650
 3877.8176270 6.0000000000 6.4210000038 2.4493000507 128.37559509 105.07370758 1.1672385931 0.9884455204 1.1002469063
 3877.9702148 6.0000000000 6.4261999130 2.4393000603 127.75395966 105.51448822 1.1913502216 1.0168675184 1.1294608116
 3878.1225586 6.0000000000 6.4622001648 2.4391999245 130.82873535 105.63755798 1.2069576979 1.0378619432 1.1483533382
 3878.2749023 6.0000000000 6.4997000694 2.4481000900 132.91244507 106.23710632 1.1804943085 1.0140895844 1.1191754341
 3878.4272461 6.0000000000 6.5115995407 2.4477000237 131.81582642 106.36420441 1.1146098375 0.9453187585 1.0416157246
 3878.5798340 6.0000000000 6.4902997017 2.4526000023 129.45993042 105.74269867 1.1208457947 0.9570921659 1.0514882803
 3878.7321777 6.0000000000 6.4703998566 2.4618000984 128.41058350 104.33601379 1.1351330280 0.9858476520 1.0790482759
 3878.8845215 6.0000000000 6.4465999603 2.4519000053 127.89574432 102.03816223 1.1559377909 1.0157141685 1.1093302965
 3879.0368652 6.0000000000 6.4495000839 2.4523000717 128.35964966 100.20372009 1.3042993546 1.1493619680 1.2529652119
 3879.1892090 6.0000000000 6.4869999886 2.4625999928 126.26557922 98.157669067 1.4284675121 1.2502657175 1.3558557034
 3879.3417969 6.0000000000 6.5053000450 2.4635999203 123.51526642 96.574394226 1.4080512524 1.2287745476 1.3280546665
