# LAS format log file from PETREL
# Project units are specified as depth units
#==================================================================
~Version information
VERS.   2.0:
WRAP.   NO:
#==================================================================
~Well
STRT .m      489.99996948 :
STOP .m      1530.0000000 :
STEP .m     0.00000000 :
NULL .        -999.250000 :
COMP.           : COMPANY
WELL.  15/9-22   : WELL
FLD.            : FIELD
LOC.            : LOCATION
SRVC.           : SERVICE COMPANY
DATE.  2018-09-11 14:48:02   : Log Export Date {yyyy-MM-dd HH:mm:ss}
PROV.           : PROVINCE
UWI.   15/9-22   : UNIQUE WELL ID
API.            : API NUMBER
#==================================================================
~Curve
DEPT .m                   : DEPTH
Lithology_geolink ._      : Lithology_geolink
BS .in                    : BS
GR .gAPI                  : GR
RDEP .ohm.m               : RDEP
RMED .ohm.m               : RMED
~Parameter
#==================================================================
~Ascii
# ...
 1183.5999756  -999.250000 17.500000000 84.661460876 1.0970000029 0.9259999990
 1183.7000732  -999.250000 17.500000000 84.671997070 1.1200000048 0.9959999919
 1183.8000488  -999.250000 17.500000000 86.531997681 1.1580231190 1.0370109081
 1183.9000244  -999.250000 17.500000000 89.850997925 1.1770000458 1.0460000038
 1184.0000000  -999.250000 17.500000000 93.598999023 1.1770000458 1.0449999571
 1184.0999756  -999.250000 17.500000000 96.886985779 1.1840000153 1.0440000296
 1184.1999512  -999.250000 17.500000000 98.422134399 1.1749999523 1.0440000296
 1184.3000488  -999.250000 17.500000000 98.248001099 1.1729999781 1.0399999619
 1184.4000244  -999.250000 17.500000000 96.740997314 1.1799987555 1.0369987488
 1184.5000000  -999.250000 17.500000000 94.874000549 1.1790000200 1.0360000134
 1184.5999756  -999.250000 17.500000000 92.230224609 1.1779999733 1.0349999666
 1184.6999512  -999.250000 17.500000000 89.162742615 1.1529999971 1.0279999971
 1184.8000488  -999.250000 17.500000000 88.237998962 1.1619999409 1.0140000582
 1184.9000244  -999.250000 17.500000000 90.508003235 1.1770073175 0.9980280995
 1185.0000000  -999.250000 17.500000000 93.847999573 1.1829999685 1.0210000277
 1185.0999756  -999.250000 17.500000000 96.994155884 1.1690000296 1.0490000248
 1185.1999512  -999.250000 17.500000000 98.458213806 1.2139999866 0.9789999723
 1185.3000488  -999.250000 17.500000000 97.322998047 1.1940000057 0.9969999790
 1185.4000244  -999.250000 17.500000000 94.948997498 1.1540000439 1.0319999456
 1185.5000000  -999.250000 17.500000000 93.827003479 1.1369999647 1.0180000067
 1185.5999756  -999.250000 17.500000000 94.508003235 1.1260000467 0.9900000095
 1185.6999512  -999.250000 17.500000000 95.876327515 1.1280000210 0.9760000110
 1185.7999268  -999.250000 17.500000000 96.990638733 1.1160000563 0.9610000253
 1185.9000244  -999.250000 17.500000000 97.167999268 1.1239999533 0.9739999771
 1186.0000000  -999.250000 17.500000000 96.418914795 1.1200000048 0.9840000272
 1186.0999756  -999.250000 17.500000000 95.219001770 1.1260000467 1.0010000467
 1186.2000732  -999.250000 17.500000000 93.884002686 1.1280049086 1.0100085735
 1186.2999268  -999.250000 17.500000000 93.166877747 1.1319999695 1.0169999599
 1186.4000244  -999.250000 17.500000000 93.621002197 1.1239999533 1.0269999504
 1186.5000000  -999.250000 17.500000000 96.909988403 1.1399999857 1.0230000019
 1186.5999756  -999.250000 17.500000000 103.12340546 1.1410000324 1.0180000067
 1186.7000732  -999.250000 17.500000000 108.04399872 1.1339864731 1.0260086060
 1186.8000488  -999.250000 17.500000000 108.37300110 1.1229902506 1.0329878330
 1186.9000244  -999.250000 17.500000000 106.42400360 1.1150000095 1.0230000019
 1187.0000000  -999.250000 17.500000000 104.64800262 1.1100000143 1.0119999647
 1187.0999756  -999.250000 17.500000000 103.71913910 1.1109999418 0.9929999709
 1187.1999512  -999.250000 17.500000000 103.71199799 1.1050000191 1.0049999952
 1187.3000488  -999.250000 17.500000000 105.37699890 1.0899914503 1.0069950819
 1187.4000244  -999.250000 17.500000000 108.63800049 1.0830036402 1.0030049086
 1187.5000000  -999.250000 17.500000000 112.01399994 1.0859999657 1.0069999695
 1187.5999756  -999.250000 17.500000000 113.30242920 1.0839999914 1.0039999485
 1187.6999512  -999.250000 17.500000000 113.71349335 1.0889999866 1.0019999743
 1187.8000488  -999.250000 17.500000000 113.17800140 1.0909999609 1.0279999971
 1187.9000244  -999.250000 17.500000000 111.46600342 1.0879939795 1.0529975891
 1188.0000000  -999.250000 17.500000000 108.01399994 1.0829999447 1.0509999990
 1188.0999756  -999.250000 17.500000000 102.81834412 1.0770000219 1.0540000200
 1188.1999512  -999.250000 17.500000000 96.890243530 1.0859999657 1.0349999666
 1188.3000488  -999.250000 17.500000000 92.927001953 1.0820000172 1.0080000162
 1188.4000244  -999.250000 17.500000000 92.160003662 1.0740000010 1.0149999857
 1188.5000000  -999.250000 17.500000000 95.050003052 1.0729999542 1.0249999762
 1188.5999756  -999.250000 17.500000000 100.24266052 1.0620000362 1.0379999876
 1188.6999512  -999.250000 17.500000000 105.12803650 1.0670000315 1.0449999571
 1188.8000488  -999.250000 17.500000000 107.79799652 1.0629999638 1.0460000038
 1188.9000244  -999.250000 17.500000000 108.84799957 1.0559999943 1.0210000277
 1189.0000000  -999.250000 17.500000000 108.99800110 1.0460000038 1.0000000000
 1189.0999756  -999.250000 17.500000000 106.90499878 1.0479999781 0.9710000157
 1189.1999512  -999.250000 17.500000000 101.74330139 1.0210000277 0.9559999704
 1189.2999268  -999.250000 17.500000000 96.926879883 1.0310000181 0.9390000105
 1189.4000244  -999.250000 17.500000000 94.235000610 1.0219999552 0.9359999895
 1189.5000000  -999.250000 17.500000000 93.020477295 1.0230000019 0.9599999785
 1189.5999756  -999.250000 17.500000000 91.769996643 1.0299999714 0.9700000286
 1189.7000732  -999.250000 17.500000000 90.753997803 1.0510256290 0.9870659113
 1189.7999268  -999.250000 17.500000000 90.583206177 1.0720000267 1.0410000086
 1189.9000244  -999.250000 17.500000000 91.151000977 1.0909999609 1.0789999962
 1190.0000000  -999.250000 17.500000000 92.795989990 1.0770000219 1.0889999866
 1190.0999756  -999.250000 17.500000000 96.058013916 1.0770000219 1.0959999561
 1190.2000732  -999.250000 17.500000000 100.19499969 1.0879976749 1.0589658022
 1190.3000488  -999.250000 17.500000000 103.85399628 1.0859938860 1.0309804678
 1190.4000244  -999.250000 17.500000000 106.74500275 1.0809999704 1.0149999857
 1190.5000000  -999.250000 17.500000000 110.17299652 1.0820000172 1.0060000420
 1190.5999756  -999.250000 17.500000000 113.65674591 1.0640000105 1.0080000162
 1190.6999512  -999.250000 17.500000000 115.12421417 1.0429999828 1.0169999599
 1190.8000488  -999.250000 17.500000000 113.66699982 1.0420098305 0.9979389906
 1190.9000244  -999.250000 17.500000000 110.91799927 1.0499864817 0.9479902387
 1191.0000000  -999.250000 17.500000000 107.19699860 1.0390000343 0.9399999976
 1191.0999756  -999.250000 17.500000000 101.73366547 1.0349999666 0.9359999895
 1191.1999512  -999.250000 17.500000000 94.390968323 1.0310000181 0.9369999766
 1191.3000488  -999.250000 17.500000000 87.878997803 1.0360000134 0.9480000138
 1191.4000244  -999.250000 17.500000000 84.529998779 1.0430293083 0.9550280571
 1191.5000000  -999.250000 17.500000000 82.833999634 1.0670000315 0.9779999852
 1191.5999756  -999.250000 17.500000000 82.415512085 1.0870000124 1.0219999552
 1191.6999512  -999.250000 17.500000000 85.059768677 1.0959999561 1.0440000296
 1191.8000488  -999.250000 17.500000000 91.350997925 1.1059999466 1.0590000153
 1191.9000244  -999.250000 17.500000000 98.412002563 1.1050000191 1.0709999800
 1192.0000000  -999.250000 17.500000000 103.65000153 1.1160000563 1.0609999895
 1192.0999756  -999.250000 17.500000000 105.20709991 1.1260000467 1.0540000200
 1192.1999512  -999.250000 17.500000000 103.59297943 1.1250000000 1.0349999666
 1192.3000488  -999.250000 17.500000000 101.69200134 1.1260000467 1.0379999876
 1192.4000244  -999.250000 17.500000000 100.68399811 1.1180000305 1.0520000458
 1192.5000000  -999.250000 17.500000000 99.785003662 1.1169999838 1.0429999828
 1192.5999756  -999.250000 17.500000000 97.599998474 1.1230000257 1.0379999876
 1192.6999512  -999.250000 17.500000000 94.290046692 1.1250000000 1.0349999666
 1192.7999268  -999.250000 17.500000000 90.367790222 1.1319999695 1.0290000439
 1192.9000244  -999.250000 17.500000000 87.695999146 1.1330000162 1.0180000067
 1193.0000000  -999.250000 17.500000000 86.851028442 1.1360000372 1.0240000486
 1193.0999756  -999.250000 17.500000000 87.142997742 1.1460000277 1.0440000296
 1193.2000732  -999.250000 17.500000000 87.585998535 1.1640183926 1.0770061016
 1193.2999268  -999.250000 17.500000000 88.132331848 1.1790000200 1.0820000172
 1193.4000244  -999.250000 17.500000000 88.797996521 1.1979999542 1.1059999466
 1193.5000000  -999.250000 17.500000000 89.120605469 1.2100000381 1.1200000048
 1193.5999756  -999.250000 17.500000000 88.744461060 1.2159999609 1.1219999790
 1193.7000732  -999.250000 17.500000000 88.356002808 1.2150086164 1.1110085249
