# LAS format log file from PETREL
# Project units are specified as depth units
#==================================================================
~Version information
VERS.   2.0:
WRAP.   NO:
#==================================================================
~Well
STRT .m      472.33206177 :
STOP .m      3119.8261719 :
STEP .m     0.00000000 :
NULL .        -999.250000 :
COMP.           : COMPANY
WELL.  15/9-17   : WELL
FLD.            : FIELD
LOC.            : LOCATION
SRVC.           : SERVICE COMPANY
DATE.  2018-09-11 14:48:01   : Log Export Date {yyyy-MM-dd HH:mm:ss}
PROV.           : PROVINCE
UWI.   15/9-17   : UNIQUE WELL ID
API.            : API NUMBER
#==================================================================
~Curve
DEPT .m                   : DEPTH
Lithology_geolink ._      : Lithology_geolink
DCAL .in                  : DCAL
CALI .in                  : CALI
DRHO .g/cm3               : DRHO
SGR .gAPI                 : SGR
NPHI .m3/m3               : NPHI
RHOB .g/cm3               : RHOB
PEF .b/e                  : PEF
GR .gAPI                  : GR
DTC .us/ft                : DTC
DT .us/ft                 : DT
DTE .us/ft                : DTE
RDEP .ohm.m               : RDEP
SP .mV                    : SP
RSHA .ohm.m               : RSHA
RXO .ohm.m                : RXO
RMED .ohm.m               : RMED
~Parameter
#==================================================================
~Ascii
# ...
 1880.5087891  -999.250000 13.718998909 13.718998909 -0.003000000 57.959999084 0.4852451682 2.1848528385 4.5120000839 42.069961548 125.80213165 143.40084839 140.87023926 0.7379999757 39.248798370 0.8841081858 0.8841081858 1.0310000181
 1880.6611328  -999.250000 13.744000435 13.744000435 0.0000000000 56.591999054 0.4697654247 2.2525925636 4.5199999809 45.307792664 119.30014038 133.39102173 133.84220886 0.7350000143 39.363330841 0.9196989536 0.9196989536 1.1849999428
 1880.8134766  -999.250000 14.144000053 14.144000053 0.0020000001 60.323001862 0.4764844775 2.2056486607 3.8949999809 50.550388336 121.17324829 132.75149536 135.88432312 0.7360000014 38.893348694 3.0802917480 3.0802917480 1.0429999828
 1880.9659424  -999.250000 14.986000061 14.986000061 0.0020000001 65.333999634 0.4571164548 2.1012740135 3.5829999447 57.333133698 129.49046326 140.36277771 145.04132080 0.7400000095 39.016899109 1.9224684238 1.9224684238 0.8470000029
 1881.1182861  -999.250000 13.272001266 13.272001266 0.0040000002 68.208000183 0.4776332974 2.0278816223 3.2960000038 59.370121002 140.25456238 154.46607971 157.34672546 0.7500000000 38.987106323 0.7948173285 0.7948173285 0.7310000062
 1881.2707520  -999.250000 12.991999626 12.991999626 0.0000000000 69.833000183 0.4942570627 2.0151336193 3.0280001163 66.114181519 146.58250427 164.73356628 164.34100342 0.7540000081 39.337345123 0.7381121516 0.7381121516 0.6719999909
 1881.4230957  -999.250000 12.977000237 12.977000237 -0.004000000 71.114997864 0.5155336261 2.0181717873 2.7869999409 68.993095398 147.51742554 165.74760437 165.35099792 0.7099999785 39.116546631 0.7660920620 0.7660920620 0.6610000134
 1881.5755615  -999.250000 12.930000305 12.930000305 -0.010000000 72.305999756 0.4950336516 2.0234797001 2.8689999580 71.870391846 146.98535156 165.00120544 164.71760559 0.6610000134 37.436363220 0.7891281843 0.7891281843 0.6639999747
 1881.7279053  -999.250000 12.796999931 12.796999931 -0.007000000 72.989997864 0.4746219814 2.0307555199 2.9809999466 70.752700806 146.83821106 164.00239563 164.53466797 0.6389999986 36.786174774 0.8209559321 0.8209559321 0.6690000296
 1881.8803711  -999.250000 12.772999763 12.772999763 -0.007000000 72.947998047 0.4770620167 2.0327050686 3.2219998837 69.252403259 147.75694275 165.37280273 165.60620117 0.6359999776 36.251647949 0.8099799752 0.8099799752 0.6819999814
 1882.0327148  -999.250000 12.711000443 12.711000443 -0.008000000 72.720001221 0.4795855582 2.0358078480 3.1400001049 66.818855286 148.06373596 166.37260437 166.06993103 0.6420000196 37.225688934 0.8048038483 0.8048038483 0.7049999833
 1882.1851807  -999.250000 12.640999794 12.640999794 -0.008000000 72.875000000 0.4989623129 2.0397627354 3.0680000782 60.884517670 147.88676453 165.75100708 165.77348328 0.6499999762 37.223972321 0.7561722398 0.7561722398 0.7129999995
 1882.3375244  -999.250000 12.516000748 12.516000748 -0.010000000 73.305000305 0.4879770875 2.0485603809 2.9630000591 61.467575073 147.63180542 165.75000000 165.52113342 0.6549999714 37.573989868 0.7992802262 0.7992802262 0.7080000043
 1882.4899902  -999.250000 12.522998810 12.522998810 -0.004000000 73.708999634 0.5342608690 2.0567200184 3.0109999180 60.127155304 147.08309937 165.12600708 164.94064331 0.6560000181 37.980381012 0.8690841794 0.8690841794 0.7049999833
 1882.6423340  -999.250000 12.508000374 12.508000374 -0.004000000 73.668998718 0.5472308993 2.0563530922 2.9530000687 62.559093475 146.60916138 164.50100708 164.37124634 0.6499999762 37.417720795 0.8900279999 0.8900279999 0.7099999785
 1882.7947998  -999.250000 12.531000137 12.531000137 -0.005000000 73.952003479 0.5234260559 2.0430355072 3.0360000134 59.567802429 146.45892334 164.00079346 164.07342529 0.6420000196 37.935272217 0.8967716694 0.8967716694 0.7350000143
 1882.9471436  -999.250000 12.593999863 12.593999863 -0.008000000 73.535003662 0.5209491849 2.0234799385 3.2569999695 64.741683960 146.79559326 164.12480164 164.48461914 0.6420000196 37.909069061 0.8401961327 0.8401961327 0.7170000076
 1883.0994873  -999.250000 12.616999626 12.616999626 -0.005000000 73.184997559 0.5074487329 2.0111145973 3.6949999332 62.349781036 147.38700867 165.12260437 165.29702759 0.6409999728 39.011680603 0.8886986971 0.8886986971 0.6859999895
 1883.2519531  -999.250000 12.616999626 12.616999626 -0.004000000 73.110000610 0.5307827592 2.0091769695 3.6819999218 66.243743896 148.28096008 165.74899292 166.13598633 0.6420000196 38.299739838 0.7943830490 0.7943830490 0.6759999990
 1883.4042969  -999.250000 12.616999626 12.616999626 -0.006000000 73.281997681 0.5341926813 2.0187814236 3.3599998951 61.480484009 148.62112427 166.99699402 166.55123901 0.6470000148 38.649494171 0.6412161589 0.6412161589 0.6809999943
 1883.5567627  -999.250000 12.616999626 12.616999626 -0.008000000 72.473999023 0.5375505686 2.0317232609 2.9279999733 65.618339539 147.63464355 166.00158691 165.64085388 0.6499999762 39.205410004 0.6956450343 0.6956450343 0.6880000234
 1883.7091064  -999.250000 12.616999626 12.616999626 -0.011000000 70.707000732 0.5258330703 2.0416176319 2.9449999332 64.627403259 147.10414124 164.75300598 164.93447876 0.6510000229 39.069137573 0.8560480475 0.8560480475 0.6970000267
 1883.8615723  -999.250000 12.616999626 12.616999626 -0.008000000 69.444999695 0.5172306299 2.0464332104 2.9219999313 65.997795105 147.15567017 164.99960327 165.03619385 0.6549999714 38.827980042 0.8678838015 0.8678838015 0.6940000057
 1884.0139160  -999.250000 12.586000443 12.586000443 -0.010000000 69.821998596 0.5429692268 2.0427522659 2.8710000515 65.938156128 147.57832336 165.12469482 165.31956482 0.6589999795 40.219230652 0.8389559388 0.8389559388 0.6959999800
 1884.1663818  -999.250000 12.531000137 12.531000137 -0.013000000 71.642997742 0.5420038104 2.0420296192 2.7520000935 70.742286682 147.60942078 165.74899292 165.43991089 0.6610000134 39.582130432 0.8279399276 0.8279399276 0.6940000057
 1884.3187256  -999.250000 12.531000137 12.531000137 -0.012000000 73.724998474 0.5443679094 2.0443499088 2.7579998970 71.747596741 147.31672668 165.00180054 165.16920471 0.6610000134 40.079399109 0.8132041693 0.8132041693 0.7030000091
 1884.4711914  -999.250000 12.531000137 12.531000137 -0.010000000 75.976997375 0.5292990804 2.0493917465 2.9149999619 73.746795654 147.48718262 165.37440491 165.26974487 0.6639999747 39.869213104 0.8639879823 0.8639879823 0.7080000043
 1884.6235352  -999.250000 12.531000137 12.531000137 -0.003000000 76.816001892 0.5287167430 2.0541212559 3.0000000000 69.385505676 147.33288574 165.12559509 165.23739624 0.6639999747 39.341972351 0.8612442017 0.8612442017 0.6980000138
 1884.7760010  -999.250000 12.531000137 12.531000137 -0.001000000 75.695999146 0.5121498108 2.0552465916 2.9709999561 68.001106262 147.58177185 165.37480164 165.39341736 0.6620000005 38.302753448 0.9217716455 0.9217716455 0.6990000010
 1884.9283447  -999.250000 12.531000137 12.531000137 -0.001000000 73.301002502 0.4995720387 2.0552060604 3.0109999180 61.724033356 147.41033936 165.49989319 165.36793518 0.6589999795 37.185489655 0.8648999333 0.8648999333 0.6980000138
 1885.0806885  -999.250000 12.531000137 12.531000137 -0.004000000 71.087997437 0.5145566463 2.0500302315 2.8949999809 64.620346069 147.48912048 165.12559509 165.23580933 0.6600000262 36.998409271 0.8401409984 0.8401409984 0.7129999995
 1885.2331543  -999.250000 12.531000137 12.531000137 -0.006000000 70.510002136 0.4979104698 2.0430209637 2.9219999313 66.311653137 147.31701660 165.37480164 165.26579285 0.6629999876 37.372047424 0.8839279413 0.8839279413 0.7039999962
 1885.3854980  -999.250000 12.531000137 12.531000137 -0.009000000 71.040000916 0.4735695422 2.0411901474 2.8399999142 70.181800842 147.38108826 165.12539673 165.13819885 0.6669999957 36.853141785 0.8658910394 0.8658910394 0.7049999833
 1885.5379639  -999.250000 12.531000137 12.531000137 -0.006000000 71.978996277 0.4605248570 2.0499424934 3.0069999695 64.879257202 147.28863525 165.12500000 165.08738708 0.6719999909 36.252773285 0.8320921659 0.8320921659 0.7020000219
 1885.6903076  -999.250000 12.516000748 12.516000748 -0.011000000 72.946998596 0.4790724516 2.0627193451 3.2579998970 64.625396729 147.31896973 165.00019836 165.20021057 0.6750000119 38.351547241 0.8549399972 0.8549399972 0.7129999995
