# LAS format log file from PETREL
# Project units are specified as depth units
#==================================================================
~Version information
VERS.   2.0:
WRAP.   NO:
#==================================================================
~Well
STRT .m      474.34408569 :
STOP .m      3047.1606445 :
STEP .m     0.00000000 :
NULL .        -999.250000 :
COMP.           : COMPANY
WELL.  15/9-9   : WELL
FLD.            : FIELD
LOC.            : LOCATION
SRVC.           : SERVICE COMPANY
DATE.  2018-09-11 14:48:05   : Log Export Date {yyyy-MM-dd HH:mm:ss}
PROV.           : PROVINCE
UWI.   15/9-9   : UNIQUE WELL ID
API.            : API NUMBER
#==================================================================
~Curve
DEPT .m                   : DEPTH
Lithology_geolink ._      : Lithology_geolink
DCAL .in                  : DCAL
CALI .in                  : CALI
DRHO .g/cm3               : DRHO
NPHI .m3/m3               : NPHI
RHOB .g/cm3               : RHOB
GR .gAPI                  : GR
DTC .us/ft                : DTC
DT .us/ft                 : DT
DTE .us/ft                : DTE
RDEP .ohm.m               : RDEP
SP .mV                    : SP
RSHA .ohm.m               : RSHA
RXO .ohm.m                : RXO
RMED .ohm.m               : RMED
~Parameter
#==================================================================
~Ascii
# ...
 2186.1008301 5.0000000000 13.804000854 13.804000854 -0.006983974 0.5053583384 2.1726522446 44.429790497 117.15331268 121.53910828 121.20066071 0.6929711699 138.25079346 0.9018221498  -999.250000 0.9018221498
 2186.2531738 5.0000000000 13.699999809 13.699999809 -0.007995200 0.4832266867 2.1753695011 44.321487427 116.62969971 118.73156738 120.64944458 0.6860336661 138.72172546 0.8532355428  -999.250000 0.8532355428
 2186.4055176 5.0000000000 13.661999702 13.661999702 -0.006009615 0.4623802006 2.1776621342 41.892730713 117.38155365 122.88487244 121.32701874 0.7039134502 138.04727173 0.8151826859  -999.250000 0.8151826859
 2186.5581055 5.0000000000 13.795999527 13.795999527 0.0079551283 0.4444274008 2.1891732216 42.989437103 118.73043823 124.39382172 122.91912079 0.7109664083 138.44107056 0.8229616284  -999.250000 0.8229616284
 2186.7104492 5.0000000000 13.906001091 13.906001091 0.0179679487 0.4406021237 2.2073221207 45.246753693 119.12387085 122.69225311 123.36760712 0.7070192695 137.82200623 0.8369327188  -999.250000 0.8369327188
 2186.8627930 5.0000000000 13.916998863 13.916998863 0.0309375990 0.4615986645 2.2247581482 46.180534363 118.79512787 122.73773956 122.91690826 0.7000336647 138.21607971 0.8529230356  -999.250000 0.8529230356
 2187.0151367 5.0000000000 13.925000191 13.925000191 0.0459278859 0.4658200741 2.2354867458 47.654899597 118.56440735 122.67928314 122.62294006 0.6999999881 138.24984741 0.8470288515  -999.250000 0.8470288515
 2187.1677246 5.0000000000 13.831001282 13.831001282 0.0479935892 0.4606367350 2.2363662720 47.235374451 118.62375641 122.02813721 122.63913727 0.6920383573 138.25000000 0.8659088016  -999.250000 0.8659088016
 2187.3200684 5.0000000000 13.876000404 13.876000404 0.0470032021 0.4543003440 2.2315499783 49.355178833 119.39653015 124.30000305 123.44929504 0.6820480824 138.15147400 0.8560481071  -999.250000 0.8560481071
 2187.4724121 5.0000000000 13.718000412 13.718000412 0.0460032038 0.4510205090 2.2271206379 49.090873718 120.74540710 126.01676178 124.88565826 0.6760288477 137.10705566 0.8341057897  -999.250000 0.8341057897
 2187.6247559 5.0000000000 13.442998886 13.442998886 0.0350352563 0.4416352212 2.2212822437 46.439781189 121.74133301 126.09764862 125.93911743 0.6730144024 136.95968628 0.7812548280  -999.250000 0.7812548280
 2187.7770996 5.0000000000 13.585000038 13.585000038 0.0140673080 0.4089576602 2.2109160423 41.942665100 122.11955261 126.84816742 126.36042786 0.6630640030 136.58341980 0.7800063491  -999.250000 0.7800063491
 2187.9296875 5.0000000000 13.994000435 13.994000435 0.0000448000 0.4013738632 2.2017951012 40.418830872 121.76853943 126.00410461 126.01528168 0.6570288539 136.97807312 0.7859711647  -999.250000 0.7859711647
 2188.0820313 5.0000000000 13.937999725 13.937999725 0.0019935898 0.4086565077 2.2016167641 40.563518524 120.75418854 123.36772919 124.89574432 0.6579951644 137.21188354 0.7860000134  -999.250000 0.7860000134
 2188.2343750 5.0000000000 13.748999596 13.748999596 0.0099743586 0.4271210730 2.2072315216 40.419692993 119.64659882 124.19992065 123.75752258 0.6619807482 137.05278015 0.8059038520  -999.250000 0.8059038520
 2188.3867188 5.0000000000 13.595999718 13.595999718 0.0080064107 0.4306633174 2.2099747658 43.085121155 118.82369995 121.34481049 122.84202576 0.6629951596 137.45108032 0.8169471025  -999.250000 0.8169471025
 2188.5393066 5.0000000000 13.348999977 13.348999977 0.0010112179 0.4230545461 2.2118692398 41.475219727 118.51486969 122.72627258 122.54570007 0.6759375930 137.31863403 0.8438704014  -999.250000 0.8438704014
 2188.6916504 5.0000000000 13.258998871 13.258998871 0.0029936000 0.4256017506 2.2221374512 42.388046265 119.07836914 124.07253265 123.12110138 0.6839615703 138.19079590 0.8260865211  -999.250000 0.8260865211
 2188.8439941 5.0000000000 13.222999573 13.222999573 0.0129679488 0.4013868272 2.2388448715 39.466106415 119.27225494 123.19825745 123.37519073 0.6790240407 138.02581787 0.8478941917  -999.250000 0.8478941917
 2188.9963379 5.0000000000 13.250000000 13.250000000 0.0159903858 0.4096694291 2.2478549480 39.397262573 118.82621765 122.39088440 122.87985992 0.6790000200 138.48278809 0.8400384188  -999.250000 0.8400384188
 2189.1489258 5.0000000000 13.380999565 13.380999565 0.0080128210 0.4264262319 2.2415635586 39.034168243 118.53780365 122.19592285 122.55599213 0.6740240455 138.25213623 0.8399999738  -999.250000 0.8399999738
 2189.3012695 5.0000000000 13.444000244 13.444000244 0.0089967996 0.4592745602 2.2264077663 38.995121002 118.83969116 123.54846191 122.97468567 0.6660384536 138.25697327 0.8310432434  -999.250000 0.8310432434
 2189.4536133 5.0000000000 13.406000137 13.406000137 0.0099967951 0.4807114303 2.2094395161 41.683357239 119.76528931 124.21680450 123.94295502 0.6560481191 138.96656799 0.8180625439  -999.250000 0.8180625439
 2189.6059570 5.0000000000 13.252000809 13.252000809 0.0080064107 0.5365509987 2.1936054230 42.064205170 120.89517975 126.08996582 125.02525330 0.6390817165 138.53012085 0.7831682563  -999.250000 0.7831682563
 2189.7583008 5.0000000000 13.409000397 13.409000397 0.0040128208 0.5678699613 2.1816570759 41.496749878 121.40411377 125.73732758 125.61077118 0.6270767450 138.71281433 0.7651152015  -999.250000 0.7651152015
 2189.9108887 5.0000000000 13.737000465 13.737000465 0.0020064001 0.6004058719 2.1727585793 37.699203491 121.37573242 125.11399841 125.59886932 0.6160528660 138.29502869 0.7500721216  -999.250000 0.7500721216
 2190.0632324 5.0000000000 13.827999115 13.827999115 0.0010032052 0.5875117779 2.1638135910 40.716262817 121.61511993 126.16989136 125.82996368 0.6110240221 138.45123291 0.7430336475  -999.250000 0.7430336475
 2190.2155762 5.0000000000 14.008000374 14.008000374 0.0010000000 0.5972229838 2.1575644016 41.514198303 122.19910431 127.11048126 126.51869965 0.6100048423 138.02009583 0.7221009731  -999.250000 0.7221009731
 2190.3679199 5.0000000000 13.897000313 13.897000313 0.0019967949 0.5854371190 2.1614336967 43.522319794 122.80719757 127.18765259 127.01601410 0.6139807701 137.77018738 0.7160288692  -999.250000 0.7160288692
 2190.5205078 5.0000000000 13.670000076 13.670000076 0.0020000001 0.5318521261 2.1746597290 42.552150726 122.74604034 127.02877045 126.88669586 0.6189759970 137.71029663 0.7309280038  -999.250000 0.7309280038
 2190.6728516 5.0000000000 13.663999557 13.663999557 -0.000990400 0.4836145639 2.1863989830 44.534614563 121.90283203 125.27745056 126.05667877 0.6229807734 137.29301453 0.7668269277  -999.250000 0.7668269277
 2190.8251953 5.0000000000 13.539999962 13.539999962 -0.002993590 0.5024384260 2.1910316944 47.785350800 120.85825348 124.30466461 125.01778412 0.6359374523 137.16958618 0.7958605886  -999.250000 0.7958605886
 2190.9775391 5.0000000000 13.650999069 13.650999069 0.0019839744 0.6220526099 2.1924304962 47.367095947 120.12506866 124.40548706 124.33417511 0.6509279013 136.37483215 0.8258557320  -999.250000 0.8258557320
 2191.1301270 5.0000000000 14.093000412 14.093000412 0.0039967950 0.6820887327 2.1921153069 50.217826843 119.86101532 123.26451874 123.98296356 0.6679183841 136.72827148 0.8319712281  -999.250000 0.8319712281
 2191.2824707 5.0000000000 14.123999596 14.123999596 0.0010096000 0.6840841770 2.1862807274 46.262744904 119.92511749 124.57166290 124.01660156 0.6849182844 137.03552246 0.8369759917  -999.250000 0.8369759917
 2191.4348145 5.0000000000 13.965999603 13.965999603 0.0000032051 0.6575354338 2.1759719849 45.714721680 120.18210602 124.25356293 124.29389191 0.6989327073 137.69482422 0.8240625262  -999.250000 0.8240625262
 2191.5871582 5.0000000000 13.991000175 13.991000175 0.0039871796 0.6827281713 2.1703250408 39.721897125 120.44242096 124.58737946 124.54459381 0.6999951601 137.73481750 0.8339518905  -999.250000 0.8339518905
 2191.7397461 5.0000000000 13.909998894 13.909998894 0.0159807708 0.6827004552 2.1769721508 40.240242004 120.68863678 125.29559326 124.83870697 0.7009951472 137.53994751 0.8419616222  -999.250000 0.8419616222
 2191.8920898 5.0000000000 13.817000389 13.817000389 0.0179935992 0.6499055028 2.1936480999 44.207252502 120.76736450 124.78946686 124.97931671 0.7039855719 137.97688293 0.8479711413  -999.250000 0.8479711413
