# LAS format log file from PETREL
# Project units are specified as depth units
#==================================================================
~Version information
VERS.   2.0:
WRAP.   NO:
#==================================================================
~Well
STRT .m      472.33206177 :
STOP .m      3119.8261719 :
STEP .m     0.00000000 :
NULL .        -999.250000 :
COMP.           : COMPANY
WELL.  15/9-17   : WELL
FLD.            : FIELD
LOC.            : LOCATION
SRVC.           : SERVICE COMPANY
DATE.  2018-09-11 14:48:01   : Log Export Date {yyyy-MM-dd HH:mm:ss}
PROV.           : PROVINCE
UWI.   15/9-17   : UNIQUE WELL ID
API.            : API NUMBER
#==================================================================
~Curve
DEPT .m                   : DEPTH
Lithology_geolink ._      : Lithology_geolink
DCAL .in                  : DCAL
CALI .in                  : CALI
DRHO .g/cm3               : DRHO
SGR .gAPI                 : SGR
NPHI .m3/m3               : NPHI
RHOB .g/cm3               : RHOB
PEF .b/e                  : PEF
GR .gAPI                  : GR
DTC .us/ft                : DTC
DT .us/ft                 : DT
DTE .us/ft                : DTE
RDEP .ohm.m               : RDEP
SP .mV                    : SP
RSHA .ohm.m               : RSHA
RXO .ohm.m                : RXO
RMED .ohm.m               : RMED
~Parameter
#==================================================================
~Ascii
 472.33206177  -999.250000 19.202999115 19.202999115 -0.527999997 37.655998230  -999.250000 2.0933604240 522.50000000 81.514457703 162.47729492 161.12312317 161.22489929 1.9260071516 1.6392549276  -999.250000  -999.250000 1.8509434462
 472.48446655  -999.250000 19.266000748 19.266000748 -0.532000005 37.405998230  -999.250000 2.0933587551 154.37500000 77.138137817 162.92391968 161.49887085 161.68872070 1.9369934797 1.9922063351  -999.250000  -999.250000 1.9349495173
 472.63687134  -999.250000 19.156000137 19.156000137 -0.550999999 39.062999725  -999.250000 2.0923650265 352.75000000 78.994369507 163.29826355 162.12312317 162.01974487 1.9080173969 1.9386838675  -999.250000  -999.250000 1.8180702925
 472.78927612  -999.250000 19.187999725 19.187999725 -0.545000017 39.062999725  -999.250000 2.0926740170 41.000000000 79.623123169 163.16333008 162.00038147 161.92735291 1.9309908152 0.9998905659  -999.250000  -999.250000 1.8629820347
 472.94168091  -999.250000 19.172000885 19.172000885 -0.550000012 40.000000000  -999.250000 2.0927934647 40.844001770 81.868240356 163.13433838 161.75074768 161.88648987 1.9180052280 0.8750157356  -999.250000  -999.250000 1.7520444393
 473.09408569  -999.250000 19.172000885 19.172000885 -0.550000012 39.625000000  -999.250000 2.0922389030 27.641000748 80.379203796 163.30001831 162.12394714 162.06187439 1.9150011539 1.4113593102  -999.250000  -999.250000 1.7250108719
 473.24649048  -999.250000 19.156000137 19.156000137 -0.607999980 38.937999725  -999.250000 2.0918259621 28.891000748 79.440628052 163.47048950 162.00035095 162.17492676 1.9209976196 0.9009218216  -999.250000  -999.250000 1.7120052576
 473.39886475  -999.250000 19.156000137 19.156000137 -0.582000017 40.500000000  -999.250000 2.0915195942 30.062999725 78.939506531 163.51927185 162.49850464 162.28221130 1.9249975681 0.1223917454  -999.250000  -999.250000 1.7509765625
 473.55126953  -999.250000 19.187999725 19.187999725 -0.542999983 42.500000000  -999.250000 2.0933697224 65.688003540 83.361671448 162.93626404 162.00149536 161.68617249 1.9100090265 -0.841281354  -999.250000  -999.250000 1.6980317831
 473.70367432  -999.250000 19.250000000 19.250000000 -0.492000014 44.687999725  -999.250000 2.0952768326 88.625000000 83.375000000 162.34835815 161.00299072 161.07995605 1.9349849224 -0.859265387  -999.250000  -999.250000 1.9198665619
 473.85607910  -999.250000 19.343999863 19.343999863 -0.503000021 41.030998230  -999.250000 2.0958676338 83.125000000 86.739860535 162.18594360 160.99998474 160.91484070 1.9240044355 0.6835692525  -999.250000  -999.250000 1.8410315514
 474.00848389  -999.250000 19.266000748 19.266000748 -0.519999981 37.375000000  -999.250000 2.0963673592 35.969001770 84.320320129 162.06797791 160.75074768 160.76132202 1.9279984236 0.6457530260  -999.250000  -999.250000 1.9429590702
 474.16088867  -999.250000 19.281000137 19.281000137 -0.518000007 36.500000000  -999.250000 2.0963063240 38.250000000 87.241767883 162.01242065 160.75000000 160.75485229 1.9230020046 0.2161750495  -999.250000  -999.250000 1.9080140591
 474.31329346  -999.250000 19.312999725 19.312999725 -0.521000028 39.062999725  -999.250000 2.0960195065 37.905998230 82.576141357 162.11616516 160.75000000 160.86422729 1.9409928322 0.5155858994  -999.250000  -999.250000 1.8110388517
 474.46566772  -999.250000 19.297000885 19.297000885 -0.537000000 40.530998230  -999.250000 2.0945041180 42.812999725 81.129318237 162.57611084 160.99923706 161.33280945 1.9160150290 0.3828000128  -999.250000  -999.250000 1.7210540771
 474.61807251  -999.250000 19.312999725 19.312999725 -0.541000009 39.155998230  -999.250000 2.0924365520 36.219001770 77.635513306 163.28691101 161.99699402 161.99325562 1.9040071964 0.5104406476  -999.250000  -999.250000 1.7090071440
 474.77047729  -999.250000 19.250000000 19.250000000 -0.538999975 37.780998230  -999.250000 2.0911781788 48.280998230 75.569198608 163.64410400 162.12461853 162.37495422 1.9219892025 0.6197217703  -999.250000  -999.250000 1.6780185699
 474.92288208  -999.250000 19.233999252 19.233999252 -0.517000020 36.469001770  -999.250000 2.0917546749 71.750000000 74.129318237 163.45603943 162.99737549 162.19165039 1.9140032530 0.1875031441  -999.250000  -999.250000 1.7059887648
 475.07528687  -999.250000 19.343999863 19.343999863 -0.517000020 38.875000000  -999.250000 2.0965690613 249.37500000 74.935722351 161.94371033 161.00559998 160.67691040 1.9100015163 0.3020656407  -999.250000  -999.250000 1.7359879017
 475.22769165  -999.250000 19.343999863 19.343999863 -0.524999976 37.905998230  -999.250000 2.0988638401 144.00000000 80.796531677 161.20597839 159.75350952 159.97282410 1.8960056305 0.0207530484  -999.250000  -999.250000 1.7569915056
 475.38009644  -999.250000 19.422000885 19.422000885 -0.538999975 39.437999725  -999.250000 2.0983452797 84.313003540 80.688354492 161.44015503 160.12394714 160.12078857 1.9149923325 -0.144358858  -999.250000  -999.250000 1.9129375219
 475.53247070  -999.250000 19.327999115 19.327999115 -0.531000018 37.030998230  -999.250000 2.0971779823 41.625000000 80.874435425 161.77014160 160.12500000 160.48446655 1.9419838190 1.0338437557  -999.250000  -999.250000 1.8210552931
 475.68487549  -999.250000 19.281000137 19.281000137 -0.515999973 36.030998230  -999.250000 2.0946681499 42.750000000 76.202079773 162.56510925 161.12199402 161.28482056 1.9429993629 1.6223751307  -999.250000  -999.250000 1.7360509634
 475.83728027  -999.250000 19.312999725 19.312999725 -0.515999973 35.469001770  -999.250000 2.0937516689 46.437999725 74.318634033 162.83277893 161.74812317 161.58673096 1.9469976425 1.7394530773  -999.250000  -999.250000 1.7599855661
 475.98968506  -999.250000 19.327999115 19.327999115 -0.537000000 37.375000000  -999.250000 2.0951030254 45.312999725 76.867301941 162.46112061 161.50074768 161.14642334 1.9230096340 0.9451874495  -999.250000  -999.250000 1.8189764023
 476.14208984  -999.250000 19.375000000 19.375000000 -0.550000012 37.344001770  -999.250000 2.0977253914 46.094001770 77.872192383 161.55116272 160.50280762 160.31106567 1.9210008383 0.5507724285  -999.250000  -999.250000 1.8090040684
 476.29449463  -999.250000 19.312999725 19.312999725 -0.555999994 36.125000000  -999.250000 2.0979936123 41.094001770 78.622894287 161.47569275 159.75210571 160.23616028 1.9110040665 0.9192687273  -999.250000  -999.250000 1.8339899778
 476.44689941  -999.250000 19.281000137 19.281000137 -0.538999975 32.719001770  -999.250000 2.0958487988 60.344001770 77.939926147 162.16018677 160.99647522 160.92207336 1.9010040760 1.0169044733  -999.250000  -999.250000 1.8929764032
 476.59927368  -999.250000 19.312999725 19.312999725 -0.524999976 33.469001770  -999.250000 2.0942969322 55.937999725 75.694763184 162.62895203 160.99998474 161.39572144 1.8860090971 1.4128195047  -999.250000  -999.250000 1.7570816278
 476.75167847  -999.250000 19.327999115 19.327999115 -0.518000007 29.391000748  -999.250000 2.0918617249 70.750000000 76.560379028 163.46304321 162.12162781 162.15997314 1.8860000372 2.3385345936  -999.250000  -999.250000 1.7240197659
 476.90408325  -999.250000 19.312999725 19.312999725 -0.528999984 30.406000137  -999.250000 2.0906710625 46.375000000 73.384574890 163.80342102 162.37423706 162.54704285 1.8680108786 2.5833783150  -999.250000  -999.250000 1.6420491934
 477.05648804  -999.250000 19.281000137 19.281000137 -0.532000005 32.125000000  -999.250000 2.0907871723 70.063003540 73.313186646 163.75762939 162.99812317 162.51766968 1.8670003414 2.9791281223  -999.250000  -999.250000 1.6669900417
 477.20889282  -999.250000 19.266000748 19.266000748 -0.514999986 36.812999725  -999.250000 2.0922966003 43.469001770 71.318611145 163.31330872 161.75350952 162.03698730 1.8430097103 2.5480902195  -999.250000  -999.250000 1.7709584236
 477.36129761  -999.250000 19.266000748 19.266000748 -0.497999996 37.844001770  -999.250000 2.0916516781 38.375000000 74.304595947 163.56686401 162.37322998 162.25027466 1.8479980230 1.7927517891  -999.250000  -999.250000 1.7370135784
 477.51370239  -999.250000 19.218999863 19.218999863 -0.501999974 34.969001770  -999.250000 2.0918807983 25.827999115 77.615715027 163.41244507 162.12570190 162.15478516 1.8619943857 0.8392268419  -999.250000  -999.250000 1.6890192032
