# LAS format log file from PETREL
# Project units are specified as depth units
#==================================================================
~Version information
VERS.   2.0:
WRAP.   NO:
#==================================================================
~Well
STRT .m      2122.4746094 :
STOP .m      4102.6074219 :
STEP .m     0.00000000 :
NULL .        -999.250000 :
COMP.           : COMPANY
WELL.  15/9-19A   : WELL
FLD.            : FIELD
LOC.            : LOCATION
SRVC.           : SERVICE COMPANY
DATE.  2018-09-11 14:48:01   : Log Export Date {yyyy-MM-dd HH:mm:ss}
PROV.           : PROVINCE
UWI.   15/9-19 A   : UNIQUE WELL ID
API.            : API NUMBER
#==================================================================
~Curve
DEPT .m                   : DEPTH
Lithology_geolink ._      : Lithology_geolink
CALI .in                  : CALI
RHOB .g/cm3               : RHOB
GR .gAPI                  : GR
RDEP .ohm.m               : RDEP
RSHA .ohm.m               : RSHA
RMED .ohm.m               : RMED
~Parameter
#==================================================================
~Ascii
# ...
 2943.9104004  -999.250000 10.119799614 2.1291999817 54.869762421 0.5831000209 0.6996999979 0.5961999893
 2944.0627441  -999.250000 10.127400398 2.0838000774 55.678108215 0.5904999971 0.7644000053 0.6061000228
 2944.2153320  -999.250000 10.074600220 2.0961000919 53.677917480 0.5932999849 0.8044000268 0.6018000245
 2944.3676758  -999.250000 10.062899590 2.1003999710 53.419807434 0.5960000157 0.7940000296 0.5935999751
 2944.5200195  -999.250000 10.080200195 2.1033000946 56.126354218 0.6036999822 0.7597000003 0.5917000175
 2944.6723633  -999.250000 10.126799583 2.1319999695 54.366760254 0.6187000275 0.7307000160 0.6007999778
 2944.8249512  -999.250000 10.191499710 2.1723001003 51.593345642 0.6395999789 0.7172999978 0.6212000251
 2944.9772949  -999.250000 10.069800377 2.1910998821 50.442440033 0.6624000072 0.7236999869 0.6491000056
 2945.1296387  -999.250000 10.086000443 2.1707999706 45.486354828 0.6819999814 0.7526999712 0.6768000126
 2945.2819824  -999.250000 10.107999802 2.1273999214 41.911525726 0.6945000291 0.7930999994 0.6949999928
 2945.4343262  -999.250000 10.130700111 2.1091001034 43.285869598 0.7002999783 0.8195000291 0.6998999715
 2945.5869141  -999.250000 10.169898987 2.1459000111 42.615882874 0.7038999796 0.8274000287 0.6978999972
 2945.7392578  -999.250000 10.156100273 2.1898000240 42.849224091 0.7102000117 0.8299000263 0.6991000175
 2945.8916016  -999.250000 10.169300079 2.1918001175 42.815155029 0.7218999863 0.8321999907 0.7091000080
 2946.0439453  -999.250000 10.174300194 2.1798000336 41.556640625 0.7375000119 0.8379999995 0.7268000245
 2946.1965332  -999.250000 10.385100365 2.1933999062 40.922912598 0.7529000044 0.8499000072 0.7469000220
 2946.3488770  -999.250000 10.172400475 2.2202999592 41.878662109 0.7634999752 0.8651000261 0.7623999715
 2946.5012207  -999.250000 10.155099869 2.2409000397 44.797515869 0.7667999864 0.8792999983 0.7682999969
 2946.6535645  -999.250000 10.168199539 2.2451000214 43.518520355 0.7633000016 0.8855000138 0.7641999722
 2946.8061523  -999.250000 10.167799950 2.2342998981 40.294868469 0.7559999824 0.8801000118 0.7540000081
 2946.9584961  -999.250000 10.196101189 2.2302999496 40.330734253 0.7483000159 0.8664000034 0.7422999740
 2947.1108398  -999.250000 10.219301224 2.2133998871 41.271591187 0.7429000139 0.8490999937 0.7336999774
 2947.2631836  -999.250000 10.205200195 2.1854000092 41.015811920 0.7408999801 0.8359000087 0.7300000191
 2947.4155273  -999.250000 10.227399826 2.1789000034 42.870246887 0.7419999838 0.8309000134 0.7304000258
 2947.5681152  -999.250000 10.207300186 2.1995999813 49.035213470 0.7454000115 0.8357999921 0.7340999842
 2947.7204590  -999.250000 10.189399719 2.2513000965 55.083805084 0.7502999902 0.8579999804 0.7416999936
 2947.8728027  -999.250000 10.176300049 2.2788000107 52.523227692 0.7552000284 0.9010000229 0.7522000074
 2948.0251465  -999.250000 10.178199768 2.2495000362 45.567214966 0.7583000064 0.9466999769 0.7606999874
 2948.1777344  -999.250000 10.171199799 2.2044000626 37.710773468 0.7584000230 0.9639999866 0.7624999881
 2948.3300781  -999.250000 10.170201302 2.2156999111 36.172748566 0.7548999786 0.9491999745 0.7574999928
 2948.4824219  -999.250000 10.177100182 2.2293999195 40.485671997 0.7480000257 0.9265000224 0.7487999797
 2948.6347656  -999.250000 10.180199623 2.2111999989 42.437255859 0.7379000187 0.9071999788 0.7368999720
 2948.7873535  -999.250000 10.239799500 2.2002000809 45.285839081 0.7246999741 0.8823000193 0.7207000256
 2948.9396973  -999.250000 10.306700706 2.2040998936 47.081825256 0.7098000050 0.8464999795 0.7009000182
 2949.0920410  -999.250000 10.252201080 2.2184998989 46.612159729 0.6952999830 0.8047999740 0.6802999973
 2949.2443848  -999.250000 10.312899590 2.2260999680 47.447757721 0.6834999919 0.7635999918 0.6625000238
 2949.3967285  -999.250000 10.304498672 2.1751000881 49.449977875 0.6757000089 0.7287999988 0.6499000192
 2949.5493164  -999.250000 10.338899612 2.1022000313 49.401088715 0.6721000075 0.7077999711 0.6434999704
 2949.7016602  -999.250000 10.403699875 2.0843999386 47.110778809 0.6721000075 0.7042999864 0.6428999901
 2949.8540039  -999.250000 10.831399918 2.0971000195 45.994285583 0.6746000051 0.7139000297 0.6470000148
 2950.0063477  -999.250000 10.596099854 2.1224000454 45.814472198 0.6787999868 0.7297000289 0.6545000076
 2950.1589355  -999.250000 10.429300308 2.1008999348 47.210956573 0.6844000220 0.7548000216 0.6646999717
 2950.3112793  -999.250000 10.283300400 2.0704998970 48.155490875 0.6908000112 0.7936000228 0.6765999794
 2950.4636230  -999.250000 10.263400078 2.0850999355 47.510337830 0.6973000169 0.8337000012 0.6880000234
 2950.6159668  -999.250000 10.251299858 2.1472001076 45.495166779 0.7031000257 0.8579000235 0.6955000162
 2950.7685547  -999.250000 10.240300179 2.2114999294 44.053802490 0.7078999877 0.8687999845 0.6984000206
 2950.9208984  -999.250000 10.216699600 2.2284998894 43.329860687 0.7124000192 0.8733999729 0.6996999979
 2951.0732422  -999.250000 10.162699699 2.2430000305 41.521301270 0.7171000242 0.8671000004 0.7038000226
 2951.2255859  -999.250000 10.181099892 2.2283999920 41.569515228 0.7218999863 0.8524000049 0.7124000192
 2951.3781738  -999.250000 10.157600403 2.1944000721 40.131404877 0.7246000171 0.8414999843 0.7222999930
 2951.5305176  -999.250000 10.010399818 2.1665999889 38.808521271 0.7226999998 0.8345000148 0.7265999913
 2951.6828613  -999.250000 9.9559001923 2.1677999496 41.133865356 0.7149000168 0.8162999749 0.7196000218
 2951.8352051  -999.250000 9.9076004028 2.1638998985 41.843868256 0.7026000023 0.7817999721 0.7024000287
 2951.9875488  -999.250000 9.8906002045 2.1436998844 39.662803650 0.6883999705 0.7469000220 0.6816999912
 2952.1401367  -999.250000 9.8791999817 2.1438999176 38.833721161 0.6751999855 0.7264999747 0.6636999846
 2952.2924805  -999.250000 9.9076995850 2.1724998951 44.627601624 0.6640999913 0.7185999751 0.6504999995
 2952.4448242  -999.250000 9.9831991196 2.1972000599 47.399368286 0.6552000046 0.7153000236 0.6412000060
 2952.5971680  -999.250000 9.5792999268 2.1891999245 46.557121277 0.6480000019 0.7124999762 0.6338000298
 2952.7497559  -999.250000 9.5149002075 2.1712999344 47.894447327 0.6427000165 0.7085000277 0.6277999878
 2952.9020996  -999.250000 9.4926996231 2.1626999378 49.750724792 0.6399999857 0.7073000073 0.6243000031
 2953.0544434  -999.250000 9.5275001526 2.1788001060 50.206569672 0.6402999759 0.7157999873 0.6252999902
 2953.2067871  -999.250000 9.4305000305 2.1940000057 49.821918488 0.6431000233 0.7332999706 0.6305000186
 2953.3593750  -999.250000 9.4000997543 2.1761999130 48.552234650 0.6473000050 0.7526000142 0.6369000077
 2953.5117188  -999.250000 9.2634000778 2.1136999130 47.532932281 0.6520000100 0.7689999938 0.6417999864
 2953.6640625  -999.250000 9.2424001694 2.0485000610 45.609786987 0.6574000120 0.7854999900 0.6467000246
 2953.8164063  -999.250000 9.2138004303 2.0151998997 43.529735565 0.6639000177 0.8032000065 0.6552000046
 2953.9687500  -999.250000 9.0858001709 2.0322999954 46.295112610 0.6714000106 0.8141999841 0.6680999994
 2954.1213379  -999.250000 9.1803998947 2.1006999016 46.996288300 0.6780999899 0.8119999766 0.6808000207
 2954.2736816  -999.250000 9.0752000809 2.1572000980 46.068691254 0.6816999912 0.8011000156 0.6873000264
 2954.4260254  -999.250000 8.9707002640 2.1723001003 44.709178925 0.6812999845 0.7914999723 0.6866000295
 2954.5783691  -999.250000 8.9658002853 2.1621000767 47.020572662 0.6773999929 0.7889999747 0.6815999746
 2954.7309570  -999.250000 8.9375000000 2.1559000015 49.117347717 0.6715000272 0.7910000086 0.6754999757
 2954.8833008  -999.250000 8.9376001358 2.1619000435 49.442485809 0.6640999913 0.7937999964 0.6686999798
 2955.0356445  -999.250000 8.9574003220 2.1619999409 51.581768036 0.6549999714 0.7947999835 0.6593000293
 2955.1879883  -999.250000 8.9786996841 2.1382000446 51.146011353 0.6441000104 0.7889999747 0.6462000012
 2955.3405762  -999.250000 8.9504995346 2.1019999981 50.929542542 0.6322000027 0.7745000124 0.6309999824
 2955.4929199  -999.250000 9.0572996140 2.0801999569 54.755458832 0.6208999753 0.7576000094 0.6172000170
