# LAS format log file from PETREL
# Project units are specified as depth units
#==================================================================
~Version information
VERS.   2.0:
WRAP.   NO:
#==================================================================
~Well
STRT .m      3164.4333496 :
STOP .m      4228.6425781 :
STEP .m     0.00000000 :
NULL .        -999.250000 :
COMP.           : COMPANY
WELL.  15/9-19B   : WELL
FLD.            : FIELD
LOC.            : LOCATION
SRVC.           : SERVICE COMPANY
DATE.  2018-09-11 14:48:02   : Log Export Date {yyyy-MM-dd HH:mm:ss}
PROV.           : PROVINCE
UWI.   15/9-19 B   : UNIQUE WELL ID
API.            : API NUMBER
#==================================================================
~Curve
DEPT .m                   : DEPTH
Lithology_geolink ._      : Lithology_geolink
CALI .in                  : CALI
RHOB .g/cm3               : RHOB
GR .gAPI                  : GR
DTC .us/ft                : DTC
RDEP .ohm.m               : RDEP
RSHA .ohm.m               : RSHA
RMED .ohm.m               : RMED
~Parameter
#==================================================================
~Ascii
# ...
 3941.6733398 5.0000000000 6.5336003304 2.4398999214 97.526962280 88.343879700 1.5350803137 1.3544852734 1.4511864185
 3941.8259277 5.0000000000 6.5384001732 2.4642999172 94.009674072 88.521438599 1.5222799778 1.3448570967 1.4422520399
 3941.9782715 5.0000000000 6.5343995094 2.4744999409 92.222663879 88.814437866 1.3602836132 1.2069056034 1.3026925325
 3942.1306152 5.0000000000 6.5201001167 2.4765999317 91.203895569 89.213478088 1.3501414061 1.2104533911 1.2980440855
 3942.2829590 5.0000000000 6.5166997910 2.4860000610 90.955986023 89.384201050 1.3757328987 1.2435570955 1.3253482580
 3942.4355469 5.0000000000 6.5205001831 2.4842000008 93.517005920 89.445098877 1.2717120647 1.1546318531 1.2309181690
 3942.5878906 5.0000000000 6.5246000290 2.4647998810 97.569671631 89.318618774 1.3066478968 1.1957367659 1.2677428722
 3942.7402344 5.0000000000 6.5328006744 2.4644999504 97.862937927 89.206359863 1.3364959955 1.2185990810 1.2944959402
 3942.8925781 5.0000000000 6.5390005112 2.4848999977 98.137573242 88.991859436 1.3340084553 1.2180052996 1.2920085192
 3943.0451660 5.0000000000 6.5184998512 2.4965000153 100.35642242 88.778953552 1.3393720388 1.2213777304 1.2973687649
 3943.1975098 5.0000000000 6.5029001236 2.4897000790 99.087547302 88.608276367 1.3617477417 1.2455618382 1.3187576532
 3943.3498535 5.0000000000 6.5174002647 2.4786000252 98.866752625 88.406700134 1.3290175200 1.2216280699 1.2922283411
 3943.5021973 5.0000000000 6.5363998413 2.4670999050 98.522140503 88.281059265 1.2154819965 1.1146556139 1.1854658127
 3943.6545410 5.0000000000 6.5437998772 2.4877998829 97.113525391 88.196838379 1.3291002512 1.2117507458 1.2889759541
 3943.8071289 5.0000000000 6.5397000313 2.5023000240 95.565635681 88.156715393 1.4539227486 1.3057658672 1.3986341953
 3943.9594727 5.0000000000 6.5090999603 2.5023000240 93.708969116 88.161796570 1.4609810114 1.3263032436 1.4092860222
 3944.1118164 5.0000000000 6.4980993271 2.5102000237 94.124084473 88.225280762 1.4491740465 1.3282716274 1.4005765915
 3944.2641602 5.0000000000 6.5229001045 2.5158998966 92.805534363 88.340751648 1.4329725504 1.3105701208 1.3859753609
 3944.4167480 5.0000000000 6.5362000465 2.4986999035 91.584236145 88.373703003 1.4158933163 1.2918831110 1.3705958128
 3944.5690918 5.0000000000 6.5345001221 2.4997999668 92.778724670 88.371322632 1.4138274193 1.2866111994 1.3693194389
 3944.7214355 5.0000000000 6.5043001175 2.5127000809 92.230903625 88.197456360 1.4310308695 1.2937200069 1.3815259933
 3944.8737793 5.0000000000 6.4741001129 2.5099000931 91.301239014 87.798950195 1.5125632286 1.3684674501 1.4599689245
 3945.0263672 5.0000000000 6.4661002159 2.4976999760 92.072525024 86.948394775 1.4894045591 1.3479551077 1.4403446913
 3945.1787109 5.0000000000 6.4801001549 2.5023000240 92.265380859 85.418098450 1.3973824978 1.2717260122 1.3607871532
 3945.3310547 5.0000000000 6.5050997734 2.5041000843 91.322593689 83.544769287 1.3865269423 1.2879594564 1.3528190851
 3945.4833984 5.0000000000 6.5160999298 2.4985001087 93.314186096 81.653450012 1.4033498764 1.3250148296 1.3647338152
 3945.6357422 5.0000000000 6.5156002045 2.4997999668 93.789520264 80.066093445 1.4343981743 1.3341671228 1.3857901096
 3945.7883301 5.0000000000 6.5108003616 2.4946999550 85.485885620 79.064254761 1.4333291054 1.3136695623 1.3795753717
 3945.9406738 16.000000000 6.4878001213 2.5308001041 76.565322876 79.176589966 1.4432395697 1.3045701981 1.3724677563
 3946.0930176 16.000000000 6.4692997932 2.5936000347 72.712577820 80.413398743 1.9714348316 1.5396490097 1.7310105562
 3946.2453613 16.000000000 6.4685001373 2.6322999001 71.089134216 81.973899841 5.1691656113 4.3104352951 4.7268795967
 3946.3979492 16.000000000 6.4865999222 2.6642999649 77.798149109 83.724662781 4.3937406540 3.7042901516 4.0228366852
 3946.5502930 5.0000000000 6.4980006218 2.6691000462 84.047821045 85.398025513 2.4112443924 2.0491864681 2.1951518059
 3946.7026367 5.0000000000 6.4795999527 2.5829000473 85.996765137 86.473129272 1.5044883490 1.3555800915 1.4175897837
 3946.8549805 5.0000000000 6.4633002281 2.5208001137 88.472503662 87.238220215 1.5595664978 1.4055689573 1.4735660553
 3947.0075684 5.0000000000 6.4684000015 2.5169000626 92.159217834 87.943634033 1.6010533571 1.4486033916 1.5147624016
 3947.1599121 5.0000000000 6.4970002174 2.5104999542 95.248451233 88.360694885 1.6176468134 1.4807412624 1.5341616869
 3947.3122559 5.0000000000 6.5244998932 2.4993999004 94.904632568 88.485900879 1.5844910145 1.4440712929 1.5103080273
 3947.4645996 5.0000000000 6.5380997658 2.4937996864 94.801574707 88.362319946 1.5787378550 1.4260371923 1.5151368380
 3947.6169434 5.0000000000 6.5461997986 2.4983000755 96.341644287 88.186492920 1.4776314497 1.3245366812 1.4134316444
 3947.7695313 5.0000000000 6.5458002090 2.5034999847 96.311317444 87.993553162 1.4351329803 1.2853057384 1.3711063862
 3947.9218750 5.0000000000 6.5219001770 2.5021998882 97.350860596 87.856025696 1.5078330040 1.3495067358 1.4355118275
 3948.0742188 5.0000000000 6.5026001930 2.4902999401 100.75189209 87.748741150 1.5906766653 1.4159698486 1.5051815510
 3948.2265625 5.0000000000 6.5005998611 2.4809999466 100.23654938 87.650695801 1.5760654211 1.3971054554 1.4936492443
 3948.3791504 5.0000000000 6.5131006241 2.5267000198 94.319808960 87.401695251 1.5561754704 1.3394889832 1.4633804560
 3948.5314941 5.0000000000 6.5156002045 2.5553998947 85.186576843 87.617416382 2.0792996883 1.7419584990 1.8943893909
 3948.6838379 16.000000000 6.5036001205 2.5188000202 78.568763733 87.881439209 2.8259227276 2.3384368420 2.5101261139
 3948.8361816 16.000000000 6.4903998375 2.4990000725 77.810989380 88.282432556 2.3410551548 1.9249165058 2.0897762775
 3948.9887695 16.000000000 6.4854998589 2.5127999783 85.182281494 88.738662720 1.9379594326 1.6228177547 1.7624596357
 3949.1411133 16.000000000 6.5032000542 2.5039000511 93.122863770 89.289665222 1.5204145908 1.3480423689 1.4384211302
 3949.2934570 5.0000000000 6.5504999161 2.4828000069 95.159698486 89.827636719 1.5294380188 1.3743804693 1.4515618086
 3949.4458008 5.0000000000 6.5816998482 2.4788999557 95.407867432 89.661407471 1.4910147190 1.3622473478 1.4279468060
 3949.5981445 5.0000000000 6.5843000412 2.4846999645 96.322090149 89.481483459 1.6248674393 1.3917535543 1.5194470882
 3949.7507324 5.0000000000 6.5697999001 2.4916000366 98.564193726 89.159851074 1.6665563583 1.4248497486 1.5484870672
 3949.9030762 5.0000000000 6.5496997833 2.4806001186 98.934364319 88.957366943 1.5594542027 1.3468751907 1.4509673119
 3950.0554199 5.0000000000 6.5633001328 2.4655001163 97.913742065 88.941268921 1.5303652287 1.3309909105 1.4301577806
 3950.2077637 5.0000000000 6.5854997635 2.4681000710 95.822181702 89.296485901 1.1974614859 1.0763578415 1.1548597813
 3950.3603516 5.0000000000 6.5918998718 2.4788000584 94.372650146 89.785140991 1.3608156443 1.2373257875 1.3170474768
 3950.5126953 5.0000000000 6.6068000793 2.4804000854 93.360420227 90.080398560 1.4901686907 1.3386206627 1.4251425266
 3950.6650391 5.0000000000 6.6182994843 2.4700999260 93.185981750 90.202323914 1.4083577394 1.2269530296 1.3270568848
 3950.8173828 5.0000000000 6.6128993034 2.4677000046 95.550468445 90.404594421 1.4444705248 1.2601535320 1.3626558781
 3950.9699707 5.0000000000 6.6061000824 2.4693000317 98.521568298 90.588676453 1.5508234501 1.3558729887 1.4598896503
 3951.1223145 5.0000000000 6.6051006317 2.4647998810 98.760871887 90.704986572 1.5893256664 1.3786221743 1.4878199100
 3951.2746582 5.0000000000 6.6122999191 2.4709000587 97.930938721 90.697181702 1.6050713062 1.3921992779 1.4999958277
 3951.4270020 5.0000000000 6.6227002144 2.4753000736 97.264846802 90.623168945 1.4624754190 1.2669937611 1.3726911545
 3951.5793457 5.0000000000 6.6300001144 2.4672000408 95.300079346 90.419746399 1.3849580288 1.2008842230 1.3049688339
 3951.7319336 5.0000000000 6.6335000992 2.4630999565 95.225090027 90.199729919 1.4213200808 1.2535879612 1.3479979038
 3951.8842773 5.0000000000 6.6350002289 2.4698998928 96.903663635 89.973861694 1.4962482452 1.3085097075 1.4091256857
