# LAS format log file from PETREL
# Project units are specified as depth units
#==================================================================
~Version information
VERS.   2.0:
WRAP.   NO:
#==================================================================
~Well
STRT .m      474.34408569 :
STOP .m      3047.1606445 :
STEP .m     0.00000000 :
NULL .        -999.250000 :
COMP.           : COMPANY
WELL.  15/9-9   : WELL
FLD.            : FIELD
LOC.            : LOCATION
SRVC.           : SERVICE COMPANY
DATE.  2018-09-11 14:48:05   : Log Export Date {yyyy-MM-dd HH:mm:ss}
PROV.           : PROVINCE
UWI.   15/9-9   : UNIQUE WELL ID
API.            : API NUMBER
#==================================================================
~Curve
DEPT .m                   : DEPTH
Lithology_geolink ._      : Lithology_geolink
DCAL .in                  : DCAL
CALI .in                  : CALI
DRHO .g/cm3               : DRHO
NPHI .m3/m3               : NPHI
RHOB .g/cm3               : RHOB
GR .gAPI                  : GR
DTC .us/ft                : DTC
DT .us/ft                 : DT
DTE .us/ft                : DTE
RDEP .ohm.m               : RDEP
SP .mV                    : SP
RSHA .ohm.m               : RSHA
RXO .ohm.m                : RXO
RMED .ohm.m               : RMED
~Parameter
#==================================================================
~Ascii
# ...
 2358.4653320 2.0000000000 13.154999733 13.154999733 -0.017974358 0.3903242052 2.1881239414 25.148771286 94.381904602 97.922492981 97.631752014 15.814975739 118.12551117 22.872575760 1.4561297894 22.872575760
 2358.6176758 2.0000000000 13.137999535 13.137999535 -0.027967950 0.5109527111 2.1828758717 25.868701935 94.552406311 97.611511230 97.756866455 15.986178398 117.87620544 23.594514847 1.3312002420 23.594514847
 2358.7700195 2.0000000000 13.182999611 13.182999611 -0.031980801 0.6674371362 2.1802999973 27.731029510 94.452690125 97.675682068 97.628654480 16.221864700 117.62620544 24.397138596 1.3679407835 24.397138596
 2358.9223633 2.0000000000 13.173000336 13.173000336 -0.027016053 0.7317728400 2.1809327602 26.993604660 94.313346863 97.190353394 97.504539490 16.825090408 117.39610291 25.023990631 1.4108624458 25.023990631
 2359.0749512 2.0000000000 13.111999512 13.111999512 -0.027000001 0.6773360372 2.1817452908 29.045391083 94.646697998 98.398162842 97.788825989 17.301715851 117.33428955 25.881875992 1.3810480833 25.881875992
 2359.2272949 2.0000000000 13.008999825 13.008999825 -0.021019200 0.5381469727 2.1829750538 28.282474518 94.991600037 98.284576416 98.327293396 17.680181503 117.01852417 26.406486511 1.3280848265 26.406486511
 2359.3796387 2.0000000000 12.828000069 12.828000069 -0.014022436 0.4503711760 2.1847615242 30.175855637 95.315986633 98.884101868 98.553230286 18.124860764 118.04105377 26.865793228 1.3669375181 26.865793228
 2359.5319824 2.0000000000 12.642999649 12.642999649 -0.014996795 0.4834382534 2.1842508316 31.856922150 95.424049377 98.424232483 98.630561829 18.254383087 118.37342072 26.750566483 1.4178367853 26.750566483
 2359.6845703 2.0000000000 12.597998619 12.597998619 -0.011006410 0.5546017289 2.1851828098 31.701526642 95.038879395 98.349349976 98.392005920 18.231115341 118.65863800 26.578824997 1.4189984798 26.578824997
 2359.8369141 2.0000000000 12.644000053 12.644000053 -0.009006400 0.5654259324 2.1896431446 31.898365021 94.991600037 98.071342468 98.254005432 18.136455536 119.37155914 26.428720474 1.4779055119 26.428720474
 2359.9892578 2.0000000000 12.699000359 12.699000359 -0.006009615 0.5286782384 2.1931297779 29.197685242 95.099746704 98.665122986 98.335273743 17.824504852 120.12139130 26.558370590 1.4690144062 26.558370590
 2360.1416016 2.0000000000 12.704000473 12.704000473 -0.006996795 0.5058196783 2.1926469803 29.781145096 95.053840637 98.060935974 98.371482849 18.702751160 120.87139130 26.414695740 1.4989519119 26.414695740
 2360.2939453 2.0000000000 12.659999847 12.659999847 -0.015971154 0.4893689454 2.1896770000 29.030639648 95.016174316 98.523002625 98.282775879 20.103008270 121.63609314 26.422943115 1.4770704508 26.422943115
 2360.4465332 2.0000000000 12.638999939 12.638999939 -0.013009600 0.4556681216 2.1921961308 28.003292084 94.945320129 98.008491516 98.233245850 21.607774734 122.85911560 26.923582077 1.5329102278 26.923582077
 2360.5988770 2.0000000000 12.628999710 12.628999710 -0.011006410 0.3902599812 2.1993730068 23.906162262 94.560791016 97.755210876 97.953262329 23.379476547 123.62532806 27.619647980 1.6028878689 27.619647980
 2360.7512207 2.0000000000 12.614998817 12.614998817 -0.008009615 0.3574373126 2.2038230896 23.415304184 94.837440491 98.369033813 98.091369629 24.674783707 125.10586548 27.815073013 1.5990064144 27.815073013
 2360.9035645 2.0000000000 12.602000237 12.602000237 -0.011987180 0.3520851135 2.2014913559 25.328744888 95.269775391 98.739219666 98.514678955 27.182912827 125.37970734 28.354398727 1.5750768185 28.354398727
 2361.0561523 2.0000000000 12.578000069 12.578000069 -0.017990384 0.3598051071 2.1914870739 30.145540237 95.277961731 98.736022949 98.697486877 30.107950211 125.86367035 28.216676712 1.6139374971 28.216676712
 2361.2084961 2.0000000000 12.539999008 12.539999008 -0.021987200 0.3480578363 2.1772308350 30.793964386 95.339004517 98.450378418 98.670013428 30.959953308 126.14764404 28.314523697 1.6139999628 28.314523697
 2361.3608398 2.0000000000 12.498000145 12.498000145 -0.034958333 0.3272800446 2.1635222435 31.222940445 95.724761963 99.499923706 98.995079041 31.160051346 126.88545227 27.308860779 1.5800545216 27.308860779
 2361.5131836 2.0000000000 12.487999916 12.487999916 -0.037990384 0.2985284030 2.1570000648 31.173250198 96.249488831 99.752807617 99.580413818 33.001110077 127.80557251 26.595422745 1.5241792202 26.595422745
 2361.6657715 2.0000000000 12.496999741 12.496999741 -0.034006413 0.2920005322 2.1600790024 29.984821320 96.581573486 100.03465271 99.924369812 33.518547058 127.91051483 26.106342316 1.5749182701 26.106342316
 2361.8181152 2.0000000000 12.506999969 12.506999969 -0.024032000 0.3038219213 2.1669185162 30.253124237 96.990890503 100.70874786 100.36437225 29.805946350 128.31604004 25.733789444 1.5919727087 25.733789444
 2361.9704590 2.0000000000 12.524000168 12.524000168 -0.021009615 0.3231479824 2.1719655991 29.733673096 97.492446899 100.95880890 100.78556061 22.480302811 128.24534607 24.762681961 1.5670400858 24.762681961
 2362.1228027 2.0000000000 12.531000137 12.531000137 -0.021000000 0.3295593560 2.1736357212 31.226789474 97.660743713 100.91819763 101.03163910 17.838254929 129.34965515 21.041952133 1.5470321178 21.041952133
 2362.2753906 2.0000000000 12.531000137 12.531000137 -0.022996794 0.3122756779 2.1736185551 28.433006287 98.211120605 102.36103821 101.59815216 13.455033302 130.39100647 15.311552048 1.5260336399 15.311552048
 2362.4277344 2.0000000000 12.534999847 12.534999847 -0.023996800 0.2927227020 2.1733999252 29.133718491 98.711639404 101.98086548 102.00020599 10.040394783 131.65989685 10.344861031 1.5090272427 10.344861031
 2362.5800781 2.0000000000 12.552000046 12.552000046 -0.029980769 0.2780669034 2.1738066673 28.848922729 97.931915283 100.94400024 101.23176575 7.4782981873 133.30906677 6.7681632042 1.4670673609 6.7681632042
 2362.7324219 2.0000000000 12.581999779 12.581999779 -0.033987183 0.2589121461 2.1744356155 32.811882019 95.955596924 97.487670898 99.306236267 5.7114758492 134.43460083 4.5307259560 1.4500273466 4.5307259560
 2362.8847656 2.0000000000 12.602000237 12.602000237 -0.039980769 0.2363087535 2.1756846905 35.430442810 94.660377502 97.233154297 97.906837463 4.5167307854 136.16467285 3.2979040146 1.4240832329 3.2979040146
 2363.0373535 2.0000000000 12.595999718 12.595999718 -0.040998399 0.2366186678 2.1800789833 39.314552307 97.002487183 101.02570343 100.34859467 3.6700558662 137.04180908 2.7127935886 1.2293124199 2.7127935886
 2363.1896973 2.0000000000 12.574000359 12.574000359 -0.042993601 0.2737306654 2.1894490719 40.328781128 105.31221008 116.51625824 109.08247375 3.1455142498 138.44125366 2.3945238590 1.1970512867 2.3945238590
 2363.3420410 2.0000000000 12.562999725 12.562999725 -0.041006412 0.3172705770 2.2070558071 40.360862732 116.54460907 125.87614441 120.56608582 2.7877163887 139.01823425 2.2417306900 1.1630544662 2.2417306900
 2363.4943848 2.0000000000 12.601000786 12.601000786 -0.035019230 0.3284072280 2.2386288643 39.340927124 125.06298065 133.12519836 129.37536621 2.5083413124 139.98733521 2.1593942642 1.2148336172 2.1593942642
 2363.6469727 2.0000000000 12.725999832 12.725999832 -0.019025641 0.3392253816 2.2887661457 37.013469696 129.97836304 140.79518127 134.54879761 2.4512686729 140.74636841 2.0923216343 1.5694311857 2.0923216343
 2363.7993164 2.0000000000 13.045999527 13.045999527 -0.008035201 0.3976323307 2.3532924652 30.211847305 124.63391113 119.15373230 129.03540039 2.5992834568 141.49739075 2.1586778164 1.4631714821 2.1586778164
 2363.9516602 2.0000000000 13.385999680 13.385999680 -0.004012821 0.4575479329 2.4194259644 28.826385498 113.76586151 112.16127014 117.60037994 2.8259086609 142.48623657 2.4486010075 1.3022580147 2.4486010075
 2364.1040039 2.0000000000 13.236000061 13.236000061 -0.008983974 0.4748474658 2.4759540558 27.080400467 108.83251190 114.79511261 112.53017426 3.1384952068 142.76866150 2.9545624256 1.3628048897 2.9545624256
 2364.2565918 2.0000000000 13.133999825 13.133999825 -0.006004808 0.4058222175 2.5197072029 27.865447998 102.13079834 97.754249573 105.64782715 3.1141247749 143.72737122 3.2983534336 1.4278957844 3.2983534336
