# LAS format log file from PETREL
# Project units are specified as depth units
#==================================================================
~Version information
VERS.   2.0:
WRAP.   NO:
#==================================================================
~Well
STRT .m      489.99996948 :
STOP .m      1530.0000000 :
STEP .m     0.00000000 :
NULL .        -999.250000 :
COMP.           : COMPANY
WELL.  15/9-22   : WELL
FLD.            : FIELD
LOC.            : LOCATION
SRVC.           : SERVICE COMPANY
DATE.  2018-09-11 14:48:02   : Log Export Date {yyyy-MM-dd HH:mm:ss}
PROV.           : PROVINCE
UWI.   15/9-22   : UNIQUE WELL ID
API.            : API NUMBER
#==================================================================
~Curve
DEPT .m                   : DEPTH
Lithology_geolink ._      : Lithology_geolink
BS .in                    : BS
GR .gAPI                  : GR
RDEP .ohm.m               : RDEP
RMED .ohm.m               : RMED
~Parameter
#==================================================================
~Ascii
# ...
 918.40002441  -999.250000 17.500000000 55.528999329 0.7300036550 0.6899957061
 918.49993896  -999.250000 17.500000000 52.915191650 0.7360000014 0.6830000281
 918.59997559  -999.250000 17.500000000 51.383934021 0.7319999933 0.6949999928
 918.70001221  -999.250000 17.500000000 52.750999451 0.7269999981 0.7030000091
 918.79998779  -999.250000 17.500000000 55.819999695 0.7369999886 0.7129999995
 918.90002441  -999.250000 17.500000000 57.617000580 0.7300000191 0.7110000253
 919.00006104  -999.250000 17.500000000 58.389999390 0.7269999981 0.7230073214
 919.09997559  -999.250000 17.500000000 60.178909302 0.7269999981 0.7289999723
 919.20001221  -999.250000 17.500000000 63.205154419 0.7340000272 0.7279999852
 919.29998779  -999.250000 17.500000000 66.166999817 0.7340000272 0.7329999804
 919.40002441  -999.250000 17.500000000 65.916000366 0.7340000272 0.7379999757
 919.50000000  -999.250000 17.500000000 60.576000214 0.7200006247 0.7439945340
 919.60003662  -999.250000 17.500000000 55.286998749 0.7210030556 0.7350030541
 919.69995117  -999.250000 17.500000000 52.523376465 0.7260000110 0.7400000095
 919.79998779  -999.250000 17.500000000 51.736476898 0.7189999819 0.7469999790
 919.90002441  -999.250000 17.500000000 53.073001862 0.7269999981 0.7400000095
 920.00000000  -999.250000 17.500000000 55.340000153 0.7440000176 0.7480000257
 920.10003662  -999.250000 17.500000000 56.457000732 0.7400024533 0.7360018492
 920.20001221  -999.250000 17.500000000 55.971000671 0.7440024614 0.7390012145
 920.29998779  -999.250000 17.500000000 55.101531982 0.7480000257 0.7409999967
 920.39996338  -999.250000 17.500000000 54.783390045 0.7490000129 0.7409999967
 920.50000000  -999.250000 17.500000000 55.527000427 0.7549999952 0.7659999728
 920.60003662  -999.250000 17.500000000 56.604999542 0.7509999871 0.7590000033
 920.70001221  -999.250000 17.500000000 57.368000031 0.7560018301 0.7529945374
 920.80004883  -999.250000 17.500000000 57.391998291 0.7589914799 0.7439914942
 920.89996338  -999.250000 17.500000000 55.990856171 0.7450000048 0.7300000191
 921.00000000  -999.250000 17.500000000 53.819324493 0.7400000095 0.7379999757
 921.09997559  -999.250000 17.500000000 52.048000336 0.7440000176 0.7350000143
 921.20001221  -999.250000 17.500000000 51.381000519 0.7429999709 0.7319999933
 921.30004883  -999.250000 17.500000000 53.161998749 0.7419975400 0.7370207310
 921.39996338  -999.250000 17.500000000 57.434391022 0.7400000095 0.7540000081
 921.50000000  -999.250000 17.500000000 62.626831055 0.7350000143 0.7440000176
 921.59997559  -999.250000 17.500000000 66.651000977 0.7319999933 0.7350000143
 921.70001221  -999.250000 17.500000000 69.815002441 0.7269999981 0.7170000076
 921.79998779  -999.250000 17.500000000 72.907997131 0.7210000157 0.7390000224
 921.90002441  -999.250000 17.500000000 75.051002502 0.7279993892 0.7519737482
 921.99993896  -999.250000 17.500000000 74.125129700 0.7269999981 0.7089999914
 922.09997559  -999.250000 17.500000000 70.126441956 0.7269999981 0.7059999704
 922.20001221  -999.250000 17.500000000 64.650001526 0.7279999852 0.7020000219
 922.29998779  -999.250000 17.500000000 59.763000488 0.7250000238 0.7239999771
 922.40002441  -999.250000 17.500000000 58.108001709 0.7319999933 0.7070000172
 922.50000000  -999.250000 17.500000000 60.562999725 0.7329939008 0.6979945302
 922.59997559  -999.250000 17.500000000 63.769042969 0.7229999900 0.6890000105
 922.69995117  -999.250000 17.500000000 65.657699585 0.7120000124 0.7149999738
 922.79998779  -999.250000 17.500000000 66.190002441 0.7009999752 0.7369999886
 922.90002441  -999.250000 17.500000000 65.462997437 0.7059999704 0.7350000143
 923.00000000  -999.250000 17.500000000 63.185001373 0.7070000172 0.7229999900
 923.10003662  -999.250000 17.500000000 59.555000305 0.7069969773 0.7189975381
 923.19995117  -999.250000 17.500000000 56.945190430 0.7020000219 0.7149999738
 923.29998779  -999.250000 17.500000000 56.535247803 0.6990000010 0.7080000043
 923.40002441  -999.250000 17.500000000 57.570999146 0.6930000186 0.7160000205
 923.50000000  -999.250000 17.500000000 59.334999084 0.6919999719 0.7149999738
 923.60003662  -999.250000 17.500000000 60.505001068 0.6929988265 0.7229926586
 923.70001221  -999.250000 17.500000000 60.944000244 0.6910060644 0.7110085487
 923.79998779  -999.250000 17.500000000 61.421710968 0.7009999752 0.7250000238
 923.89996338  -999.250000 17.500000000 63.013053894 0.7009999752 0.6930000186
 924.00000000  -999.250000 17.500000000 65.861999512 0.7049999833 0.6999999881
 924.10003662  -999.250000 17.500000000 69.018997192 0.6999999881 0.7120000124
 924.20001221  -999.250000 17.500000000 69.728996277 0.6950005889 0.7250092030
 924.30004883  -999.250000 17.500000000 68.097999573 0.6960048676 0.7399963737
 924.39996338  -999.250000 17.500000000 66.301101685 0.7039999962 0.7340000272
 924.50000000  -999.250000 17.500000000 66.028167725 0.7070000172 0.7310000062
 924.59997559  -999.250000 17.500000000 65.799003601 0.7139999866 0.7210000157
 924.70001221  -999.250000 17.500000000 64.222000122 0.7049999833 0.7129999995
 924.80004883  -999.250000 17.500000000 62.429000854 0.7030012012 0.7130524516
 924.90002441  -999.250000 17.500000000 61.644001007 0.7040042877 0.7560048699
 925.00000000  -999.250000 17.500000000 61.484100342 0.7110000253 0.7639999986
 925.09997559  -999.250000 17.500000000 61.218162537 0.7089999914 0.7440000176
 925.20001221  -999.250000 17.500000000 59.381000519 0.6930000186 0.7369999886
 925.29998779  -999.250000 17.500000000 57.262001038 0.6869999766 0.7459999919
 925.40002441  -999.250000 17.500000000 55.925998688 0.6900011897 0.7429981232
 925.49993896  -999.250000 17.500000000 55.280788422 0.6919999719 0.7400000095
 925.59997559  -999.250000 17.500000000 54.788299561 0.6830000281 0.7350000143
 925.70001221  -999.250000 17.500000000 54.319286346 0.6769999862 0.7269999981
 925.79998779  -999.250000 17.500000000 53.891998291 0.6779999733 0.7300000191
 925.90002441  -999.250000 17.500000000 53.771999359 0.6800000072 0.7360000014
 926.00000000  -999.250000 17.500000000 55.279998779 0.6789981723 0.7339981794
 926.09997559  -999.250000 17.500000000 59.303543091 0.6759999990 0.7310000062
 926.19995117  -999.250000 17.500000000 64.691421509 0.6710000038 0.7329999804
 926.29998779  -999.250000 17.500000000 66.524002075 0.6719999909 0.7360000014
 926.40002441  -999.250000 17.500000000 62.050998688 0.6740000248 0.7379999757
 926.50000000  -999.250000 17.500000000 55.772998810 0.6740000248 0.7329999804
 926.60003662  -999.250000 17.500000000 53.444999695 0.6749932766 0.7249963880
 926.69995117  -999.250000 17.500000000 56.739986420 0.6639999747 0.7189999819
 926.79998779  -999.250000 17.500000000 62.053756714 0.6650000215 0.7160000205
 926.89996338  -999.250000 17.500000000 65.750000000 0.6650000215 0.7149999738
 927.00000000  -999.250000 17.500000000 66.983001709 0.6650000215 0.7129999995
 927.10003662  -999.250000 17.500000000 66.556999207 0.6660000086 0.7120000124
 927.20001221  -999.250000 17.500000000 66.886001587 0.6710036397 0.7089987993
 927.29998779  -999.250000 17.500000000 68.190208435 0.6769999862 0.7070000172
 927.39996338  -999.250000 17.500000000 68.781272888 0.6790000200 0.7070000172
 927.50000000  -999.250000 17.500000000 67.716003418 0.6790000200 0.7059999704
 927.60003662  -999.250000 17.500000000 66.384002686 0.6790000200 0.7070000172
 927.70001221  -999.250000 17.500000000 66.573997498 0.6799988151 0.7080006003
 927.80004883  -999.250000 17.500000000 67.369003296 0.6779987812 0.7089999914
 927.89996338  -999.250000 17.500000000 63.127590179 0.6759999990 0.7089999914
 928.00000000  -999.250000 17.500000000 52.388553619 0.6850000024 0.6949999928
 928.09997559  -999.250000 17.500000000 42.956001282 0.7020000219 0.6899999976
 928.20001221  -999.250000 17.500000000 40.587001801 0.7070000172 0.7039999962
 928.30004883  -999.250000 17.500000000 44.512001038 0.7059987783 0.7180219889
 928.40002441  -999.250000 17.500000000 51.933998108 0.7049963474 0.7360000014
 928.50000000  -999.250000 17.500000000 58.093238831 0.6990000010 0.7360000014
