# LAS format log file from PETREL
# Project units are specified as depth units
#==================================================================
~Version information
VERS.   2.0:
WRAP.   NO:
#==================================================================
~Well
STRT .m      1517.9528809 :
STOP .m      3212.6408691 :
STEP .m     0.00000000 :
NULL .        -999.250000 :
COMP.           : COMPANY
WELL.  15/9-23   : WELL
FLD.            : FIELD
LOC.            : LOCATION
SRVC.           : SERVICE COMPANY
DATE.  2018-09-11 14:48:03   : Log Export Date {yyyy-MM-dd HH:mm:ss}
PROV.           : PROVINCE
UWI.   15/9-23   : UNIQUE WELL ID
API.            : API NUMBER
#==================================================================
~Curve
DEPT .m                   : DEPTH
Lithology_geolink ._      : Lithology_geolink
DCAL .in                  : DCAL
CALI .in                  : CALI
BS .in                    : BS
ROP .m/h                  : ROP
DRHO .g/cm3               : DRHO
NPHI .m3/m3               : NPHI
RHOB .g/cm3               : RHOB
PEF .b/e                  : PEF
GR .gAPI                  : GR
DTC .us/ft                : DTC
DTS .us/ft                : DTS
RDEP .ohm.m               : RDEP
RMED .ohm.m               : RMED
~Parameter
#==================================================================
~Ascii
# ...
 2192.7800293  -999.250000 0.4380998909 12.688099861 12.250000954 25.955402374 0.0738999993 0.4232000113 2.2411999702 6.5241999626 70.300903320 133.84840393 347.47140503 0.3725999892 0.3833999932
 2192.9323730  -999.250000 0.5167999268 12.766800880 12.250000954 26.973100662 0.0767000020 0.3957999945 2.2446999550 6.4197998047 74.021400452 134.37959290 347.56878662 0.3741999865 0.3853000104
 2193.0849609  -999.250000 0.6281003952 12.878101349 12.250000954 27.709522247 0.0876000002 0.3980999887 2.2400999069 6.8488001823 71.763099670 135.37930298 348.03750610 0.3839139342 0.3861038387
 2193.2373047  -999.250000 0.6225004196 12.872500420 12.250000954 25.789352417 0.0930000022 0.4038000107 2.2486999035 7.1340999603 65.732498169 137.62269592 346.34402466 0.3926364779 0.3885123134
 2193.3896484  -999.250000 0.7140999436 12.964099884 12.250000954 24.199901581 0.0987000018 0.4075999856 2.2593998909 7.5331001282 68.914001465 137.74259949 345.79840088 0.4153999984 0.3962000012
 2193.5419922  -999.250000 0.8083000183 13.058300972 12.250000954 24.956499100 0.1013000011 0.3885999918 2.2560000420 7.8861999512 72.552803040 137.30459595 345.39270020 0.4183999896 0.4047000110
 2193.6945801  -999.250000 0.5698003769 12.819799423 12.250000954 25.874702454 0.1070000008 0.3950000107 2.2595999241 7.8323001862 60.577499390 135.57527161 347.53851318 0.4175628126 0.4084821939
 2193.8469238  -999.250000 0.4997996986 12.749799728 12.250000954 23.131734848 0.0912000015 0.4176999927 2.2488999367 7.2841000557 63.977100372 134.86987305 344.88446045 0.3943943977 0.3973879814
 2193.9992676  -999.250000 0.4619998932 12.711999893 12.250000954 21.844322205 0.0825999975 0.4176000059 2.2430999279 6.9879999161 66.675201416 134.60272217 341.60888672 0.3908908665 0.3898892701
 2194.1516113  -999.250000 0.4357003868 12.685700417 12.250000954 21.671001434 0.0724999979 0.4172999859 2.2260999680 6.6118001938 74.684997559 134.80310059 342.97570801 0.3851999938 0.3831999898
 2194.3041992  -999.250000 0.4551001191 12.705100060 12.250000954 20.803821564 0.0719000027 0.4180000126 2.2232000828 6.6030998230 76.148902893 135.63179016 346.13238525 0.3688733876 0.3683628142
 2194.4565430  -999.250000 0.5003995895 12.750399590 12.250000954 21.878952026 0.0768999979 0.4384999871 2.2342000008 6.8306999207 68.446098328 136.81185913 349.76702881 0.3522765934 0.3451863825
 2194.6088867  -999.250000 0.5402001739 12.790200233 12.250000954 23.536203384 0.0830999985 0.4072000086 2.2443997860 7.2182002068 73.537200928 140.09237671 345.72900391 0.3376968205 0.3367033601
 2194.7612305  -999.250000 0.4607000053 12.710700035 12.250000954 25.909200668 0.0786999986 0.3761999905 2.2358000278 6.9942998886 67.253501892 140.57719421 345.02029419 0.3357000053 0.3388000131
 2194.9135742  -999.250000 0.3634004891 12.613400459 12.250000954 25.290300369 0.0746000037 0.4054999948 2.2374999523 6.5750999451 67.550003052 140.03880310 344.99688721 0.3327000141 0.3388000131
 2195.0661621  -999.250000 0.5421000123 12.792099953 12.250000954 25.155536652 0.0725999996 0.4077000022 2.2402000427 6.5106000900 68.627700806 141.17553711 347.50286865 0.3337121904 0.3414084911
 2195.2185059  -999.250000 0.8278998137 13.077899933 12.250000954 28.798538208 0.0747999996 0.3986999989 2.3354001045 6.7374000549 71.677597046 141.32858276 346.73348999 0.3413081765 0.3467110395
 2195.3708496  -999.250000 0.5233001709 12.773300171 12.250000954 32.879386902 0.0388000049 0.3925999999 2.2620999813 6.5900001526 73.272598267 141.13139343 344.64602661 0.3463999927 0.3535999954
 2195.5231934  -999.250000 0.2812995911 12.531299591 12.250000954 33.418212891 0.0375999995 0.4038999975 2.2091000080 6.1265001297 74.808097839 139.20959473 345.81948853 0.3519000113 0.3567999899
 2195.6757813  -999.250000 0.2620001137 12.512000084 12.250000954 33.495708466 0.0579999983 0.4190999866 2.2316999435 5.9243001938 61.423500061 138.76287842 348.64181519 0.3414809406 0.3583831489
 2195.8281250  -999.250000 0.3976002038 12.647600174 12.250000954 38.637310028 0.0516999997 0.4032999873 2.2207000256 6.0675001144 61.423500061 138.87541199 353.18579102 0.3296126723 0.3478966355
 2195.9804688  -999.250000 0.3325996101 12.582599640 12.250000954 52.544578552 0.0542999990 0.3716052771 2.2230868340 6.1108388901 65.801200867 139.81660461 353.71328735 0.3375060856 0.3458168209
 2196.1328125  -999.250000 0.0882997438 12.338299751 12.250000954 54.037902832 0.0548000000 0.3749000132 2.2771999836 6.1975002289 66.895500183 137.69070435 353.43109131 0.3413000107 0.3562999964
 2196.2854004  -999.250000 0.4539003074 12.703900337 12.250000954 56.607173920 0.0342999995 0.3908480704 2.3119482994 6.7404680252 66.739700317 133.26228333 352.52090454 0.3989486992 0.4391012788
 2196.4377441  -999.250000 0.7190999985 12.969099998 12.250000954 56.139362335 0.0217000004 0.4208229184 2.3422713280 7.1575818062 64.567199707 132.19415283 346.28359985 0.4918815792 0.6268607378
 2196.5900879  -999.250000 0.7223997116 12.972399712 12.250000954 51.321552277 0.0410999991 0.4351367950 2.4490826130 7.7062354088 56.045200348 133.66577148 344.93707275 0.6672751904 0.6646466851
 2196.7424316  -999.250000 1.0422999859 13.292300224 12.250000954 46.051502228 0.0546999983 0.4580999911 2.4381999969 7.2915000916 56.002101898 137.45170593 346.50509644 0.6517999768 0.6313999891
 2196.8947754  -999.250000 1.0298999548 13.279899597 12.250000954 36.949592590 0.0571000017 0.4277999997 2.3566000462 6.4444999695 57.274501801 141.38879395 351.30398560 0.3632000089 0.4086999893
 2197.0473633  -999.250000 0.5417994857 12.791799545 12.250000954 32.425579071 0.0491000041 0.3986948729 2.2533485889 5.6281433105 62.973201752 141.89073181 351.81417847 0.3357338309 0.3313044906
 2197.1997070  -999.250000 0.1638001949 12.413800240 12.250000954 30.283708572 0.0428000018 0.3955000043 2.2212846279 5.4686541557 65.654197693 138.73577881 348.69119263 0.3568495810 0.3341528177
 2197.3520508  -999.250000 0.1964997798 12.446498871 12.250000954 28.168998718 0.0467000008 0.3955000043 2.2118000984 5.6272001266 65.334602356 141.83670044 347.97711182 0.3878000081 0.3671000004
 2197.5043945  -999.250000 0.2109003067 12.460900307 12.250000954 24.150800705 0.0463000014 0.3987999856 2.2098999023 5.6276998520 63.831298828 140.79299927 347.30175781 0.4054000080 0.3916999996
 2197.6569824  -999.250000 0.3249998391 12.574999809 12.250000954 22.160429001 0.0518999994 0.3962658644 2.2030034065 5.8617029190 64.727699280 136.67610168 347.18960571 0.4257461727 0.4296230972
 2197.8093262  -999.250000 0.3470000923 12.597000122 12.250000954 23.807132721 0.0553999990 0.3750064075 2.2051203251 5.9885282516 65.652999878 137.30836487 340.98098755 0.5793313980 0.5064762831
 2197.9616699  -999.250000 0.3368997872 12.586899757 12.250000954 29.937295914 0.0627000034 0.3790195286 2.2178368568 6.1922454834 62.996101379 139.22694397 337.53628540 0.7237987518 0.6163532734
 2198.1140137  -999.250000 0.1337995976 12.383800507 12.250000954 32.117904663 0.0590000004 0.3912000060 2.2409000397 5.8463001251 62.996101379 142.80690002 335.94549561 0.9101999998 0.6496000290
 2198.2666016  -999.250000 0.0774002150 12.327400208 12.250000954 28.674165726 0.0430000015 0.4118952155 2.2191658020 5.0780806541 64.272796631 142.66558838 338.58520508 0.4137536883 0.3881000280
 2198.4189453  -999.250000 0.0985002518 12.348501205 12.250000954 27.470811844 0.0329999998 0.4089403749 2.1978869438 4.6922192574 63.064899445 140.66831970 343.98510742 0.3849788606 0.3258237243
 2198.5712891  -999.250000 0.1330004036 12.382999420 12.250000954 30.049432755 0.0313000008 0.4341198504 2.1896982193 4.6426696777 62.335700989 139.50685120 346.85931396 0.4341452718 0.3406476974
 2198.7236328  -999.250000 0.2426003963 12.492600441 12.250000954 41.739311218 0.0405000001 0.4465000033 2.1886999607 5.0605001450 63.824699402 142.16499329 343.93438721 0.4623999894 0.3704000115
 2198.8759766  -999.250000 0.2854003906 12.535400391 12.250000954 59.239799500 0.0458000004 0.4411000013 2.1891999245 5.3692002296 66.628501892 142.93040466 339.71099854 0.4986999929 0.4154999852
