# LAS format log file from PETREL
# Project units are specified as depth units
#==================================================================
~Version information
VERS.   2.0:
WRAP.   NO:
#==================================================================
~Well
STRT .m      485.02883911 :
STOP .m      3207.3493652 :
STEP .m     0.00000000 :
NULL .        -999.250000 :
COMP.           : COMPANY
WELL.  15/9-15   : WELL
FLD.            : FIELD
LOC.            : LOCATION
SRVC.           : SERVICE COMPANY
DATE.  2018-09-11 14:48:00   : Log Export Date {yyyy-MM-dd HH:mm:ss}
PROV.           : PROVINCE
UWI.   15/9-15   : UNIQUE WELL ID
API.            : API NUMBER
#==================================================================
~Curve
DEPT .m                   : DEPTH
Lithology_geolink ._      : Lithology_geolink
DCAL .in                  : DCAL
CALI .in                  : CALI
BS .in                    : BS
DRHO .g/cm3               : DRHO
NPHI .m3/m3               : NPHI
RHOB .g/cm3               : RHOB
PEF .b/e                  : PEF
GR .gAPI                  : GR
DTC .us/ft                : DTC
DT .us/ft                 : DT
RDEP .ohm.m               : RDEP
SP .mV                    : SP
RSHA .ohm.m               : RSHA
RXO .ohm.m                : RXO
RMED .ohm.m               : RMED
~Parameter
#==================================================================
~Ascii
# ...
 2661.6052246 10.000000000 9.9040002823 9.9026832581 8.5000000000 -0.035999998 0.1208600029 2.5685718060 6.2519998550 23.391000748 68.687309265 69.375000000 4.9409999847 114.58979797 4.4340000153 7.6264305115 4.4340000153
 2661.7575684 10.000000000 9.8590002060 9.8586988449 8.5000000000 -0.035000000 0.1057600006 2.5609652996 5.9580001831 22.687999725 69.471183777 69.563003540 4.8790001869 113.84140778 4.6129999161 6.1264829636 4.6129999161
 2661.9101563 10.000000000 9.8129997253 9.8129005432 8.5000000000 -0.035000000 0.1016100049 2.5557153225 5.3550000191 20.062999725 69.285346985 67.375000000 4.8590002060 114.09262848 5.3319997787 5.4372053146 5.3319997787
 2662.0625000 10.000000000 9.7670001984 9.7669010162 8.5000000000 -0.034000002 0.1098299995 2.5508594513 5.0289998055 20.733999252 68.152709961 66.563003540 4.8909997940 114.59761047 5.9099998474 6.4264497757 5.9099998474
 2662.2148438 10.000000000 9.7209997177 9.7209005356 8.5000000000 -0.034000002 0.1209599972 2.5459640026 5.2519998550 19.766000748 67.100189209 66.188003540 5.0700001717 114.35640717 6.1409997940 7.5395779610 6.1409997940
 2662.3671875 10.000000000 9.6750001907 9.6751470566 8.5000000000 -0.035999998 0.1269699931 2.5406212807 5.6440000534 19.718999863 66.441993713 65.375000000 5.3200001717 114.60541534 6.1599998474 8.1628522873 6.1599998474
 2662.5195313 9.0000000000 9.6300001144 9.6321573257 8.5000000000 -0.037999999 0.1238300055 2.5343635082 5.6810002327 19.733999252 66.076225281 66.000000000 5.6170001030 114.24061584 6.6449999809 7.9781379700 6.6449999809
 2662.6721191 9.0000000000 9.5939998627 9.5946607590 8.5000000000 -0.039000001 0.1170699969 2.5284917355 5.4380002022 19.125000000 66.034698486 65.563003540 6.0040001869 115.24782562 6.7340002060 7.6661014557 6.7340002060
 2662.8244629 9.0000000000 9.5609998703 9.5609292984 8.5000000000 -0.037000000 0.1113099977 2.5293879509 5.3449997902 18.562999725 65.737525940 64.563003540 6.2699999809 115.50321960 6.5079998970 9.0035820007 6.5079998970
 2662.9768066 9.0000000000 9.5279998779 9.5252199173 8.5000000000 -0.035999998 0.1100300029 2.5399408340 5.5500001907 16.281000137 65.220008850 64.750000000 6.5739998817 114.39300537 6.8010001183 8.6111888885 6.8010001183
 2663.1291504 9.0000000000 9.4840002060 9.4795198441 8.5000000000 -0.039000001 0.1151299924 2.5537173748 5.6539998055 14.633000374 64.702484131 63.374996185 7.0630002022 113.15442657 7.9340000153 7.8089718819 7.9340000153
 2663.2817383 9.0000000000 9.4219999313 9.4211282730 8.5000000000 -0.043000001 0.1188599989 2.5599355698 5.3899998665 13.288999557 64.241966248 62.375000000 7.0390000343 114.04162598 9.6639995575 9.7221193314 9.6639995575
 2663.4340820 9.0000000000 9.3570003510 9.3583374023 8.5000000000 -0.046000000 0.1127200052 2.5604796410 5.0130000114 14.241999626 63.863563538 62.375000000 7.4219999313 113.30204010 9.6479997635 11.753733635 9.6479997635
 2663.5864258 9.0000000000 9.2980003357 9.3047685623 8.5000000000 -0.046000000 0.1052799970 2.5610349178 4.8140001297 15.194999695 63.485504150 63.000000000 7.8480000496 113.32501984 9.2659997940 11.491097450 9.2659997940
 2663.7387695 9.0000000000 9.2670001984 9.2713871002 8.5000000000 -0.045000002 0.1023700014 2.5616345406 4.9050002098 16.483999252 63.107089996 63.187999725 8.0310001373 113.34077454 8.7969999313 12.114795685 8.7969999313
 2663.8913574 9.0000000000 9.2539997101 9.2539720535 8.5000000000 -0.043000001 0.1025800034 2.5621795654 5.1589999199 15.859000206 63.157791138 62.375000000 8.2810001373 113.19154358 8.6169996262 12.471937180 8.6169996262
 2664.0437012 9.0000000000 9.2410001755 9.2382516861 8.5000000000 -0.041000001 0.1018199995 2.5638542175 5.4520001411 15.866999626 63.211174011 62.593997955 8.3750000000 110.56278229 9.2340002060 10.563975334 9.2340002060
 2664.1958008 9.0000000000 9.2170000076 9.2134981155 8.5000000000 -0.041000001 0.0991243273 2.5680623055 5.5029182434 13.636580467 62.957061768 62.188652039 8.4448871613 112.91899872 10.068659782 11.139082909 10.068659782
 2664.3481445 9.0000000000 9.1789999008 9.1791515350 8.5000000000 -0.043995190 0.0957054794 2.5732247829 5.4371056557 12.985040665 62.755630493 61.001903534 8.2662868500 113.14499664 11.248108864 13.545174599 11.248108864
 2664.5004883 9.0000000000 9.1420001984 9.1441583633 8.5000000000 -0.044998400 0.0899991468 2.5758450031 5.3930706978 13.312472343 62.305854797 61.593048096 8.1252260208 113.41100311 11.726235390 13.186269760 11.726235390
 2664.6528320 9.0000000000 9.1140003204 9.1147127151 8.5000000000 -0.042009600 0.0834011585 2.5728077888 5.3830318451 15.882750511 61.801403046 61.998699188 7.9346113205 113.54399872 11.711051941 13.333407402 11.711051941
 2664.8054199 9.0000000000 9.0889997482 9.0891838074 8.5000000000 -0.038006410 0.0827010944 2.5631289482 5.2382321358 20.398763657 61.858596802 62.779747009 7.5436267853 113.15299988 10.595789909 14.818639755 10.595789909
 2664.9577637 9.0000000000 9.0649995804 9.0649394989 8.5000000000 -0.034006413 0.0863141939 2.5513081551 5.0469999313 20.391025543 62.353374481 64.372444153 7.0987133980 113.91100311 8.6830673218 13.813473701 8.6830673218
 2665.1101074 10.000000000 9.0410003662 9.0409622192 8.5000000000 -0.033001602 0.0920408219 2.5407946110 4.9010000229 22.028371811 63.236461639 64.749397278 6.5788335800 113.26999664 7.3850784302 11.325701714 7.3850784302
 2665.2624512 10.000000000 9.0170001984 9.0184545517 8.5000000000 -0.036987200 0.0953294784 2.5343425274 4.8949999809 21.408000946 64.282783508 65.373001099 6.4105372429 113.48899841 7.3092370033 9.5468120575 7.3092370033
 2665.4150391 10.000000000 8.9989995956 8.9996948242 8.5000000000 -0.041991986 0.0970871970 2.5338711739 4.9159998894 24.026792526 65.044624329 66.373397827 6.2622370720 113.62200165 7.3279695511 8.2246599197 7.3279695511
 2665.5673828 10.000000000 8.9840002060 8.9839620590 8.5000000000 -0.045993589 0.1007141769 2.5369157791 4.8610000610 24.358472824 65.734313965 66.375000000 6.2070879936 115.22299957 6.9146633148 9.1567087173 6.9146633148
 2665.7197266 10.000000000 8.9689998627 8.9689760208 8.5000000000 -0.046998397 0.1116524488 2.5437159538 4.8489999771 20.490209579 66.368026733 66.375000000 6.6403040886 114.60600281 6.0324153900 10.484756470 6.0324153900
 2665.8720703 10.000000000 8.9540004730 8.9539861679 8.5000000000 -0.046003200 0.1223158240 2.5560300350 5.0430002213 16.606447220 66.639427185 65.751998901 6.8004879951 114.10600281 7.5072607994 8.4915285110 7.5072607994
 2666.0246582 10.000000000 8.9390001297 8.9382228851 8.5000000000 -0.041008014 0.1226095781 2.5728614330 5.3410000801 12.054286957 66.511878967 64.002799988 7.2063493729 113.58300018 10.627998352 6.9925999641 10.627998352
 2666.1770020 10.000000000 8.9209995270 8.9172544479 8.5000000000 -0.039003205 0.1127458289 2.5867350101 5.5640001297 12.686972618 65.773269653 61.784553528 7.2539248466 113.33300018 10.539150238 8.9141407013 10.539150238
 2666.3293457 10.000000000 8.8879995346 8.8871774673 8.5000000000 -0.038001601 0.1023965850 2.5916337967 5.6040000916 12.336565018 64.236938477 62.187347412 7.4017629623 113.58300018 10.538999557 12.010265350 10.538999557
 2666.4816895 10.000000000 8.8520002365 8.8541593552 8.5000000000 -0.038998399 0.0939335600 2.5882854462 5.5130000114 14.590381622 62.859138489 61.594955444 7.9720849991 112.96600342 10.484087944 13.522615433 10.484087944
 2666.6342773 10.000000000 8.8249998093 8.8303594589 8.5000000000 -0.040996801 0.0899463743 2.5828905106 5.5920000076 13.939049721 62.288955688 61.000949860 8.1407308578 111.84100342 10.359200478 13.761657715 10.359200478
 2666.7866211 9.0000000000 8.8199996948 8.8209743500 8.5000000000 -0.043995190 0.0884823352 2.5829076767 5.8200001717 14.904448509 61.887092590 62.186096191 8.7020998001 112.72299957 10.726410866 12.170479774 10.726410866
 2666.9389648 9.0000000000 8.8190002441 8.8189973831 8.5000000000 -0.045996796 0.0874816030 2.5907361507 6.0139999390 12.317154884 61.791145325 61.781650543 8.6171379089 112.84799957 10.578238487 13.031268120 10.578238487
 2667.0913086 9.0000000000 8.8179998398 8.8182449341 8.5000000000 -0.046998397 0.0865614787 2.5983693600 6.0929999352 12.327976227 62.070632935 61.188949585 8.3444375992 112.35600281 9.1273288727 14.230841637 9.1273288727
