# LAS format log file from PETREL
# Project units are specified as depth units
#==================================================================
~Version information
VERS.   2.0:
WRAP.   NO:
#==================================================================
~Well
STRT .m      485.02883911 :
STOP .m      3207.3493652 :
STEP .m     0.00000000 :
NULL .        -999.250000 :
COMP.           : COMPANY
WELL.  15/9-15   : WELL
FLD.            : FIELD
LOC.            : LOCATION
SRVC.           : SERVICE COMPANY
DATE.  2018-09-11 14:48:00   : Log Export Date {yyyy-MM-dd HH:mm:ss}
PROV.           : PROVINCE
UWI.   15/9-15   : UNIQUE WELL ID
API.            : API NUMBER
#==================================================================
~Curve
DEPT .m                   : DEPTH
Lithology_geolink ._      : Lithology_geolink
DCAL .in                  : DCAL
CALI .in                  : CALI
BS .in                    : BS
DRHO .g/cm3               : DRHO
NPHI .m3/m3               : NPHI
RHOB .g/cm3               : RHOB
PEF .b/e                  : PEF
GR .gAPI                  : GR
DTC .us/ft                : DTC
DT .us/ft                 : DT
RDEP .ohm.m               : RDEP
SP .mV                    : SP
RSHA .ohm.m               : RSHA
RXO .ohm.m                : RXO
RMED .ohm.m               : RMED
~Parameter
#==================================================================
~Ascii
# ...
 1753.7585449  -999.250000 15.453000069 15.614063263 12.250000954 0.1100008041 0.5097230077 2.0371847153 2.8120000362 66.439002991 133.30055237 134.99980164 0.7670024037 68.200798035 0.8179751635 0.3803139329 0.8179751635
 1753.9110107  -999.250000 15.887000084 15.827524185 12.250000954 0.1099999994 0.4974198043 2.0344035625 2.8020000458 65.438804626 134.00057983 137.37309265 0.8029711246 69.198394775 0.7910216451 0.3950540125 0.7910216451
 1754.0633545  -999.250000 16.076000214 15.952099800 12.250000954 0.1030056104 0.4782062471 2.0318725109 2.8429999352 61.128456116 134.63403320 141.12199402 0.8219848275 68.199996948 0.7910000086 0.3899119198 0.7910000086
 1754.2158203  -999.250000 15.760999680 15.685557365 12.250000954 0.0930080116 0.4673872888 2.0324761868 2.9140000343 65.621398926 134.48814392 137.37800598 0.8170039654 68.200798035 0.8029903769 0.4173076153 0.8029903769
 1754.3681641  -999.250000 15.142999649 15.188681602 12.250000954 0.0870048031 0.4696663022 2.0340716839 2.9100000858 67.436553955 134.08573914 137.99949646 0.8239943981 68.699996948 0.8389711380 0.3554407954 0.8389711380
 1754.5205078  -999.250000 14.715000153 14.969594955 12.250000954 0.0919919908 0.4732314348 2.0367252827 2.7300000191 66.751098633 133.42272949 136.00320435 0.8329855800 68.701194763 0.8509808183 0.3539519608 0.8509808183
 1754.6729736  -999.250000 15.322999954 15.263248444 12.250000954 0.0999935940 0.4651929140 2.0389597416 2.5000000000 65.001403809 132.86602783 132.12809753 0.7990272641 70.199394226 0.8829743862 0.5277470350 0.8829743862
 1754.8253174  -999.250000 15.684000015 15.404859543 12.250000954 0.0980032012 0.4687214792 2.0374984741 2.3750000000 66.123199463 133.23341370 136.36819458 0.8119791746 69.450393677 0.8560432196 0.4906049669 0.8560432196
 1754.9777832  -999.250000 14.909999847 14.965506554 12.250000954 0.0970008075 0.4753393829 2.0359442234 2.3210000992 61.035079956 133.62510681 137.37419128 0.8529671431 69.949592590 0.8410120606 0.3872479796 0.8410120606
 1755.1301270  -999.250000 14.368000031 14.472498894 12.250000954 0.0970000029 0.5004795194 2.0353407860 2.3880000114 59.939750671 133.77259827 135.00379944 0.8529999852 69.449600220 0.8400015831 0.4228208065 0.8400015831
 1755.2825928  -999.250000 14.254000664 14.409159660 12.250000954 0.0830112174 0.5309012532 2.0321018696 2.5759999752 55.566505432 134.58633423 139.74620056 0.8779799938 68.949195862 0.8320064545 0.3589409292 0.8320064545
 1755.4349365  -999.250000 14.770000458 14.645975113 12.250000954 0.0680120215 0.5292241573 2.0294525623 2.8010001183 54.126152039 135.24320984 142.37289429 0.8859935403 67.951797485 0.8589783907 0.3053401113 0.8589783907
 1755.5874023  -999.250000 14.779000282 14.703782082 12.250000954 0.0650023967 0.5180279016 2.0296597481 2.8729999065 51.252300262 135.18783569 138.75289917 0.8550248146 70.199195862 0.8540039659 0.4532549679 0.8540039659
 1755.7397461  -999.250000 14.482999802 14.721584320 12.250000954 0.0649999976 0.5069565773 2.0288136005 2.7349998951 56.651664734 135.40495300 141.49780273 0.8460072279 69.699195862 0.9019615650 0.4081642032 0.9019615650
 1755.8922119  -999.250000 15.156999588 14.930313110 12.250000954 0.0659992024 0.5164347291 2.0299284458 2.5120000839 58.029895782 135.12751770 142.49920654 0.8380063772 68.701194763 0.8410488367 0.4460206032 0.8410488367
 1756.0445557  -999.250000 14.906000137 14.705096245 12.250000954 0.0689975917 0.5206199884 2.0377559662 2.4059998989 62.809169769 133.17529297 134.00680542 0.8010296226 69.449798584 0.8050288558 0.5059043765 0.8050288558
 1756.1970215  -999.250000 13.842000008 14.012559891 12.250000954 0.0809903890 0.5017203093 2.0459046364 2.4319999218 59.315803528 131.16003418 130.00320435 0.7850128412 69.200798035 0.7690288424 0.4994919002 0.7690288424
 1756.3493652  -999.250000 13.479000092 13.711050034 12.250000954 0.0919911861 0.4736749530 2.0472688675 2.5179998875 58.969276428 130.83007813 130.74940491 0.7800039649 69.699394226 0.7929807305 0.5990706086 0.7929807305
 1756.5017090  -999.250000 14.060000420 14.182273865 12.250000954 0.0949951932 0.4613695145 2.0427205563 2.5590000153 55.630355835 131.94485474 131.74839783 0.7650240064 68.949996948 0.8479118943 0.5852803588 0.8479118943
 1756.6541748  -999.250000 15.133999825 15.088931084 12.250000954 0.0949999988 0.4856709540 2.0358705521 2.5130000114 54.189151764 133.63562012 137.99499512 0.7410192490 68.949195862 0.8230200410 0.5400530100 0.8230200410
 1756.8065186  -999.250000 16.017000198 15.901250839 12.250000954 0.0880112052 0.5075374246 2.0305745602 2.4630000591 52.003501892 134.96337891 140.49600220 0.7400016189 67.949600220 0.7900528908 0.4789635837 0.7900528908
 1756.9589844  -999.250000 16.424999237 16.220155716 12.250000954 0.0800064057 0.5073902607 2.0274448395 2.4860000610 52.937248230 135.75642395 142.12370300 0.7190167904 67.451599121 0.7600240111 0.5303750038 0.7600240111
 1757.1113281  -999.250000 15.999000549 16.063283920 12.250000954 0.0869887918 0.4852433205 2.0257966518 2.5920000076 51.034049988 136.17651367 143.74739075 0.7030256391 69.449394226 0.7799679637 0.5321915150 0.7799679637
 1757.2637939  -999.250000 15.836999893 15.953076363 12.250000954 0.1019879803 0.4862283468 2.0264632702 2.6480000019 53.935668945 136.00257874 142.75080872 0.6830160618 68.700401306 0.7400320768 0.4928017557 0.7400320768
 1757.4161377  -999.250000 16.146999359 16.146348953 12.250000954 0.1119919941 0.5132549405 2.0276355743 2.5569999218 57.746944427 135.69891357 140.50180054 0.6700104475 69.200599670 0.7629815936 0.4289230704 0.7629815936
 1757.5686035  -999.250000 16.451999664 16.221286774 12.250000954 0.1030072048 0.5155963898 2.0262770653 2.3900001049 63.964023590 136.04463196 142.74819946 0.6879855990 69.950195313 0.7290272117 0.4747591317 0.7290272117
 1757.7209473  -999.250000 15.819000244 15.984222412 12.250000954 0.0810176283 0.5200592875 2.0227069855 2.2899999619 65.623672485 136.96304321 144.99819946 0.7029879689 70.202003479 0.7280007601 0.5553068519 0.7280007601
 1757.8734131  -999.250000 15.861000061 15.991095543 12.250000954 0.0570192151 0.5202796459 2.0193328857 2.2980000973 61.908977509 137.83848572 148.49719238 0.7199864388 72.697998047 0.7100144029 0.5920448899 0.7100144029
 1758.0257568  -999.250000 16.430000305 16.289308548 12.250000954 0.0490064099 0.5229535699 2.0192744732 2.3759999275 59.096256256 137.85072327 148.12530518 0.7419823408 71.446990967 0.7099999785 0.5655723810 0.7099999785
 1758.1782227  -999.250000 16.423999786 16.573968887 12.250000954 0.0619895905 0.5131158233 2.0234484673 2.4240000248 56.657951355 136.77078247 144.37800598 0.7519919872 67.704399109 0.7689527273 0.5043004155 0.7689527273
 1758.3305664  -999.250000 17.025999069 16.766298294 12.250000954 0.0799855739 0.4761892259 2.0289661884 2.4500000477 55.064277649 135.37205505 139.75370789 0.7460048199 70.448196411 0.8419415355 0.5505213141 0.8419415355
 1758.4830322  -999.250000 16.569999695 16.702445984 12.250000954 0.0829975978 0.4653173387 2.0321962833 2.4909999371 50.222881317 134.56036377 138.00140381 0.7519951463 68.202796936 0.8699775934 0.6179760098 0.8699775934
 1758.6353760  -999.250000 16.655000687 16.735280991 12.250000954 0.0750064105 0.4748247266 2.0318927765 2.5230000019 52.154445648 134.62974548 138.49960327 0.7659887671 69.949394226 0.8610072136 0.6367725134 0.8610072136
 1758.7877197  -999.250000 17.065000534 16.982564926 12.250000954 0.0730032027 0.4719370008 2.0281915665 2.5050001144 55.557544708 135.56581116 140.99600220 0.7779808044 69.198593140 0.8250576258 0.6557874084 0.8250576258
 1758.9401855  -999.250000 17.138000488 17.152679443 12.250000954 0.0849903822 0.4796376228 2.0224859715 2.4210000038 59.840572357 137.02801514 146.12089539 0.7710056305 67.449195862 0.8030176163 0.6497486830 0.8030176163
 1759.0925293  -999.250000 17.270000458 17.329172134 12.250000954 0.0899919942 0.4870022833 2.0174508095 2.4360001087 61.216800690 138.32904053 148.99539185 0.7839791775 66.452400208 0.7660592198 0.5604895949 0.7660592198
 1759.2449951  -999.250000 17.641000748 17.560422897 12.250000954 0.0939967930 0.4917124808 2.0143687725 2.5859999657 58.845905304 139.13444519 151.37309265 0.7790039778 69.450195313 0.7460160255 0.5586320758 0.7460160255
