# LAS format log file from PETREL
# Project units are specified as depth units
#==================================================================
~Version information
VERS.   2.0:
WRAP.   NO:
#==================================================================
~Well
STRT .m      485.02883911 :
STOP .m      3207.3493652 :
STEP .m     0.00000000 :
NULL .        -999.250000 :
COMP.           : COMPANY
WELL.  15/9-15   : WELL
FLD.            : FIELD
LOC.            : LOCATION
SRVC.           : SERVICE COMPANY
DATE.  2018-09-11 14:48:00   : Log Export Date {yyyy-MM-dd HH:mm:ss}
PROV.           : PROVINCE
UWI.   15/9-15   : UNIQUE WELL ID
API.            : API NUMBER
#==================================================================
~Curve
DEPT .m                   : DEPTH
Lithology_geolink ._      : Lithology_geolink
DCAL .in                  : DCAL
CALI .in                  : CALI
BS .in                    : BS
DRHO .g/cm3               : DRHO
NPHI .m3/m3               : NPHI
RHOB .g/cm3               : RHOB
PEF .b/e                  : PEF
GR .gAPI                  : GR
DTC .us/ft                : DTC
DT .us/ft                 : DT
RDEP .ohm.m               : RDEP
SP .mV                    : SP
RSHA .ohm.m               : RSHA
RXO .ohm.m                : RXO
RMED .ohm.m               : RMED
~Parameter
#==================================================================
~Ascii
# ...
 2114.6416016  -999.250000 20.927000046 20.823093414 12.250000954 0.0759951994 0.4545748234 2.0620491505 3.1600000858 38.654548645 136.92518616 141.12319946 0.4350368083 76.199996948 0.4900112152 0.4253201783 0.4900112152
 2114.7939453  -999.250000 21.327999115 21.079233170 12.250000954 0.0819903836 0.4695759118 2.0718293190 3.0309998989 41.807941437 136.90332031 141.00019836 0.4170288444 77.449996948 0.4840096235 0.3935599923 0.4840096235
 2114.9462891  -999.250000 20.716999054 20.932067871 12.250000954 0.0839967951 0.4969123304 2.0791594982 2.8810000420 45.868492126 136.85678101 140.12640381 0.4050192237 75.949996948 0.4810048044 0.4219387770 0.4810048044
 2115.0988770  -999.250000 20.983001709 20.916185379 12.250000954 0.0769999996 0.4875251949 2.0783779621 2.7720000744 45.375000000 136.70527649 141.00000000 0.4020000100 76.449996948 0.4839999974 0.4275677800 0.4839999974
 2115.2512207  -999.250000 20.975000381 20.919591904 12.250000954 0.0619999990 0.4679214656 2.0758695602 2.7630000114 42.594001770 137.22921753 142.50000000 0.4129999876 76.699996948 0.4709999859 0.4246567488 0.4709999859
 2115.4035645  -999.250000 20.743000031 20.794977188 12.250000954 0.0649951994 0.4352623522 2.0697066784 2.7669999599 34.294300079 137.93939209 142.37519836 0.4149968028 77.949996948 0.4789872169 0.4341240227 0.4789872169
 2115.5559082  -999.250000 20.723999023 20.813451767 12.250000954 0.0620048083 0.4404232502 2.0672173500 2.8989999294 36.621242523 138.49897766 143.99739075 0.4179952145 79.449996948 0.4829936028 0.3993799984 0.4829936028
 2115.7084961  -999.250000 21.068000793 20.972280502 12.250000954 0.0649999976 0.4675664604 2.0707371235 2.8959999084 42.750000000 138.87503052 143.00000000 0.4210000038 78.199996948 0.4950000048 0.4167466462 0.4950000048
 2115.8608398  -999.250000 21.020000458 20.802515030 12.250000954 0.0700000003 0.5045406818 2.0752966404 2.9260001183 45.687999725 138.69885254 142.75000000 0.4250000119 78.949996948 0.4889999926 0.4021524191 0.4889999926
 2116.0131836  -999.250000 20.093000412 20.343185425 12.250000954 0.0729952008 0.5173895359 2.0828046799 2.9709999561 42.973350525 138.25740051 142.00120544 0.4319888055 78.449996948 0.4919952154 0.4524653554 0.4919952154
 2116.1655273  -999.250000 20.190999985 20.198165894 12.250000954 0.0939663425 0.4894648790 2.0878365040 3.0499999523 35.574867249 137.73631287 141.12640381 0.4409855902 77.699996948 0.4989888072 0.4515799880 0.4989888072
 2116.3181152  -999.250000 20.316999435 20.370100021 12.250000954 0.1140000001 0.4847574532 2.0840816498 3.1809999943 36.905998230 137.33973694 141.50000000 0.4480000138 76.449996948 0.4959999919 0.3900379837 0.4959999919
 2116.4704590  -999.250000 20.655998230 20.642345428 12.250000954 0.1260000020 0.4851993024 2.0750629902 3.3190000057 37.750000000 136.94226074 139.75000000 0.4510000050 76.949996948 0.5000000000 0.3719389439 0.5000000000
 2116.6228027  -999.250000 20.934999466 20.904325485 12.250000954 0.1289951950 0.4850701988 2.0740504265 3.3329999447 40.464653015 136.34947205 139.75000000 0.4470064044 76.449996948 0.5049920082 0.4160312414 0.5049920082
 2116.7751465  -999.250000 21.086000443 20.870656967 12.250000954 0.1160208285 0.4690257609 2.0824441910 3.2569999695 40.905296326 136.22720337 140.49879456 0.4479984045 75.949996948 0.5329551101 0.4095399976 0.5329551101
 2116.9274902  -999.250000 20.363000870 20.659210205 12.250000954 0.0960320532 0.4833040535 2.0872230530 2.9200000763 39.034004211 136.53004456 140.37519836 0.4430080056 75.699996948 0.5130320787 0.4492717981 0.5130320787
 2117.0800781  -999.250000 20.846998215 20.835580826 12.250000954 0.0640000030 0.5121837258 2.0834848881 2.8759999275 36.687999725 137.34741211 143.50000000 0.4449999928 74.699996948 0.4869999886 0.4739312530 0.4869999886
 2117.2324219  -999.250000 21.277999878 21.334632874 12.250000954 0.0590079986 0.5339351296 2.0814068317 2.8780000210 38.153648376 138.96295166 145.49679565 0.4440016150 77.449996948 0.4760176241 0.4458341300 0.4760176241
 2117.3847656  -999.250000 21.931999207 21.640190125 12.250000954 0.0769711509 0.5150504112 2.0773417950 2.9340000153 43.304737091 140.26086426 145.50000000 0.4380096197 78.699996948 0.4690112174 0.3973596096 0.4690112174
 2117.5371094  -999.250000 21.396999359 21.504714966 12.250000954 0.0929743648 0.4931402504 2.0648000240 2.9300000668 48.491687775 141.00941467 147.37199402 0.4280160367 78.699996948 0.4779855609 0.3856799901 0.4779855609
 2117.6896973  -999.250000 21.302999496 20.743190765 12.250000954 0.0750000030 0.4860612452 2.0542087555 2.9630000591 45.219001770 141.59951782 147.00000000 0.4189999998 75.699996948 0.4880000055 0.4056576788 0.4880000055
 2117.8420410  -999.250000 18.945999146 19.596420288 12.250000954 0.0719999969 0.4938874245 2.0529780388 3.0420000553 39.625000000 141.33142090 145.12500000 0.4140000045 75.699996948 0.4860000014 0.4271826744 0.4860000014
 2117.9943848  -999.250000 19.253000259 19.587333679 12.250000954 0.0769919977 0.4916935265 2.0598280430 3.1029999256 37.691097260 140.48019409 144.75059509 0.4149983823 75.949996948 0.4800095856 0.4247610569 0.4800095856
 2118.1467285  -999.250000 20.907999039 20.476833344 12.250000954 0.0949711502 0.5095626116 2.0560019016 3.0450000763 38.623497009 140.06225586 144.75000000 0.4140016139 77.449996948 0.4740096331 0.4020200074 0.4740096331
 2118.2993164  -999.250000 20.799001694 20.876253128 12.250000954 0.0860000029 0.5445339680 2.0463678837 3.0739998817 39.437999725 140.41105652 146.37500000 0.4059999883 77.949996948 0.4720000029 0.3987105787 0.4720000029
 2118.4516602  -999.250000 21.003997803 20.919420242 12.250000954 0.0799999982 0.5201192498 2.0516741276 3.2590000629 36.187999725 141.47793579 148.37500000 0.4050000012 78.949996948 0.4670000076 0.4040014446 0.4670000076
 2118.6040039  -999.250000 20.864000320 20.767093658 12.250000954 0.0979712009 0.4771688581 2.0704755783 3.3269999027 38.028049469 142.51257324 148.37500000 0.4030031860 79.699996948 0.4660016000 0.3849485517 0.4660016000
 2118.7563477  -999.250000 20.333999634 20.505426407 12.250000954 0.1239583343 0.4628728330 2.0793845654 3.1940000057 40.465095520 143.11396790 149.49819946 0.4049967825 79.199996948 0.4610080123 0.4125199914 0.4610080123
 2118.9086914  -999.250000 20.503999710 20.517389297 12.250000954 0.1369791627 0.5214418769 2.0617134571 2.9539999962 44.274890900 143.69290161 150.37359619 0.4079951942 79.699996948 0.4560080171 0.4315685928 0.4560080171
 2119.0612793  -999.250000 20.726999283 20.568805695 12.250000954 0.0869999975 0.5298268199 2.0395071507 3.0399999619 43.030998230 143.78059387 148.50000000 0.4129999876 77.699996948 0.4550000131 0.4284836650 0.4550000131
 2119.2136230  -999.250000 20.306999207 20.454370499 12.250000954 0.0600431971 0.5228711963 2.0387639999 3.0880000591 41.627250671 143.29498291 148.99920654 0.4229840040 75.449996948 0.4559983909 0.4018749893 0.4559983909
 2119.3659668  -999.250000 20.489000320 20.546236038 12.250000954 0.0540096164 0.5044894814 2.0549237728 3.0550000668 37.881008148 142.70532227 147.00320435 0.4319855869 74.699996948 0.4609919786 0.3477432728 0.4609919786
 2119.5183105  -999.250000 20.900999069 20.716379166 12.250000954 0.0659807697 0.5375437737 2.0655288696 3.0139999390 35.909152985 141.93222046 146.37600708 0.4339967668 76.949996948 0.4869583249 0.3680599928 0.4869583249
 2119.6708984  -999.250000 20.561000824 20.424335480 12.250000954 0.0590000004 0.5369611382 2.0599648952 3.0989999771 37.750000000 141.71369934 147.75000000 0.4329999983 79.199996948 0.5149999857 0.4128048122 0.5149999857
 2119.8232422  -999.250000 19.673000336 19.483247757 12.250000954 0.0579999983 0.5270758867 2.0522627831 3.0280001163 39.969001770 142.34484863 148.50000000 0.4359999895 76.949996948 0.5170000196 0.4337971210 0.5170000196
 2119.9755859  -999.250000 18.030000687 18.549562454 12.250000954 0.0550047979 0.4892007709 2.0602719784 2.9249999523 40.811649323 143.27764893 150.49679565 0.4389952123 76.449996948 0.5020239949 0.4198062718 0.5020239949
 2120.1279297  -999.250000 18.509000778 18.675077438 12.250000954 0.0619887821 0.4877444506 2.0760865211 2.8229999542 38.409854889 143.88453674 149.50160217 0.4419952035 77.199996948 0.4860256314 0.3992000222 0.4860256314
