# LAS format log file from PETREL
# Project units are specified as depth units
#==================================================================
~Version information
VERS.   2.0:
WRAP.   NO:
#==================================================================
~Well
STRT .m      485.02883911 :
STOP .m      3207.3493652 :
STEP .m     0.00000000 :
NULL .        -999.250000 :
COMP.           : COMPANY
WELL.  15/9-15   : WELL
FLD.            : FIELD
LOC.            : LOCATION
SRVC.           : SERVICE COMPANY
DATE.  2018-09-11 14:48:00   : Log Export Date {yyyy-MM-dd HH:mm:ss}
PROV.           : PROVINCE
UWI.   15/9-15   : UNIQUE WELL ID
API.            : API NUMBER
#==================================================================
~Curve
DEPT .m                   : DEPTH
Lithology_geolink ._      : Lithology_geolink
DCAL .in                  : DCAL
CALI .in                  : CALI
BS .in                    : BS
DRHO .g/cm3               : DRHO
NPHI .m3/m3               : NPHI
RHOB .g/cm3               : RHOB
PEF .b/e                  : PEF
GR .gAPI                  : GR
DTC .us/ft                : DTC
DT .us/ft                 : DT
RDEP .ohm.m               : RDEP
SP .mV                    : SP
RSHA .ohm.m               : RSHA
RXO .ohm.m                : RXO
RMED .ohm.m               : RMED
~Parameter
#==================================================================
~Ascii
 485.02883911  -999.250000 18.577999115  -999.250000 26.000001907  -999.250000  -999.250000 1.9616799355  -999.250000 78.061203003 157.01463318 163.49998474 1.7259839773 46.149501801 1.5389711857 -999.9000244 1.5389711857
 485.18124390  -999.250000 18.635000229  -999.250000 26.000001907  -999.250000  -999.250000 1.9632180929  -999.250000 77.625701904 156.54216003 161.75280762 1.7319903374 45.525753021 1.5599663258 -999.9000244 1.5599663258
 485.33364868  -999.250000 18.861999512  -999.250000 26.000001907  -999.250000  -999.250000 1.9642057419  -999.250000 78.998069763 156.25004578 161.12586975 1.7399888039 46.275375366 1.5769761801 -999.9000244 1.5769761801
 485.48605347  -999.250000 18.905000687  -999.250000 26.000001907  -999.250000  -999.250000 1.9649372101  -999.250000 79.437393188 156.03538513 160.50086975 1.7499859333 46.649375916 1.5630196333 -999.9000244 1.5630196333
 485.63845825  -999.250000 18.599000931  -999.250000 26.000001907  -999.250000  -999.250000 1.9650313854  -999.250000 79.937301636 156.00425720 160.12551880 1.7559915781 46.025753021 1.5430279970 -999.9000244 1.5430279970
 485.79086304  -999.250000 18.395999908  -999.250000 26.000001907  -999.250000  -999.250000 1.9644503593  -999.250000 82.496406555 156.18037415 160.37464905 1.7659859657 46.774002075 1.5390056372 -999.9000244 1.5390056372
 485.94326782  -999.250000 18.287000656  -999.250000 26.000001907  -999.250000  -999.250000 1.9642124176  -999.250000 78.693344116 156.25131226 160.99911499 1.7689958811 45.775878906 1.5419958830 -999.9000244 1.5419958830
 486.09564209  -999.250000 18.187000275  -999.250000 26.000001907  -999.250000  -999.250000 1.9638504982  -999.250000 80.684799194 156.35104370 160.75039673 1.7680015564 46.649700165 1.5459935665 -999.9000244 1.5459935665
 486.24804688  -999.250000 18.070999146  -999.250000 26.000001907  -999.250000  -999.250000 1.9635000229 87.625999451 76.257110596 156.46685791 161.37399292 1.7769855261 46.275253296 1.5609759092 -999.9000244 1.5609759092
 486.40045166  -999.250000 18.045999527  -999.250000 26.000001907  -999.250000  -999.250000 1.9633876085 177.35400391 77.123771667 156.50538635 161.37500000 1.7869858742 46.525753021 1.5829690695 -999.9000244 1.5829690695
 486.55285645  -999.250000 18.025999069  -999.250000 26.000001907  -999.250000  -999.250000 1.9632999897 272.45999146 76.500877380 156.52949524 161.49983215 1.7989832163 47.274875641 1.6039705276 -999.9000244 1.6039705276
 486.70526123  -999.250000 18.193000793  -999.250000 26.000001907  -999.250000  -999.250000 1.9632999897 306.37600708 76.313262939 156.53160095 161.50000000 1.8239649534 47.151626587 1.6099915504 -999.9000244 1.6099915504
 486.85766602  -999.250000 18.548000336  -999.250000 26.000001907  -999.250000  -999.250000 1.9636372328 385.79501343 77.872810364 156.42109680 161.50000000 1.8439719677 48.774375916 1.6139943600 -999.9000244 1.6139943600
 487.01007080  -999.250000 19.045999527  -999.250000 26.000001907  -999.250000  -999.250000 1.9641247988 357.50201416 77.875000000 156.26980591 161.00068665 1.8509901762 48.148376465 1.6060111523 -999.9000244 1.6060111523
 487.16244507  -999.250000 19.229000092  -999.250000 26.000001907  -999.250000  -999.250000 1.9645810127 75.901000977 74.006210327 156.13084412 160.75039673 1.8539952040 46.526103973 1.6319583654 -999.9000244 1.6319583654
 487.31481934  -999.250000 19.275999069  -999.250000 26.000001907  -999.250000  -999.250000 1.9647438526 54.683250427 74.312438965 156.08311462 160.37567139 1.8559963703 47.899600983 1.6509658098 -999.9000244 1.6509658098
 487.46722412  -999.250000 19.290000916  -999.250000 26.000001907  -999.250000  -999.250000 1.9640257359 44.982940674 72.003707886 156.29716492 160.49980164 1.8500096798 47.400100708 1.6689711809 -999.9000244 1.6689711809
 487.61962891  -999.250000 19.284000397  -999.250000 26.000001907  -999.250000  -999.250000 1.9629943371 61.304729462 75.432495117 156.60626221 161.37359619 1.8519967794 47.524902344 1.6560208797 -999.9000244 1.6560208797
 487.77203369  -999.250000 19.281000137  -999.250000 26.000001907  -999.250000  -999.250000 1.9618695974 46.996864319 72.629508972 156.96217346 161.99899292 1.8639807701 47.399200439 1.6280448437 -999.9000244 1.6280448437
 487.92440796  -999.250000 19.267000198  -999.250000 26.000001907  -999.250000  -999.250000 1.9612438679 86.976974487 73.436538696 157.16133118 162.99819946 1.8759784698 46.400150299 1.6060396433 -999.9000244 1.6060396433
 488.07681274  -999.250000 19.260000229  -999.250000 26.000001907  -999.250000  -999.250000 1.9610877037 49.221134186 77.430793762 157.20207214 163.00000000 1.8710091114 46.650302887 1.5930235386 -999.9000244 1.5930235386
 488.22921753  -999.250000 19.233999252  -999.250000 26.000001907  -999.250000  -999.250000 1.9614492655 33.264194489 80.868804932 157.08439636 163.12477112 1.8650108576 47.150100708 1.6039801836 -999.9000244 1.6039801836
 488.38162231  -999.250000 19.207000732  -999.250000 26.000001907  -999.250000  -999.250000 1.9616315365 27.266199112 78.941497803 157.02345276 162.50112915 1.8540197611 47.274803162 1.6119855642 -999.9000244 1.6119855642
 488.53402710  -999.250000 19.201999664  -999.250000 26.000001907  -999.250000  -999.250000 1.9617247581 32.099029541 75.443611145 157.00733948 162.74960327 1.8320353031 47.023799896 1.6229823828 -999.9000244 1.6229823828
 488.68643188  -999.250000 19.163999557  -999.250000 26.000001907  -999.250000  -999.250000 1.9616752863 39.561504364 73.066810608 157.01943970 162.50039673 1.8220160007 45.525802612 1.6140143871 -999.9000244 1.6140143871
 488.83883667  -999.250000 19.152999878  -999.250000 26.000001907  -999.250000  -999.250000 1.9609380960 54.114086151 74.497695923 157.23634338 162.74960327 1.8299871683 46.524803162 1.5920352936 -999.9000244 1.5920352936
 488.99121094  -999.250000 19.141000748  -999.250000 26.000001907  -999.250000  -999.250000 1.9608370066 50.514442444 76.995491028 157.26643372 163.49862671 1.8339928389 46.274627686 1.5830161572 -999.9000244 1.5830161572
 489.14361572  -999.250000 19.125999451  -999.250000 26.000001907  -999.250000  -999.250000 1.9617739916 66.774742126 75.502700806 156.97663879 163.00090027 1.8349982500 45.650302887 1.5670288801 -999.9000244 1.5670288801
 489.29602051  -999.250000 19.127000809  -999.250000 26.000001907  -999.250000  -999.250000 1.9629178047 73.684616089 80.928199768 156.63316345 162.12657166 1.8330035210 46.149402618 1.5610108376 -999.9000244 1.5610108376
 489.44842529  -999.250000 19.141000748  -999.250000 26.000001907  -999.250000  -999.250000 1.9634561539 80.360664368 76.008895874 156.48379517 161.37635803 1.8230179548 45.400501251 1.5639946461 -999.9000244 1.5639946461
 489.60083008  -999.250000 19.156000137  -999.250000 26.000001907  -999.250000  -999.250000 1.9631628990 57.433593750 75.563705444 156.56512451 161.37500000 1.8130159378 46.024299622 1.6079295874 -999.9000244 1.6079295874
 489.75323486  -999.250000 19.172000885  -999.250000 26.000001907  -999.250000  -999.250000 1.9624505043 43.639762878 69.135314941 156.78166199 161.74940491 1.8040144444 45.150402069 1.6509311199 -999.9000244 1.6509311199
 489.90563965  -999.250000 19.187000275  -999.250000 26.000001907  -999.250000  -999.250000 1.9620438814 46.147495270 74.554290771 156.90243530 162.37397766 1.7960128784 45.651000977 1.6559920311 -999.9000244 1.6559920311
 490.05801392  -999.250000 19.187999725  -999.250000 26.000001907  -999.250000  -999.250000 1.9617191553 54.042839050 77.432823181 156.99398804 162.37498474 1.7960000038 46.900527954 1.6240576506 -999.9000244 1.6240576506
 490.21041870  -999.250000 19.184000015  -999.250000 26.000001907  -999.250000  -999.250000 1.9615000486 45.904632568 79.309623718 157.06491089 162.74932861 1.7930053473 47.775829315 1.6060323715 -999.9000244 1.6060323715
 490.36282349  -999.250000 19.174999237  -999.250000 26.000001907  -999.250000  -999.250000 1.9617246389 37.787624359 71.951293945 157.00798035 162.75000000 1.7870107889 49.149803162 1.5810450315 -999.9000244 1.5810450315
 490.51522827  -999.250000 19.170999527  -999.250000 26.000001907  -999.250000  -999.250000 1.9626865387 32.836990356 68.443611145 156.72489929 162.50039673 1.7909935713 48.899002075 1.5829967260 -999.9000244 1.5829967260
