# LAS format log file from PETREL
# Project units are specified as depth units
#==================================================================
~Version information
VERS.   2.0:
WRAP.   NO:
#==================================================================
~Well
STRT .m      3164.4333496 :
STOP .m      4228.6425781 :
STEP .m     0.00000000 :
NULL .        -999.250000 :
COMP.           : COMPANY
WELL.  15/9-19B   : WELL
FLD.            : FIELD
LOC.            : LOCATION
SRVC.           : SERVICE COMPANY
DATE.  2018-09-11 14:48:02   : Log Export Date {yyyy-MM-dd HH:mm:ss}
PROV.           : PROVINCE
UWI.   15/9-19 B   : UNIQUE WELL ID
API.            : API NUMBER
#==================================================================
~Curve
DEPT .m                   : DEPTH
Lithology_geolink ._      : Lithology_geolink
CALI .in                  : CALI
RHOB .g/cm3               : RHOB
GR .gAPI                  : GR
DTC .us/ft                : DTC
RDEP .ohm.m               : RDEP
RSHA .ohm.m               : RSHA
RMED .ohm.m               : RMED
~Parameter
#==================================================================
~Ascii
# ...
 3236.9755859 1.0000000000 6.0455999374 2.2455000877 33.014198303 88.483100891 0.5001999736 0.4981000125 0.4882000089
 3237.1279297 1.0000000000 6.0493001938 2.2435998917 31.695600510 88.596199036 0.5034000278 0.5000000000 0.4907999933
 3237.2805176 1.0000000000 6.0532999039 2.2228000164 30.793800354 88.890403748 0.5095999837 0.5037999749 0.4950999916
 3237.4328613 1.0000000000 6.0419998169 2.2137999535 32.824699402 89.222602844 0.5123999715 0.5034000278 0.4970000088
 3237.5852051 1.0000000000 6.0349006653 2.2160000801 33.758300781 89.501403809 0.5102000237 0.4977999926 0.4932000041
 3237.7375488 1.0000000000 6.0479001999 2.2263000011 32.611198425 89.750404358 0.5054000020 0.4893999994 0.4866999984
 3237.8901367 1.0000000000 6.0528998375 2.2262001038 31.992099762 89.990196228 0.5016000271 0.4808000028 0.4815999866
 3238.0424805 1.0000000000 6.0465998650 2.2246999741 31.441400528 90.310699463 0.4973999858 0.4715000093 0.4767999947
 3238.1948242 1.0000000000 6.0377001762 2.2202000618 32.732700348 90.478401184 0.4882999957 0.4607000053 0.4688999951
 3238.3471680 1.0000000000 6.0336999893 2.2084999084 34.057701111 90.478698730 0.4857999980 0.4578000009 0.4668000042
 3238.4995117 1.0000000000 6.0366997719 2.1979000568 35.214298248 90.227401733 0.4880999923 0.4593999982 0.4690999985
 3238.6520996 1.0000000000 6.0366997719 2.2137999535 34.894100189 89.665100098 0.4896999896 0.4621999860 0.4709999859
 3238.8044434 1.0000000000 6.0440998077 2.2307000160 32.059700012 88.983200073 0.4947000146 0.4717999995 0.4765000045
 3238.9567871 1.0000000000 6.0465006828 2.2360999584 31.469499588 88.325408936 0.4990000129 0.4781999886 0.4801000059
 3239.1091309 1.0000000000 6.0376005173 2.2448000908 32.605899811 88.022499084 0.5084000230 0.4921999872 0.4900999963
 3239.2617188 1.0000000000 6.0341000557 2.2464001179 32.633201599 87.967201233 0.5156999826 0.5036000013 0.4977999926
 3239.4140625 1.0000000000 6.0408000946 2.2451999187 31.674200058 88.140296936 0.5173000097 0.5083000064 0.4999000132
 3239.5664063 1.0000000000 6.0444002151 2.2386999130 31.325799942 88.366500854 0.5181000233 0.5141999722 0.5030000210
 3239.7187500 1.0000000000 6.0380992889 2.2562999725 31.984800339 88.652900696 0.5159000158 0.5127000213 0.5006999969
 3239.8713379 1.0000000000 6.0381999016 2.2528998852 33.544498444 88.920600891 0.5177999735 0.5138000250 0.5019000173
 3240.0236816 1.0000000000 6.0496997833 2.2339999676 32.604598999 89.210998535 0.5123000145 0.5092999935 0.4995999932
 3240.1760254 1.0000000000 6.0486998558 2.2197999954 31.366899490 89.424003601 0.5120999813 0.5091000199 0.5008000135
 3240.3283691 1.0000000000 6.0387997627 2.2128999233 32.660400391 89.577301025 0.5105000138 0.5054000020 0.4979999959
 3240.4807129 1.0000000000 6.0402002335 2.2153999805 32.755901337 89.617996216 0.5012000203 0.4927999973 0.4882000089
 3240.6333008 1.0000000000 6.0141000748 2.2258000374 33.402099609 89.619796753 0.4970000088 0.4866999984 0.4846000075
 3240.7856445 1.0000000000 6.0271000862 2.2302999496 32.523700714 89.636497498 0.4993000031 0.4878999889 0.4867999852
 3240.9379883 1.0000000000 6.0514998436 2.2318999767 32.853099823 89.700202942 0.5020999908 0.4902999997 0.4889000058
 3241.0903320 1.0000000000 6.0528998375 2.2358000278 35.407100677 89.701400757 0.5048999786 0.4943999946 0.4909999967
 3241.2429199 1.0000000000 6.0395002365 2.2392001152 33.292900085 89.652999878 0.5080999732 0.4970999956 0.4916000068
 3241.3952637 1.0000000000 6.0390000343 2.2381999493 29.070199966 89.671890259 0.5066999793 0.4977999926 0.4778000116
 3241.5476074 1.0000000000 6.0489001274 2.2335000038 29.464000702 89.764701843 0.4765000045 0.4806999862 0.4607000053
 3241.6999512 1.0000000000 6.0494999886 2.2402000427 30.340700150 90.001098633 0.4772999883 0.4826999903 0.4639999866
 3241.8525391 1.0000000000 6.0364995003 2.2304000854 31.044000626 90.376602173 0.4817999899 0.4857000113 0.4679000080
 3242.0048828 1.0000000000 6.0322999954 2.2118999958 31.328399658 90.704696655 0.4842000008 0.4873999953 0.4690000117
 3242.1572266 1.0000000000 6.0440998077 2.1942999363 32.185398102 90.995597839 0.4880000055 0.4909000099 0.4718999863
 3242.3095703 1.0000000000 6.0461993217 2.1907000542 32.683998108 91.242797852 0.4923999906 0.4941000044 0.4765000045
 3242.4621582 1.0000000000 6.0350999832 2.1872999668 32.948200226 91.325401306 0.4889000058 0.4871999919 0.4736999869
 3242.6145020 1.0000000000 6.0390000343 2.1891999245 31.698699951 91.293701172 0.4760000110 0.4697000086 0.4614000022
 3242.7668457 1.0000000000 6.0485000610 2.2056999207 30.239299774 91.137298584 0.4751999974 0.4675000012 0.4618000090
 3242.9191895 1.0000000000 6.0482001305 2.2183001041 29.416299820 90.901496887 0.4700999856 0.4566000104 0.4551999867
 3243.0715332 1.0000000000 6.0518999100 2.2119998932 30.224500656 90.632102966 0.4718999863 0.4589000046 0.4569000006
 3243.2241211 1.0000000000 6.0503001213 2.1995999813 30.041299820 90.384597778 0.4709999859 0.4589999914 0.4544999897
 3243.3764648 1.0000000000 6.0514998436 2.1956000328 28.503799438 90.066398621 0.4776000082 0.4666999876 0.4645999968
 3243.5288086 1.0000000000 6.0465998650 2.1932001114 29.682600021 89.946899414 0.4713000059 0.4666999876 0.4584999979
 3243.6811523 1.0000000000 6.0462999344 2.2000999451 30.368900299 89.868896484 0.4623000026 0.4632000029 0.4532999992
 3243.8337402 1.0000000000 6.0461006165 2.2137000561 30.053600311 90.117103577 0.4706999958 0.4717000127 0.4605999887
 3243.9860840 1.0000000000 6.0311002731 2.2207000256 29.679399490 90.390296936 0.4668999910 0.4677000046 0.4564000070
 3244.1384277 1.0000000000 6.0026001930 2.2195999622 29.857000351 90.724502563 0.4629000127 0.4632999897 0.4519000053
 3244.2907715 1.0000000000 5.9991998672 2.2042996883 29.946800232 90.909103394 0.4490000010 0.4498000145 0.4393999875
 3244.4433594 1.0000000000 5.9984998703 2.2039999962 31.432500839 91.040100098 0.4472999871 0.4467000067 0.4395999908
 3244.5957031 1.0000000000 6.0239000320 2.2072999477 32.393699646 91.193801880 0.4388999939 0.4359000027 0.4266999960
 3244.7480469 1.0000000000 6.0536999702 2.2004001141 33.691600800 91.720497131 0.4372999966 0.4327999949 0.4250000119
 3244.9003906 1.0000000000 6.0954999924 2.2026000023 32.376998901 92.200798035 0.4329999983 0.4273000062 0.4212999940
 3245.0527344 1.0000000000 6.1153993607 2.2053000927 31.708700180 92.606101990 0.4291999936 0.4250000119 0.4198000133
 3245.2053223 1.0000000000 6.1153006554 2.2007000446 29.309700012 92.838500977 0.4323000014 0.4266000092 0.4210000038
 3245.3576660 1.0000000000 6.1282000542 2.2088999748 28.672800064 93.235496521 0.4341999888 0.4273000062 0.4214000106
 3245.5100098 1.0000000000 6.1666002274 2.2063000202 29.738700867 93.874298096 0.4361999929 0.4280000031 0.4217999876
 3245.6623535 1.0000000000 6.1929998398 2.1977999210 30.081800461 94.837799072 0.4413999915 0.4289999902 0.4239999950
 3245.8149414 1.0000000000 6.2048997879 2.2065000534 31.495899200 95.363800049 0.4465999901 0.4289999902 0.4248999953
 3245.9672852 1.0000000000 6.2091999054 2.2128000259 31.783599854 95.733299255 0.4512000084 0.4302000105 0.4275999963
 3246.1196289 1.0000000000 6.2167000771 2.2067999840 31.042100906 95.897193909 0.4492999911 0.4264000058 0.4235000014
 3246.2719727 1.0000000000 6.2199001312 2.1947999001 31.364400864 96.042800903 0.4429999888 0.4002999961 0.3955000043
 3246.4245605 1.0000000000 6.2170004845 2.1849999428 31.978300095 96.294502258 0.4419000149 0.3882000148 0.3899999857
 3246.5769043 1.0000000000 6.2114000320 2.1789999008 30.402000427 96.724502563 0.4440000057 0.3824999928 0.3820999861
 3246.7292480 1.0000000000 6.2167000771 2.1823000908 28.930900574 98.016799927 0.4260999858 0.3709000051 0.3689999878
 3246.8815918 1.0000000000 6.2195000648 2.1937003136 31.502300262 100.21579742 0.4336999953 0.3623999953 0.3718999922
 3247.0339355 1.0000000000 6.2147998810 2.2205998898 34.228698730 104.34960175 0.4083000124 0.3540000021 0.3589000106
 3247.1865234 1.0000000000 6.2192997932 2.2313001156 37.382499695 107.70939636 0.9775000215 0.7996000051 0.9276000261
