# LAS format log file from PETREL
# Project units are specified as depth units
#==================================================================
~Version information
VERS.   2.0:
WRAP.   NO:
#==================================================================
~Well
STRT .m      1517.9528809 :
STOP .m      3212.6408691 :
STEP .m     0.00000000 :
NULL .        -999.250000 :
COMP.           : COMPANY
WELL.  15/9-23   : WELL
FLD.            : FIELD
LOC.            : LOCATION
SRVC.           : SERVICE COMPANY
DATE.  2018-09-11 14:48:03   : Log Export Date {yyyy-MM-dd HH:mm:ss}
PROV.           : PROVINCE
UWI.   15/9-23   : UNIQUE WELL ID
API.            : API NUMBER
#==================================================================
~Curve
DEPT .m                   : DEPTH
Lithology_geolink ._      : Lithology_geolink
DCAL .in                  : DCAL
CALI .in                  : CALI
BS .in                    : BS
ROP .m/h                  : ROP
DRHO .g/cm3               : DRHO
NPHI .m3/m3               : NPHI
RHOB .g/cm3               : RHOB
PEF .b/e                  : PEF
GR .gAPI                  : GR
DTC .us/ft                : DTC
DTS .us/ft                : DTS
RDEP .ohm.m               : RDEP
RMED .ohm.m               : RMED
~Parameter
#==================================================================
~Ascii
# ...
 2642.6647949 12.000000000 0.0625000000 12.312499046 12.250000954 8.7199983597 0.0377999991 0.1138999984 2.5260000229 5.9546999931 21.556100845 71.095298767 146.47839355 2.3745000362 2.4377999306
 2642.8171387 12.000000000 0.0411996767 12.291199684 12.250000954 9.5932989120 0.0487000011 0.1134999990 2.5448999405 5.8694000244 25.611700058 71.731796265 145.80349731 2.4254999161 2.4746999741
 2642.9694824 12.000000000 0.0578002892 12.307800293 12.250000954 11.202698708 0.0430000015 0.1115999967 2.5376999378 5.9664998055 23.462699890 72.778999329 144.16920471 2.5044999123 2.6087000370
 2643.1218262 11.000000000 0.0122995405 12.262299538 12.250000954 12.144100189 0.0375000015 0.1071999967 2.5246999264 5.9485001564 17.996500015 71.315101624 140.91580200 2.6760001183 2.8850998878
 2643.2744141 11.000000000 0.0027999883 12.252799988 12.250000954 12.812600136 0.0329999998 0.1032000035 2.5309998989 5.8243999481 18.218000412 70.342399597 138.09150696 2.9832999706 3.2295999527
 2643.4267578 11.000000000 0.0345001183 12.284500122 12.250000954 13.365300179 0.0359999985 0.1103999987 2.5453000069 5.8361001015 18.904300690 69.536796570 136.65589905 3.1171998978 3.3624999523
 2643.5791016 11.000000000 0.0893001705 12.339299202 12.250000954 12.381000519 0.0344999991 0.1244999990 2.5269999504 5.5381999016 18.681900024 68.961502075 137.65719604 2.9184000492 2.9755001068
 2643.7314453 11.000000000 0.0811004564 12.331100464 12.250000954 11.210800171 0.0318999998 0.1281999946 2.4981000423 5.4190998077 21.757999420 69.543601990 139.60029602 2.5429000854 2.6737999916
 2643.8840332 11.000000000 0.1077995002 12.357800484 12.250000954 11.614300728 0.0476000011 0.1244999990 2.5102999210 5.9534001350 22.662200928 70.386901855 141.52589417 2.4962000847 2.5559000969
 2644.0363770 11.000000000 0.0158004798 12.265800476 12.250000954 12.056400299 0.0482000001 0.1173999980 2.5251998901 6.0636000633 21.770000458 70.998901367 141.96789551 2.6061000824 2.5992000103
 2644.1887207 11.000000000 -0.012499810 12.237501144 12.250000954 12.901700020 0.0322999991 0.1190999970 2.5092999935 5.8905000687 19.661800385 71.066200256 141.66529846 2.7260000706 2.7708001137
 2644.3410645 11.000000000 0.0349998511 12.284999847 12.250000954 14.424501419 0.0277999993 0.1261000037 2.5000998974 5.6921000481 17.357000351 70.904602051 141.62080383 2.7978000641 2.8575999737
 2644.4936523 11.000000000 0.0614004098 12.311400414 12.250000954 16.458700180 0.0362000018 0.1278000027 2.5025000572 5.6494998932 19.537799835 70.216102600 139.73320007 2.7451000214 2.8447999954
 2644.6459961 11.000000000 0.0699996874 12.319998741 12.250000954 18.576000214 0.0419999994 0.1357000023 2.5153000355 5.7824001312 24.257699966 70.434097290 139.93690491 2.5639998913 2.6940000057
 2644.7983398 11.000000000 0.1490001976 12.399000168 12.250000954 17.935401917 0.0421000011 0.1432999969 2.4949998856 5.9509000778 23.849300385 70.705703735 140.76390076 2.4328000546 2.4876000881
 2644.9506836 11.000000000 0.2766999900 12.526700020 12.250000954 15.542402267 0.0649999976 0.1418000013 2.4902000427 6.3369002342 21.558300018 70.982902527 141.82499695 2.4017999172 2.4356999397
 2645.1030273 11.000000000 0.1952000111 12.445200920 12.250000954 14.949699402 0.0750000030 0.1424999982 2.4976999760 6.7158999443 19.920299530 71.741302490 143.42739868 2.3589000702 2.4010000229
 2645.2556152 11.000000000 0.1546000987 12.404601097 12.250000954 15.577498436 0.0586999990 0.1386000067 2.4944999218 6.4239001274 21.096799850 72.358802795 143.67489624 2.3382000923 2.3859999180
 2645.4079590 11.000000000 0.1066998914 12.356699944 12.250000954 14.752302170 0.0599999987 0.1378999949 2.5050001144 6.5005002022 21.209999084 73.539001465 143.62469482 2.3238999844 2.3845000267
 2645.5603027 11.000000000 0.0457000658 12.295700073 12.250000954 14.818098068 0.0483999997 0.1359000057 2.5044999123 5.9829001427 21.061599731 74.209503174 143.62399292 2.3143999577 2.3840000629
 2645.7126465 12.000000000 0.0566997491 12.306699753 12.250000954 16.212501526 0.0445000008 0.1326999962 2.5125999451 5.8867001534 22.274000168 75.267898560 144.18290710 2.3059000969 2.3717999458
 2645.8652344 12.000000000 0.1632996053 12.413300514 12.250000954 18.578199387 0.0430000015 0.1324999928 2.5058999062 5.8351001740 23.282899857 75.963096619 144.93330383 2.2988998890 2.3594000340
 2646.0175781 12.000000000 0.1618995965 12.411899567 12.250000954 16.048999786 0.0604000017 0.1388999969 2.5034000874 6.1781001091 25.663299561 75.823608398 146.22109985 2.2497999668 2.3085000515
 2646.1699219 12.000000000 0.1689997017 12.418999672 12.250000954 13.417698860 0.0617000014 0.1368000060 2.5051999092 6.1708998680 28.930000305 75.681297302 149.27369690 2.1819000244 2.2471001148
 2646.3222656 12.000000000 0.0888996199 12.338899612 12.250000954 11.787600517 0.0676999986 0.1335999966 2.5420999527 6.2564997673 27.030500412 75.418296814 151.85890198 2.2191998959 2.2836000919
 2646.4748535 12.000000000 0.0312995911 12.281299591 12.250000954 10.908901215 0.0478000008 0.1248999983 2.5390000343 5.7722997665 25.210800171 75.370101929 152.38079834 2.3376998901 2.4072000980
 2646.6271973 12.000000000 0.0113000907 12.261300087 12.250000954 10.081598282 0.0357000008 0.1182999983 2.5364000797 5.8400001526 27.549999237 75.605300903 152.62100220 2.4124999046 2.4583001137
 2646.7795410 12.000000000 0.0155000696 12.265500069 12.250000954 9.3815002441 0.0346000008 0.1143999994 2.5415000916 5.6894001961 30.974100113 75.495300293 153.36920166 2.4026999474 2.4370000362
 2646.9318848 12.000000000 0.0628004074 12.312799454 12.250000954 9.8970994949 0.0397000015 0.1225000024 2.5471000671 5.8242998123 28.559400558 75.991302490 153.75250244 2.3791999817 2.3986999989
 2647.0844727 12.000000000 0.0656004027 12.315601349 12.250000954 12.774600029 0.0434999987 0.1286000013 2.5392000675 6.0631999969 27.984399796 75.780403137 153.60630798 2.4056999683 2.4518001080
 2647.2368164 12.000000000 0.0671997070 12.317199707 12.250000954 19.455902100 0.0414999984 0.1336999983 2.5193998814 6.1930999756 24.722600937 76.342102051 152.67280579 2.3812999725 2.4198000431
 2647.3891602 12.000000000 0.0511999093 12.301199913 12.250000954 18.178600311 0.0427000001 0.1271000057 2.5169000626 6.0043997765 22.836700439 75.263099670 149.73240662 2.4546000957 2.4900000095
 2647.5415039 12.000000000 0.0430002213 12.293001175 12.250000954 17.682498932 0.0357999988 0.1246000007 2.5034000874 5.8663001060 21.718200684 72.586097717 145.39320374 2.5550999641 2.5843000412
 2647.6938477 11.000000000 0.0178003293 12.267801285 12.250000954 19.323999405 0.0328000002 0.1224000007 2.4995000362 5.8319001198 21.807500839 71.639099121 143.25169373 2.5785000324 2.6844999790
 2647.8464355 11.000000000 0.0538997687 12.303899765 12.250000954 20.357002258 0.0322999991 0.1262000054 2.4921998978 5.9042000771 18.651300430 71.158500671 142.73280334 2.5859000683 2.6466000080
 2647.9987793 11.000000000 0.0515003204 12.301500320 12.250000954 19.785900116 0.0392000005 0.1294000000 2.4865000248 6.1820001602 16.351299286 71.384002686 142.13679504 2.4925000668 2.5771000385
 2648.1511230 11.000000000 0.1155996025 12.365599632 12.250000954 19.117597580 0.0476000011 0.1316000074 2.4916999340 6.4560999870 18.344499588 71.997001648 142.35839844 2.3661000729 2.4581000805
 2648.3034668 11.000000000 0.0509996377 12.300999641 12.250000954 18.640497208 0.0487000011 0.1338000000 2.4964001179 6.2195000648 20.272399902 73.151603699 143.26750183 2.2067000866 2.3389000893
 2648.4560547 11.000000000 0.0211000387 12.271100044 12.250000954 18.868499756 0.0383000001 0.1066000015 2.4988999367 5.9471001625 23.229099274 73.449203491 143.41900635 2.2163000107 2.3078999519
 2648.6083984 11.000000000 0.0279998817 12.277999878 12.250000954 19.841098785 0.0311999992 0.1332000047 2.4842998981 5.7364997864 22.177999496 72.872497559 143.06739807 2.3900001049 2.3677000999
 2648.7607422 11.000000000 0.0548000298 12.304800034 12.250000954 19.090700150 0.0339000002 0.1316000074 2.4765999317 5.6563000679 20.066400528 71.535499573 141.96000671 2.3782999516 2.4231998920
