# LAS format log file from PETREL
# Project units are specified as depth units
#==================================================================
~Version information
VERS.   2.0:
WRAP.   NO:
#==================================================================
~Well
STRT .m      485.02883911 :
STOP .m      3207.3493652 :
STEP .m     0.00000000 :
NULL .        -999.250000 :
COMP.           : COMPANY
WELL.  15/9-15   : WELL
FLD.            : FIELD
LOC.            : LOCATION
SRVC.           : SERVICE COMPANY
DATE.  2018-09-11 14:48:00   : Log Export Date {yyyy-MM-dd HH:mm:ss}
PROV.           : PROVINCE
UWI.   15/9-15   : UNIQUE WELL ID
API.            : API NUMBER
#==================================================================
~Curve
DEPT .m                   : DEPTH
Lithology_geolink ._      : Lithology_geolink
DCAL .in                  : DCAL
CALI .in                  : CALI
BS .in                    : BS
DRHO .g/cm3               : DRHO
NPHI .m3/m3               : NPHI
RHOB .g/cm3               : RHOB
PEF .b/e                  : PEF
GR .gAPI                  : GR
DTC .us/ft                : DTC
DT .us/ft                 : DT
RDEP .ohm.m               : RDEP
SP .mV                    : SP
RSHA .ohm.m               : RSHA
RXO .ohm.m                : RXO
RMED .ohm.m               : RMED
~Parameter
#==================================================================
~Ascii
# ...
 1026.3535156  -999.250000 16.996999741 16.993806839 17.500000000 0.0210080128  -999.250000 2.0394637585 2.9500000477 32.685947418 144.91340637 148.12500000 0.7979967594 54.433109283 0.7139976025 -999.9000244 0.7139976025
 1026.5058594  -999.250000 16.993999481 16.984893799 17.500000000 0.0180072058  -999.250000 2.0353262424 2.9330136776 30.861928940 144.95445251 148.74899292 0.8029919863 53.324024200 0.7159968019 -999.9000244 0.7159968019
 1026.6583252  -999.250000 16.954000473 16.961849213 17.500000000 0.0209951922  -999.250000 2.0340926647 2.9019999504 32.093013763 144.85540771 148.37530518 0.8079960346 52.106788635 0.7140015960 -999.9000244 0.7140015960
 1026.8106689  -999.250000 16.945999146 16.938125610 17.500000000 0.0299855769  -999.250000 2.0380988121 2.9039983749 30.815050125 144.64221191 148.37500000 0.8129920363 53.091812134 0.7189919949 -999.9000244 0.7189919949
 1026.9630127  -999.250000 16.906000137 16.903789520 17.500000000 0.0419711769  -999.250000 2.0472168922 2.8410506248 35.211940765 144.22872925 148.00059509 0.8159951568 54.105998993 0.7289839387 -999.9000244 0.7289839387
 1027.1154785  -999.250000 16.857000351 16.855749130 17.500000000 0.0489887819  -999.250000 2.0555186272 2.7760519981 32.099006653 143.95874023 147.00160217 0.8209919930 54.105686188 0.7389839888 -999.9000244 0.7389839888
 1027.2678223  -999.250000 16.802999496 16.821683884 17.500000000 0.0480024032  -999.250000 2.0589280128 2.7580142021 32.063049316 144.02886963 147.00000000 0.8219984174 53.715999603 0.7459887862 -999.9000244 0.7459887862
 1027.4202881  -999.250000 16.825000763 16.820335388 17.500000000 0.0380160250  -999.250000 2.0551846027 2.7239999771 30.752101898 144.64041138 147.00000000 0.8229984045 54.699188232 0.7509920001 -999.9000244 0.7509920001
 1027.5726318  -999.250000 16.827999115 16.827264786 17.500000000 0.0180480368  -999.250000 2.0408222675 2.6870296001 28.831079483 145.78631592 148.37280273 0.8210031986 53.683998108 0.7509999871 -999.9000244 0.7509999871
 1027.7250977  -999.250000 16.827999115 16.827999115 17.500000000 0.0100128204  -999.250000 2.0245718956 2.6649999619 29.529874802 146.91714478 150.49659729 0.8200016022 54.044185638 0.7410160303 -999.9000244 0.7410160303
 1027.8774414  -999.250000 16.827999115 16.827999115 17.500000000 0.0080048041  -999.250000 2.0127153397 2.6190366745 26.411008835 147.68138123 151.99758911 0.8140096068 54.277999878 0.7300176620 -999.9000244 0.7300176620
 1028.0299072  -999.250000 16.827999115 16.828491211 17.500000000 0.0129919872  -999.250000 2.0048468113 2.6099998951 32.084892273 148.15808105 152.74879456 0.8100063801 54.528488159 0.7200160623 -999.9000244 0.7200160623
 1028.1822510  -999.250000 16.829999924 16.832214355 17.500000000 0.0130000003  -999.250000 2.0004506111 2.4990000725 34.559043884 148.26000977 153.49877930 0.8020128012 55.137001038 0.7110144496 -999.9000244 0.7110144496
 1028.3347168  -999.250000 16.840999603 16.839040756 17.500000000 0.0110032046  -999.250000 1.9963637590 2.5079998970 37.716472626 147.98072815 153.37510681 0.7950056195 54.481998444 0.7070032358 -999.9000244 0.7070032358
 1028.4870605  -999.250000 16.843999863 16.843265533 17.500000000 0.0080072060  -999.250000 1.9927868843 2.5209999084 36.440052032 147.75910950 152.50140381 0.7910063863 55.730998993 0.7079983950 -999.9000244 0.7079983950
 1028.6395264  -999.250000 16.843999863 16.843999863 17.500000000 0.0060032052  -999.250000 1.9907587767 2.5610001087 32.034530640 147.63543701 152.50000000 0.7880023718 55.263004303 0.7119967937 -999.9000244 0.7119967937
 1028.7918701  -999.250000 16.843999863 16.843999863 17.500000000 0.0030048077  -999.250000 1.9881944656 2.5260000229 30.190950394 147.25079346 152.50000000 0.7870016098 56.512500763 0.7169920206 -999.9000244 0.7169920206
 1028.9443359  -999.250000 16.843999863 16.846958160 17.500000000 0.0000048038  -999.250000 1.9865317345 2.5539999008 30.063100815 146.73242188 151.50080872 0.7879992127 57.134922028 0.7199976444 -999.9000244 0.7199976444
 1029.0966797  -999.250000 16.856000900 16.863151550 17.500000000 0.0009983975  -999.250000 1.9901549816 2.5729999542 31.279048920 146.26419067 150.75120544 0.7899968028 54.544872284 0.7209984064 -999.9000244 0.7209984064
 1029.2490234  -999.250000 16.896999359 16.889146805 17.500000000 0.0099783828  -999.250000 2.0026216507 2.5920000076 33.028194427 145.68247986 150.37559509 0.7919967771 55.637001038 0.7210000157 -999.9000244 0.7210000157
 1029.4014893  -999.250000 16.906000137 16.903793335 17.500000000 0.0219807699  -999.250000 2.0199077129 2.5950000286 28.740879059 145.32243347 149.00219727 0.7929983735 55.153312683 0.7229967713 -999.9000244 0.7229967713
 1029.5538330  -999.250000 16.906000137 16.906000137 17.500000000 0.0299807843  -999.250000 2.0347750187 2.5729999542 29.981996536 145.49281311 148.75039673 0.7959951758 55.543998718 0.7259951830 -999.9000244 0.7259951830
 1029.7062988  -999.250000 16.906000137 16.907476425 17.500000000 0.0379871801  -999.250000 2.0469665527 2.5739998817 32.558868408 145.82386780 149.49879456 0.7969983816 55.886325836 0.7260000110 -999.9000244 0.7260000110
 1029.8586426  -999.250000 16.912000656 16.917665482 17.500000000 0.0469783805  -999.250000 2.0570919514 2.5320000648 34.559795380 146.00975037 149.99919128 0.7989968061 55.043998718 0.7240031958 -999.9000244 0.7240031958
 1030.0111084  -999.250000 16.940999985 16.947687149 17.500000000 0.0489967950  -999.250000 2.0610561371 2.5130000114 36.434997559 146.22068787 150.00000000 0.7990000248 54.759811401 0.7239999771 -999.9000244 0.7239999771
 1030.1634521  -999.250000 16.996999741 16.987937927 17.500000000 0.0460072048  -999.250000 2.0587441921 2.4189999104 32.100963593 146.53703308 150.37440491 0.7990000248 52.027999878 0.7289919853 -999.9000244 0.7289919853
 1030.3159180  -999.250000 17.016000748 17.013561249 17.500000000 0.0440032035  -999.250000 2.0563387871 2.4379999638 35.244945526 146.76472473 151.12379456 0.7999984026 54.668884277 0.7319951653 -999.9000244 0.7319951653
 1030.4682617  -999.250000 17.024999619 17.021066666 17.500000000 0.0439999998  -999.250000 2.0576949120 2.4519999027 33.347057343 147.06382751 151.00018311 0.8019967675 54.527999878 0.7359935641 -999.9000244 0.7359935641
 1030.6207275  -999.250000 17.017999649 17.019222260 17.500000000 0.0420032032  -999.250000 2.0593245029 2.5230000019 35.186523438 147.49864197 151.74940491 0.8019999862 53.997814178 0.7360000014 -999.9000244 0.7360000014
 1030.7730713  -999.250000 17.016000748 17.016738892 17.500000000 0.0340192169  -999.250000 2.0552370548 2.5720000267 33.191204071 147.87429810 152.37397766 0.8029983640 55.010776520 0.7389951944 -999.9000244 0.7389951944
 1030.9255371  -999.250000 17.017000198 17.020942688 17.500000000 0.0320032053  -999.250000 2.0482518673 2.6419999599 32.625450134 147.99555969 152.99949646 0.8029999733 53.481113434 0.7370015979 -999.9000244 0.7370015979
 1031.0778809  -999.250000 17.034000397 17.035242081 17.500000000 0.0320000015  -999.250000 2.0438854694 2.5929999352 32.625000000 147.78414917 153.00000000 0.8029999733 53.621677399 0.7360016108 -999.9000244 0.7360016108
 1031.2302246  -999.250000 17.055999756 17.052318573 17.500000000 0.0310024023  -999.250000 2.0407369137 2.6059999466 33.842048645 147.32510376 152.50080872 0.8020015955 53.215999603 0.7350016236 -999.9000244 0.7350016236
 1031.3826904  -999.250000 17.062999725 17.061285019 17.500000000 0.0230128206  -999.250000 2.0369551182 2.6510000229 32.596004486 146.78620911 151.75120544 0.8029983640 52.841812134 0.7340016365 -999.9000244 0.7340016365
 1031.5350342  -999.250000 17.062999725 17.066200256 17.500000000 0.0239975974  -999.250000 2.0354244709 2.7109999657 30.722003937 146.36672974 150.75160217 0.8029999733 53.855998993 0.7340000272 -999.9000244 0.7340000272
 1031.6875000  -999.250000 17.076000214 17.072568893 17.500000000 0.0210048072  -999.250000 2.0389673710 2.6480000019 28.847002029 146.00614929 150.50039673 0.8049967885 53.982200623 0.7330015898 -999.9000244 0.7330015898
 1031.8398438  -999.250000 17.075000763 17.072782516 17.500000000 0.0329711773  -999.250000 2.0498449802 2.6489999294 33.242938995 145.74291992 149.75120544 0.8059983850 55.480998993 0.7320016026 -999.9000244 0.7320016026
