# LAS format log file from PETREL
# Project units are specified as depth units
#==================================================================
~Version information
VERS.   2.0:
WRAP.   NO:
#==================================================================
~Well
STRT .m      474.34408569 :
STOP .m      3047.1606445 :
STEP .m     0.00000000 :
NULL .        -999.250000 :
COMP.           : COMPANY
WELL.  15/9-9   : WELL
FLD.            : FIELD
LOC.            : LOCATION
SRVC.           : SERVICE COMPANY
DATE.  2018-09-11 14:48:05   : Log Export Date {yyyy-MM-dd HH:mm:ss}
PROV.           : PROVINCE
UWI.   15/9-9   : UNIQUE WELL ID
API.            : API NUMBER
#==================================================================
~Curve
DEPT .m                   : DEPTH
Lithology_geolink ._      : Lithology_geolink
DCAL .in                  : DCAL
CALI .in                  : CALI
DRHO .g/cm3               : DRHO
NPHI .m3/m3               : NPHI
RHOB .g/cm3               : RHOB
GR .gAPI                  : GR
DTC .us/ft                : DTC
DT .us/ft                 : DT
DTE .us/ft                : DTE
RDEP .ohm.m               : RDEP
SP .mV                    : SP
RSHA .ohm.m               : RSHA
RXO .ohm.m                : RXO
RMED .ohm.m               : RMED
~Parameter
#==================================================================
~Ascii
# ...
 985.49365234  -999.250000 23.422002792 23.422002792 -0.004998798  -999.250000 2.0378999710 24.687364578 154.72880554 197.13397217 155.59390259 0.7980107665 104.12746429 0.6009820104  -999.250000 0.6009820104
 985.64605713  -999.250000 23.422002792 23.422002792 -0.008995194  -999.250000 2.0378999710 25.923013687 154.72880554 197.36914063 155.59567261 0.7900288701 104.64513397 0.6049855947  -999.250000 0.6049855947
 985.79846191  -999.250000 23.422002792 23.422002792 -0.015991591  -999.250000 2.0378999710 24.694974899 154.72880554 197.37496948 155.59736633 0.7820288539 106.09675598 0.6069927812  -999.250000 0.6069927812
 985.95086670  -999.250000 23.422002792 23.422002792 -0.025991987  -999.250000 2.0378999710 28.072576523 154.72880554 197.37498474 155.59907532 0.7790107727 104.63729858 0.5990288258  -999.250000 0.5990288258
 986.10327148  -999.250000 23.422002792 23.422002792 -0.031995196  -999.250000 2.0378999710 31.437610626 154.72880554 197.37799072 155.60083008 0.7760108113 103.98335266 0.5800684690  -999.250000 0.5800684690
 986.25567627  -999.250000 23.422002792 23.422002792 -0.033998400  -999.250000 2.0378999710 32.330577850 154.67495728 197.50360107 155.60258484 0.7740064263 102.62934875 0.5640512705  -999.250000 0.5640512705
 986.40808105  -999.250000 23.422002792 23.422002792 -0.027005607  -999.250000 2.0378549099 32.736511230 154.66345215 197.72029114 155.60426331 0.7710096240 104.57273865 0.5550288558  -999.250000 0.5550288558
 986.56048584  -999.250000 23.422002792 23.422002792 -0.024002403  -999.250000 2.0378000736 31.192857742 154.73092651 197.34820557 155.60595703 0.7690064311 105.65653992 0.5609807372  -999.250000 0.5609807372
 986.71289063  -999.250000 23.422002792 23.422002792 -0.017005607  -999.250000 2.0378000736 32.146850586 154.73138428 196.53460693 155.60771179 0.7699967623 105.32308197 0.5709679127  -999.250000 0.5709679127
 986.86529541  -999.250000 23.422002792 23.422002792 -0.020996796  -999.250000 2.0378000736 30.619838715 154.72880554 196.14425659 155.60946655 0.7769775987 105.81143188 0.5839583278  -999.250000 0.5839583278
 987.01770020  -999.250000 23.422002792 23.422002792 -0.021000000  -999.250000 2.0378000736 28.927032471 154.72880554 195.99148560 155.61117554 0.7859711647 105.77612305 0.5929711461  -999.250000 0.5929711461
 987.17004395  -999.250000 23.422002792 23.422002792 -0.024995195  -999.250000 2.0378000736 26.609716415 154.72880554 195.77079773 155.61288452 0.7929747701 106.93481445 0.5989783406  -999.250000 0.5989783406
 987.32244873  -999.250000 23.422002792 23.422002792 -0.022003604  -999.250000 2.0378000736 26.522134781 154.72880554 195.75007629 155.61457825 0.7989783883 103.86013794 0.5989999771  -999.250000 0.5989999771
 987.47485352  -999.250000 23.422002792 23.422002792 -0.022998799  -999.250000 2.0378000736 27.091085434 154.72880554 195.75000000 155.61630249 0.8019891977 102.74200439 0.5950144529  -999.250000 0.5950144529
 987.62725830  -999.250000 23.422002792 23.422002792 -0.023998799  -999.250000 2.0378000736 29.523099899 154.72880554 195.75000000 155.61805725 0.8039928079 102.79678345 0.5880252123  -999.250000 0.5880252123
 987.77966309  -999.250000 23.422002792 23.422002792 -0.026996396  -999.250000 2.0378000736 28.952920914 154.67495728 195.75000000 155.61976624 0.8040000200 101.45086670 0.5830180049  -999.250000 0.5830180049
 987.93206787  -999.250000 23.422002792 23.422002792 -0.027000001  -999.250000 2.0378000736 33.189201355 154.66345215 195.76893616 155.62147522 0.8010107875 105.30404663 0.5800107718  -999.250000 0.5800107718
 988.08447266  -999.250000 23.422002792 23.422002792 -0.028998397  -999.250000 2.0378000736 32.618927002 154.78265381 195.99020386 155.62321472 0.7950216532 102.28895569 0.5829892159  -999.250000 0.5829892159
 988.23687744  -999.250000 23.422002792 23.422002792 -0.031997599  -999.250000 2.0378000736 34.010765076 154.84800720 196.13253784 155.62498474 0.7870256305 102.02381897 0.5869871974  -999.250000 0.5869871974
 988.38928223  -999.250000 23.422002792 23.422002792 -0.035996795  -999.250000 2.0378000736 28.311147690 154.84800720 196.39416504 155.62667847 0.7820160389 102.27320099 0.5899903774  -999.250000 0.5899903774
 988.54168701  -999.250000 23.422002792 23.422002792 -0.033002403  -999.250000 2.0378000736 27.509954453 154.85017395 196.99208069 155.62837219 0.7780128121 100.94028473 0.5870096087  -999.250000 0.5870096087
 988.69409180  -999.250000 23.422002792 23.422002792 -0.025006408  -999.250000 2.0378000736 26.352390289 154.85063171 197.47845459 155.63011169 0.7760064602 100.78348541 0.5830128193  -999.250000 0.5830128193
 988.84649658  -999.250000 23.422002792 23.422002792 -0.024000801  -999.250000 2.0378000736 27.591508865 154.84800720 197.37733459 155.63186646 0.7730095983 101.57844543 0.5760223866  -999.250000 0.5760223866
 988.99890137  -999.250000 23.422002792 23.422002792 -0.028995994  -999.250000 2.0377547741 27.325323105 154.84800720 197.37600708 155.63357544 0.7670192719 100.27519989 0.5700192451  -999.250000 0.5700192451
 989.15130615  -999.250000 23.422002792 23.422002792 -0.034995195  -999.250000 2.0376999378 26.440063477 154.84800720 197.49859619 155.63526917 0.7600224018 102.61248016 0.5660127997  -999.250000 0.5660127997
 989.30364990  -999.250000 23.422002792 23.422002792 -0.027009612  -999.250000 2.0376999378 24.261493683 154.79420471 197.50596619 155.63697815 0.7540216446 104.42148590 0.5620144010  -999.250000 0.5620144010
 989.45605469  -999.250000 23.422002792 23.422002792 -0.022006007  -999.250000 2.0376999378 23.853649139 154.75679016 197.75410461 155.63871765 0.7490180135 103.47046661 0.5610035658  -999.250000 0.5610035658
 989.60845947  -999.250000 23.422002792 23.422002792 -0.022000000  -999.250000 2.0376999378 28.694231033 154.81663513 198.09974670 155.64047241 0.7440180182 104.69755554 0.5590072274  -999.250000 0.5590072274
 989.76086426  -999.250000 23.422002792 23.422002792 -0.028991589  -999.250000 2.0376999378 30.905464172 154.84800720 197.97146606 155.64216614 0.7449964285 105.17330170 0.5659747720  -999.250000 0.5659747720
 989.91326904  -999.250000 23.422002792 23.422002792 -0.027002404  -999.250000 2.0376999378 30.300973892 154.84800720 197.40106201 155.64387512 0.7519747615 106.38661957 0.5669963956  -999.250000 0.5669963956
 990.06567383  -999.250000 23.422002792 23.422002792 -0.019009611  -999.250000 2.0376999378 26.219547272 154.84800720 197.11701965 155.64561462 0.7619639635 107.48703003 0.5660035610  -999.250000 0.5660035610
 990.21807861  -999.250000 23.422002792 23.422002792 -0.006010417  -999.250000 2.0376999378 26.876934052 154.84800720 196.68455505 155.64736938 0.7759495378 104.31648254 0.5630108118  -999.250000 0.5630108118
 990.37048340  -999.250000 23.422002792 23.422002792 0.0109863840  -999.250000 2.0376999378 30.143760681 154.84800720 195.65231323 155.64907837 0.7869647145 103.93618011 0.5669871569  -999.250000 0.5669871569
 990.52288818  -999.250000 23.422002792 23.422002792 0.0289855823  -999.250000 2.0376999378 32.622032166 154.82215881 195.98092651 155.65077209 0.7959711552 102.49163818 0.5779647827  -999.250000 0.5779647827
 990.67529297  -999.250000 23.422002792 23.422002792 0.0379927903  -999.250000 2.0376999378 32.330356598 154.81665039 195.02310181 155.65251160 0.8039743900 106.34460449 0.5959423184  -999.250000 0.5959423184
 990.82769775  -999.250000 23.422002792 23.422002792 0.0459935926  -999.250000 2.0376999378 30.333400726 154.79415894 194.05709839 155.65426636 0.8109775782 103.33172607 0.6129454970  -999.250000 0.6129454970
 990.98010254  -999.250000 23.422002792 23.422002792 0.0479983985  -999.250000 2.0376999378 27.851982117 154.78265381 192.26374817 155.65597534 0.8149871826 103.02296448 0.6229679585  -999.250000 0.6229679585
 991.13250732  -999.250000 23.422002792 23.422002792 0.0300144162  -999.250000 2.0376999378 26.390754700 154.84800720 189.67031860 155.65766907 0.8189871907 104.33377838 0.6289807558  -999.250000 0.6289807558
 991.28485107  -999.250000 23.422002792 23.422002792 0.0110228276  -999.250000 2.0376999378 25.229860306 154.84800720 192.83154297 155.65940857 0.8209927678 102.60925293 0.6270071864  -999.250000 0.6270071864
