# LAS format log file from PETREL
# Project units are specified as depth units
#==================================================================
~Version information
VERS.   2.0:
WRAP.   NO:
#==================================================================
~Well
STRT .m      3164.4333496 :
STOP .m      4228.6425781 :
STEP .m     0.00000000 :
NULL .        -999.250000 :
COMP.           : COMPANY
WELL.  15/9-19B   : WELL
FLD.            : FIELD
LOC.            : LOCATION
SRVC.           : SERVICE COMPANY
DATE.  2018-09-11 14:48:02   : Log Export Date {yyyy-MM-dd HH:mm:ss}
PROV.           : PROVINCE
UWI.   15/9-19 B   : UNIQUE WELL ID
API.            : API NUMBER
#==================================================================
~Curve
DEPT .m                   : DEPTH
Lithology_geolink ._      : Lithology_geolink
CALI .in                  : CALI
RHOB .g/cm3               : RHOB
GR .gAPI                  : GR
DTC .us/ft                : DTC
RDEP .ohm.m               : RDEP
RSHA .ohm.m               : RSHA
RMED .ohm.m               : RMED
~Parameter
#==================================================================
~Ascii
# ...
 3444.2397461 11.000000000 6.4225997925 2.5857000351 6.8537549973 62.874099731 6.0140881538 5.3635997772 5.2762451172
 3444.3920898 11.000000000 6.4179997444 2.5829000473 7.0752096176 63.270500183 5.5697379112 5.0216999054 4.9298768044
 3444.5444336 11.000000000 6.4200000763 2.5738000870 7.2669186592 63.588600159 5.0943889618 4.6360998154 4.5409994125
 3444.6970215 11.000000000 6.4286999702 2.5545001030 6.5928435326 63.676601410 4.7753992081 4.2909998894 4.2284040451
 3444.8493652 11.000000000 6.4331998825 2.5373001099 6.4826698303 63.537998199 4.5882296562 4.0755000114 4.0426435471
 3445.0017090 11.000000000 6.4271001816 2.5390000343 7.0246601105 63.241798401 4.5452551842 4.0218000412 4.0084872246
 3445.1540527 11.000000000 6.4180998802 2.5538001060 7.0618071556 62.654499054 5.0775470734 4.6065998077 4.5611329079
 3445.3066406 11.000000000 6.4219002724 2.5597000122 6.8780670166 61.888198853 4.9187078476 4.3653998375 4.3933744431
 3445.4589844 11.000000000 6.4310998917 2.5657999516 6.4930915833 61.278900146 4.5166325569 3.9212000370 3.9807894230
 3445.6113281 11.000000000 6.4288992882 2.5694000721 5.9268717766 61.070400238 4.7866911888 4.1895999908 4.2237591743
 3445.7636719 11.000000000 6.4208002090 2.5703001022 5.7217311859 61.153598785 5.0926275253 4.4695000648 4.5097064972
 3445.9162598 11.000000000 6.4208998680 2.5817000866 5.2419495583 61.618198395 5.0477051735 4.4745998383 4.4517807961
 3446.0686035 11.000000000 6.4246997833 2.5868000984 4.9154701233 62.364601135 5.1117072105 4.5244002342 4.5081944466
 3446.2209473 11.000000000 6.4243998528 2.5627000332 5.3956542015 63.290401459 5.1785840988 4.5763998032 4.5671429634
 3446.3732910 11.000000000 6.4265999794 2.5269999504 5.6795158386 63.987201691 5.2306122780 4.6262998581 4.5933570862
 3446.5256348 11.000000000 6.4269003868 2.5120999813 6.0637984276 64.156501770 4.9886608124 4.4197001457 4.3169131279
 3446.6782227 11.000000000 6.4242005348 2.5062999725 6.3716125488 63.750282288 4.7779173851 4.1086997986 4.0763249397
 3446.8305664 11.000000000 6.4225001335 2.5046999454 5.5951251984 62.933452606 4.9074306488 4.2845001221 4.2081098557
 3446.9829102 11.000000000 6.4175000191 2.5211999416 4.6136379242 62.094406128 4.6140360832 3.9932000637 3.9016590118
 3447.1352539 11.000000000 6.4163999557 2.5297000408 4.5130448341 61.472434998 4.0133471489 3.4077000618 3.3149945736
 3447.2878418 11.000000000 6.4229001999 2.5538001060 4.8531765938 60.992752075 3.7306737900 3.1617999077 3.0621850491
 3447.4401855 11.000000000 6.4276995659 2.6082999706 5.0641961098 60.416858673 3.6291270256 3.0555000305 2.9641196728
 3447.5925293 11.000000000 6.4271001816 2.6361999512 5.1864733696 59.766086578 3.6462585926 3.0474998951 2.9767060280
 3447.7448730 11.000000000 6.4254999161 2.6370000839 5.2329478264 59.009063721 3.8710658550 3.2056000233 3.1687252522
 3447.8974609 11.000000000 6.4201998711 2.6329998970 5.7625184059 58.609352112 4.7289357185 3.9725999832 4.0004510880
 3448.0498047 11.000000000 6.4179000854 2.6357998848 6.2361092567 58.437950134 6.8911485672 5.8116002083 5.8553557396
 3448.2021484 11.000000000 6.4265999794 2.6440000534 6.6173138618 58.280006409 7.9791970253 6.4239997864 6.5744452477
 3448.3544922 11.000000000 6.4313001633 2.6382000446 7.6234850883 58.096134186 7.1663970947 5.7631998062 5.9789624214
 3448.5068359 11.000000000 6.4240999222 2.6363999844 8.0497426987 57.928394318 6.6728253365 5.4166998863 5.5859646797
 3448.6594238 11.000000000 6.4179997444 2.6431999207 7.5771727562 57.675472260 10.934600830 8.1309995651 8.1882467270
 3448.8117676 11.000000000 6.4151000977 2.6380000114 7.4145584106 57.417339325 13.863539696 10.496000290 10.571215630
 3448.9641113 11.000000000 6.4145998955 2.6284000874 8.4506521225 56.943595886 14.252119064 11.088399887 11.195791245
 3449.1164551 11.000000000 6.4204001427 2.6375999451 10.228510857 56.629604340 7.7812318802 6.2859997749 6.1410355568
 3449.2690430 11.000000000 6.4285001755 2.6542999744 10.853344917 56.633113861 5.3903260231 4.5883998871 4.4927873611
 3449.4213867 11.000000000 6.4271998405 2.6530001163 9.2454252243 56.980716705 11.258438110 8.8364000320 8.1684961319
 3449.5737305 11.000000000 6.4162998199 2.6350998878 7.8292460442 57.551170349 13.650065422 10.880299568 10.596338272
 3449.7260742 11.000000000 6.4112000465 2.6150999069 8.2331390381 58.155830383 13.875781059 11.374199867 10.929190636
 3449.8786621 11.000000000 6.4113998413 2.6215999126 9.0029506683 58.424354553 12.812227249 9.8839979172 9.6250772476
 3450.0310059 11.000000000 6.4152998924 2.6458001137 8.4567804337 58.347553253 15.069182396 12.382793427 12.712090492
 3450.1833496 11.000000000 6.4189000130 2.6491000652 7.5733413696 58.008251190 18.605043411 17.107854843 19.115062714
 3450.3356934 11.000000000 6.4201002121 2.6382000446 8.3484983444 57.728057861 16.005720139 13.520006180 14.346562386
 3450.4880371 11.000000000 6.4200000763 2.6308999062 9.5939683914 57.763046265 9.9707317352 7.7897415161 7.5294275284
 3450.6406250 11.000000000 6.4200000763 2.6354999542 10.072055817 58.169189453 7.1867690086 6.1957421303 5.8642063141
 3450.7929688 11.000000000 6.4179997444 2.6433000565 9.2321357727 58.721649170 9.5379199982 7.7807846069 7.3650417328
 3450.9453125 11.000000000 6.4176993370 2.6335999966 7.3840889931 59.252838135 11.416377068 8.7037277222 8.4481515884
 3451.0976563 11.000000000 6.4229998589 2.6263999939 6.5069732666 59.773025513 9.4081277847 7.4743361473 7.2337784767
 3451.2502441 11.000000000 6.4263000488 2.6387000084 7.6161894798 60.288383484 8.9256105423 7.1846690178 6.9705653191
 3451.4025879 11.000000000 6.4313001633 2.6493999958 9.0150022507 61.219135284 8.5866632462 6.9571008682 6.8042330742
 3451.5549316 11.000000000 6.4489994049 2.6349000931 9.2648162842 62.113719940 8.8141021729 7.0205249786 6.9501543045
 3451.7072754 11.000000000 6.4677000046 2.6119999886 8.7756719589 62.937088013 9.3707561493 7.3441109657 7.3543834686
 3451.8598633 11.000000000 6.4755997658 2.6087000370 8.3833532333 63.242927551 6.1632909775 5.1060776711 5.2240853310
 3452.0122070 11.000000000 6.4759001732 2.6170001030 8.0880308151 63.406257629 5.3535985947 4.5096626282 4.6299347878
 3452.1645508 11.000000000 6.4679999352 2.6156001091 7.7976546288 62.878604889 7.2881751060 5.9221296310 6.0250415802
 3452.3168945 11.000000000 6.4591999054 2.6184000969 9.1442565918 62.068786621 9.8211097717 7.6186366081 7.6669707298
 3452.4694824 11.000000000 6.4619998932 2.6159000397 11.675083160 60.937244415 6.2068486214 5.1427645683 5.2125196457
 3452.6218262 11.000000000 6.4665999413 2.5875999928 12.727903366 60.297321320 3.9189696312 3.0776264668 3.1958322525
 3452.7741699 11.000000000 6.4678001404 2.5745000839 12.041515350 59.935882568 5.2118287086 4.2806229591 4.4023995399
 3452.9265137 11.000000000 6.4671998024 2.5752999783 9.9291334152 59.549163818 7.3467044830 6.0384373665 6.1454458237
 3453.0788574 11.000000000 6.4639997482 2.5610001087 7.4558181763 59.152370453 6.4759263992 5.5002274513 5.4875569344
 3453.2314453 11.000000000 6.4661998749 2.5457003117 6.0948405266 58.696365356 5.6818904877 4.9560580254 4.8994836807
 3453.3837891 11.000000000 6.4717993736 2.5413000584 5.6093521118 58.374435425 5.5235004425 4.7874913216 4.7700872421
 3453.5361328 11.000000000 6.4753999710 2.5682001114 5.7047848701 58.206802368 5.7733383179 4.9692196846 4.9492692947
 3453.6884766 11.000000000 6.4724998474 2.5999999046 6.1307082176 58.022048950 6.0482730865 5.1695857048 5.1183400154
 3453.8410645 11.000000000 6.4733004570 2.6152999401 5.6335663795 58.053787231 7.2225489616 5.9129056931 5.8955507278
 3453.9934082 11.000000000 6.4769001007 2.6208999157 4.3454041481 58.237091064 9.4814252853 7.2856173515 7.2823843956
 3454.1457520 11.000000000 6.4714999199 2.6166000366 4.0374655724 58.420459747 10.057510376 7.5451884270 7.5840063095
 3454.2980957 11.000000000 6.4702005386 2.6164000034 4.6401429176 58.519847870 9.8152122498 7.3514709473 7.4637069702
 3454.4506836 11.000000000 6.4745998383 2.6173999310 5.4171466827 58.483299255 10.134633064 7.5201902390 7.6552581787
