# LAS format log file from PETREL
# Project units are specified as depth units
#==================================================================
~Version information
VERS.   2.0:
WRAP.   NO:
#==================================================================
~Well
STRT .m      472.33206177 :
STOP .m      3119.8261719 :
STEP .m     0.00000000 :
NULL .        -999.250000 :
COMP.           : COMPANY
WELL.  15/9-17   : WELL
FLD.            : FIELD
LOC.            : LOCATION
SRVC.           : SERVICE COMPANY
DATE.  2018-09-11 14:48:01   : Log Export Date {yyyy-MM-dd HH:mm:ss}
PROV.           : PROVINCE
UWI.   15/9-17   : UNIQUE WELL ID
API.            : API NUMBER
#==================================================================
~Curve
DEPT .m                   : DEPTH
Lithology_geolink ._      : Lithology_geolink
DCAL .in                  : DCAL
CALI .in                  : CALI
DRHO .g/cm3               : DRHO
SGR .gAPI                 : SGR
NPHI .m3/m3               : NPHI
RHOB .g/cm3               : RHOB
PEF .b/e                  : PEF
GR .gAPI                  : GR
DTC .us/ft                : DTC
DT .us/ft                 : DT
DTE .us/ft                : DTE
RDEP .ohm.m               : RDEP
SP .mV                    : SP
RSHA .ohm.m               : RSHA
RXO .ohm.m                : RXO
RMED .ohm.m               : RMED
~Parameter
#==================================================================
~Ascii
# ...
 1176.4204102  -999.250000 15.375000954 15.375000954 0.0520000011 62.396999359 0.5448920131 1.8373121023 4.4710001945 60.880405426 150.73332214 153.12229919 152.82511902 1.3339887857 34.628894806 1.0137189627 1.0137189627 1.2669551373
 1176.5728760  -999.250000 15.250000000 15.250000000 0.0309999995 63.201000214 0.5398445129 1.8412100077 3.9570000172 66.928283691 149.70866394 152.75059509 151.64543152 1.3660000563 35.323219299 0.8151987195 0.8151987195 1.2450000048
 1176.7252197  -999.250000 15.147999763 15.147999763 0.0199999996 63.858001709 0.4990631342 1.8664388657 3.2530000210 65.940406799 146.88876343 149.75720215 148.95556641 1.3759920597 34.760810852 0.8480304480 0.8480304480 1.2739768028
 1176.8776855  -999.250000 15.007000923 15.007000923 0.0099999998 64.740997314 0.5072319508 1.8859276772 2.9340000153 64.814804077 144.85319519 147.00440979 146.77757263 1.3589999676 34.748695374 1.1614872217 1.1614872217 1.2790000439
 1177.0300293  -999.250000 14.805000305 14.805000305 0.0070000002 66.583999634 0.4897198379 1.8993818760 2.4489998817 59.855937958 144.44441223 145.75300598 146.43475342 1.3470096588 35.612407684 0.9306060672 0.9306060672 1.2829967737
 1177.1824951  -999.250000 14.750000000 14.750000000 -0.003000000 69.099998474 0.4833869934 1.9011383057 2.4760000706 59.313850403 146.82191467 146.99800110 148.70864868 1.3600000143 36.041919708 1.4891474247 1.4891474247 1.2840000391
 1177.3348389  -999.250000 14.750000000 14.750000000 0.0000000000 69.792999268 0.4815551937 1.9014815092 2.4360001087 60.311397552 150.47627258 151.99198914 152.44706726 1.3759872913 36.025867462 1.3570256233 1.3570256233 1.2710103989
 1177.4873047  -999.250000 14.750000000 14.750000000 0.0010000000 69.339996338 0.5035380721 1.9002801180 2.5199999809 63.744495392 152.12702942 153.99679565 154.19120789 1.3739999533 36.674339294 1.3600063324 1.3600063324 1.2819999456
 1177.6396484  -999.250000 14.750000000 14.750000000 0.0070000002 69.325996399 0.5272132754 1.9049853086 2.5789999962 67.244392395 152.71966553 154.99839783 154.82431030 1.3640079498 35.930664063 1.2061344385 1.2061344385 1.2979872227
 1177.7919922  -999.250000 14.750000000 14.750000000 0.0040000002 70.851997375 0.5043016672 1.9065188169 2.8020000458 67.188156128 151.70338440 155.00000000 153.72496033 1.3509999514 36.775081635 1.2268204689 1.2268204689 1.2710000277
 1177.9444580  -999.250000 14.694000244 14.694000244 0.0070000002 72.177001953 0.4814485908 1.8972170353 2.7219998837 66.126701355 148.96638489 151.38081360 150.85063171 1.3129999638 37.223052979 1.1945705414 1.1945705414 1.2389999628
 1178.0968018  -999.250000 14.506999969 14.506999969 -0.001000000 71.206001282 0.4806076884 1.8658484221 2.5710000992 66.063156128 147.79280090 149.13040161 149.76130676 1.2710000277 36.156112671 1.1285573244 1.1285573244 1.2070000172
 1178.2492676  -999.250000 14.304999352 14.304999352 -0.003000000 70.012001038 0.5151724219 1.8330236673 2.8299999237 60.664661407 147.69299316 150.49780273 149.70971680 1.2680000067 35.678821564 1.2182435989 1.2182435989 1.1849999428
 1178.4016113  -999.250000 14.304999352 14.304999352 -0.003000000 68.899002075 0.5229035616 1.8204057217 2.8599998951 61.186721802 146.86323547 148.50480652 148.74940491 1.2640000582 35.276096344 1.7156965733 1.7156965733 1.2189999819
 1178.5540771  -999.250000 14.258000374 14.258000374 0.0000000000 68.648002625 0.5126119852 1.8336806297 3.1940000057 58.598159790 147.24816895 148.99919128 149.23110962 1.2649999857 33.906745911 0.8939679265 0.8939679265 1.2039999962
 1178.7064209  -999.250000 14.218999863 14.218999863 0.0060000001 67.992996216 0.4951973557 1.8460381031 3.4049999714 64.610511780 147.75102234 149.74819946 149.80964661 1.2949999571 35.231060028 1.0464403629 1.0464403629 1.2369999886
 1178.8588867  -999.250000 14.218999863 14.218999863 0.0109999999 66.714996338 0.5122858286 1.8454864025 4.1409997940 62.067104340 148.49383545 149.99960327 150.41703796 1.3300000429 35.430774689 1.4231858253 1.4231858253 1.2319999933
 1179.0112305  -999.250000 14.140999794 14.140999794 0.0219999999 65.718002319 0.5283631682 1.8603069782 4.1220002174 60.004955292 148.06600952 151.37170410 150.10780334 1.3489999771 35.012329102 1.1402257681 1.1402257681 1.2869999409
 1179.1636963  -999.250000 14.100998878 14.100998878 0.0209999997 66.136001587 0.5365427136 1.8955479860 3.0999999046 61.810092926 145.78688049 148.00540161 147.84169006 1.3760000467 35.239559174 0.8638013005 0.8638013005 1.3040000200
 1179.3160400  -999.250000 13.929999352 13.929999352 0.0080000004 68.704002380 0.5195592046 1.9346753359 2.6289999485 64.742942810 144.95338440 146.75300598 146.90968323 1.3940000534 34.988582611 0.6823874712 0.6823874712 1.3200000525
 1179.4685059  -999.250000 13.805000305 13.805000305 0.0010000000 72.640998840 0.5252245069 1.9605587721 2.6760001183 72.861976624 144.55622864 146.99960327 146.44223022 1.3639999628 35.798675537 1.3643205166 1.3643205166 1.3159999847
 1179.6208496  -999.250000 13.695000648 13.695000648 0.0020000001 74.666999817 0.4906226695 1.9797401428 2.7230000496 73.437103271 143.48849487 145.37760925 145.39477539 1.3530000448 35.590721130 1.5672066212 1.5672066212 1.3229999542
 1179.7731934  -999.250000 13.680000305 13.680000305 0.0020000001 73.857002258 0.4735688269 1.9915881157 2.8029999733 74.248046875 143.62400818 145.00090027 145.66259766 1.3389999866 35.099746704 1.2890504599 1.2890504599 1.2879999876
 1179.9256592  -999.250000 13.633000374 13.633000374 -0.002000000 71.667999268 0.4597063959 1.9894851446 2.9300000668 69.820114136 145.78256226 146.49758911 147.74240112 1.3049999475 35.934875488 1.2990961075 1.2990961075 1.2599999905
 1180.0780029  -999.250000 13.602000237 13.602000237 0.0000000000 70.485000610 0.5011168122 1.9734553099 2.9930000305 65.385658264 149.64567566 150.11628723 151.64935303 1.2879999876 34.321266174 1.4693330526 1.4693330526 1.2139999866
 1180.2304688  -999.250000 13.602000237 13.602000237 0.0030000000 71.191001892 0.5303258300 1.9520388842 3.3859999180 65.562705994 153.09518433 155.11698914 155.07263184 1.2779999971 34.623317719 1.5180705786 1.5180705786 1.1629999876
 1180.3828125  -999.250000 13.602000237 13.602000237 0.0130000003 72.850997925 0.5410956144 1.9281049967 3.2500000000 65.500152588 153.04478455 156.37199402 155.02552795 1.2580000162 34.472888947 1.0648902655 1.0648902655 1.1469999552
 1180.5352783  -999.250000 13.725000381 13.725000381 0.0040000002 73.960998535 0.5570459962 1.8961989880 3.2860000134 66.686096191 149.96694946 153.13020325 152.00828552 1.2289999723 35.286266327 1.2018076181 1.2018076181 1.0850000381
 1180.6876221  -999.250000 13.038999557 13.038999557 0.0040000002 75.317001343 0.5428923965 1.8853869438 3.0250000954 64.817504883 145.51091003 149.50871277 147.48692322 1.1929999590 35.079624176 1.0180439949 1.0180439949 1.1219999790
 1180.8400879  -999.250000 12.977000237 12.977000237 -0.002000000 75.167999268 0.5255509019 1.8837679625 2.8480000496 62.816204071 140.91638184 143.13522339 142.85061646 1.1770000458 35.090789795 1.1811281443 1.1811281443 1.1200000048
 1180.9924316  -999.250000 12.977000237 12.977000237 0.0010000000 74.004997253 0.4677700698 1.8882002831 2.8970000744 60.256156921 140.55422974 140.50630188 142.33114624 1.1590000391 35.644783020 1.3562433720 1.3562433720 1.1629999876
 1181.1448975  -999.250000 13.055000305 13.055000305 0.0130000003 73.598999023 0.4678250849 1.8884061575 2.9110000134 58.721454620 143.84216309 144.99278259 145.87280273 1.1590000391 36.519248962 1.3947180510 1.3947180510 1.1529999971
 1181.2972412  -999.250000 13.062999725 13.062999725 0.0170000009 75.817001343 0.4783599377 1.8806183338 3.1280000210 62.116817474 147.31369019 148.11749268 149.21786499 1.1710000038 36.944511414 1.5050648451 1.5050648451 1.2170000076
 1181.4497070  -999.250000 13.116999626 13.116999626 0.0219999999 80.085998535 0.5468434095 1.8723120689 3.3110001087 62.125000000 149.40408325 151.99378967 151.41317749 1.2009999752 36.716945648 1.3571795225 1.3571795225 1.1920000315
 1181.6020508  -999.250000 13.156998634 13.156998634 0.0040000002 83.132003784 0.5399424434 1.8519079685 3.6059999466 64.620994568 149.78851318 151.12640381 151.84011841 1.1909999847 36.194503784 0.9235356450 0.9235356450 1.2020000219
