# LAS format log file from PETREL
# Project units are specified as depth units
#==================================================================
~Version information
VERS.   2.0:
WRAP.   NO:
#==================================================================
~Well
STRT .m      472.33206177 :
STOP .m      3119.8261719 :
STEP .m     0.00000000 :
NULL .        -999.250000 :
COMP.           : COMPANY
WELL.  15/9-17   : WELL
FLD.            : FIELD
LOC.            : LOCATION
SRVC.           : SERVICE COMPANY
DATE.  2018-09-11 14:48:01   : Log Export Date {yyyy-MM-dd HH:mm:ss}
PROV.           : PROVINCE
UWI.   15/9-17   : UNIQUE WELL ID
API.            : API NUMBER
#==================================================================
~Curve
DEPT .m                   : DEPTH
Lithology_geolink ._      : Lithology_geolink
DCAL .in                  : DCAL
CALI .in                  : CALI
DRHO .g/cm3               : DRHO
SGR .gAPI                 : SGR
NPHI .m3/m3               : NPHI
RHOB .g/cm3               : RHOB
PEF .b/e                  : PEF
GR .gAPI                  : GR
DTC .us/ft                : DTC
DT .us/ft                 : DT
DTE .us/ft                : DTE
RDEP .ohm.m               : RDEP
SP .mV                    : SP
RSHA .ohm.m               : RSHA
RXO .ohm.m                : RXO
RMED .ohm.m               : RMED
~Parameter
#==================================================================
~Ascii
# ...
 2232.5529785 19.000000000 12.522998810 12.522998810 -0.003000000 44.618999481 0.4032157958 2.2410578728 3.5920000076 40.333000183 117.02047729 114.37950897 114.64796448 0.8159999847 38.851894379 1.8590865135 1.8590865135 0.9700000286
 2232.7053223 19.000000000 12.522998810 12.522998810 0.0000000000 43.277000427 0.3818600178 2.2459867001 3.6199998856 37.629356384 116.71148682 114.56270599 114.35484314 0.8029999733 39.426559448 1.8861280680 1.8861280680 0.9660000205
 2232.8579102 19.000000000 12.531000137 12.531000137 0.0010000000 41.208000183 0.3868949413 2.2397813797 3.8199999332 39.969001770 118.30812836 113.75000000 115.99981689 0.7900000215 39.040420532 1.9252884388 1.9252884388 0.9629999995
 2233.0102539 19.000000000 12.531000137 12.531000137 0.0020000001 38.771999359 0.4086536765 2.2249813080 4.1100001335 32.655998230 120.87920380 120.18799591 118.44139099 0.7860000134 38.893627167 1.7044070959 1.7044070959 0.9330000281
 2233.1625977 19.000000000 12.531999588 12.531999588 0.0000000000 37.115001678 0.4046781063 2.2119443417 4.1929998398 32.749851227 119.69232941 116.75549316 117.08586121 0.7870000005 39.135219574 1.8302724361 1.8302724361 0.9210000038
 2233.3149414 19.000000000 12.631999016 12.631999016 -0.002000000 36.162998199 0.3910100162 2.2101633549 3.7590000629 29.536159515 119.49223328 116.99959564 117.18086243 0.7779999971 39.053825378 1.6021183729 1.6021183729 0.8880000114
 2233.4672852 19.000000000 12.531000137 12.531000137 -0.007000000 36.904998779 0.3750599921 2.2096288204 3.2650001049 35.958683014 118.02395630 117.56210327 115.74198914 0.7770000100 39.380989075 1.0177804232 1.0177804232 0.9340000153
 2233.6198730 19.000000000 12.531000137 12.531000137 -0.009000000 38.530998230 0.3823948801 2.2131810188 3.1800000668 37.344001770 115.01052094 112.56300354 112.67540741 0.7770000100 39.596645355 2.1258430481 2.1258430481 0.9049999714
 2233.7722168 19.000000000 12.531000137 12.531000137 -0.008000000 40.025001526 0.3978766203 2.2116096020 3.3010001183 42.086402893 114.99330902 111.56461334 112.54984283 0.7889999747 38.917980194 1.7665705681 1.7665705681 0.9110000134
 2233.9245605 19.000000000 12.531000137 12.531000137 -0.003000000 40.445999146 0.3832799792 2.2164940834 3.4600000381 39.285507202 116.27098083 114.18379974 113.89749908 0.8009999990 40.159595490 1.9429184198 1.9429184198 0.9229999781
 2234.0769043 19.000000000 12.444999695 12.444999695 -0.004000000 39.255001068 0.3784299791 2.2192499638 3.7090001106 37.347106934 116.31118774 113.75070190 113.79812622 0.8119999766 39.150939941 1.6063444614 1.6063444614 0.9190000296
 2234.2294922 19.000000000 12.437999725 12.437999725 -0.008000000 36.894001007 0.3805820942 2.2237350941 4.0710000992 34.469001770 115.19856262 114.00000000 112.84733582 0.8159999847 39.078750610 1.8209358454 1.8209358454 0.9629999995
 2234.3818359 19.000000000 12.437999725 12.437999725 -0.005000000 33.851001740 0.4068016410 2.2375693321 4.7140002251 28.952999115 112.51918793 111.00000000 110.17687988 0.8180000186 39.206127167 1.8006122112 1.8006122112 1.0199999809
 2234.5341797 19.000000000 12.437999725 12.437999725 -0.002000000 32.201999664 0.4140485823 2.2404732704 4.5799999237 27.096973419 111.29864502 108.19250488 108.90620422 0.8240000010 39.550170898 1.6803845167 1.6803845167 1.0499999523
 2234.6865234 19.000000000 12.477999687 12.477999687 -0.002000000 32.700000763 0.4131700099 2.2243924141 4.2399997711 27.546274185 112.54991913 109.56079865 110.23460388 0.8280000091 39.603099823 1.8017023802 1.8017023802 1.0269999504
 2234.8391113 19.000000000 12.609000206 12.609000206 0.0010000000 34.875999451 0.4262838364 2.2022564411 3.9549999237 32.250000000 114.64008331 111.56301117 112.29418945 0.8399999738 39.074230194 2.3287115097 2.3287115097 0.9589999914
 2234.9914551 19.000000000 12.484000206 12.484000206 0.0060000001 36.326999664 0.4286512434 2.1943089962 3.9639999866 30.391000748 116.47824860 114.00000000 113.99398041 0.8470000029 39.226902008 1.3070833683 1.3070833683 0.9599999785
 2235.1437988 19.000000000 12.477000237 12.477000237 0.0080000004 35.846000671 0.4169476032 2.2028517723 3.8599998951 27.598474503 116.32369232 114.37440491 113.83024597 0.8550000191 40.541515350 1.6433942318 1.6433942318 0.9610000253
 2235.2961426 19.000000000 12.468999863 12.468999863 0.0130000003 34.217998505 0.4092100263 2.2181000710 4.0409998894 27.516126633 115.13151550 113.00219727 112.79047394 0.8579999804 39.703063965 1.4577488899 1.4577488899 1.0420000553
 2235.4484863 19.000000000 12.522998810 12.522998810 0.0140000004 32.883998871 0.4199900031 2.2312500477 4.6069998741 30.697891235 115.00276947 112.00160217 112.66391754 0.8659999967 40.331146240 2.3127450943 2.3127450943 1.0089999437
 2235.6010742 19.000000000 12.531000137 12.531000137 0.0140000004 32.214000702 0.4349356890 2.2439684868 5.7480001450 29.718999863 116.44852448 113.75000000 114.03015137 0.8780000210 39.442932129 1.5299999714 1.5299999714 0.9800000191
 2235.7534180 19.000000000 12.531000137 12.531000137 0.0260000005 33.862998962 0.4197695553 2.2622268200 5.9889998436 27.394725800 116.24404907 114.99800110 113.89104462 0.8889999986 39.063255310 1.2209198475 1.2209198475 1.0140000582
 2235.9057617 19.000000000 12.531000137 12.531000137 0.0289999992 36.152999878 0.4007799923 2.2743251324 4.8920001984 28.404373169 114.15895844 112.37920380 111.69228363 0.9020000100 39.249713898 1.8178079128 1.8178079128 1.0249999762
 2236.0581055 19.000000000 12.531000137 12.531000137 0.0320000015 38.911998749 0.3846799731 2.2812192440 4.4479999542 30.777194977 112.22006226 110.00380707 109.68312073 0.8999999762 38.407257080 1.7579582930 1.7579582930 1.0290000439
 2236.2106934 19.000000000 12.531000137 12.531000137 0.0099999998 39.580001831 0.3735237718 2.2622809410 4.3439998627 35.530998230 111.36913300 108.75000000 108.90277863 0.8939999938 38.313148499 1.7331955433 1.7331955433 1.0800000429
 2236.3630371 19.000000000 12.500000000 12.500000000 0.0040000002 38.937999725 0.3696455061 2.2330193520 4.5229997635 38.905998230 112.17443085 108.75000000 109.70085144 0.8889999986 38.319450378 2.1050834656 2.1050834656 1.1330000162
 2236.5153809 19.000000000 12.633000374 12.633000374 0.0040000002 36.526000977 0.3730972111 2.1904039383 4.2649998665 38.064350128 114.61280823 111.18410492 112.15499115 0.8880000114 38.238628387 2.1288430691 2.1288430691 1.0570000410
 2236.6677246 19.000000000 12.531000137 12.531000137 0.0030000000 34.270999908 0.3838399947 2.1559557915 4.1209998131 30.528095245 118.25005341 114.18319702 115.95600128 0.8980000019 38.329856873 1.4583295584 1.4583295584 0.9390000105
 2236.8203125 19.000000000 12.609000206 12.609000206 0.0070000002 32.104999542 0.4003281891 2.1481571198 4.0000000000 28.108999252 119.97908783 120.00000000 117.66803741 0.8840000033 38.891559601 1.5591281652 1.5591281652 0.9309999943
 2236.9726563 19.000000000 12.680000305 12.680000305 0.0030000000 31.618999481 0.3929581940 2.1573174000 4.0050001144 27.983999252 117.12019348 115.00000000 114.44641113 0.8640000224 38.797481537 0.9776282310 0.9776282310 0.9430000186
 2237.1250000 19.000000000 12.663000107 12.663000107 -0.002000000 32.377998352 0.3793646097 2.1787250042 3.5820000172 28.499174118 114.62557220 112.56690216 112.13414764 0.8519999981 39.059986115 1.1730159521 1.1730159521 1.0240000486
 2237.2773438 19.000000000 12.555000305 12.555000305 -0.011000000 34.187000275 0.3759999871 2.1892347336 3.2839999199 25.161359787 113.19105530 111.00250244 110.89260864 0.8529999852 39.210441589 1.1819744110 1.1819744110 1.0160000324
 2237.4296875 19.000000000 12.531000137 12.531000137 -0.009000000 35.408000946 0.3793500066 2.1919672489 3.1029999256 27.449317932 112.69002533 110.37599945 110.40799713 0.8560000062 38.765403748 2.4192693233 2.4192693233 0.9840000272
 2237.5822754 19.000000000 12.531000137 12.531000137 -0.006000000 36.279998779 0.3744667470 2.1895554066 3.2200000286 31.608999252 113.27176666 110.18799591 110.83456421 0.8690000176 39.992519379 1.9632468224 1.9632468224 0.9440000057
 2237.7346191 19.000000000 12.461001396 12.461001396 -0.005000000 37.828998566 0.3661931157 2.1983518600 3.4489998817 34.375000000 114.36842346 112.00000000 111.95386505 0.8809999824 39.100364685 1.7290673256 1.7290673256 0.9789999723
