# LAS format log file from PETREL
# Project units are specified as depth units
#==================================================================
~Version information
VERS.   2.0:
WRAP.   NO:
#==================================================================
~Well
STRT .m      485.02883911 :
STOP .m      3207.3493652 :
STEP .m     0.00000000 :
NULL .        -999.250000 :
COMP.           : COMPANY
WELL.  15/9-15   : WELL
FLD.            : FIELD
LOC.            : LOCATION
SRVC.           : SERVICE COMPANY
DATE.  2018-09-11 14:48:00   : Log Export Date {yyyy-MM-dd HH:mm:ss}
PROV.           : PROVINCE
UWI.   15/9-15   : UNIQUE WELL ID
API.            : API NUMBER
#==================================================================
~Curve
DEPT .m                   : DEPTH
Lithology_geolink ._      : Lithology_geolink
DCAL .in                  : DCAL
CALI .in                  : CALI
BS .in                    : BS
DRHO .g/cm3               : DRHO
NPHI .m3/m3               : NPHI
RHOB .g/cm3               : RHOB
PEF .b/e                  : PEF
GR .gAPI                  : GR
DTC .us/ft                : DTC
DT .us/ft                 : DT
RDEP .ohm.m               : RDEP
SP .mV                    : SP
RSHA .ohm.m               : RSHA
RXO .ohm.m                : RXO
RMED .ohm.m               : RMED
~Parameter
#==================================================================
~Ascii
# ...
 3202.9296875  -999.250000 6.9450001717 6.9442610741  -999.250000 -0.006000000 0.2890599966  -999.250000 11.883999825 35.594001770  -999.250000 82.999992371 0.8009983897 122.53900146 1.0479999781  -999.250000 1.0479999781
 3203.0820313  -999.250000 6.9419999123 6.9422397614  -999.250000 -0.009000000 0.2890599966  -999.250000 11.475000381 35.594001770  -999.250000 82.999992371 0.8019983768 120.66600037 1.0470016003  -999.250000 1.0470016003
 3203.2343750  -999.250000 6.9400000572 6.9390106201  -999.250000 -0.008000000 0.2890599966  -999.250000 11.546999931 35.594001770  -999.250000 82.999992371 0.8019999862 118.88700104 1.0479984283  -999.250000 1.0479984283
 3203.3867188  -999.250000 6.9340000153  -999.250000  -999.250000 -0.008000000 0.2890599966  -999.250000 11.751000404 35.594001770  -999.250000 82.999992371 0.8019999862 118.76599884 1.0479999781  -999.250000 1.0479999781
 3203.5393066  -999.250000 6.9340000153  -999.250000  -999.250000 -0.008000000 0.2890599966  -999.250000 13.180000305 35.594001770  -999.250000 82.999992371 0.8019999862 119.64499664 1.0479999781  -999.250000 1.0479999781
 3203.6916504  -999.250000 6.9340000153  -999.250000  -999.250000 -0.007000000 0.2890599966  -999.250000 13.376999855 35.594001770  -999.250000 82.999992371 0.8009999990 119.30899811 1.0479999781  -999.250000 1.0479999781
 3203.8439941  -999.250000 6.9340000153  -999.250000  -999.250000 -0.009000000 0.2890599966  -999.250000 12.760000229 35.594001770  -999.250000 82.999992371 0.8009999990 118.66000366 1.0479999781  -999.250000 1.0479999781
 3203.9963379  -999.250000 6.9320001602  -999.250000  -999.250000 -0.010000000 0.2890599966  -999.250000 12.331000328 35.594001770  -999.250000 82.999992371 0.8009999990 118.66400146 1.0479999781  -999.250000 1.0479999781
 3204.1489258  -999.250000 6.9250001907  -999.250000  -999.250000 -0.009000000 0.2891100049  -999.250000 12.133000374 35.594001770  -999.250000 82.999992371 0.8019999862 118.38700104 1.0479999781  -999.250000 1.0479999781
 3204.3012695  -999.250000 6.9139995575  -999.250000  -999.250000 -0.005000000 0.2895199955  -999.250000 13.131999969 35.594001770  -999.250000 82.999992371 0.8009999990 118.26200104 1.0479999781  -999.250000 1.0479999781
 3204.4536133  -999.250000 6.9089994431  -999.250000  -999.250000 -0.003000000 0.2895500064  -999.250000 12.944999695 35.594001770  -999.250000 82.999992371 0.8029999733 118.51599884 1.0479999781  -999.250000 1.0479999781
 3204.6059570  -999.250000 6.9109997749  -999.250000  -999.250000 -0.003000000 0.2895500064  -999.250000 13.260999680 35.594001770  -999.250000 82.999992371 0.8019999862 118.39499664 1.0479999781  -999.250000 1.0479999781
 3204.7585449  -999.250000 6.9079999924  -999.250000  -999.250000 -0.003000000 0.2895500064  -999.250000 13.022000313 35.594001770  -999.250000 82.999992371 0.8019999862 118.23799896 1.0479999781  -999.250000 1.0479999781
 3204.9108887  -999.250000 6.9130001068  -999.250000  -999.250000 0.0010000000 0.2895500064  -999.250000 13.241999626 35.594001770  -999.250000 82.999992371 0.8009999990 117.98799896 1.0479999781  -999.250000 1.0479999781
 3205.0632324  -999.250000 6.9089994431  -999.250000  -999.250000 -0.001000000 0.2895500064  -999.250000 12.524999619 35.594001770  -999.250000 82.999992371 0.8029999733 118.20300293 1.0490000248  -999.250000 1.0490000248
 3205.2155762  -999.250000 6.9130001068  -999.250000  -999.250000 -0.001000000 0.2895500064  -999.250000 12.362999916 35.594001770  -999.250000 82.999992371 0.8009999990 118.23400116 1.0479999781  -999.250000 1.0479999781
 3205.3681641  -999.250000 6.9120006561  -999.250000  -999.250000 -0.004000000 0.2895500064  -999.250000 11.852999687 35.594001770  -999.250000 82.999992371 0.8029999733 118.73000336 1.0479999781  -999.250000 1.0479999781
 3205.5205078  -999.250000 6.9079999924  -999.250000  -999.250000 -0.007000000 0.2895500064  -999.250000 11.887000084 35.594001770  -999.250000 82.999992371 0.8019999862 118.35500336 1.0479999781  -999.250000 1.0479999781
 3205.6728516  -999.250000 6.9139995575  -999.250000  -999.250000 -0.009000000 0.2895500064  -999.250000 11.704999924 35.594001770  -999.250000 82.999992371 0.8019999862 118.51599884 1.0479999781  -999.250000 1.0479999781
 3205.8251953  -999.250000 6.9139995575  -999.250000  -999.250000 -0.011000000 0.2895500064  -999.250000 12.024000168 35.594001770  -999.250000 82.999992371 0.8009999990 118.30500031 1.0479999781  -999.250000 1.0479999781
 3205.9775391  -999.250000 6.9139995575  -999.250000  -999.250000 -0.007000000 0.2895500064  -999.250000 11.963999748 35.594001770  -999.250000 82.999992371 0.8009999990 119.02700043 1.0479999781  -999.250000 1.0479999781
 3206.1301270  -999.250000 6.9139995575  -999.250000  -999.250000 0.0010000000 0.2895500064  -999.250000 11.690999985 35.594001770  -999.250000 82.999992371 0.8009999990 118.87500000 1.0479999781  -999.250000 1.0479999781
 3206.2824707  -999.250000 6.9130001068  -999.250000  -999.250000 0.0070000002 0.2895500064  -999.250000 11.362999916 35.594001770  -999.250000 82.999992371 0.8019999862 119.37500000 1.0479999781  -999.250000 1.0479999781
 3206.4348145  -999.250000 6.9079999924  -999.250000  -999.250000 0.0040000002 0.2895500064  -999.250000 12.434000015 35.594001770  -999.250000 82.999992371 0.8019999862 119.62500000 1.0479999781  -999.250000 1.0479999781
 3206.5871582  -999.250000 6.9109997749  -999.250000  -999.250000 0.0000000000 0.2895500064  -999.250000 13.065999985 35.594001770  -999.250000 82.999992371 0.8009999990 120.50199890 1.0479999781  -999.250000 1.0479999781
 3206.7397461  -999.250000 6.9070005417  -999.250000  -999.250000 -0.002000000 0.2895500064  -999.250000 13.166000366 35.594001770  -999.250000 82.999992371 0.8009999990 119.12899780 1.0479999781  -999.250000 1.0479999781
 3206.8920898  -999.250000 6.9070005417  -999.250000  -999.250000 -0.002000000 0.2895500064  -999.250000 12.303999901 35.594001770  -999.250000 82.999992371 0.8019999862 118.62899780 1.0479999781  -999.250000 1.0479999781
 3207.0444336  -999.250000 6.9139995575  -999.250000  -999.250000 -0.002000000 0.2895500064  -999.250000 12.227000237 35.594001770  -999.250000 82.999992371 0.8019999862 118.13300323 1.0479999781  -999.250000 1.0479999781
 3207.1967773  -999.250000 6.9139995575  -999.250000  -999.250000 0.0000000000 0.2895500064  -999.250000 12.227000237 35.594001770  -999.250000 82.999992371 0.8009999990 118.76200104 1.0479999781  -999.250000 1.0479999781
 3207.3493652  -999.250000 7.3070001602  -999.250000  -999.250000 0.0020000001 0.2895500064  -999.250000 12.227000237 35.594001770  -999.250000 82.999992371 0.8029999733 118.88700104 1.0479999781  -999.250000 1.0479999781
