# LAS format log file from PETREL
# Project units are specified as depth units
#==================================================================
~Version information
VERS.   2.0:
WRAP.   NO:
#==================================================================
~Well
STRT .m      474.34408569 :
STOP .m      3047.1606445 :
STEP .m     0.00000000 :
NULL .        -999.250000 :
COMP.           : COMPANY
WELL.  15/9-9   : WELL
FLD.            : FIELD
LOC.            : LOCATION
SRVC.           : SERVICE COMPANY
DATE.  2018-09-11 14:48:05   : Log Export Date {yyyy-MM-dd HH:mm:ss}
PROV.           : PROVINCE
UWI.   15/9-9   : UNIQUE WELL ID
API.            : API NUMBER
#==================================================================
~Curve
DEPT .m                   : DEPTH
Lithology_geolink ._      : Lithology_geolink
DCAL .in                  : DCAL
CALI .in                  : CALI
DRHO .g/cm3               : DRHO
NPHI .m3/m3               : NPHI
RHOB .g/cm3               : RHOB
GR .gAPI                  : GR
DTC .us/ft                : DTC
DT .us/ft                 : DT
DTE .us/ft                : DTE
RDEP .ohm.m               : RDEP
SP .mV                    : SP
RSHA .ohm.m               : RSHA
RXO .ohm.m                : RXO
RMED .ohm.m               : RMED
~Parameter
#==================================================================
~Ascii
# ...
 1674.9512939  -999.250000 15.420000076 15.420000076 -0.013995197 0.4997980595 1.9739737511 48.213371277 140.47645569 148.71849060 147.44590759 0.7509839535 125.38655090 0.8110160232  -999.250000 0.8110160232
 1675.1036377  -999.250000 15.317999840 15.317999840 -0.013001603 0.5074393749 1.9841684103 50.875389099 141.95121765 148.85249329 148.98469543 0.7519959807 125.84913635 0.8050240278  -999.250000 0.8050240278
 1675.2559814  -999.250000 15.231999397 15.231999397 -0.014995196 0.5102388859 1.9933143854 51.573783875 143.67286682 152.89871216 150.71099854 0.7510039806 125.35798645 0.7900601029  -999.250000 0.7900601029
 1675.4084473  -999.250000 15.093999863 15.093999863 -0.017995192 0.5086364746 1.9951466322 53.396152496 144.43891907 151.72479248 151.61648560 0.7400440574 124.41478729 0.7969719768  -999.250000 0.7969719768
 1675.5607910  -999.250000 15.017999649 15.017999649 -0.014009608 0.5058811307 1.9907052517 56.647563934 143.58798218 149.79174805 150.78733826 0.7300400734 124.06937408 0.7910240293  -999.250000 0.7910240293
 1675.7132568  -999.250000 15.116999626 15.116999626 -0.008009615 0.5585781932 1.9854955673 55.285308838 142.91921997 148.79197693 149.99519348 0.7250200510 122.97638702 0.7840279937  -999.250000 0.7840279937
 1675.8656006  -999.250000 15.269000053 15.269000053 -0.000019215 0.5874447227 1.9839766026 54.896240234 143.68406677 152.84368896 150.77087402 0.7250000238 123.07159424 0.7670681477  -999.250000 0.7670681477
 1676.0180664  -999.250000 15.402999878 15.402999878 0.0009983975 0.5783470273 1.9871481657 50.409805298 144.85809326 151.55026245 152.00692749 0.7259960175 122.64571381 0.7640119791  -999.250000 0.7640119791
 1676.1704102  -999.250000 15.496999741 15.496999741 -0.000995196 0.5231717825 1.9924811125 49.903591156 145.41191101 153.94734192 152.70721436 0.7319759727 122.43583679 0.7709719539  -999.250000 0.7709719539
 1676.3228760  -999.250000 15.461000443 15.461000443 -0.003995193 0.4873231947 1.9982545376 49.624668121 145.33903503 152.35044861 152.60180664 0.7349880338 122.81248474 0.7749839425  -999.250000 0.7749839425
 1676.4752197  -999.250000 15.404000282 15.404000282 0.0039807847 0.4829271138 2.0045773983 50.586906433 144.04577637 150.04026794 151.14851379 0.7340040207 122.72734833 0.7909359336  -999.250000 0.7909359336
 1676.6276855  -999.250000 15.397000313 15.397000313 0.0079935901 0.4656156003 2.0097804070 45.541164398 141.95257568 147.96563721 149.01147461 0.7310096025 123.52144623 0.8069487214  -999.250000 0.8069487214
 1676.7800293  -999.250000 15.336999893 15.336999893 0.0099951960 0.4514068663 2.0092639923 42.307350159 140.08494568 145.67617798 147.00408936 0.7310000062 123.43435669 0.8229359388  -999.250000 0.8229359388
 1676.9324951  -999.250000 15.291000366 15.291000366 0.0010144231 0.4600520134 1.9991201162 41.995723724 138.79164124 145.09883118 145.60354614 0.7270128131 123.92940521 0.8150256276  -999.250000 0.8150256276
 1677.0848389  -999.250000 15.260999680 15.260999680 -0.005988782 0.4619225860 1.9817835093 47.758483887 138.44509888 144.64283752 145.23545837 0.7210240364 124.98376465 0.7940840721  -999.250000 0.7940840721
 1677.2371826  -999.250000 15.154999733 15.154999733 -0.005002402 0.4913018346 1.9647189379 52.017364502 138.84213257 147.16883850 145.76518250 0.7190079689 124.48403168 0.7750760913  -999.250000 0.7750760913
 1677.3896484  -999.250000 15.168999672 15.168999672 -0.006996795 0.5244074464 1.9539933205 55.148983002 139.27534485 145.57844543 146.24261475 0.7150160074 125.30569458 0.7769920230  -999.250000 0.7769920230
 1677.5419922  -999.250000 15.300999641 15.300999641 -0.007997598 0.5541707873 1.9520974159 50.708312988 139.68000793 146.94746399 146.50210571 0.7140039802 125.20941162 0.7680360675  -999.250000 0.7680360675
 1677.6944580  -999.250000 15.457000732 15.457000732 -0.007001603 0.5584233999 1.9583112001 53.601657867 139.89581299 147.42112732 146.79858398 0.7249559760 126.81454468 0.7610279918  -999.250000 0.7610279918
 1677.8468018  -999.250000 15.501999855 15.501999855 -0.003009608 0.5374245048 1.9682174921 45.279785156 139.33482361 145.52462769 146.30360413 0.7379478812 126.86581421 0.7530320883  -999.250000 0.7530320883
 1677.9992676  -999.250000 15.432999611 15.432999611 -0.001003205 0.5153683424 1.9728782177 46.975849152 138.11148071 144.50108337 144.94709778 0.7499519587 126.37796021 0.7669439912  -999.250000 0.7669439912
 1678.1516113  -999.250000 15.220000267 15.220000267 -0.008980785 0.4735976458 1.9644662142 40.607475281 135.38334656 142.01000977 142.06651306 0.7579679489 126.35906982 0.7988718152  -999.250000 0.7988718152
 1678.3040771  -999.250000 15.256999969 15.256999969 -0.022977564 0.4414286315 1.9462236166 43.309440613 130.50102234 130.79005432 136.97146606 0.7619839907 125.18272400 0.8707117438  -999.250000 0.8707117438
 1678.4564209  -999.250000 15.873999596 15.873999596 -0.027987991 0.4182726443 1.9305083752 42.727890015 126.87703705 132.89135742 133.15637207 0.7739518881 125.81543732 0.9018757939  -999.250000 0.9018757939
 1678.6088867  -999.250000 15.963000298 15.963000298 -0.028000001 0.4134191275 1.9240323305 39.343151093 126.29912567 132.91992188 132.56156921 0.7819679976 125.15167236 0.8960240483  -999.250000 0.8960240483
 1678.7612305  -999.250000 16.042999268 16.042999268 -0.029995196 0.4302322865 1.9223331213 38.898403168 127.36517334 132.13813782 133.70970154 0.7869799733 124.87609863 0.8521763086  -999.250000 0.8521763086
 1678.9136963  -999.250000 16.325000763 16.325000763 -0.038985576 0.4790432453 1.9205871820 43.280437469 131.20526123 142.18568420 137.63801575 0.7889935374 124.54306793 0.8510032296  -999.250000 0.8510032296
 1679.0660400  -999.250000 16.072000504 16.072000504 -0.038001601 0.5038011074 1.9230284691 48.903968811 136.00460815 145.70597839 142.74986267 0.7740600109 123.25616455 0.8330720663  -999.250000 0.8330720663
 1679.2183838  -999.250000 15.861000061 15.861000061 -0.027026422 0.5148957968 1.9360799789 50.049377441 138.79550171 145.71203613 145.67524719 0.7590600848 123.33665466 0.8210480809  -999.250000 0.8210480809
 1679.3708496  -999.250000 15.925000191 15.925000191 -0.020011218 0.4971913695 1.9572758675 47.283897400 140.45117188 148.92208862 147.41860962 0.7510319948 123.18560791 0.7851441503  -999.250000 0.7851441503
 1679.5231934  -999.250000 15.989000320 15.989000320 -0.012019215 0.4655270875 1.9774277210 47.530178070 141.43765259 149.86027527 148.41961670 0.7380520701 123.60331726 0.7690640688  -999.250000 0.7690640688
 1679.6756592  -999.250000 16.056999207 16.056999207 -0.008006411 0.4247135520 1.9884495735 46.772438049 140.46601868 144.83123779 147.36288452 0.7270440459 123.79224396 0.7650160193  -999.250000 0.7650160193
 1679.8280029  -999.250000 15.925999641 15.925999641 -0.007002402 0.4260439873 1.9874545336 47.687049866 138.85777283 145.76815796 145.69767761 0.7210240364 123.22827148 0.7709760070  -999.250000 0.7709760070
 1679.9804688  -999.250000 15.779999733 15.779999733 -0.013988783 0.4749633968 1.9801166058 43.575916290 138.28002930 144.12461853 145.07215881 0.7200040221 123.56563568 0.7769759893  -999.250000 0.7769759893
 1680.1328125  -999.250000 15.609000206 15.609000206 -0.016992794 0.4942332804 1.9781653881 47.647884369 138.64843750 146.10998535 145.54591370 0.7259759903 123.44847107 0.7839719057  -999.250000 0.7839719057
 1680.2852783  -999.250000 15.512999535 15.512999535 -0.014004808 0.4661930203 1.9879798889 47.647033691 139.81602478 148.15679932 146.82336426 0.7349640131 124.07248688 0.7820079923  -999.250000 0.7820079923
 1680.4376221  -999.250000 15.517000198 15.517000198 -0.010009607 0.4554328322 2.0034668446 48.227134705 140.65272522 147.57038879 147.64393616 0.7439639568 124.13973999 0.7740320563  -999.250000 0.7740320563
 1680.5900879  -999.250000 15.510999680 15.510999680 -0.009001602 0.4592843652 2.0144093037 42.469879150 140.72247314 147.73632813 147.70079041 0.7629239559 124.38700867 0.7949159741  -999.250000 0.7949159741
 1680.7424316  -999.250000 15.514999390 15.514999390 -0.003014412 0.4504157007 2.0177450180 40.589996338 140.18093872 147.54876709 147.07713318 0.7849118710 124.83320618 0.8189038634  -999.250000 0.8189038634
