# LAS format log file from PETREL
# Project units are specified as depth units
#==================================================================
~Version information
VERS.   2.0:
WRAP.   NO:
#==================================================================
~Well
STRT .m      489.99996948 :
STOP .m      1530.0000000 :
STEP .m     0.00000000 :
NULL .        -999.250000 :
COMP.           : COMPANY
WELL.  15/9-22   : WELL
FLD.            : FIELD
LOC.            : LOCATION
SRVC.           : SERVICE COMPANY
DATE.  2018-09-11 14:48:02   : Log Export Date {yyyy-MM-dd HH:mm:ss}
PROV.           : PROVINCE
UWI.   15/9-22   : UNIQUE WELL ID
API.            : API NUMBER
#==================================================================
~Curve
DEPT .m                   : DEPTH
Lithology_geolink ._      : Lithology_geolink
BS .in                    : BS
GR .gAPI                  : GR
RDEP .ohm.m               : RDEP
RMED .ohm.m               : RMED
~Parameter
#==================================================================
~Ascii
# ...
 1051.0000000  -999.250000 17.500000000 47.960998535 0.6620000005 0.7279999852
 1051.0999756  -999.250000 17.500000000 49.542068481 0.6570000052 0.6949999928
 1051.1999512  -999.250000 17.500000000 49.250000000 0.6570000052 0.6790000200
 1051.3000488  -999.250000 17.500000000 45.272998810 0.6589999795 0.6769999862
 1051.4000244  -999.250000 17.500000000 37.067001343 0.6579999924 0.6800024509
 1051.5000000  -999.250000 17.500000000 30.659999847 0.6579999924 0.6819999814
 1051.5999756  -999.250000 17.500000000 28.763315201 0.6570000052 0.6840000153
 1051.6999512  -999.250000 17.500000000 29.095592499 0.6560000181 0.6880000234
 1051.8000488  -999.250000 17.500000000 30.458000183 0.6589999795 0.6940000057
 1051.9000244  -999.250000 17.500000000 33.875000000 0.6620000005 0.7080000043
 1052.0000000  -999.250000 17.500000000 39.217998505 0.6589999795 0.6980000138
 1052.0999756  -999.250000 17.500000000 43.593654633 0.6650000215 0.6850000024
 1052.1999512  -999.250000 17.500000000 44.632736206 0.6629999876 0.6759999990
 1052.3000488  -999.250000 17.500000000 43.964000702 0.6660000086 0.6909999847
 1052.4000244  -999.250000 17.500000000 43.000999451 0.6719999909 0.7059999704
 1052.5000000  -999.250000 17.500000000 42.990001678 0.6750000119 0.7120000124
 1052.5999756  -999.250000 17.500000000 44.194999695 0.6790000200 0.7170000076
 1052.6999512  -999.250000 17.500000000 47.500965118 0.6859999895 0.7139999866
 1052.7999268  -999.250000 17.500000000 52.115364075 0.6890000105 0.7129999995
 1052.9000244  -999.250000 17.500000000 54.713001251 0.6890000105 0.7129999995
 1053.0000000  -999.250000 17.500000000 53.981998444 0.6890000105 0.7129999995
 1053.0999756  -999.250000 17.500000000 51.067001343 0.6890000105 0.7129999995
 1053.2000732  -999.250000 17.500000000 47.393001556 0.6990928054 0.7211905122
 1053.2999268  -999.250000 17.500000000 43.517738342 0.7749999762 0.8769999743
 1053.4000244  -999.250000 17.500000000 39.001998901 0.7710000277 0.8240000010
 1053.5000000  -999.250000 17.500000000 35.081787109 0.7659999728 0.7210000157
 1053.5999756  -999.250000 17.500000000 35.041999817 0.7070000172 0.6850000024
 1053.7000732  -999.250000 17.500000000 36.807998657 0.6909999847 0.6949999928
 1053.8000488  -999.250000 17.500000000 37.342998505 0.6910073161 0.6949988008
 1053.9000244  -999.250000 17.500000000 37.180000305 0.6970000267 0.6940000057
 1054.0000000  -999.250000 17.500000000 35.950504303 0.6959999800 0.6959999800
 1054.0999756  -999.250000 17.500000000 33.235000610 0.6959999800 0.6980000138
 1054.2000732  -999.250000 17.500000000 30.170000076 0.6959999800 0.6980000138
 1054.3000488  -999.250000 17.500000000 28.888000488 0.6969853640 0.6929963827
 1054.4000244  -999.250000 17.500000000 29.635000229 0.6850000024 0.6899999976
 1054.5000000  -999.250000 17.500000000 31.281999588 0.6800000072 0.6919999719
 1054.5999756  -999.250000 17.500000000 32.756198883 0.6819999814 0.6880000234
 1054.6999512  -999.250000 17.500000000 33.472000122 0.6840000153 0.6850000024
 1054.8000488  -999.250000 17.500000000 35.106998444 0.6840000153 0.6850000024
 1054.9000244  -999.250000 17.500000000 38.528999329 0.6939914823 0.6810256243
 1055.0000000  -999.250000 17.500000000 41.923000336 0.6869999766 0.7020000219
 1055.0999756  -999.250000 17.500000000 43.078590393 0.6809999943 0.6999999881
 1055.1999512  -999.250000 17.500000000 38.136043549 0.6790000200 0.6940000057
 1055.3000488  -999.250000 17.500000000 31.611000061 0.6769999862 0.6999999881
 1055.4000244  -999.250000 17.500000000 25.917999268 0.6729999781 0.7070000172
 1055.5000000  -999.250000 17.500000000 22.121999741 0.6729999781 0.7139999866
 1055.5999756  -999.250000 17.500000000 21.024341583 0.6710000038 0.7189999819
 1055.6999512  -999.250000 17.500000000 22.961629868 0.6700000167 0.7149999738
 1055.8000488  -999.250000 17.500000000 25.271999359 0.6700000167 0.7110000253
 1055.9000244  -999.250000 17.500000000 23.611999512 0.6690000296 0.6959999800
 1056.0000000  -999.250000 17.500000000 19.718000412 0.6650000215 0.6899999976
 1056.0999756  -999.250000 17.500000000 18.007999420 0.6620000005 0.6890000105
 1056.1999512  -999.250000 17.500000000 19.907680511 0.6549999714 0.6750000119
 1056.2999268  -999.250000 17.500000000 24.640216827 0.6510000229 0.6679999828
 1056.4000244  -999.250000 17.500000000 29.684000015 0.6529999971 0.6669999957
 1056.5000000  -999.250000 17.500000000 31.687000275 0.6620000005 0.6719999909
 1056.5999756  -999.250000 17.500000000 29.424999237 0.6600000262 0.6899999976
 1056.7000732  -999.250000 17.500000000 24.701000214 0.6620134115 0.6959914565
 1056.7999268  -999.250000 17.500000000 20.709878922 0.6729999781 0.6890000105
 1056.9000244  -999.250000 17.500000000 18.148000717 0.6700000167 0.6940000057
 1057.0000000  -999.250000 17.500000000 16.822616577 0.6700000167 0.6949999928
 1057.0999756  -999.250000 17.500000000 17.343000412 0.6710000038 0.6959999800
 1057.2000732  -999.250000 17.500000000 20.895000458 0.6710000038 0.6970000267
 1057.3000488  -999.250000 17.500000000 26.541999817 0.6710036397 0.6970341802
 1057.4000244  -999.250000 17.500000000 32.416999817 0.6740000248 0.7250000238
 1057.5000000  -999.250000 17.500000000 35.926998138 0.6790000200 0.7390000224
 1057.5999756  -999.250000 17.500000000 36.179691315 0.6869999766 0.7250000238
 1057.6999512  -999.250000 17.500000000 35.584999084 0.6859999895 0.7149999738
 1057.8000488  -999.250000 17.500000000 35.890998840 0.6850011945 0.7049853206
 1057.9000244  -999.250000 17.500000000 37.348999023 0.6859939098 0.6930109859
 1058.0000000  -999.250000 17.500000000 39.112998962 0.6809999943 0.7020000219
 1058.0999756  -999.250000 17.500000000 40.451366425 0.6819999814 0.7360000014
 1058.1999512  -999.250000 17.500000000 41.651535034 0.6809999943 0.7379999757
 1058.3000488  -999.250000 17.500000000 43.784999847 0.6800000072 0.7120000124
 1058.4000244  -999.250000 17.500000000 45.643001556 0.6779975295 0.7129988074
 1058.5000000  -999.250000 17.500000000 46.659000397 0.6759999990 0.7120000124
 1058.5999756  -999.250000 17.500000000 46.499195099 0.6729999781 0.7089999914
 1058.6999512  -999.250000 17.500000000 44.966873169 0.6769999862 0.7020000219
 1058.8000488  -999.250000 17.500000000 42.488998413 0.6790000200 0.6990000010
 1058.9000244  -999.250000 17.500000000 40.598999023 0.6779999733 0.7110000253
 1059.0000000  -999.250000 17.500000000 41.019001007 0.6759999990 0.7139999866
 1059.0999756  -999.250000 17.500000000 43.445037842 0.6750000119 0.7160000205
 1059.1999512  -999.250000 17.500000000 44.490726471 0.6970000267 0.7239999771
 1059.3000488  -999.250000 17.500000000 41.132999420 0.6779999733 0.7310000062
 1059.4000244  -999.250000 17.500000000 37.213001251 0.6700000167 0.6809999943
 1059.5000000  -999.250000 17.500000000 34.359001160 0.6690000296 0.6800000072
 1059.5999756  -999.250000 17.500000000 31.861000061 0.6679999828 0.6769999862
 1059.6999512  -999.250000 17.500000000 29.385023117 0.6660000086 0.6759999990
 1059.7999268  -999.250000 17.500000000 26.987926483 0.6750000119 0.6759999990
 1059.9000244  -999.250000 17.500000000 24.430999756 0.6740000248 0.6800000072
 1060.0000000  -999.250000 17.500000000 23.391000748 0.6899999976 0.6859999895
 1060.0999756  -999.250000 17.500000000 23.642999649 0.6919999719 0.6880000234
 1060.2000732  -999.250000 17.500000000 26.191999435 0.6950109601 0.6809877753
 1060.2999268  -999.250000 17.500000000 30.240051270 0.7039999962 0.6710000038
 1060.4000244  -999.250000 17.500000000 34.340999603 0.7039999962 0.6719999909
 1060.5000000  -999.250000 17.500000000 37.059680939 0.7110000253 0.6859999895
 1060.5999756  -999.250000 17.500000000 37.074001312 0.7099999785 0.6909999847
 1060.7000732  -999.250000 17.500000000 35.122001648 0.7120000124 0.6959999800
 1060.8000488  -999.250000 17.500000000 34.960998535 0.7120000124 0.6959999800
 1060.9000244  -999.250000 17.500000000 39.123001099 0.7120000124 0.6959999800
 1061.0000000  -999.250000 17.500000000 44.108001709 0.7120000124 0.6959999800
 1061.0999756  -999.250000 17.500000000 44.915016174 0.7110000253 0.7020000219
