# LAS format log file from PETREL
# Project units are specified as depth units
#==================================================================
~Version information
VERS.   2.0:
WRAP.   NO:
#==================================================================
~Well
STRT .m      2122.4746094 :
STOP .m      4102.6074219 :
STEP .m     0.00000000 :
NULL .        -999.250000 :
COMP.           : COMPANY
WELL.  15/9-19A   : WELL
FLD.            : FIELD
LOC.            : LOCATION
SRVC.           : SERVICE COMPANY
DATE.  2018-09-11 14:48:01   : Log Export Date {yyyy-MM-dd HH:mm:ss}
PROV.           : PROVINCE
UWI.   15/9-19 A   : UNIQUE WELL ID
API.            : API NUMBER
#==================================================================
~Curve
DEPT .m                   : DEPTH
Lithology_geolink ._      : Lithology_geolink
CALI .in                  : CALI
RHOB .g/cm3               : RHOB
GR .gAPI                  : GR
RDEP .ohm.m               : RDEP
RSHA .ohm.m               : RSHA
RMED .ohm.m               : RMED
~Parameter
#==================================================================
~Ascii
# ...
 3589.3242188 12.000000000 8.9146003723 2.6003999710 25.391828537 3.6433000565 4.4054179192 3.6840999126
 3589.4765625 12.000000000 8.8913002014 2.5873999596 24.554508209 4.0645999908 5.1019659042 4.1090002060
 3589.6291504 12.000000000 8.8817996979 2.5778999329 24.255847931 4.6579999924 6.0247220993 4.6947999001
 3589.7814941 12.000000000 8.9121999741 2.6217000484 24.436216354 5.1754999161 6.7555294037 5.1865000725
 3589.9338379 12.000000000 8.9375000000 2.5961000919 24.126199722 5.3860998154 6.8873901367 5.3649997711
 3590.0861816 12.000000000 8.9336996078 2.6003999710 24.437793732 5.5437002182 6.7146773338 5.5009999275
 3590.2385254 12.000000000 8.9315004349 2.5961999893 24.828321457 5.4788999557 6.3808703423 5.4373998642
 3590.3911133 12.000000000 8.9020996094 2.6006000042 24.748661041 4.9798998833 5.8798027039 4.9576997757
 3590.5434570 12.000000000 8.9162998199 2.5959000587 25.891921997 4.5658998489 5.4973125458 4.5503001213
 3590.6958008 12.000000000 8.9047002792 2.6436998844 28.529296875 4.5197000504 5.3334617615 4.4833002090
 3590.8481445 12.000000000 8.9149999619 2.6152999401 30.584831238 4.5755000114 5.1722168922 4.5048999786
 3591.0007324 12.000000000 8.9362001419 2.6070001125 30.071184158 4.3435997963 4.7991981506 4.2727999687
 3591.1530762 12.000000000 8.9190998077 2.5678000450 28.465557098 3.8187000751 4.2882189751 3.7945001125
 3591.3054199 12.000000000 8.9369001389 2.5818998814 27.633487701 3.3324000835 3.8665754795 3.3561000824
 3591.4577637 12.000000000 8.9232997894 2.5896999836 27.757581711 3.1584000587 3.7071096897 3.2047998905
 3591.6103516 12.000000000 8.9172000885 2.5894999504 27.105697632 3.2811999321 3.7829773426 3.3201999664
 3591.7626953 12.000000000 8.9527997971 2.5569999218 26.863670349 3.4156000614 3.8519892693 3.4172999859
 3591.9150391 12.000000000 8.9489002228 2.5515000820 30.657398224 3.3157000542 3.7066333294 3.2850000858
 3592.0673828 12.000000000 8.9554996490 2.5567998886 34.772014618 3.0344998837 3.4025876522 3.0048999786
 3592.2197266 12.000000000 8.9576997757 2.5690000057 35.193359375 2.7502999306 3.1063494682 2.7393999100
 3592.3723145 12.000000000 8.9568996429 2.5769999027 32.179695129 2.5701999664 2.9050216675 2.5731999874
 3592.5246582 12.000000000 8.9798002243 2.5599000454 29.133462906 2.5179998875 2.8172404766 2.5241999626
 3592.6770020 12.000000000 8.9734001160 2.5599000454 30.916154861 2.5873999596 2.8419601917 2.5915000439
 3592.8293457 12.000000000 8.9714002609 2.5490999222 35.271999359 2.6898999214 2.9326090813 2.6940999031
 3592.9819336 12.000000000 8.9594001770 2.5404999256 37.669956207 2.6803998947 2.9660468102 2.6868999004
 3593.1342773 12.000000000 8.9742002487 2.5425000191 43.626071930 2.5732998848 2.8501000404 2.5790998936
 3593.2866211 12.000000000 8.9785003662 2.4544000626 49.398452759 2.4286999702 2.6161000729 2.4323000908
 3593.4389648 12.000000000 8.9874000549 2.4886999130 45.472702026 2.2097001076 2.3645999432 2.2181000710
 3593.5915527 12.000000000 8.9336004257 2.5780999660 36.051933289 2.0227999687 2.2460999489 2.0441999435
 3593.7438965 12.000000000 8.9457998276 2.5778999329 29.406570435 2.0383999348 2.3647999763 2.0766000748
 3593.8962402 12.000000000 8.9130001068 2.5996000767 24.455850601 2.3875999451 2.7941999435 2.4419000149
 3594.0485840 12.000000000 8.9282999039 2.6138999462 20.077142715 3.3378999233 3.7753000259 3.3917000294
 3594.2009277 12.000000000 8.9468002319 2.6040999889 18.912824631 5.0887999535 5.6112999916 5.0503001213
 3594.3535156 12.000000000 8.8968000412 2.5998001099 19.644615173 6.5994000435 7.5671000481 6.3543000221
 3594.5058594 12.000000000 8.9456996918 2.6052999496 22.286361694 6.8159999847 8.0555000305 6.4752998352
 3594.6582031 12.000000000 8.9324998856 2.6275999546 26.138921738 6.2161998749 7.1125001907 5.9377999306
 3594.8105469 12.000000000 8.8964996338 2.5673000813 29.101608276 5.1477999687 5.7238998413 4.9948000908
 3594.9631348 12.000000000 8.9216995239 2.5706999302 30.134258270 4.0226001740 4.5036001205 3.9718000889
 3595.1154785 12.000000000 8.9319000244 2.5483999252 31.518180847 3.1712000370 3.6161999702 3.1765999794
 3595.2678223 12.000000000 8.9267997742 2.5490000248 34.203094482 2.6795001030 3.0892000198 2.7135999203
 3595.4201660 12.000000000 8.9303998947 2.5611999035 33.664741516 2.4658000469 2.8615000248 2.5192999840
 3595.5727539 12.000000000 8.9226999283 2.5820999146 32.768634796 2.4161999226 2.8406000137 2.4848001003
 3595.7250977 12.000000000 8.9074001312 2.5669999123 31.809837341 2.5016999245 2.9920001030 2.5806000233
 3595.8774414 12.000000000 8.8887996674 2.5792996883 27.610639572 2.7815999985 3.3477001190 2.8670001030
 3596.0297852 12.000000000 8.9298000336 2.6003999710 24.844829559 3.2523999214 3.9079000950 3.3385000229
 3596.1823730 12.000000000 8.9343004227 2.5936000347 24.338903427 3.6115000248 4.4130001068 3.6821000576
 3596.3347168 12.000000000 8.9267997742 2.5831000805 23.285089493 3.6303999424 4.5433998108 3.6719000340
 3596.4870605 12.000000000 8.9750003815 2.6043999195 22.013439178 3.6040000916 4.4862999916 3.6164000034
 3596.6394043 12.000000000 8.9493999481 2.5822999477 20.678239822 3.6577999592 4.4714999199 3.6447000504
 3596.7917480 12.000000000 8.9095001221 2.5903000832 19.480737686 3.6394999027 4.4519000053 3.6154999733
 3596.9443359 12.000000000 8.9254999161 2.5460000038 18.649627686 3.5511000156 4.4204998016 3.5388000011
 3597.0966797 12.000000000 8.9347000122 2.5517001152 18.025400162 3.4700999260 4.4338002205 3.4860999584
 3597.2490234 12.000000000 8.9435997009 2.5804998875 17.349283218 3.4372999668 4.5244998932 3.4892001152
 3597.4013672 12.000000000 8.9270000458 2.6008000374 16.562921524 3.4607999325 4.6621999741 3.5476000309
 3597.5539551 12.000000000 8.9245004654 2.6017000675 16.448478699 3.4874000549 4.7397999763 3.5943000317
 3597.7062988 12.000000000 8.9357004166 2.5768001080 16.872018814 3.4388999939 4.6546001434 3.5359001160
 3597.8586426 12.000000000 8.9330997467 2.5882999897 18.364107132 3.2992999554 4.3863000870 3.3594999313
 3598.0109863 12.000000000 8.9681997299 2.5748000145 20.537033081 3.1438000202 4.0338997841 3.1624999046
 3598.1635742 12.000000000 8.9619998932 2.5717999935 23.194046021 2.9665000439 3.6473999023 2.9572999477
 3598.3159180 12.000000000 8.9882001877 2.5638999939 26.695486069 2.7499001026 3.2472999096 2.7369999886
 3598.4682617 12.000000000 8.9762001038 2.5573999882 28.631900787 2.5250999928 2.8770999908 2.5292000771
 3598.6206055 12.000000000 8.9975996017 2.5320999622 29.930620193 2.2748999596 2.5148999691 2.2990000248
 3598.7729492 12.000000000 8.9731998444 2.5276999474 32.204906464 2.0699000359 2.1851999760 2.0973999500
 3598.9255371 12.000000000 9.0026998520 2.5223999023 33.579208374 1.9934999943 1.9431999922 2.0020000935
 3599.0778809 12.000000000 9.0459995270 2.5343999863 32.851272583 2.0093998909 1.7928999662 1.9816000462
 3599.2302246 12.000000000 9.0595998764 2.5404000282 31.792198181 2.0055999756 1.7216000557 1.9456000328
 3599.3825684 12.000000000 9.0566997528 2.5411999226 28.477735519 1.9226000309 1.7203999758 1.8562999964
 3599.5351563 12.000000000 9.0025997162 2.5638000965 24.619375229 1.8918000460 1.8212000132 1.8334000111
 3599.6875000 12.000000000 8.9969997406 2.5467998981 23.155040741 2.0315999985 2.0569999218 1.9747999907
 3599.8398438 12.000000000 8.9697999954 2.5580000877 21.548475266 2.2246000767 2.3254001141 2.1638000011
 3599.9921875 12.000000000 8.9997997284 2.5559999943 21.215560913 2.3164999485 2.4756999016 2.2600998878
 3600.1447754 12.000000000 8.9927997589 2.5445001125 23.767202377 2.3782999516 2.5580000877 2.3399000168
 3600.2971191 12.000000000 8.9926996231 2.5559000969 26.511602402 2.3936998844 2.6189000607 2.3789000511
 3600.4494629 12.000000000 8.9976997375 2.5362000465 27.728155136 2.2992000580 2.5903999805 2.2918999195
 3600.6018066 12.000000000 8.9896001816 2.5348999500 29.468009949 2.2565999031 2.5044000149 2.2323999405
 3600.7541504 12.000000000 8.9495000839 2.5276999474 32.111122131 2.2897999287 2.3910000324 2.2393999100
 3600.9067383 12.000000000 8.9750995636 2.5155999660 34.421207428 2.2557001114 2.2458000183 2.1956000328
