# LAS format log file from PETREL
# Project units are specified as depth units
#==================================================================
~Version information
VERS.   2.0:
WRAP.   NO:
#==================================================================
~Well
STRT .m      3164.4333496 :
STOP .m      4228.6425781 :
STEP .m     0.00000000 :
NULL .        -999.250000 :
COMP.           : COMPANY
WELL.  15/9-19B   : WELL
FLD.            : FIELD
LOC.            : LOCATION
SRVC.           : SERVICE COMPANY
DATE.  2018-09-11 14:48:02   : Log Export Date {yyyy-MM-dd HH:mm:ss}
PROV.           : PROVINCE
UWI.   15/9-19 B   : UNIQUE WELL ID
API.            : API NUMBER
#==================================================================
~Curve
DEPT .m                   : DEPTH
Lithology_geolink ._      : Lithology_geolink
CALI .in                  : CALI
RHOB .g/cm3               : RHOB
GR .gAPI                  : GR
DTC .us/ft                : DTC
RDEP .ohm.m               : RDEP
RSHA .ohm.m               : RSHA
RMED .ohm.m               : RMED
~Parameter
#==================================================================
~Ascii
# ...
 4076.3950195 2.0000000000 6.0426001549 2.7042996883 15.447294235 61.330974579 17.787469864 9546.6855469 17.858127594
 4076.5473633 2.0000000000 6.0499000549 2.7225000858 17.755239487 64.433395386 8.1682672501 27.451011658 9.7676696777
 4076.6997070 2.0000000000 6.0475997925 2.7077000141 21.584125519 67.174156189 4.0963101387 5.5870971680 3.8914866447
 4076.8522949 2.0000000000 6.0272998810 2.5878000259 23.973438263 69.520698547 2.7911708355 2.7164099216 2.8822228909
 4077.0046387 2.0000000000 6.0130000114 2.5106000900 25.802698135 71.579109192 1.7840754986 1.7836861610 1.6111063957
 4077.1569824 5.0000000000 6.0068001747 2.5288000107 32.355724335 73.392730713 1.0210114717 0.9652956724 0.9299097657
 4077.3093262 5.0000000000 6.0033998489 2.5078001022 40.104755402 74.912864685 0.9038615227 1.0251495838 0.9985594749
 4077.4619141 5.0000000000 6.0019998550 2.4649999142 45.508457184 75.952224731 1.0662406683 1.1797616482 1.1591273546
 4077.6142578 5.0000000000 5.9966993332 2.4632999897 49.295265198 76.553382874 0.8918017745 0.8872128129 0.8245724440
 4077.7666016 5.0000000000 5.9942998886 2.4802999496 49.074512482 76.850624084 0.7676669955 0.7077754736 0.5578331947
 4077.9189453 1.0000000000 6.0005006790 2.4927999973 41.147617340 76.926109314 0.3731506169 0.3808758259 0.3292350769
 4078.0715332 1.0000000000 6.0005006790 2.4270999432 27.551166534 77.121261597 0.2802071869 0.3036340773 0.2889180779
 4078.2238770 1.0000000000 5.9976000786 2.3354001045 19.655462265 77.014595032 0.3136366904 0.3454287052 0.3257205188
 4078.3762207 1.0000000000 5.9973001480 2.2929999828 17.012195587 76.322769165 0.3364485502 0.3632958233 0.3384703398
 4078.5285645 1.0000000000 5.9942002296 2.2809000015 15.201636314 74.431129456 0.3044652343 0.3607778847 0.3201682568
 4078.6809082 1.0000000000 5.9885993004 2.2899999619 14.912700653 71.824760437 0.3452969491 0.4094129801 0.4249453545
 4078.8334961 1.0000000000 5.9889998436 2.3129000664 14.853424072 68.927093506 0.4684902430 0.4813167751 0.3920107186
 4078.9858398 1.0000000000 5.9913997650 2.3494000435 15.703942299 65.899917603 0.6213703752 0.9543939233 0.7387004495
 4079.1381836 1.0000000000 5.9883999825 2.3828001022 17.038784027 63.038948059 0.7290121913 1.3265635967 1.1761993170
 4079.2905273 16.000000000 5.9892001152 2.4284999371 17.151485443 61.699600220 1.6738495827 2.6809878349 1.8638309240
 4079.4431152 16.000000000 5.9910998344 2.5213000774 16.076753616 62.080707550 3.3867297173 6.7260499001 3.5649111271
 4079.5954590 16.000000000 5.9858999252 2.5880000591 13.911004066 64.828491211 3.3625159264 7.7004685402 3.4724879265
 4079.7478027 1.0000000000 5.9812998772 2.6364998817 12.605671883 68.195701599 1.9379528761 3.4405772686 1.9677629471
 4079.9001465 1.0000000000 5.9855999947 2.5615000725 12.962800980 72.502655029 0.9109438062 1.1203838587 0.7604237199
 4080.0527344 1.0000000000 5.9878997803 2.3677999973 13.399830818 75.407966614 0.3770852685 0.4867992103 0.4009913504
 4080.2050781 1.0000000000 5.9833002090 2.2623000145 13.596643448 77.674163818 0.2478594482 0.3307203352 0.2737208307
 4080.3574219 1.0000000000 5.9864997864 2.2462000847 13.934528351 79.457946777 0.2225836515 0.2810711563 0.2866435945
 4080.5097656 1.0000000000 5.9942002296 2.2500998974 13.578206062 80.297355652 0.2124197185 0.2631216347 0.2515194118
 4080.6621094 1.0000000000 5.9903001785 2.2486999035 13.146767616 80.326049805 0.2247064114 0.2765910327 0.2636032104
 4080.8146973 1.0000000000 5.9807000160 2.2374999523 13.938822746 79.795837402 0.2287345529 0.2710502446 0.2656524777
 4080.9670410 1.0000000000 5.9843997955 2.2511999607 14.664144516 79.495292664 0.2395121753 0.2867024243 0.2820134759
 4081.1193848 1.0000000000 5.9942002296 2.2765998840 15.689972878 79.427070618 0.2471314073 0.2882293165 0.2904270887
 4081.2717285 1.0000000000 5.9976000786 2.2908999920 16.607330322 79.157546997 0.2666950226 0.3064958155 0.3072921634
 4081.4243164 1.0000000000 5.9976000786 2.2946999073 16.500171661 78.879142761 0.2635187209 0.3037985563 0.3023097515
 4081.5766602 1.0000000000 5.9976000786 2.2881000042 16.054491043 78.800148010 0.2381988764 0.2721914947 0.2742025554
 4081.7290039 1.0000000000 5.9970993996 2.2809000015 15.798867226 79.206611633 0.2375937402 0.2669951916 0.2758735418
 4081.8813477 1.0000000000 5.9924998283 2.2699999809 15.278830528 79.583641052 0.2960022390 0.3263052702 0.3217017651
 4082.0339355 1.0000000000 5.9924998283 2.2595999241 14.614286423 79.733573914 0.2973404825 0.3295567930 0.3227414489
 4082.1862793 1.0000000000 5.9963998795 2.2604000568 15.140458107 79.572509766 0.2788003385 0.3161060810 0.3044913709
 4082.3386230 1.0000000000 5.9973001480 2.2774999142 15.799674034 79.205810547 0.2790325582 0.3199318945 0.2991243601
 4082.4909668 1.0000000000 5.9949002266 2.2985999584 15.658195496 78.714691162 0.2992881238 0.3397665024 0.3142849505
 4082.6433105 1.0000000000 5.9951004982 2.2941999435 15.095724106 78.086578369 0.2918737829 0.3188699186 0.3048702180
 4082.7958984 1.0000000000 5.9970993996 2.2927999496 15.484571457 77.510665894 0.2754610479 0.3000730872 0.2862931192
 4082.9482422 1.0000000000 5.9970993996 2.2904999256 15.402986526 77.055641174 0.2512070537 0.2833056152 0.2820056081
 4083.1005859 1.0000000000 5.9917998314 2.3059999943 14.645715714 76.893661499 0.2556302845 0.2868411839 0.2855233848
 4083.2529297 1.0000000000 5.9920005798 2.3043000698 13.721830368 76.809989929 0.2745509744 0.3125411868 0.3001477420
 4083.4055176 1.0000000000 5.9879999161 2.2871999741 13.931159973 76.928352356 0.3063051403 0.3382067084 0.3299073577
 4083.5578613 1.0000000000 5.9899001122 2.2864000797 15.134981155 77.879745483 0.3078843057 0.3402807713 0.3321865201
 4083.7102051 1.0000000000 5.9901003838 2.3027999401 16.058858871 79.033920288 0.2981225848 0.3283216357 0.3238039911
 4083.8625488 1.0000000000 5.9861998558 2.3057999611 16.656246185 80.041107178 0.3121158779 0.3417152166 0.3262445331
 4084.0151367 1.0000000000 5.9854006767 2.2867999077 16.496992111 80.791664124 0.2595732808 0.2887527943 0.2915342450
 4084.1674805 1.0000000000 5.9828000069 2.2643001080 16.062223434 81.341186523 0.2201051265 0.2429370135 0.2399309278
 4084.3198242 1.0000000000 5.9871997833 2.2555000782 18.321607590 81.959838867 0.2233746797 0.2660778761 0.2592716515
 4084.4721680 1.0000000000 5.9945998192 2.2451000214 19.320953369 82.361473083 0.2699515820 0.3146387637 0.3039213121
 4084.6247559 1.0000000000 5.9942002296 2.2307999134 17.731241226 82.655189514 0.3019355237 0.3386192024 0.3170345724
 4084.7770996 1.0000000000 5.9949998856 2.2288999557 16.718940735 82.837387085 0.2506565750 0.2822514474 0.2654676437
 4084.9294434 1.0000000000 5.9941000938 2.2595999241 18.686344147 82.827789307 0.2236838192 0.2520693839 0.2453738749
 4085.0817871 1.0000000000 5.9949998856 2.2973001003 25.015253067 82.568679810 0.2759959996 0.2953809500 0.2915440500
 4085.2341309 1.0000000000 5.9938001633 2.2906999588 30.723115921 81.932632446 0.3359738588 0.3460120261 0.3814007938
 4085.3867188 1.0000000000 5.9907999039 2.3345999718 33.980102539 80.888618469 0.4443092644 0.4781214297 0.4442211390
 4085.5390625 1.0000000000 5.9846000671 2.3243000507 36.283267975 79.332710266 0.4471987188 0.4848436117 0.4508028924
 4085.6914063 1.0000000000 5.9840998650 2.2806999683 33.882797241 78.215042114 0.4462765753 0.5118681192 0.4525073767
 4085.8437500 1.0000000000 5.9901003838 2.0467998981 26.647001266 77.613906860 0.3693085015 0.4295531809 0.3946697116
 4085.9963379 1.0000000000 5.9949002266 0.8927999735 23.210002899 77.558357239 0.3122350276 0.3380500674 0.3134878278
 4086.1486816 1.0000000000 5.9942998886 1.4208999872 19.560562134 77.605316162 0.2920669913 0.3225974143 0.3097562492
 4086.3010254 1.0000000000 5.9942002296 2.2931001186 16.048522949 77.553161621 0.3338245153 0.3833344579 0.3448328376
 4086.4533691 1.0000000000 5.9910998344 2.2894001007 16.500974655 77.528915405 0.3490999937 0.4048024118 0.3653059304
 4086.6059570 1.0000000000 5.9920005798 2.2874999046 17.605657578 77.657081604 0.3490481675 0.4061912000 0.3689289391
