# LAS format log file from PETREL
# Project units are specified as depth units
#==================================================================
~Version information
VERS.   2.0:
WRAP.   NO:
#==================================================================
~Well
STRT .m      2122.4746094 :
STOP .m      4102.6074219 :
STEP .m     0.00000000 :
NULL .        -999.250000 :
COMP.           : COMPANY
WELL.  15/9-19A   : WELL
FLD.            : FIELD
LOC.            : LOCATION
SRVC.           : SERVICE COMPANY
DATE.  2018-09-11 14:48:01   : Log Export Date {yyyy-MM-dd HH:mm:ss}
PROV.           : PROVINCE
UWI.   15/9-19 A   : UNIQUE WELL ID
API.            : API NUMBER
#==================================================================
~Curve
DEPT .m                   : DEPTH
Lithology_geolink ._      : Lithology_geolink
CALI .in                  : CALI
RHOB .g/cm3               : RHOB
GR .gAPI                  : GR
RDEP .ohm.m               : RDEP
RSHA .ohm.m               : RSHA
RMED .ohm.m               : RMED
~Parameter
#==================================================================
~Ascii
# ...
 2568.3969727  -999.250000 11.966700554 2.2072026730 68.272102356 0.7197999954 0.8658999801 0.7088000178
 2568.5493164  -999.250000 11.990900040 2.2089149952 68.066001892 0.7189999819 0.8687000275 0.7088000178
 2568.7016602  -999.250000 12.024199486 2.2181944847 71.414703369 0.7168999910 0.8730999827 0.7066000104
 2568.8542480  -999.250000 12.053199768 2.2147061825 68.165702820 0.7138000131 0.8755999804 0.7027000189
 2569.0065918  -999.250000 12.086099625 2.2184839249 64.541999817 0.7103999853 0.8683999777 0.6980999708
 2569.1589355  -999.250000 12.128298759 2.2086169720 60.386001587 0.7071999907 0.8515999913 0.6934000254
 2569.3112793  -999.250000 12.122200012 2.2191727161 56.274898529 0.7046999931 0.8353000283 0.6895999908
 2569.4638672  -999.250000 12.125101089 2.2022094727 60.233798981 0.7031000257 0.8345999718 0.6879000068
 2569.6162109  -999.250000 12.124099731 2.2052040100 64.755096436 0.7020999789 0.8495000005 0.6884999871
 2569.7685547  -999.250000 12.121199608 2.2077760696 65.165901184 0.7013000250 0.8633999825 0.6897000074
 2569.9208984  -999.250000 12.126099586 2.1928992271 67.206802368 0.6998999715 0.8675000072 0.6895999908
 2570.0734863  -999.250000 12.151300430 2.1924028397 71.273300171 0.6977999806 0.8669000268 0.6877999902
 2570.2258301  -999.250000 12.146200180 2.1933178902 70.716201782 0.6953999996 0.8686000109 0.6850000024
 2570.3781738  -999.250000 12.139200211 2.2044208050 69.069099426 0.6933000088 0.8737999797 0.6825000048
 2570.5305176  -999.250000 12.141699791 2.2172729969 68.340301514 0.6920999885 0.8786000013 0.6812000275
 2570.6831055  -999.250000 12.032999992 2.2004971504 65.521697998 0.6912999749 0.8773999810 0.6808999777
 2570.8354492  -999.250000 11.810499191 2.1996178627 64.229202271 0.6904000044 0.8689000010 0.6804999709
 2570.9877930  -999.250000 11.811499596 2.2107849121 64.232200623 0.6883000135 0.8568000197 0.6783000231
 2571.1401367  -999.250000 11.829701424 2.2014749050 64.188102722 0.6847000122 0.8403999805 0.6733000278
 2571.2924805  -999.250000 11.812500000 2.1859176159 65.368698120 0.6800000072 0.8187999725 0.6657999754
 2571.4450684  -999.250000 11.804400444 2.1969292164 64.618301392 0.6753000021 0.7979000211 0.6579999924
 2571.5974121  -999.250000 11.812500000 2.2060849667 63.242000580 0.6719999909 0.7838000059 0.6524999738
 2571.7497559  -999.250000 11.810198784 2.1967675686 65.823303223 0.6707000136 0.7773000002 0.6509000063
 2571.9020996  -999.250000 11.669199944 2.1764938831 69.102600098 0.6710000038 0.7779999971 0.6527000070
 2572.0546875  -999.250000 11.669300079 2.1727745533 66.430603027 0.6722999811 0.7849000096 0.6559000015
 2572.2070313  -999.250000 11.662300110 2.1960167885 64.496498108 0.6736999750 0.7943999767 0.6583999991
 2572.3593750  -999.250000 11.642100334 2.2063543797 65.016098022 0.6751999855 0.8019999862 0.6603000164
 2572.5117188  -999.250000 11.653200150 2.1779870987 63.070701599 0.6765999794 0.8112000227 0.6629999876
 2572.6643066  -999.250000 11.656299591 2.1700682640 61.877899170 0.6779999733 0.8331999779 0.6664999723
 2572.8166504  -999.250000 11.598600388 2.2227199078 61.924400330 0.6793000102 0.8723000288 0.6697999835
 2572.9689941  -999.250000 11.518899918 2.3599097729 60.865398407 0.6811000109 0.9272999763 0.6736999750
 2573.1213379  -999.250000 11.469499588 2.5529041290 54.639701843 0.6844000220 1.0009000301 0.6819000244
 2573.2736816  -999.250000 11.445899963 2.6177375317 45.055099487 0.6894000173 1.0835000277 0.6966000199
 2573.4262695  -999.250000 11.450901031 2.5781810284 42.150100708 0.6940000057 1.1273000240 0.7121000290
 2573.5786133  -999.250000 11.504099846 2.3851547241 48.416198730 0.6952999830 1.0736999512 0.7160000205
 2573.7309570  -999.250000 11.646499634 2.2322323322 58.423698425 0.6919999719 0.9646000266 0.7038999796
 2573.8833008  -999.250000 11.711400032 2.1901040077 59.497200012 0.6856999993 0.8917999864 0.6859999895
 2574.0358887  -999.250000 11.786000252 2.1926157475 60.529800415 0.6791999936 0.8701999784 0.6722999811
 2574.1882324  -999.250000 11.821100235 2.1974802017 62.560398102 0.6740999818 0.8650000095 0.6636999846
 2574.3405762  -999.250000 11.801699638 2.1850805283 58.199199677 0.6711000204 0.8525000215 0.6574000120
 2574.4929199  -999.250000 11.788599968 2.1728897095 61.468200684 0.6700999737 0.8375999928 0.6536999941
 2574.6455078  -999.250000 11.785499573 2.1665072441 66.198898315 0.6710000038 0.8345999718 0.6547999978
 2574.7978516  -999.250000 11.796501160 2.1687150002 63.310699463 0.6712999940 0.8367000222 0.6556000113
 2574.9501953  -999.250000 11.801600456 2.1780140400 65.291702271 0.6728000045 0.8453999758 0.6593000293
 2575.1025391  -999.250000 11.850500107 2.1868426800 68.943702698 0.6744999886 0.8553000093 0.6635000110
 2575.2548828  -999.250000 12.116499901 2.2134573460 67.624000549 0.6747999787 0.8463000059 0.6647999883
 2575.4074707  -999.250000 11.916399956 2.1867511272 64.576896667 0.6747000217 0.8353000283 0.6647999883
 2575.5598145  -999.250000 11.811499596 2.1714608669 63.476299286 0.6754000187 0.8282999992 0.6657999754
 2575.7121582  -999.250000 11.811400414 2.1470880508 68.447097778 0.6769999862 0.8292999864 0.6675999761
 2575.8645020  -999.250000 11.822500229 2.1397266388 69.279098511 0.6787999868 0.8339999914 0.6697999835
 2576.0170898  -999.250000 11.810499191 2.1564297676 65.712600708 0.6801999807 0.8335999846 0.6715999842
 2576.1694336  -999.250000 11.844900131 2.1657123566 63.451000214 0.6807000041 0.8256000280 0.6718999743
 2576.3217773  -999.250000 11.893199921 2.1735174656 64.808097839 0.6802999973 0.8138999939 0.6707000136
 2576.4741211  -999.250000 11.857600212 2.1844151020 64.583198547 0.6787999868 0.8054000139 0.6685000062
 2576.6267090  -999.250000 11.911100388 2.1939027309 65.141098022 0.6764000058 0.8048999906 0.6658999920
 2576.7790527  -999.250000 11.867600441 2.2258896828 67.683898926 0.6732000113 0.8072999716 0.6621999741
 2576.9313965  -999.250000 11.854700089 2.2194504738 68.885101318 0.6700999737 0.8011999726 0.6577000022
 2577.0837402  -999.250000 11.855798721 2.1884796619 69.259101868 0.6675000191 0.7853000164 0.6538000107
 2577.2360840  -999.250000 11.867700577 2.1757900715 66.300498962 0.6657000184 0.7725999951 0.6521000266
 2577.3886719  -999.250000 11.876399994 2.1696143150 64.725601196 0.6646000147 0.7736999989 0.6524000168
 2577.5410156  -999.250000 11.770298958 2.1740970612 64.409103394 0.6635000110 0.7843000293 0.6527000070
 2577.6933594  -999.250000 11.730199814 2.1723022461 65.010299683 0.6620000005 0.7936999798 0.6518999934
 2577.8457031  -999.250000 11.730401039 2.1736080647 63.289901733 0.6601999998 0.7985000014 0.6504999995
 2577.9982910  -999.250000 11.749699593 2.1787278652 63.317298889 0.6585000157 0.8009999990 0.6488999724
 2578.1506348  -999.250000 11.735600471 2.1874189377 64.538696289 0.6572999954 0.8001000285 0.6473000050
 2578.3029785  -999.250000 11.729399681 2.1991081238 64.027099609 0.6568999887 0.7933999896 0.6462000012
 2578.4553223  -999.250000 11.720199585 2.2040886879 62.013099670 0.6571000218 0.7865999937 0.6463000178
 2578.6079102  -999.250000 11.736499786 2.1971070766 64.503799438 0.6572999954 0.7875000238 0.6471999884
 2578.7602539  -999.250000 11.740500450 2.1993114948 68.395103455 0.6568999887 0.7924000025 0.6470999718
 2578.9125977  -999.250000 11.721099854 2.2063877583 69.220802307 0.6556000113 0.7922000289 0.6449000239
 2579.0649414  -999.250000 11.716400146 2.1987798214 68.606201172 0.6531000137 0.7881000042 0.6413999796
 2579.2172852  -999.250000 11.719599724 2.1860918999 65.171401978 0.6500999928 0.7867000103 0.6376000047
 2579.3698730  -999.250000 11.691100121 2.1810030937 66.183898926 0.6470999718 0.7867000103 0.6338999867
 2579.5222168  -999.250000 11.685099602 2.1819920540 68.836997986 0.6450999975 0.7849000096 0.6312000155
 2579.6745605  -999.250000 11.663199425 2.1770865917 66.511596680 0.6448000073 0.7864000201 0.6315000057
 2579.8269043  -999.250000 11.772399902 2.1687333584 64.009902954 0.6463000178 0.7968999743 0.6355999708
 2579.9794922  -999.250000 12.972700119 2.1896812916 63.688201904 0.6488999724 0.8134999871 0.6417999864
