# LAS format log file from PETREL
# Project units are specified as depth units
#==================================================================
~Version information
VERS.   2.0:
WRAP.   NO:
#==================================================================
~Well
STRT .m      472.33206177 :
STOP .m      3119.8261719 :
STEP .m     0.00000000 :
NULL .        -999.250000 :
COMP.           : COMPANY
WELL.  15/9-17   : WELL
FLD.            : FIELD
LOC.            : LOCATION
SRVC.           : SERVICE COMPANY
DATE.  2018-09-11 14:48:01   : Log Export Date {yyyy-MM-dd HH:mm:ss}
PROV.           : PROVINCE
UWI.   15/9-17   : UNIQUE WELL ID
API.            : API NUMBER
#==================================================================
~Curve
DEPT .m                   : DEPTH
Lithology_geolink ._      : Lithology_geolink
DCAL .in                  : DCAL
CALI .in                  : CALI
DRHO .g/cm3               : DRHO
SGR .gAPI                 : SGR
NPHI .m3/m3               : NPHI
RHOB .g/cm3               : RHOB
PEF .b/e                  : PEF
GR .gAPI                  : GR
DTC .us/ft                : DTC
DT .us/ft                 : DT
DTE .us/ft                : DTE
RDEP .ohm.m               : RDEP
SP .mV                    : SP
RSHA .ohm.m               : RSHA
RXO .ohm.m                : RXO
RMED .ohm.m               : RMED
~Parameter
#==================================================================
~Ascii
# ...
 1000.3983154  -999.250000 17.516000748 17.516000748 0.0070000002 34.937999725  -999.250000 2.0286240578 1.6529999971 34.402847290 143.56304932 145.75149536 145.44197083 0.8400011659 32.249923706  -999.250000  -999.250000 0.6649964452
 1000.5507202  -999.250000 17.577999115 17.577999115 0.0120000001 36.875000000  -999.250000 2.0320799351 1.6460000277 32.692127228 142.60551453 144.75239563 144.49105835 0.8360016346 31.456371307  -999.250000  -999.250000 0.6679987907
 1000.7031250  -999.250000 17.733999252 17.733999252 0.0020000001 36.437999725  -999.250000 2.0333309174 1.6419999599 32.687999725 142.22631836 143.75239563 144.14215088 0.8350003958 30.176536560  -999.250000  -999.250000 0.6709988117
 1000.8555298  -999.250000 17.843999863 17.843999863 0.0160000008 35.000000000  -999.250000 2.0302138329 1.6039999723 32.281974792 143.11981201 144.49819946 144.99592590 0.8320012093 29.976945877  -999.250000  -999.250000 0.6700004339
 1001.0079346  -999.250000 17.827999115 17.827999115 0.0460000001 36.344001770  -999.250000 2.0251269341 1.6119999886 30.582090378 144.50601196 145.99639893 146.40162659 0.8310003877 31.248722076  -999.250000  -999.250000 0.6670011878
 1001.1603394  -999.250000 17.952999115 17.952999115 0.0710000023 38.062999725  -999.250000 2.0200207233 1.6000000238 28.879091263 145.87200928 147.37168884 147.84661865 0.8309999704 32.396701813  -999.250000  -999.250000 0.6600028276
 1001.3127441  -999.250000 18.187999725 18.187999725 0.0579999983 40.062999725  -999.250000 2.0158576965 1.5809999704 24.557399750 147.07626343 148.99609375 149.04133606 0.8309999704 32.360008240  -999.250000  -999.250000 0.6540023685
 1001.4650879  -999.250000 18.156000137 18.156000137 0.0439999998 38.000000000  -999.250000 2.0144758224 1.6150000095 25.809450150 147.43251038 149.49859619 149.42881775 0.8290016055 32.454921722  -999.250000  -999.250000 0.6500031948
 1001.6174927  -999.250000 17.437999725 17.437999725 0.0370000005 36.219001770  -999.250000 2.0150556564 1.6310000420 29.709609985 147.22116089 149.37530518 149.27108765 0.8270016313 32.860057831  -999.250000  -999.250000 0.6509992480
 1001.7698975  -999.250000 17.327999115 17.327999115 0.0529999994 36.125000000  -999.250000 2.0171606541 1.6710000038 34.488510132 146.74577332 149.12559509 148.66661072 0.8240023851 33.541225433  -999.250000  -999.250000 0.6539976001
 1001.9223022  -999.250000 17.531000137 17.531000137 0.0599999987 35.594001770  -999.250000 2.0195481777 1.6499999762 34.094978333 146.01300049 147.75331116 147.97595215 0.8230004311 34.736846924  -999.250000  -999.250000 0.6520007849
 1002.0747070  -999.250000 17.422000885 17.422000885 0.0700000003 35.094001770  -999.250000 2.0191376209 1.6399999857 33.252029419 146.23098755 148.12409973 148.10479736 0.8269984126 33.073314667  -999.250000  -999.250000 0.6549987793
 1002.2271118  -999.250000 17.125000000 17.125000000 0.0649999976 33.625000000  -999.250000 2.0194747448 1.6879999638 31.130105972 145.96054077 148.12500000 148.00074768 0.8309983611 32.860008240  -999.250000  -999.250000 0.6599979997
 1002.3795166  -999.250000 17.108999252 17.108999252 0.0419999994 34.594001770  -999.250000 2.0197811127 1.7330000401 31.981935501 146.03303528 147.75090027 147.92814636 0.8349983692 32.991867065  -999.250000  -999.250000 0.6679967642
 1002.5319214  -999.250000 17.281000137 17.281000137 0.0280000009 34.344001770  -999.250000 2.0183944702 1.7699999809 30.706077576 146.30834961 148.12409973 148.31851196 0.8389983773 33.595088959  -999.250000  -999.250000 0.6749972105
 1002.6843262  -999.250000 17.202999115 17.202999115 0.0309999995 36.750000000  -999.250000 2.0173628330 1.7050000429 31.560934067 146.67970276 148.74850464 148.61254883 0.8389999866 33.368068695  -999.250000  -999.250000 0.6759995818
 1002.8367310  -999.250000 17.172000885 17.172000885 0.0419999994 38.219001770  -999.250000 2.0181434155 1.6579999924 32.466823578 146.42994690 148.50059509 148.39602661 0.8380004168 32.470088959  -999.250000  -999.250000 0.6759999990
 1002.9891357  -999.250000 17.077999115 17.077999115 0.0329999998 40.562999725  -999.250000 2.0184812546 1.6299999952 38.049556732 146.38911438 148.12590027 148.28433228 0.8350011706 33.013641357  -999.250000  -999.250000 0.6740007997
 1003.1415405  -999.250000 17.062999725 17.062999725 0.0240000002 40.030998230  -999.250000 2.0177502632 1.6419999599 38.031074524 146.44749451 148.49909973 148.48995972 0.8310015798 33.896701813  -999.250000  -999.250000 0.6740000248
 1003.2939453  -999.250000 17.108999252 17.108999252 0.0199999996 38.030998230  -999.250000 2.0158257484 1.6649999619 38.343250275 147.09277344 148.50000000 149.04595947 0.8329992294 34.043476105  -999.250000  -999.250000 0.6720007658
 1003.4463501  -999.250000 17.172000885 17.172000885 0.0179999992 38.030998230  -999.250000 2.0120453835 1.6779999733 39.278747559 148.16241455 149.99639893 150.13616943 0.8439955711 34.213230133  -999.250000  -999.250000 0.6719999909
 1003.5986938  -999.250000 17.297000885 17.297000885 0.0240000002 37.312999725  -999.250000 2.0103948116 1.6660000086 41.338218689 148.59278870 150.74789429 150.59901428 0.8479967713 33.625125885  -999.250000  -999.250000 0.6779951453
 1003.7510986  -999.250000 17.297000885 17.297000885 0.0410000011 35.937999725  -999.250000 2.0129227638 1.6150000095 40.127929688 147.92852783 150.50059509 149.87986755 0.8470007777 33.198413849  -999.250000  -999.250000 0.6929879785
 1003.9035034  -999.250000 17.297000885 17.297000885 0.0419999994 33.125000000  -999.250000 2.0189077854 1.5690000057 33.640617371 146.18606567 148.75421143 148.17918396 0.8360088468 32.875068665  -999.250000  -999.250000 0.7119848132
 1004.0559082  -999.250000 17.391000748 17.391000748 0.0570000000 30.062999725  -999.250000 2.0238916874 1.5509999990 32.003906250 144.84727478 146.75480652 146.76568604 0.8280032277 32.044677734  -999.250000  -999.250000 0.7159984112
 1004.2083130  -999.250000 17.452999115 17.452999115 0.0469999984 30.358999252  -999.250000 2.0256056786 1.5549999475 32.000000000 144.27357483 146.37590027 146.26962280 0.8280000091 30.272901535  -999.250000  -999.250000 0.7090027928
 1004.3607178  -999.250000 17.547000885 17.547000885 0.0430000015 29.452999115  -999.250000 2.0259811878 1.5950000286 32.872898102 144.26721191 146.00090027 146.17463684 0.8429939747 29.138639450  -999.250000  -999.250000 0.6960051656
 1004.5131226  -999.250000 17.608999252 17.608999252 0.0320000015 32.062999725  -999.250000 2.0245006084 1.6519999504 34.152919769 144.69586182 146.37409973 146.59199524 0.8819844127 30.608804703  -999.250000  -999.250000 0.6820055842
 1004.6655273  -999.250000 17.483999252 17.483999252 0.0390000008 33.500000000  -999.250000 2.0220570564 1.7769999504 33.252178192 145.24957275 146.99850464 147.27394104 0.9349787831 32.168476105  -999.250000  -999.250000 0.6720039845
 1004.8179321  -999.250000 17.312999725 17.312999725 0.0379999988 35.625000000  -999.250000 2.0230245590 1.8730000257 40.046627045 145.12576294 147.99760437 147.01173401 0.9949759841 32.778560638  -999.250000  -999.250000 0.6759983897
 1004.9703369  -999.250000 17.547000885 17.547000885 0.0399999991 37.094001770  -999.250000 2.0305032730 1.9850000143 41.745944977 143.06832886 145.38130188 144.93646240 1.0759675503 33.103149414  -999.250000  -999.250000 0.7089867592
 1005.1227417  -999.250000 17.406000137 17.406000137 0.0320000015 37.000000000  -999.250000 2.0387780666 1.8539999723 43.932743073 140.79313660 143.75390625 142.66017151 1.1309779882 33.130580902  -999.250000  -999.250000 0.8319507837
 1005.2751465  -999.250000 17.437999725 17.437999725 0.0480000004 35.312999725  -999.250000 2.0507330894 1.7790000439 39.230342865 137.65568542 140.50781250 139.46775818 1.1399964094 35.373725891  -999.250000  -999.250000 1.1018918753
 1005.4275513  -999.250000 17.297000885 17.297000885 0.0329999998 32.625000000  -999.250000 2.0558106899 1.6840000153 37.160953522 136.21206665 137.00840759 138.13967896 1.1350020170 35.861209869  -999.250000  -999.250000 1.1579775810
 1005.5798950  -999.250000 17.406000137 17.406000137 0.0299999993 33.280998230  -999.250000 2.0486061573 1.6820000410 38.839271545 138.20373535 139.36834717 140.02618408 1.1270064116 34.784717560  -999.250000  -999.250000 0.9751465917
