# LAS format log file from PETREL
# Project units are specified as depth units
#==================================================================
~Version information
VERS.   2.0:
WRAP.   NO:
#==================================================================
~Well
STRT .m      2122.4746094 :
STOP .m      4102.6074219 :
STEP .m     0.00000000 :
NULL .        -999.250000 :
COMP.           : COMPANY
WELL.  15/9-19A   : WELL
FLD.            : FIELD
LOC.            : LOCATION
SRVC.           : SERVICE COMPANY
DATE.  2018-09-11 14:48:01   : Log Export Date {yyyy-MM-dd HH:mm:ss}
PROV.           : PROVINCE
UWI.   15/9-19 A   : UNIQUE WELL ID
API.            : API NUMBER
#==================================================================
~Curve
DEPT .m                   : DEPTH
Lithology_geolink ._      : Lithology_geolink
CALI .in                  : CALI
RHOB .g/cm3               : RHOB
GR .gAPI                  : GR
RDEP .ohm.m               : RDEP
RSHA .ohm.m               : RSHA
RMED .ohm.m               : RMED
~Parameter
#==================================================================
~Ascii
# ...
 2814.8276367  -999.250000 10.411700249 2.2597000599 60.533298492 0.6039999723 0.7006000280 0.5983999968
 2814.9799805  -999.250000 10.488799095 2.2328000069 58.194202423 0.5932999849 0.6990000010 0.5863000154
 2815.1325684  -999.250000 10.548999786 2.1981000900 57.864715576 0.5845000148 0.6945000291 0.5752000213
 2815.2849121  -999.250000 10.617400169 2.1961998940 55.665229797 0.5794000030 0.6841999888 0.5685999990
 2815.4372559  -999.250000 10.858499527 2.2077000141 55.432365417 0.5784999728 0.6700999737 0.5677000284
 2815.5895996  -999.250000 10.704299927 2.2176001072 55.916442871 0.5806000233 0.6560999751 0.5709000230
 2815.7421875  -999.250000 10.717399597 2.2307999134 56.069454193 0.5838000178 0.6425999999 0.5752999783
 2815.8945313  -999.250000 10.731800079 2.2485001087 55.207885742 0.5867000222 0.6328999996 0.5792999864
 2816.0468750  -999.250000 11.404000282 2.2518000603 55.145500183 0.5885999799 0.6355000138 0.5820999742
 2816.1992188  -999.250000 10.662099838 2.2362000942 56.039665222 0.5896999836 0.6474000216 0.5838000178
 2816.3515625  -999.250000 10.748399734 2.1352000237 53.906749725 0.5902000070 0.6553999782 0.5845999718
 2816.5041504  -999.250000 10.866399765 2.0315999985 52.231479645 0.5900999904 0.6578000188 0.5855000019
 2816.6564941  -999.250000 10.808600426 2.3801000118 54.667587280 0.5891000032 0.6613000035 0.5853999853
 2816.8088379  -999.250000 10.692399979 2.2137000561 53.230911255 0.5868999958 0.6643999815 0.5820999742
 2816.9611816  -999.250000 10.744601250 1.5598000288 54.447784424 0.5842999816 0.6640999913 0.5766999722
 2817.1137695  -999.250000 10.748399734 1.6592999697 57.974147797 0.5827000141 0.6631000042 0.5737000108
 2817.2661133  -999.250000 10.820598602 1.8087999821 61.921176910 0.5827000141 0.6635000110 0.5746999979
 2817.4184570  -999.250000 10.899600029 1.7941999435 63.700054169 0.5838000178 0.6660000086 0.5771999955
 2817.5708008  -999.250000 10.943599701 2.0992000103 62.260829926 0.5852000117 0.6722999811 0.5789999962
 2817.7233887  -999.250000 10.974800110 2.0018999577 62.058815002 0.5866000056 0.6811000109 0.5800999999
 2817.8757324  -999.250000 10.995800018 1.2759000063 61.854129791 0.5881000161 0.6893000007 0.5813000202
 2818.0280762  -999.250000 11.030000687 1.2906999588 57.348533630 0.5899999738 0.6948999763 0.5827999711
 2818.1804199  -999.250000 11.022999763 2.0255999565 56.371055603 0.5922999978 0.6991999745 0.5839999914
 2818.3327637  -999.250000 11.013099670 2.2112998962 58.669914246 0.5952000022 0.7020000219 0.5852000117
 2818.4853516  -999.250000 10.997100830 2.1863999367 56.229427338 0.5993999839 0.6966000199 0.5875999928
 2818.6376953  -999.250000 10.993800163 2.2023999691 53.474315643 0.6054000258 0.6805999875 0.5925999880
 2818.7900391  -999.250000 11.013000488 2.2516999245 57.912769318 0.6132000089 0.6631000042 0.6008999944
 2818.9423828  -999.250000 10.993700027 2.2753000259 61.424549103 0.6223000288 0.6560000181 0.6121000051
 2819.0949707  -999.250000 11.093399048 2.2923998833 60.354137421 0.6320999861 0.6636000276 0.6250000000
 2819.2473145  -999.250000 10.684000015 2.3011999130 57.990791321 0.6417999864 0.6790999770 0.6384000182
 2819.3996582  -999.250000 10.515799522 2.2950000763 56.152145386 0.6510000229 0.6963999867 0.6516000032
 2819.5520020  -999.250000 10.529999733 2.2832000256 54.948951721 0.6581000090 0.7113000154 0.6618000269
 2819.7045898  -999.250000 10.506600380 2.2669000626 56.795829773 0.6614000201 0.7172999978 0.6654000282
 2819.8569336  -999.250000 10.342399597 2.2630000114 59.159011841 0.6599000096 0.7135999799 0.6613000035
 2820.0092773  -999.250000 10.308400154 2.2623000145 60.487972260 0.6532999873 0.7067000270 0.6510000229
 2820.1616211  -999.250000 10.283399582 2.2657999992 61.003974915 0.6427000165 0.7016999722 0.6366999745
 2820.3142090  -999.250000 10.281499863 2.2771000862 57.404869080 0.6298999786 0.6933000088 0.6197000146
 2820.4665527  -999.250000 10.260299683 2.2730998993 51.847011566 0.6172999740 0.6743000150 0.6029000282
 2820.6188965  -999.250000 10.253199577 2.2467000484 47.349006653 0.6071000099 0.6531000137 0.5906999707
 2820.7712402  -999.250000 10.270199776 2.2342998981 51.474067688 0.6000999808 0.6457999945 0.5853999853
 2820.9235840  -999.250000 10.325400352 2.2404999733 57.473564148 0.5956000090 0.6534000039 0.5848000050
 2821.0761719  -999.250000 10.307900429 2.2555000782 57.825267792 0.5916000009 0.6625000238 0.5843999982
 2821.2285156  -999.250000 10.288399696 2.2758998871 55.896598816 0.5870000124 0.6638000011 0.5814999938
 2821.3808594  -999.250000 10.421699524 2.2746000290 53.181350708 0.5824999809 0.6596000195 0.5760999918
 2821.5332031  -999.250000 10.377699852 2.2818999290 54.372962952 0.5796999931 0.6496999860 0.5705999732
 2821.6857910  -999.250000 10.449799538 2.2702000141 53.137989044 0.5795000196 0.6356999874 0.5687000155
 2821.8381348  -999.250000 10.557000160 2.2716000080 52.718170166 0.5813000202 0.6294999719 0.5709999800
 2821.9904785  -999.250000 10.670499802 2.2802000046 53.078220367 0.5838000178 0.6348999739 0.5746999979
 2822.1428223  -999.250000 10.975499153 2.2637999058 53.899765015 0.5860000253 0.6453999877 0.5777000189
 2822.2954102  -999.250000 10.953300476 2.2186999321 53.366363525 0.5875999928 0.6536999941 0.5802999735
 2822.4477539  -999.250000 11.083600044 2.2030999660 53.233215332 0.5889999866 0.6565999985 0.5831999779
 2822.6000977  -999.250000 11.152700424 2.2397000790 56.466110229 0.5899999738 0.6549999714 0.5846999884
 2822.7524414  -999.250000 11.277500153 2.2351000309 58.453918457 0.5906000137 0.6500999928 0.5845000148
 2822.9047852  -999.250000 11.298299789 2.2112998962 54.977767944 0.5909000039 0.6448000073 0.5842999816
 2823.0573730  -999.250000 11.378700256 2.2574000359 52.499458313 0.5906999707 0.6427000165 0.5849000216
 2823.2097168  -999.250000 11.378601074 2.2920999527 53.597030640 0.5896000266 0.6467999816 0.5848000050
 2823.3620605  -999.250000 11.326600075 2.2762999535 55.993953705 0.5871999860 0.6607999802 0.5827999711
 2823.5144043  -999.250000 11.006800652 2.2516000271 63.057037354 0.5835999846 0.6800000072 0.5792999864
 2823.6669922  -999.250000 10.993100166 2.2365999222 62.578704834 0.5796999931 0.6916000247 0.5749999881
 2823.8193359  -999.250000 11.032500267 2.2506000996 54.419094086 0.5762000084 0.6930999756 0.5703999996
 2823.9716797  -999.250000 10.976699829 2.2504000664 52.194450378 0.5737000108 0.6912000179 0.5667999983
 2824.1240234  -999.250000 10.945699692 2.2627999783 56.106529236 0.5720000267 0.6877999902 0.5648000240
 2824.2766113  -999.250000 10.960000038 2.2785000801 58.437976837 0.5709000230 0.6789000034 0.5637000203
 2824.4289551  -999.250000 10.926699638 2.2713999748 57.541645050 0.5695999861 0.6665999889 0.5622000098
 2824.5812988  -999.250000 11.139599800 2.2539999485 57.292095184 0.5680000186 0.6606000066 0.5597000122
 2824.7336426  -999.250000 10.740300179 2.2283999920 57.978595734 0.5666999817 0.6644999981 0.5573999882
 2824.8859863  -999.250000 10.739299774 2.2084999084 50.252506256 0.5666000247 0.6721000075 0.5568000078
 2825.0385742  -999.250000 11.038999557 2.2344000340 43.986717224 0.5679000020 0.6751999855 0.5584999919
 2825.1909180  -999.250000 11.063099861 2.2527000904 46.435253143 0.5698999763 0.6733999848 0.5613999963
 2825.3432617  -999.250000 10.890199661 2.2332999706 45.847351074 0.5712000132 0.6694999933 0.5630000234
 2825.4956055  -999.250000 11.070300102 2.2520999908 48.776493073 0.5708000064 0.6629999876 0.5620999932
 2825.6481934  -999.250000 11.296199799 2.2567999363 49.444541931 0.5691000223 0.6571000218 0.5598999858
 2825.8005371  -999.250000 11.161299706 2.2455000877 47.451400757 0.5667999983 0.6549999714 0.5583999753
 2825.9528809  -999.250000 11.172499657 2.2495999336 51.425216675 0.5645999908 0.6527000070 0.5572999716
 2826.1052246  -999.250000 11.183799744 2.2660000324 47.928844452 0.5633000135 0.6528999805 0.5568000078
 2826.2578125  -999.250000 11.639900208 2.2600998878 48.206138611 0.5636000037 0.6690000296 0.5587999821
 2826.4101563  -999.250000 11.240700722 2.3036999702 50.461280823 0.5655000210 0.7021999955 0.5641999841
