# LAS format log file from PETREL
# Project units are specified as depth units
#==================================================================
~Version information
VERS.   2.0:
WRAP.   NO:
#==================================================================
~Well
STRT .m      474.34408569 :
STOP .m      3047.1606445 :
STEP .m     0.00000000 :
NULL .        -999.250000 :
COMP.           : COMPANY
WELL.  15/9-9   : WELL
FLD.            : FIELD
LOC.            : LOCATION
SRVC.           : SERVICE COMPANY
DATE.  2018-09-11 14:48:05   : Log Export Date {yyyy-MM-dd HH:mm:ss}
PROV.           : PROVINCE
UWI.   15/9-9   : UNIQUE WELL ID
API.            : API NUMBER
#==================================================================
~Curve
DEPT .m                   : DEPTH
Lithology_geolink ._      : Lithology_geolink
DCAL .in                  : DCAL
CALI .in                  : CALI
DRHO .g/cm3               : DRHO
NPHI .m3/m3               : NPHI
RHOB .g/cm3               : RHOB
GR .gAPI                  : GR
DTC .us/ft                : DTC
DT .us/ft                 : DT
DTE .us/ft                : DTE
RDEP .ohm.m               : RDEP
SP .mV                    : SP
RSHA .ohm.m               : RSHA
RXO .ohm.m                : RXO
RMED .ohm.m               : RMED
~Parameter
#==================================================================
~Ascii
# ...
 2013.7365723  -999.250000 16.187999725 16.187999725 -0.000007212 0.4684527516 2.1099476814 34.128173828 148.23518372 152.23596191 153.34312439 0.3910096288 132.17422485 0.4699839652  -999.250000 0.4699839652
 2013.8889160  -999.250000 15.826999664 15.826999664 0.0029903923 0.4669646919 2.1131010056 36.507350922 147.03189087 151.41925049 152.05009460 0.3870159984 132.33932495 0.4919119477  -999.250000 0.4919119477
 2014.0412598  -999.250000 15.766999245 15.766999245 0.0039967950 0.4714954495 2.1132633686 35.093570709 146.39009094 151.36322021 151.45582581 0.3889919817 132.03521729 0.5049479008  -999.250000 0.5049479008
 2014.1937256  -999.250000 15.904000282 15.904000282 0.0020064053 0.4678019285 2.1082334518 38.124248505 146.37886047 151.17874146 151.40203857 0.3979639709 132.35670471 0.4990240335  -999.250000 0.4990240335
 2014.3460693  -999.250000 16.236000061 16.236000061 0.0000064103 0.4512731135 2.1035864353 38.396156311 146.76644897 152.35624695 151.84458923 0.4119439125 132.23648071 0.4800761044  -999.250000 0.4800761044
 2014.4985352  -999.250000 16.333999634 16.333999634 -0.005980785 0.4395474792 2.1056308746 43.424846649 147.05065918 152.96456909 152.15809631 0.4219599664 131.50991821 0.4730280042  -999.250000 0.4730280042
 2014.6508789  -999.250000 15.907999992 15.907999992 -0.008990385 0.4476936758 2.1135027409 40.673896790 145.94995117 149.40731812 151.00505066 0.4229960144 131.73806763 0.4939158559  -999.250000 0.4939158559
 2014.8033447  -999.250000 15.520999908 15.520999908 -0.007004808 0.4676918387 2.1222641468 38.955120087 143.96643066 148.11912537 148.96176147 0.4230000079 130.64837646 0.5208919644  -999.250000 0.5208919644
 2014.9556885  -999.250000 15.394000053 15.394000053 -0.001019215 0.5045118928 2.1287336349 38.095745087 142.61001587 146.46363831 147.49632263 0.4269839525 130.39300537 0.5369359255  -999.250000 0.5369359255
 2015.1081543  -999.250000 15.519000053 15.519000053 0.0049855770 0.4903344512 2.1307024956 43.837162018 142.31407166 147.07650757 147.17066956 0.4389519691 130.54438782 0.5240520239  -999.250000 0.5240520239
 2015.2604980  -999.250000 15.624000549 15.624000549 0.0010128103 0.5115318298 2.1270720959 47.354743958 143.21110535 149.27018738 148.16554260 0.4499559104 129.24223328 0.5190200210  -999.250000 0.5190200210
 2015.4129639  -999.250000 15.710000038 15.710000038 -0.007978366 0.5239103436 2.1190574169 48.238899231 144.32923889 149.90148926 149.26303101 0.4569719732 129.57563782 0.5229839683  -999.250000 0.5229839683
 2015.5653076  -999.250000 15.671998978 15.671998978 -0.018964771 0.5371774435 2.1101846695 44.474105835 144.33094788 149.02154541 149.16987610 0.4569999874 129.44651794 0.5379399061  -999.250000 0.5379399061
 2015.7177734  -999.250000 15.557000160 15.557000160 -0.020995192 0.4980942607 2.1047143936 44.015075684 143.07589722 146.83203125 147.89015198 0.4530128241 130.03808594 0.5449776053  -999.250000 0.5449776053
 2015.8701172  -999.250000 15.267999649 15.267999649 -0.018009607 0.4741964638 2.1043941975 43.154762268 141.54861450 145.51824951 146.44186401 0.4470240176 129.80993652 0.5400200486  -999.250000 0.5400200486
 2016.0224609  -999.250000 15.083000183 15.083000183 -0.010019246 0.4780074954 2.1085827351 43.957408905 141.12181091 145.82972717 145.93637085 0.4420200288 130.18449402 0.5290440321  -999.250000 0.5290440321
 2016.1749268  -999.250000 15.041999817 15.041999817 -0.005008013 0.4663873613 2.1150951385 43.183494568 141.58818054 147.03915405 146.44160461 0.4390120208 131.16406250 0.5150560141  -999.250000 0.5150560141
 2016.3272705  -999.250000 15.126999855 15.126999855 -0.003004804 0.4274450839 2.1204528809 44.402072906 142.23480225 147.46829224 147.12937927 0.4360119998 131.43493652 0.5010560751  -999.250000 0.5010560751
 2016.4797363  -999.250000 15.274000168 15.274000168 -0.003998398 0.3895114660 2.1243736744 42.745338440 142.51905823 147.49987793 147.44664001 0.4340080023 132.19793701 0.4920360446  -999.250000 0.4920360446
 2016.6320801  -999.250000 15.256000519 15.256000519 -0.005995196 0.4078705609 2.1286144257 38.305259705 142.60397339 147.56474304 147.61561584 0.4320080280 132.55458069 0.4880160391  -999.250000 0.4880160391
 2016.7845459  -999.250000 15.089000702 15.089000702 -0.007996796 0.4519738853 2.1341950893 33.116470337 143.13708496 148.38072205 148.07664490 0.4320000112 133.40956116 0.4949719906  -999.250000 0.4949719906
 2016.9368896  -999.250000 14.833999634 14.833999634 -0.008000000 0.4867984653 2.1419482231 33.504714966 144.05688477 149.45669556 149.05331421 0.4369799793 133.24269104 0.5009759665  -999.250000 0.5009759665
 2017.0893555  -999.250000 14.722000122 14.722000122 0.0039807693 0.5009362102 2.1512165070 36.186542511 145.36790466 151.57151794 150.33596802 0.4459639788 132.88343811 0.5089679956  -999.250000 0.5089679956
 2017.2416992  -999.250000 15.010000229 15.010000229 0.0169687755 0.4967734516 2.1541662216 39.023906708 146.08551025 151.04016113 151.09901428 0.4589478970 132.61506653 0.5119879842  -999.250000 0.5119879842
 2017.3941650  -999.250000 15.420999527 15.420999527 0.0070160259 0.4943059087 2.1425623894 40.600223541 146.08508301 151.12863159 151.15878296 0.4719479680 132.15585327 0.5199679732  -999.250000 0.5199679732
 2017.5465088  -999.250000 15.083000183 15.083000183 -0.022927942 0.4858770370 2.1275231838 42.398235321 145.81701660 151.30329895 150.87037659 0.4799679518 132.47470093 0.5399199128  -999.250000 0.5399199128
 2017.6989746  -999.250000 14.748999596 14.748999596 -0.031985577 0.4624264538 2.1311140060 44.022102356 144.62588501 148.14714050 149.61631775 0.4839871824 131.63072205 0.5619294643  -999.250000 0.5619294643
 2017.8513184  -999.250000 14.680999756 14.680999756 -0.021017628 0.4672044814 2.1496605873 44.696846008 143.14985657 147.14099121 148.00003052 0.4879840016 131.24554443 0.5809239149  -999.250000 0.5809239149
 2018.0037842  -999.250000 14.687999725 14.687999725 -0.008020817 0.4742630422 2.1554539204 46.393913269 142.35948181 147.34432983 147.27323914 0.4959743619 130.28009033 0.5809999704  -999.250000 0.5809999704
 2018.1561279  -999.250000 14.807000160 14.807000160 -0.005004807 0.5061376691 2.1382122040 45.374286652 142.73495483 146.67370605 147.65270996 0.5019759536 130.37959290 0.5730320215  -999.250000 0.5730320215
 2018.3084717  -999.250000 15.074000359 15.074000359 -0.005997598 0.5136660933 2.1161980629 44.800834656 144.76661682 152.89198303 149.60627747 0.5089719296 130.54135132 0.5530800819  -999.250000 0.5530800819
 2018.4609375  -999.250000 15.253999710 15.253999710 -0.004003205 0.5154343843 2.1060144901 41.393939972 146.09661865 150.89213562 151.21881104 0.5149759650 129.25119019 0.5390560031  -999.250000 0.5390560031
 2018.6132813  -999.250000 15.017999649 15.017999649 -0.004997598 0.4823364615 2.1058750153 43.196170807 145.85821533 150.57424927 151.03440857 0.5209760070 129.70814514 0.5489599705  -999.250000 0.5489599705
 2018.7657471  -999.250000 14.769000053 14.769000053 -0.008993589 0.4726630747 2.1152615547 44.140739441 145.99815369 151.40763855 151.03680420 0.5269759893 129.76777649 0.5609519482  -999.250000 0.5609519482
 2018.9180908  -999.250000 14.639000893 14.639000893 -0.027954364 0.4844719768 2.1542749405 42.676712036 145.19314575 151.57434082 150.03157043 0.5349679589 130.00901794 0.5699639320  -999.250000 0.5699639320
 2019.0705566  -999.250000 14.461000443 14.461000443 -0.052959934 0.4915131330 2.2496116161 37.896507263 139.02397156 138.70672607 143.66415405 0.5350000262 130.31378174 0.5759759545  -999.250000 0.5759759545
 2019.2229004  -999.250000 14.274001122 14.274001122 -0.024069656 0.4724612832 2.3799269199 34.625473022 127.98513031 124.47802734 132.45584106 0.5300199986 130.13372803 0.5979118347  -999.250000 0.5979118347
 2019.3753662  -999.250000 14.211000443 14.211000443 0.0269182697 0.4447665811 2.4494857788 35.726322174 119.22260284 119.35735321 123.43218994 0.5210360289 131.13298035 0.6149319410  -999.250000 0.6149319410
 2019.5277100  -999.250000 14.407999992 14.407999992 0.0319879912 0.4671179950 2.3903827667 38.798137665 117.02952576 119.47643280 121.05205536 0.5110400319 131.22564697 0.5841242075  -999.250000 0.5841242075
