# LAS format log file from PETREL
# Project units are specified as depth units
#==================================================================
~Version information
VERS.   2.0:
WRAP.   NO:
#==================================================================
~Well
STRT .m      2122.4746094 :
STOP .m      4102.6074219 :
STEP .m     0.00000000 :
NULL .        -999.250000 :
COMP.           : COMPANY
WELL.  15/9-19A   : WELL
FLD.            : FIELD
LOC.            : LOCATION
SRVC.           : SERVICE COMPANY
DATE.  2018-09-11 14:48:01   : Log Export Date {yyyy-MM-dd HH:mm:ss}
PROV.           : PROVINCE
UWI.   15/9-19 A   : UNIQUE WELL ID
API.            : API NUMBER
#==================================================================
~Curve
DEPT .m                   : DEPTH
Lithology_geolink ._      : Lithology_geolink
CALI .in                  : CALI
RHOB .g/cm3               : RHOB
GR .gAPI                  : GR
RDEP .ohm.m               : RDEP
RSHA .ohm.m               : RSHA
RMED .ohm.m               : RMED
~Parameter
#==================================================================
~Ascii
# ...
 3835.7548828 4.0000000000 8.2609996796 2.2866001129 36.956455231 7.5147886276 7.6300916672 7.2140302658
 3835.9072266 4.0000000000 8.2546997070 2.3322000504 41.165451050 16.261119843 22.948625565 12.333051682
 3836.0598145 4.0000000000 8.2761001587 2.4623000622 45.488162994 16.218612671 36.545951843 14.175768852
 3836.2121582 4.0000000000 8.2734003067 2.5789999962 48.549701691 5.3687152863 8.9771871567 6.0824956894
 3836.3645020 1.0000000000 8.2531995773 2.6040999889 42.744544983 2.8482177258 3.4859430790 3.2106888294
 3836.5168457 1.0000000000 8.2100000381 2.5562996864 31.401363373 3.2386338711 2.6560361385 3.4116401672
 3836.6694336 1.0000000000 8.1007003784 2.3761999607 23.961845398 2375.9980469 3.3753411770 2375.2192383
 3836.8217773 1.0000000000 8.1017999649 2.3510999680 21.583669662 9987.7880859 5.3806829453 9987.7871094
 3836.9741211 1.0000000000 8.0704002380 2.3752000332 23.000827789 7626.2348633 6.4527845383 2530.5144043
 3837.1264648 1.0000000000 8.0710000992 2.3375999928 25.594005585 35.888153076 6.4768285751 19.363092422
 3837.2790527 1.0000000000 8.0704002380 2.3001999855 27.323280334 8.9332733154 7.6856598854 8.7236003876
 3837.4313965 1.0000000000 8.0810003281 2.3359000683 28.003131866 8.0799627304 8.9438838959 7.4989590645
 3837.5837402 1.0000000000 8.1061000824 2.3389999866 29.022926331 5.6519947052 7.9358210564 5.4110484123
 3837.7360840 1.0000000000 8.0910997391 2.3250999451 29.166622162 5.2982616425 6.6866025925 5.3562827110
 3837.8884277 1.0000000000 8.1329002380 2.3571999073 27.090633392 10.294957161 6.1388521194 10.270922661
 3838.0410156 1.0000000000 8.1569995880 2.3341999054 25.019327164 83.142196655 5.2846679688 31.710412979
 3838.1933594 1.0000000000 8.1398000717 2.3573999405 22.936775208 99.597274780 4.5142345428 30.050720215
 3838.3457031 1.0000000000 8.1275997162 2.3426001072 22.446035385 12.800263405 4.1564722061 10.399738312
 3838.4980469 1.0000000000 8.1056003571 2.3443000317 22.593774796 5.5965785980 4.1207132339 5.8959569931
 3838.6506348 1.0000000000 8.0860004425 2.3991000652 23.376983643 6.0343608856 5.1291809082 7.1475677490
 3838.8029785 1.0000000000 8.0847997665 2.4391000271 24.241827011 16.007192612 8.4850158691 21.489482880
 3838.9553223 1.0000000000 8.0668001175 2.4739999771 23.723812103 2462.1730957 14.772915840 158.84985352
 3839.1076660 1.0000000000 8.0650997162 2.4921998978 22.837471008 7924.1362305 21.128129959 163.23373413
 3839.2602539 1.0000000000 8.0318002701 2.4781000614 21.975257874 354.80932617 24.204994202 37.367053986
 3839.4125977 1.0000000000 8.0355997086 2.4690001011 21.521848679 18.130767822 24.553749084 17.330738068
 3839.5649414 1.0000000000 8.0494003296 2.3866999149 22.291023254 11.742418289 23.844938278 13.208166122
 3839.7172852 1.0000000000 8.0357999802 2.3907001019 22.591861725 11.594422340 23.151111603 13.263100624
 3839.8696289 1.0000000000 8.0438003540 2.3247001171 23.131599426 12.447660446 22.745498657 14.102805138
 3840.0222168 1.0000000000 8.0299997330 2.2997000217 24.170070648 13.106646538 23.734111786 14.938463211
 3840.1745605 1.0000000000 8.0164003372 2.2834000587 23.570938110 14.724005699 28.637031555 16.945779800
 3840.3269043 1.0000000000 8.0235996246 2.3227999210 21.432603836 19.188438416 39.525535583 21.329868317
 3840.4792480 1.0000000000 8.0269002914 2.3315999508 19.417285919 29.414993286 61.081253052 29.310203552
 3840.6318359 1.0000000000 8.0411996841 2.3308000565 18.507793427 37.219226837 79.217300415 33.204689026
 3840.7841797 1.0000000000 8.0324001312 2.3728001118 19.200063705 30.328382492 64.932975769 27.368478775
 3840.9365234 1.0000000000 8.0290002823 2.3401000500 19.757223129 23.665077209 50.067523956 22.677614212
 3841.0888672 1.0000000000 8.0361003876 2.3814001083 19.419942856 20.829069138 45.125389099 20.562267303
 3841.2414551 1.0000000000 8.0611000061 2.3420000076 19.404943466 20.045343399 45.494182587 19.553207397
 3841.3937988 1.0000000000 8.0619001389 2.3329000473 18.893743515 21.098608017 46.868495941 19.665317535
 3841.5461426 1.0000000000 8.0853004456 2.1940999031 18.087087631 23.229682922 41.549041748 20.265436172
 3841.6984863 1.0000000000 8.0859003067 2.1977000237 17.612277985 25.138839722 29.820312500 20.440919876
 3841.8508301 1.0000000000 8.0732002258 2.2481999397 17.702453613 24.136327744 19.215583801 18.914600372
 3842.0034180 1.0000000000 8.0626001358 2.2811000347 19.260293961 21.391500473 13.626815796 16.988183975
 3842.1557617 1.0000000000 8.0450000763 2.2801001072 22.281501770 19.653182983 11.557407379 16.426296234
 3842.3081055 1.0000000000 8.0954999924 2.3152000904 25.776887894 16.786897659 10.328766823 15.262666702
 3842.4604492 1.0000000000 8.0880002975 2.2765998840 27.208465576 13.225119591 8.8908100128 12.786442757
 3842.6130371 1.0000000000 8.0920000076 2.2365000248 28.010343552 11.294580460 7.5643219948 10.927071571
 3842.7653809 1.0000000000 8.0810003281 2.2393999100 26.618484497 11.623367310 6.8623232841 10.792710304
 3842.9177246 1.0000000000 8.1056003571 2.3775000572 26.390775681 13.196076393 6.7905135155 11.899123192
 3843.0700684 1.0000000000 8.0979003906 2.3403999805 27.963098526 12.655643463 6.8061494827 12.040452003
 3843.2226563 1.0000000000 8.1134004593 2.3564000130 28.185508728 12.653900146 6.8062000275 12.040900230
 3843.3750000 1.0000000000 8.1099004745 2.3262999058 28.326547623 7.8967361450 6.1871938705 8.7074508667
 3843.5273438 1.0000000000 8.1072998047 2.4149000645 29.803750992 5.7846779823 5.6276965141 6.6473984718
 3843.6796875 1.0000000000 8.1056995392 2.4068999290 30.083971024 5.1244544983 5.5602068901 5.9669866562
 3843.8320313 1.0000000000 8.0789003372 2.3494999409 30.659227371 5.3075089455 5.9994893074 6.1598773003
 3843.9846191 2.0000000000 8.0781002045 2.2595999241 32.159687042 5.8078980446 6.5265564919 6.5221195221
 3844.1369629 2.0000000000 8.0715999603 2.2374999523 31.525754929 6.7385072708 7.0821099281 7.0984759331
 3844.2893066 2.0000000000 8.1183004379 2.2230000496 30.621152878 8.2522726059 7.7820777893 7.9376544952
 3844.4416504 2.0000000000 8.1153001785 2.1979000568 30.850072861 9.9400901794 8.5718679428 8.6799211502
 3844.5942383 2.0000000000 8.1020002365 2.1979000568 31.316802979 11.485228539 9.6531677246 9.3783826828
 3844.7465820 2.0000000000 8.1574001312 2.1882998943 31.984258652 11.950556755 10.609567642 9.6892032623
 3844.8989258 2.0000000000 8.1738996506 2.1719999313 31.946592331 12.062121391 11.007663727 10.082768440
 3845.0512695 2.0000000000 8.1450996399 2.1949999332 32.186740875 13.924023628 11.187126160 11.912427902
 3845.2038574 2.0000000000 8.1136999130 2.1928999424 32.254886627 16.002874374 10.646867752 13.996764183
 3845.3562012 2.0000000000 8.1288003922 2.1889998913 32.283008575 14.480548859 9.2716054916 13.031055450
 3845.5085449 2.0000000000 8.1247997284 2.1965999603 33.828529358 11.891152382 8.0624370575 10.882446289
 3845.6608887 2.0000000000 8.0967998505 2.2204999924 33.625503540 12.349357605 8.3404512405 11.418134689
 3845.8134766 2.0000000000 8.0742998123 2.2235999107 32.719612122 14.565749168 11.120545387 14.187762260
 3845.9658203 2.0000000000 8.0635004044 2.1858000755 33.059898376 12.242534637 15.227614403 12.882802010
 3846.1181641 2.0000000000 7.9935002327 2.1893999577 33.289463043 8.9756374359 16.414005280 9.5852899551
 3846.2705078 2.0000000000 7.9936995506 2.1772000790 34.155921936 8.4626150131 15.235594749 8.7215776443
 3846.4228516 2.0000000000 8.0176000595 2.1791999340 34.351772308 10.103230476 14.610301018 9.8389081955
 3846.5754395 2.0000000000 7.9910001755 2.2070999146 33.530643463 13.348000526 15.271335602 12.344084740
 3846.7277832 2.0000000000 7.9933004379 2.1861000061 32.530902863 17.327619553 16.792160034 15.794168472
 3846.8801270 2.0000000000 7.9918999672 2.1891999245 32.200279236 19.967971802 18.262144089 18.849006653
 3847.0324707 2.0000000000 8.0104999542 2.2026000023 32.218605042 18.465236664 18.044906616 18.504522324
 3847.1850586 2.0000000000 7.9977998734 1.9081000090 32.929813385 15.226490974 16.565773010 15.945306778
 3847.3374023 2.0000000000 8.0087995529 2.2641999722 35.163925171 14.074640274 16.372606277 15.112630844
