# LAS format log file from PETREL
# Project units are specified as depth units
#==================================================================
~Version information
VERS.   2.0:
WRAP.   NO:
#==================================================================
~Well
STRT .m      1517.9528809 :
STOP .m      3212.6408691 :
STEP .m     0.00000000 :
NULL .        -999.250000 :
COMP.           : COMPANY
WELL.  15/9-23   : WELL
FLD.            : FIELD
LOC.            : LOCATION
SRVC.           : SERVICE COMPANY
DATE.  2018-09-11 14:48:03   : Log Export Date {yyyy-MM-dd HH:mm:ss}
PROV.           : PROVINCE
UWI.   15/9-23   : UNIQUE WELL ID
API.            : API NUMBER
#==================================================================
~Curve
DEPT .m                   : DEPTH
Lithology_geolink ._      : Lithology_geolink
DCAL .in                  : DCAL
CALI .in                  : CALI
BS .in                    : BS
ROP .m/h                  : ROP
DRHO .g/cm3               : DRHO
NPHI .m3/m3               : NPHI
RHOB .g/cm3               : RHOB
PEF .b/e                  : PEF
GR .gAPI                  : GR
DTC .us/ft                : DTC
DTS .us/ft                : DTS
RDEP .ohm.m               : RDEP
RMED .ohm.m               : RMED
~Parameter
#==================================================================
~Ascii
# ...
 2530.1936035 1.0000000000 0.5530995727 12.803099632 12.250000954 15.135200500 0.0740000010 0.2006999999 2.2053000927 5.8875999451 44.723999023 86.607398987 154.00460815 0.7131000161 0.7609999776
 2530.3459473 1.0000000000 0.5497999191 12.799798965 12.250000954 19.637599945 0.0920000002 0.1932999939 2.2377998829 6.2463998795 41.403099060 86.178703308 154.00000000 0.7146000266 0.7591000199
 2530.4985352 1.0000000000 0.4154997170 12.665499687 12.250000954 17.863397598 0.0808999985 0.2055999935 2.2421998978 5.3579998016 42.407001495 86.613891602 154.00000000 0.7124999762 0.7574999928
 2530.6508789 1.0000000000 0.3348999023 12.584899902 12.250000954 14.871301651 0.0644000024 0.2126999944 2.2337000370 4.8916001320 42.138198853 86.010307312 154.00000000 0.7113999724 0.7868000269
 2530.8032227 1.0000000000 0.3098000884 12.559800148 12.250000954 14.200298309 0.0568999983 0.2035000026 2.2297000885 4.6129999161 42.172199249 85.485397339 154.00000000 0.7246000171 0.7998999953
 2530.9555664 1.0000000000 0.3097000420 12.559699059 12.250000954 16.365400314 0.0553999990 0.2037999928 2.2253999710 4.3934998512 43.847198486 85.390899658 154.00000000 0.8495000005 0.9955999851
 2531.1079102 1.0000000000 0.3459996879 12.595999718 12.250000954 22.210300446 0.0544999987 0.2052000016 2.2183001041 4.4651999474 44.555099487 85.311996460 154.00000000 0.7129999995 1.0888999701
 2531.2604980 1.0000000000 0.5215998292 12.771598816 12.250000954 28.111999512 0.0463000014 0.2105000019 2.1926999092 4.6444001198 44.974201202 85.262100220 154.00000000 0.7908999920 0.7488999963
 2531.4128418 2.0000000000 0.4993000329 12.749300003 12.250000954 21.926000595 0.0790000036 0.2072000057 2.2181999683 5.5335998535 43.791400909 84.984596252 154.00000000 0.7117000222 0.7436000109
 2531.5651855 2.0000000000 0.3884001374 12.638400078 12.250000954 15.565901756 0.0667999983 0.2057999969 2.2086000443 5.4279999733 41.819000244 85.523101807 154.00000000 0.6944000125 0.7353000045
 2531.7175293 2.0000000000 0.3686999977 12.618700027 12.250000954 12.189001083 0.0615999997 0.2057999969 2.2132000923 5.0480999947 45.221599579 86.713790894 154.00000000 0.6887000203 0.7294999957
 2531.8701172 2.0000000000 0.3263998032 12.576399803 12.250000954 10.052800179 0.0615999997 0.2117999941 2.2249999046 4.8281002045 44.038700104 87.313796997 154.00000000 0.6848000288 0.7276999950
 2532.0224609 2.0000000000 0.2544003129 12.504399300 12.250000954 9.5393009186 0.0581000000 0.2097000033 2.2223000526 4.5220999718 43.320301056 87.696403503 154.01240540 0.6801999807 0.7264999747
 2532.1748047 2.0000000000 0.2240000069 12.473999977 12.250000954 9.3097991943 0.0467999987 0.2037999928 2.2132000923 4.3460998535 46.118198395 86.726600647 154.04350281 0.6768000126 0.7196000218
 2532.3271484 2.0000000000 0.2733002007 12.523299217 12.250000954 4.9281988144 0.0416000001 0.2074999958 2.2086999416 4.0619997978 45.131099701 85.703598022 154.12779236 0.6775000095 0.7174999714
 2532.4797363 2.0000000000 0.3599005044 12.609899521 12.250000954 5.4004006386 0.0496000014 0.2075999975 2.2125999928 4.5114998817 46.097400665 85.263992310 154.12040710 0.6816999912 0.7225000262
 2532.6320801 2.0000000000 0.3981999755 12.648199081 12.250000954 10.247601509 0.0617000014 0.2104000002 2.2200000286 4.8758001328 46.891498566 85.080101013 154.06640625 0.6884999871 0.7300999761
 2532.7844238 2.0000000000 0.3621998131 12.612199783 12.250000954 13.627901077 0.0621000007 0.2105000019 2.2190001011 4.9409999847 41.807399750 84.987297058 154.13720703 0.6922000051 0.7311000228
 2532.9367676 2.0000000000 0.3107003868 12.560700417 12.250000954 12.348999977 0.0639000013 0.2108000070 2.2309999466 4.9387998581 52.318401337 84.731391907 154.51559448 0.6841999888 0.7268000245
 2533.0891113 2.0000000000 0.2412004173 12.491199493 12.250000954 10.984900475 0.0472000018 0.2073000073 2.2179000378 4.3324999809 50.494800568 84.440795898 155.52909851 0.6772999763 0.7246999741
 2533.2416992 2.0000000000 0.3355998993 12.585598946 12.250000954 10.718301773 0.0472000018 0.2085999995 2.2126998901 4.3407998085 47.294101715 85.134109497 156.02810669 0.6708999872 0.7269999981
 2533.3940430 2.0000000000 0.4506998062 12.700699806 12.250000954 11.101901054 0.0658000037 0.2031999975 2.2188000679 4.9499001503 44.855998993 83.790000916 157.67550659 0.6757000089 0.7253999710
 2533.5463867 2.0000000000 0.4730997086 12.723098755 12.250000954 11.701399803 0.0742999986 0.2053000033 2.2195000648 5.2554001808 46.450298309 84.218688965 158.34667969 0.6848000288 0.7185000181
 2533.6987305 2.0000000000 0.3877001405 12.637701035 12.250000954 11.226302147 0.0636000037 0.2142000049 2.1998999119 5.3959999084 44.175998688 85.959396362 164.02951050 0.6911000013 0.7355999947
 2533.8513184 2.0000000000 0.3777999878 12.627799988 12.250000954 9.6107006073 0.0634000003 0.2099999934 2.2011001110 5.1065001488 45.222900391 88.018791199 176.21560669 0.8458999991 0.8108999729
 2534.0036621 2.0000000000 0.3178997040 12.567898750 12.250000954 9.1751012802 0.0644999966 0.1949000061 2.2327001095 4.9177999496 49.362701416 89.500900269 192.51908875 1.0766999722 0.9764000177
 2534.1560059 2.0000000000 0.4834994972 12.733499527 12.250000954 10.453701019 0.0588000007 0.1817999929 2.2794001102 5.2690000534 56.682098389 96.531600952 203.71069336 1.2915999889 1.1830999851
 2534.3083496 4.0000000000 0.6149997711 12.864999771 12.250000954 12.838801384 0.0463000014 0.1976999938 2.3127999306 5.1975002289 67.734901428 109.26789856 211.89459229 1.2368999720 1.3020000458
 2534.4609375 4.0000000000 0.5892000198 12.839199066 12.250000954 12.571000099 0.0502000004 0.2495000064 2.3206000328 5.1505999565 77.601699829 114.47339630 224.82258606 0.9746000171 1.0973000526
 2534.6132813 4.0000000000 0.4730997086 12.723098755 12.250000954 11.949001312 0.0586999990 0.2685999870 2.3336000443 5.5676999092 77.306800842 119.04270935 230.18989563 1.0362999439 1.1311000586
 2534.7656250 4.0000000000 0.2771996856 12.527200699 12.250000954 12.833701134 0.0434000008 0.2431000024 2.3285999298 5.8338999748 78.103202820 120.02179718 230.38070679 1.4671000242 1.5140999556
 2534.9179688 4.0000000000 0.2328997105 12.482899666 12.250000954 16.407802582 0.0592000000 0.2058999985 2.3575997353 6.0518999100 81.890098572 116.43619537 232.64167786 1.6578999758 1.7619999647
 2535.0703125 4.0000000000 0.0061998372 12.256200790 12.250000954 20.661199570 0.0610999987 0.1919000000 2.3843998909 6.0107998848 73.776397705 116.59950256 217.48260498 2.6026000977 2.0648000240
 2535.2229004 16.000000000 0.0362997092 12.286299706 12.250000954 20.978200912 0.0337000005 0.1588000059 2.4098000526 5.5850000381 58.299598694 113.79769897 219.68479919 2.9477000237 2.4172000885
 2535.3752441 16.000000000 0.1871995777 12.437198639 12.250000954 19.134899139 0.0355000012 0.1411000043 2.4590001106 5.7737002373 51.419799805 113.33329773 221.52099609 3.5378999710 2.5608999729
 2535.5275879 2.0000000000 0.2538996041 12.503899574 12.250000954 14.188697815 0.0384999998 0.1519999951 2.4707999229 5.8428001404 54.143699646 111.41600037 228.78469849 3.2353999615 2.3326001167
 2535.6799316 2.0000000000 0.3647002876 12.614700317 12.250000954 10.655000687 0.0458000004 0.1650999933 2.4509000778 5.8987998962 63.333801270 112.97171021 235.22691345 1.5144000053 1.5544999838
 2535.8325195 4.0000000000 0.4384002984 12.688399315 12.250000954 8.7748012543 0.0456000008 0.2074999958 2.3831000328 6.0107002258 64.644500732 111.55770111 235.81489563 1.0856000185 1.2834000587
 2535.9848633 4.0000000000 0.3528003991 12.602799416 12.250000954 7.9929986000 0.0483999997 0.2298000008 2.3445999622 5.9802999496 62.399799347 111.28829193 224.48080444 1.0206999779 1.2056000233
 2536.1372070 4.0000000000 0.4939002991 12.743900299 12.250000954 8.9777011871 0.0472999997 0.2043000013 2.3225998878 5.5631999969 55.549900055 110.24510193 221.50540161 1.2216000557 1.5325000286
 2536.2895508 4.0000000000 0.4594002068 12.709400177 12.250000954 11.470300674 0.0542999990 0.1868000031 2.3315000534 5.0139999390 57.474498749 111.80500793 230.91491699 1.8630000353 1.9029999971
