# LAS format log file from PETREL
# Project units are specified as depth units
#==================================================================
~Version information
VERS.   2.0:
WRAP.   NO:
#==================================================================
~Well
STRT .m      1517.9528809 :
STOP .m      3212.6408691 :
STEP .m     0.00000000 :
NULL .        -999.250000 :
COMP.           : COMPANY
WELL.  15/9-23   : WELL
FLD.            : FIELD
LOC.            : LOCATION
SRVC.           : SERVICE COMPANY
DATE.  2018-09-11 14:48:03   : Log Export Date {yyyy-MM-dd HH:mm:ss}
PROV.           : PROVINCE
UWI.   15/9-23   : UNIQUE WELL ID
API.            : API NUMBER
#==================================================================
~Curve
DEPT .m                   : DEPTH
Lithology_geolink ._      : Lithology_geolink
DCAL .in                  : DCAL
CALI .in                  : CALI
BS .in                    : BS
ROP .m/h                  : ROP
DRHO .g/cm3               : DRHO
NPHI .m3/m3               : NPHI
RHOB .g/cm3               : RHOB
PEF .b/e                  : PEF
GR .gAPI                  : GR
DTC .us/ft                : DTC
DTS .us/ft                : DTS
RDEP .ohm.m               : RDEP
RMED .ohm.m               : RMED
~Parameter
#==================================================================
~Ascii
# ...
 2867.6071777 13.000000000 0.0453996696 12.295399666 12.250000954 10.669200897 0.0302000009 0.1053000018 2.5508000851 5.9313001633 50.612800598 73.432998657 152.60960388 2.4875242710 2.5196897984
 2867.7597656 13.000000000 0.0682001114 12.318200111 12.250000954 12.062500000 0.0366999991 0.1030000001 2.5571000576 6.1335000992 51.219299316 75.027099609 154.86520386 2.3778963089 2.4506015778
 2867.9121094 13.000000000 0.0390996896 12.289100647 12.250000954 15.637999535 0.0328000002 0.1041999981 2.5529999733 6.1784000397 50.415901184 76.673202515 156.07650757 2.3145139217 2.3264315128
 2868.0644531 13.000000000 -0.051600460 12.198399544 12.250000954 16.997400284 0.0186000001 0.1042999998 2.5420000553 5.9902000427 49.211399078 76.978103638 155.84959412 2.3232078552 2.2840135098
 2868.2167969 13.000000000 0.0574998893 12.307499886 12.250000954 16.280599594 0.0293000005 0.1107999980 2.5566000938 6.1605000496 47.762401581 75.668296814 154.39221191 2.3905155659 2.4173512459
 2868.3693848 13.000000000 0.0242004376 12.274199486 12.250000954 15.649098396 0.0337999985 0.1173999980 2.5699999332 6.3449997902 48.747200012 72.799301147 152.73339844 2.4635081291 2.5754539967
 2868.5217285 13.000000000 0.0686998367 12.318700790 12.250000954 14.758399010 0.0304000005 0.1163000017 2.5804998875 6.1395998001 44.661098480 71.522697449 148.54800415 2.7778017521 3.0597078800
 2868.6740723 13.000000000 0.0696001127 12.319599152 12.250000954 13.510101318 0.0359000005 0.1118000001 2.5771000385 6.1665000916 46.960201263 70.862503052 144.75270081 2.9658620358 3.1892750263
 2868.8264160 13.000000000 0.0528001785 12.302800179 12.250000954 12.648599625 0.0395999998 0.1119000018 2.5764000416 6.3516001701 42.570598602 70.796501160 143.70660400 3.0047514439 3.1739656925
 2868.9790039 13.000000000 0.0584001504 12.308400154 12.250000954 13.008800507 0.0287999995 0.1156999990 2.5646998882 6.3777999878 42.150600433 71.012802124 143.04600525 3.1604928970 3.3383686543
 2869.1313477 13.000000000 0.0591001511 12.309101105 12.250000954 13.185598373 0.0104000000 0.1186000034 2.5376000404 5.9286999702 47.379299164 71.996299744 143.35200500 2.8466055393 3.0167503357
 2869.2836914 13.000000000 0.1225003973 12.372499466 12.250000954 12.774500847 0.0297999997 0.1137000024 2.5502998829 6.2230000496 48.552200317 74.043098450 143.94670105 2.7256240845 2.7990877628
 2869.4360352 13.000000000 0.1041001976 12.354101181 12.250000954 12.957502365 0.0395999998 0.1032999977 2.5408999920 6.3133997917 48.848499298 73.980201721 144.20150757 2.8655264378 2.9785289764
 2869.5883789 13.000000000 0.0471000709 12.297100067 12.250000954 13.127901077 0.0379000008 0.1080999970 2.5452001095 6.2428998947 45.843399048 72.866699219 144.09809875 3.0690872669 3.0592887402
 2869.7409668 13.000000000 0.0787000731 12.328700066 12.250000954 11.569702148 0.0340999998 0.1115999967 2.5471000671 6.2343001366 42.490798950 72.171699524 143.39340210 3.2484443188 3.3018453121
 2869.8933105 13.000000000 0.1197004095 12.369700432 12.250000954 9.7955007553 0.0395000018 0.1124000028 2.5552000999 6.4288997650 45.240299225 74.228202820 143.86979675 3.2759265900 3.3295865059
 2870.0456543 13.000000000 0.1627998054 12.412799835 12.250000954 8.6651992798 0.0410999991 0.1125999987 2.5545001030 6.4633002281 53.559799194 76.425102234 144.33770752 3.1672241688 3.0090539455
 2870.1979980 13.000000000 0.1771001965 12.427100182 12.250000954 9.1058998108 0.0445000008 0.1212000027 2.5473001003 6.5633997917 55.602401733 76.798103333 144.48759460 2.7460286617 2.6064777374
 2870.3505859 13.000000000 0.1548996121 12.404899597 12.250000954 12.784501076 0.0480999984 0.1220000014 2.5395998955 6.6487998962 54.449401855 76.220497131 144.43609619 2.6401238441 2.5933184624
 2870.5029297 13.000000000 0.1638001949 12.413800240 12.250000954 18.218902588 0.0485000014 0.1176000014 2.5413000584 6.7035999298 49.155498505 73.174797058 143.19259644 2.8970985413 2.7866654396
 2870.6552734 13.000000000 0.0197000504 12.269701004 12.250000954 17.979701996 0.0447000004 0.1168999970 2.5576999187 6.4675998688 45.076301575 71.906402588 142.90679932 3.1456732750 3.2015624046
 2870.8076172 13.000000000 0.1576004028 12.407600403 12.250000954 12.944898605 0.0379999988 0.1254000068 2.5538001060 6.2908000946 42.782199860 71.399398804 142.61279297 3.3160018921 3.4275054932
 2870.9602051 13.000000000 0.1183004007 12.368301392 12.250000954 10.213101387 0.0454999991 0.1177000031 2.5520000458 6.5137000084 40.372299194 72.454399109 143.03640747 3.3782253265 3.4916033745
 2871.1125488 13.000000000 0.0718002319 12.321800232 12.250000954 9.5680017471 0.0430000015 0.1194999963 2.5415999889 6.3962001801 40.178298950 73.751403809 143.39599609 2.9807577133 2.9939548969
 2871.2648926 13.000000000 0.0796003267 12.329599380 12.250000954 11.895200729 0.0344999991 0.1221999973 2.5311000347 6.0791997910 52.973201752 73.755203247 143.07090759 2.7053306103 2.8413236141
 2871.4172363 13.000000000 0.1111001894 12.361100197 12.250000954 16.808500290 0.0421000011 0.1199000031 2.5590000153 6.2272000313 56.259899139 75.399200439 142.82189941 2.7248649597 2.8566954136
 2871.5698242 13.000000000 0.1243000031 12.374300003 12.250000954 18.486900330 0.0445999987 0.1238000020 2.5697999001 6.3984999657 53.982498169 74.802200317 142.52839661 3.0775902271 3.2281875610
 2871.7221680 13.000000000 0.2067002952 12.456700325 12.250000954 16.643798828 0.0522999987 0.1254000068 2.5724999905 6.6690998077 41.799999237 74.569892883 142.45089722 3.2923688889 3.4109249115
 2871.8745117 13.000000000 0.1359996945 12.385999680 12.250000954 15.414400101 0.0555000007 0.1240999997 2.5606999397 6.7930998802 42.131099701 75.554000854 143.32040405 3.1480913162 3.2390654087
 2872.0268555 13.000000000 0.1105002984 12.360499382 12.250000954 14.581601143 0.0494000018 0.1279000044 2.5573999882 6.5332999229 55.824199677 75.706100464 143.79469299 2.8931596279 2.9680476189
 2872.1791992 13.000000000 0.0893001705 12.339299202 12.250000954 15.529198647 0.0417999998 0.1394000053 2.5559000969 6.2565999031 59.026298523 76.381500244 144.84649658 2.6811451912 2.8108167648
 2872.3317871 13.000000000 -0.007800102 12.242199898 12.250000954 18.000400543 0.0359999985 0.1298999935 2.5527999401 6.4285001755 52.677101135 76.434898376 144.97390747 2.7097916603 2.8829612732
 2872.4841309 13.000000000 0.0970001221 12.347000122 12.250000954 19.389997482 0.0329999998 0.1212999970 2.5713999271 6.5299000740 47.309898376 74.788299561 145.17640686 2.8312263489 2.6837518215
 2872.6364746 13.000000000 0.1737002879 12.423700333 12.250000954 17.180000305 0.0449000001 0.1234000027 2.5794000626 6.6806001663 40.200099945 74.765403748 146.15960693 2.4737045765 2.5290262699
 2872.7888184 13.000000000 0.2033005059 12.453300476 12.250000954 15.870100975 0.0537000000 0.1300999969 2.5826001167 6.7764000893 46.336399078 75.468299866 147.66470337 2.3520147800 2.4208421707
 2872.9414063 13.000000000 0.1151999980 12.365200996 12.250000954 15.335000038 0.0522999987 0.1334999949 2.5762999058 6.6662001610 58.468799591 76.380599976 150.12179565 2.4236381054 2.4473924637
 2873.0937500 13.000000000 0.0707998276 12.320798874 12.250000954 15.627300262 0.0471000001 0.1137999967 2.5727000237 6.4700999260 57.820301056 75.979797363 150.50450134 2.4981391430 2.5387115479
 2873.2460938 13.000000000 0.0867996290 12.336799622 12.250000954 17.332899094 0.0344000012 0.1042999998 2.5341000557 6.3427000046 54.340698242 74.683502197 150.29641724 2.7090988159 2.6701924801
 2873.3984375 13.000000000 0.0221996326 12.272199631 12.250000954 20.533500671 0.0427000001 0.1041999981 2.5660998821 6.1540999413 45.763000488 74.906105042 152.02900696 2.5832796097 2.4778585434
 2873.5510254 13.000000000 0.0065002451 12.256499290 12.250000954 21.708700180 0.0357000008 0.1080999970 2.5736999512 6.1119999886 46.962699890 76.502403259 153.75889587 2.3209638596 2.0165536404
 2873.7033691 13.000000000 0.0808000490 12.330800056 12.250000954 20.809700012 0.0344000012 0.1097000018 2.5797998905 6.3427000046 56.487499237 77.095802307 154.15692139 2.1854736805 2.2203292847
