# LAS format log file from PETREL
# Project units are specified as depth units
#==================================================================
~Version information
VERS.   2.0:
WRAP.   NO:
#==================================================================
~Well
STRT .m      489.99996948 :
STOP .m      1530.0000000 :
STEP .m     0.00000000 :
NULL .        -999.250000 :
COMP.           : COMPANY
WELL.  15/9-22   : WELL
FLD.            : FIELD
LOC.            : LOCATION
SRVC.           : SERVICE COMPANY
DATE.  2018-09-11 14:48:02   : Log Export Date {yyyy-MM-dd HH:mm:ss}
PROV.           : PROVINCE
UWI.   15/9-22   : UNIQUE WELL ID
API.            : API NUMBER
#==================================================================
~Curve
DEPT .m                   : DEPTH
Lithology_geolink ._      : Lithology_geolink
BS .in                    : BS
GR .gAPI                  : GR
RDEP .ohm.m               : RDEP
RMED .ohm.m               : RMED
~Parameter
#==================================================================
~Ascii
# ...
 581.79998779  -999.250000 17.500000000 133.19500732 1.2890000343 1.1189999580
 581.90002441  -999.250000 17.500000000 134.92700195 1.2749596834 1.1050049067
 582.00000000  -999.250000 17.500000000 134.87899780 1.2089999914 1.1130000353
 582.09997559  -999.250000 17.500000000 133.90299988 1.1820000410 1.1050000191
 582.20001221  -999.250000 17.500000000 135.64799500 1.1990329027 1.1461031437
 582.29998779  -999.250000 17.500000000 140.42500305 1.2530000210 1.3150000572
 582.40002441  -999.250000 17.500000000 144.86900330 1.3129999638 1.4099999666
 582.50000000  -999.250000 17.500000000 146.62699890 1.3049999475 1.3810000420
 582.59997559  -999.250000 17.500000000 147.05700684 1.2949999571 1.3409999609
 582.70001221  -999.250000 17.500000000 147.53199768 1.2869999409 1.3439999819
 582.79998779  -999.250000 17.500000000 148.62600708 1.2869999409 1.3619999886
 582.89996338  -999.250000 17.500000000 150.95899963 1.2649999857 1.4290000200
 583.00000000  -999.250000 17.500000000 154.49400330 1.2879999876 1.4759999514
 583.10003662  -999.250000 17.500000000 156.05499268 1.3250031471 1.5409951210
 583.20001221  -999.250000 17.500000000 153.66700745 1.3300000429 1.5329999924
 583.29998779  -999.250000 17.500000000 149.67399597 1.3339999914 1.4919999838
 583.40002441  -999.250000 17.500000000 147.99000549 1.2999840975 1.4270080328
 583.50000000  -999.250000 17.500000000 149.59800720 1.2740000486 1.4400000572
 583.59997559  -999.250000 17.500000000 150.82600403 1.2649999857 1.3890000582
 583.70001221  -999.250000 17.500000000 150.06100464 1.2590396404 1.3910391331
 583.79998779  -999.250000 17.500000000 150.64300537 1.3240000010 1.4550000429
 583.90002441  -999.250000 17.500000000 155.17399597 1.2849999666 1.3569999933
 584.00000000  -999.250000 17.500000000 161.71299744 1.2510000467 1.3550000191
 584.09997559  -999.250000 17.500000000 164.64700317 1.2359999418 1.3279999495
 584.20001221  -999.250000 17.500000000 163.73100281 1.1959999800 1.2350000143
 584.29998779  -999.250000 17.500000000 162.70399475 1.1579999924 1.1410000324
 584.39996338  -999.250000 17.500000000 164.32899475 1.1419999599 1.1019999981
 584.50000000  -999.250000 17.500000000 167.37600708 1.1410000324 1.0909999609
 584.60003662  -999.250000 17.500000000 166.85800171 1.1109864712 1.0730011463
 584.70001221  -999.250000 17.500000000 162.21099854 1.0889999866 1.0750000477
 584.79998779  -999.250000 17.500000000 157.85000610 1.0640000105 1.0470000505
 584.90002441  -999.250000 17.500000000 157.63699341 1.0519957542 1.0439927578
 585.00000000  -999.250000 17.500000000 159.77400208 1.0449999571 1.0319999456
 585.09997559  -999.250000 17.500000000 161.39500427 1.0290000439 1.0290000439
 585.20001221  -999.250000 17.500000000 160.74200439 1.0069884062 1.0139878988
 585.29998779  -999.250000 17.500000000 157.62600708 0.9879999757 0.9940000176
 585.40002441  -999.250000 17.500000000 156.40299988 0.9650048614 0.9790152311
 585.50000000  -999.250000 17.500000000 158.19900513 0.9729999900 1.0039999485
 585.59997559  -999.250000 17.500000000 159.47000122 0.9909999967 1.0110000372
 585.70001221  -999.250000 17.500000000 158.50300598 1.0009957552 0.9920115471
 585.79998779  -999.250000 17.500000000 155.41000366 0.9940000176 1.0110000372
 585.90002441  -999.250000 17.500000000 153.98100281 0.9900000095 1.0019999743
 586.00000000  -999.250000 17.500000000 156.96299744 0.9879999757 1.0019999743
 586.09997559  -999.250000 17.500000000 162.77799988 0.9710000157 0.9860000014
 586.20001221  -999.250000 17.500000000 167.81900024 0.9789999723 0.9840000272
 586.29998779  -999.250000 17.500000000 171.62600708 0.9689999819 0.9750000238
 586.39996338  -999.250000 17.500000000 170.97399902 0.9710000157 0.9980000257
 586.50000000  -999.250000 17.500000000 165.36900330 0.9720000029 0.9990000129
 586.60003662  -999.250000 17.500000000 160.48100281 0.9729920626 1.0009902716
 586.70001221  -999.250000 17.500000000 158.53700256 0.9599999785 0.9850000143
 586.79998779  -999.250000 17.500000000 158.99699402 0.9570000172 0.9779999852
 586.90002441  -999.250000 17.500000000 161.89300537 0.9459999800 0.9900054932
 587.00000000  -999.250000 17.500000000 165.70300293 0.9459999800 0.9990000129
 587.09997559  -999.250000 17.500000000 166.99800110 0.9559999704 1.0019999743
 587.20001221  -999.250000 17.500000000 162.74099731 0.9670054913 1.0049816370
 587.29998779  -999.250000 17.500000000 157.52799988 0.9760000110 0.9750000238
 587.40002441  -999.250000 17.500000000 156.78300476 0.9720000029 0.9620000124
 587.50000000  -999.250000 17.500000000 160.63299561 0.9670000076 0.9829999804
 587.59997559  -999.250000 17.500000000 166.38800049 0.9620000124 1.0039999485
 587.70001221  -999.250000 17.500000000 171.93099976 0.9739999771 1.0169999599
 587.79998779  -999.250000 17.500000000 175.20399475 0.9819999933 0.9929999709
 587.89996338  -999.250000 17.500000000 173.72000122 0.9739999771 1.0069999695
 588.00000000  -999.250000 17.500000000 166.70300293 0.9739999771 1.0149999857
 588.10003662  -999.250000 17.500000000 158.88499451 0.9810103774 1.0259847641
 588.20001221  -999.250000 17.500000000 153.94500732 0.9980000257 1.0010000467
 588.29998779  -999.250000 17.500000000 151.25000000 1.0060000420 0.9959999919
 588.40002441  -999.250000 17.500000000 149.18200684 1.0260061026 1.0200207233
 588.50000000  -999.250000 17.500000000 148.52099609 1.0360000134 1.0540000200
 588.59997559  -999.250000 17.500000000 152.09500122 1.0549999475 1.0609999895
 588.70001221  -999.250000 17.500000000 158.71800232 1.0820091963 1.0739878416
 588.79998779  -999.250000 17.500000000 163.52499390 1.0970000029 1.0540000200
 588.90002441  -999.250000 17.500000000 164.93299866 1.1130000353 1.0290000439
 589.00000000  -999.250000 17.500000000 162.80099487 1.1139999628 1.0629999638
 589.09997559  -999.250000 17.500000000 158.56599426 1.1399999857 1.0970000029
 589.20001221  -999.250000 17.500000000 155.43499756 1.1679999828 1.0970000029
 589.29998779  -999.250000 17.500000000 153.69400024 1.2089999914 1.0939999819
 589.39996338  -999.250000 17.500000000 152.49699402 1.2580000162 1.1250000000
 589.50000000  -999.250000 17.500000000 150.86199951 1.2790092230 1.1210000515
 589.59997559  -999.250000 17.500000000 149.42189026 1.2940000296 1.1210000515
 589.70001221  -999.250000 17.500000000 148.86099243 1.2999999523 1.1330000162
 589.79998779  -999.250000 17.500000000 148.53399658 1.3140000105 1.1590000391
 589.89996338  -999.250000 17.500000000 149.64730835 1.3109999895 1.2200000286
 590.00000000  -999.250000 17.500000000 153.43800354 1.3930000067 1.2760000229
 590.10003662  -999.250000 17.500000000 158.16999817 1.4440097809 1.2809933424
 590.20001221  -999.250000 17.500000000 160.77099609 1.4600000381 1.2699999809
 590.29998779  -999.250000 17.500000000 159.27400208 1.4769999981 1.2760000229
 590.40002441  -999.250000 17.500000000 153.81700134 1.5120402575 1.3409932852
 590.50000000  -999.250000 17.500000000 148.05700684 1.5779999495 1.3300000429
 590.59997559  -999.250000 17.500000000 145.29899597 1.6289999485 1.3250000477
 590.70001221  -999.250000 17.500000000 144.60200500 1.6269975901 1.3050328493
 590.79998779  -999.250000 17.500000000 143.10600281 1.6230000257 1.3589999676
 590.90002441  -999.250000 17.500000000 139.93299866 1.6200000048 1.4409999847
 591.00000000  -999.250000 17.500000000 136.53700256 1.6000000238 1.5599999428
 591.09997559  -999.250000 17.500000000 134.36599731 1.6139999628 1.6059999466
 591.20001221  -999.250000 17.500000000 132.95899963 1.6009999514 1.6829999685
 591.29998779  -999.250000 17.500000000 130.97900391 1.5520000458 1.6419999599
 591.39996338  -999.250000 17.500000000 128.65400696 1.4930000305 1.5759999752
 591.50000000  -999.250000 17.500000000 127.94699860 1.4479999542 1.4880000353
 591.60003662  -999.250000 17.500000000 129.77099609 1.3969304562 1.3779139519
 591.70001221  -999.250000 17.500000000 133.83500671 1.2829999924 1.2369999886
 591.79998779  -999.250000 17.500000000 138.20399475 1.1859999895 1.2120000124
 591.90002441  -999.250000 17.500000000 141.53399658 1.0119401217 1.1209225655
