# LAS format log file from PETREL
# Project units are specified as depth units
#==================================================================
~Version information
VERS.   2.0:
WRAP.   NO:
#==================================================================
~Well
STRT .m      472.33206177 :
STOP .m      3119.8261719 :
STEP .m     0.00000000 :
NULL .        -999.250000 :
COMP.           : COMPANY
WELL.  15/9-17   : WELL
FLD.            : FIELD
LOC.            : LOCATION
SRVC.           : SERVICE COMPANY
DATE.  2018-09-11 14:48:01   : Log Export Date {yyyy-MM-dd HH:mm:ss}
PROV.           : PROVINCE
UWI.   15/9-17   : UNIQUE WELL ID
API.            : API NUMBER
#==================================================================
~Curve
DEPT .m                   : DEPTH
Lithology_geolink ._      : Lithology_geolink
DCAL .in                  : DCAL
CALI .in                  : CALI
DRHO .g/cm3               : DRHO
SGR .gAPI                 : SGR
NPHI .m3/m3               : NPHI
RHOB .g/cm3               : RHOB
PEF .b/e                  : PEF
GR .gAPI                  : GR
DTC .us/ft                : DTC
DT .us/ft                 : DT
DTE .us/ft                : DTE
RDEP .ohm.m               : RDEP
SP .mV                    : SP
RSHA .ohm.m               : RSHA
RXO .ohm.m                : RXO
RMED .ohm.m               : RMED
~Parameter
#==================================================================
~Ascii
# ...
 1352.4426270  -999.250000 15.718999863 15.718999863 0.0049999999 65.526000977 0.5747985244 1.8784246445 2.5840001106 53.973857880 146.91609192 154.50199890 155.15490723 1.1670000553 34.739929199 1.2803714275 1.2803714275 1.1740000248
 1352.5949707  -999.250000 15.858999252 15.858999252 0.0000000000 64.749000549 0.5907782316 1.8605282307 2.5079998970 57.182842255 148.14768982 155.99757385 156.40528870 1.1660000086 35.281433105 1.3372148275 1.3372148275 1.1599999666
 1352.7473145  -999.250000 15.906000137 15.906000137 -0.001000000 64.820999146 0.5834380984 1.8472959995 2.6770000458 61.957519531 149.01486206 157.37168884 157.42895508 1.1610000134 34.554130554 1.1973553896 1.1973553896 1.1820000410
 1352.8997803  -999.250000 15.906000137 15.906000137 -0.003000000 65.271003723 0.5697203279 1.8403068781 2.9539999962 64.558845520 149.84165955 157.74940491 158.20498657 1.1670000553 33.872394562 1.0844022036 1.0844022036 1.1870000362
 1353.0521240  -999.250000 15.906000137 15.906000137 0.0040000002 66.428001404 0.5512266755 1.8408381939 3.2699999809 64.438301086 150.54995728 159.12170410 159.03990173 1.1710000038 34.319503784 1.3332858086 1.3332858086 1.1909999847
 1353.2045898  -999.250000 15.897999763 15.897999763 0.0040000002 66.720001221 0.5428737998 1.8385541439 3.4800000191 61.348960876 150.72729492 159.12500000 159.12754822 1.1920000315 34.571113586 1.3821769953 1.3821769953 1.1480000019
 1353.3569336  -999.250000 15.819999695 15.819999695 0.0040000002 66.246002197 0.5278592110 1.8354911804 3.4309999943 58.475906372 150.81341553 159.12500000 159.22428894 1.2089999914 35.120845795 1.0599030256 1.0599030256 1.1239999533
 1353.5093994  -999.250000 15.875000000 15.875000000 0.0000000000 65.462997437 0.5335493088 1.8377397060 3.2960000038 54.849811554 150.46659851 159.49940491 158.95443726 1.2209999561 34.643226624 1.2187894583 1.2187894583 1.1369999647
 1353.6617432  -999.250000 15.906000137 15.906000137 0.0020000001 65.155998230 0.5083757043 1.8533819914 3.1259999275 58.397441864 149.37553406 158.12829590 157.71453857 1.2300000191 34.239139557 1.0309888124 1.0309888124 1.1640000343
 1353.8142090  -999.250000 15.906000137 15.906000137 0.0030000000 66.257003784 0.5243725777 1.8759821653 2.8919999599 59.311546326 148.42297363 156.75219727 156.62641907 1.2430000305 35.113162994 1.0300761461 1.0300761461 1.2159999609
 1353.9665527  -999.250000 15.930000305 15.930000305 0.0040000002 66.775001526 0.5171665549 1.8855632544 2.7829999924 56.163581848 147.73202515 156.12649536 156.05332947 1.2560000420 35.791614532 1.1980377436 1.1980377436 1.2450000048
 1354.1190186  -999.250000 15.906000137 15.906000137 0.0049999999 65.768997192 0.5336717367 1.8808410168 2.8280000687 57.685543060 147.64898682 155.75059509 155.86900330 1.2710000277 36.169631958 1.3824226856 1.3824226856 1.2710000277
 1354.2713623  -999.250000 15.906000137 15.906000137 0.0049999999 63.485000610 0.5301935077 1.8689582348 2.9409999847 54.944606781 147.86343384 155.99938965 156.12153625 1.2849999666 35.583080292 1.4471249580 1.4471249580 1.2960000038
 1354.4238281  -999.250000 15.906000137 15.906000137 0.0080000004 62.377998352 0.5137019157 1.8617202044 2.7539999485 56.996696472 148.22703552 156.37440491 156.57530212 1.3090000153 35.708629608 1.2922883034 1.2922883034 1.2940000296
 1354.5761719  -999.250000 15.828000069 15.828000069 0.0060000001 62.816001892 0.5186891556 1.8612061739 2.6519999504 54.909355164 148.74711609 156.99899292 157.05973816 1.3250000477 35.853916168 1.3356033564 1.3356033564 1.2120000124
 1354.7285156  -999.250000 15.819999695 15.819999695 0.0099999998 63.340000153 0.5431368351 1.8697385788 2.4949998856 56.559020996 148.70079041 157.37408447 157.00900269 1.3270000219 34.358654022 1.0880953074 1.0880953074 1.1950000525
 1354.8809814  -999.250000 15.897999763 15.897999763 0.0060000001 63.666000366 0.5785815120 1.8709568977 2.7239999771 57.654247284 147.82472229 156.37660217 156.09019470 1.3129999638 34.332477570 1.1050504446 1.1050504446 1.1909999847
 1355.0333252  -999.250000 15.968999863 15.968999863 0.0109999999 62.928001404 0.5732683539 1.8679974079 3.0550000668 57.064422607 147.10232544 155.37739563 155.31211853 1.2879999876 35.278049469 1.1156084538 1.1156084538 1.2489999533
 1355.1857910  -999.250000 15.930000305 15.930000305 0.0130000003 62.347999573 0.5783567429 1.8515665531 3.0550000668 54.847557068 146.63296509 155.00059509 154.84442139 1.2740000486 35.126342773 1.4015889168 1.4015889168 1.2740000486
 1355.3381348  -999.250000 15.906000137 15.906000137 0.0130000003 61.805999756 0.5396386981 1.8311710358 3.1970000267 57.339996338 146.92805481 154.37600708 155.10365295 1.2749999762 34.700328827 1.5039992332 1.5039992332 1.2769999504
 1355.4906006  -999.250000 15.866999626 15.866999626 0.0120000001 62.146999359 0.5574474335 1.8127281666 3.2320001125 58.998672485 148.62454224 156.37339783 156.97761536 1.2840000391 34.143585205 1.1501330137 1.1501330137 1.2400000095
 1355.6429443  -999.250000 15.852001190 15.852001190 0.0099999998 63.512001038 0.5273230672 1.8021230698 3.6210000515 58.469429016 150.70906067 158.37339783 159.09254456 1.2929999828 34.393459320 1.3497884274 1.3497884274 1.2350000143
 1355.7954102  -999.250000 15.819999695 15.819999695 0.0080000004 64.249000549 0.5229876637 1.8043150902 3.7400000095 54.877876282 152.62644958 160.74809265 161.17810059 1.2970000505 33.408828735 1.1338919401 1.1338919401 1.2089999914
 1355.9477539  -999.250000 15.819999695 15.819999695 0.0010000000 65.083999634 0.5303473473 1.8161349297 3.6779999733 54.344429016 153.69168091 162.37368774 162.27435303 1.2960000038 33.193866730 0.9615176320 0.9615176320 1.2089999914
 1356.1002197  -999.250000 15.788000107 15.788000107 0.0060000001 65.393997192 0.5474495888 1.8327708244 3.7460000515 60.339199066 153.20283508 162.49989319 161.74372864 1.2949999571 34.113513947 0.8767365813 0.8767365813 1.1909999847
 1356.2525635  -999.250000 15.522999763 15.522999763 0.0130000003 66.430999756 0.5638532043 1.8520039320 3.8519999981 65.184120178 151.82553101 160.50160217 160.24916077 1.2990000248 33.615558624 0.9910841584 0.9910841584 1.1990000010
 1356.4050293  -999.250000 15.484001160 15.484001160 0.0439999998 67.962997437 0.5409145951 1.8748931885 3.8970000744 67.123451233 151.02406311 159.37590027 159.42794800 1.2979999781 33.747020721 1.0055837631 1.0055837631 1.2159999609
 1356.5573730  -999.250000 15.507999420 15.507999420 0.0309999995 68.646003723 0.5220664740 1.8843697309 4.1189999580 69.186347961 150.72114563 159.37500000 159.20983887 1.3040000200 34.201889038 0.9409607053 0.9409607053 1.2359999418
 1356.7098389  -999.250000 15.522999763 15.522999763 0.0439999998 68.466003418 0.5385382175 1.8969204426 3.5409998894 69.937400818 150.05303955 159.00030518 158.49276733 1.3240000010 35.137622833 0.9362418056 0.9362418056 1.2790000439
 1356.8621826  -999.250000 15.430000305 15.430000305 0.0149999997 68.890998840 0.5336211324 1.8889733553 3.4389998913 70.187805176 149.26565552 157.50120544 157.55706787 1.3509999514 35.099521637 1.2825977802 1.2825977802 1.3120000362
 1357.0145264  -999.250000 15.375000954 15.375000954 0.0189999994 70.290000916 0.5218665004 1.8909335136 3.2699999809 64.883506775 149.32243347 157.37518311 157.76844788 1.3619999886 35.040481567 1.0348126888 1.0348126888 1.3079999685
 1357.1669922  -999.250000 15.336000443 15.336000443 0.0070000002 72.471000671 0.5009993911 1.8774000406 3.5190000534 62.564853668 149.86021423 158.49908447 158.18969727 1.3680000305 35.664447784 1.1788990498 1.1788990498 1.2940000296
 1357.3193359  -999.250000 15.288999557 15.288999557 0.0080000004 73.511001587 0.5049264431 1.8723714352 3.4509999752 64.434997559 149.08328247 158.00079346 157.46311951 1.3669999838 36.548526764 1.1608767509 1.1608767509 1.3090000153
 1357.4718018  -999.250000 15.288999557 15.288999557 0.0109999999 75.015998840 0.5152261853 1.8746335506 3.2369999886 67.935195923 147.60960388 156.50120544 155.88615417 1.3500000238 37.768226624 1.1388261318 1.1388261318 1.2910000086
 1357.6241455  -999.250000 15.194998741 15.194998741 0.0140000004 75.734001160 0.5302560925 1.8994773626 3.3250000477 67.314002991 145.88121033 154.50320435 154.11553955 1.3430000544 36.738037109 1.1073886156 1.1073886156 1.2810000181
