# LAS format log file from PETREL
# Project units are specified as depth units
#==================================================================
~Version information
VERS.   2.0:
WRAP.   NO:
#==================================================================
~Well
STRT .m      1517.9528809 :
STOP .m      3212.6408691 :
STEP .m     0.00000000 :
NULL .        -999.250000 :
COMP.           : COMPANY
WELL.  15/9-23   : WELL
FLD.            : FIELD
LOC.            : LOCATION
SRVC.           : SERVICE COMPANY
DATE.  2018-09-11 14:48:03   : Log Export Date {yyyy-MM-dd HH:mm:ss}
PROV.           : PROVINCE
UWI.   15/9-23   : UNIQUE WELL ID
API.            : API NUMBER
#==================================================================
~Curve
DEPT .m                   : DEPTH
Lithology_geolink ._      : Lithology_geolink
DCAL .in                  : DCAL
CALI .in                  : CALI
BS .in                    : BS
ROP .m/h                  : ROP
DRHO .g/cm3               : DRHO
NPHI .m3/m3               : NPHI
RHOB .g/cm3               : RHOB
PEF .b/e                  : PEF
GR .gAPI                  : GR
DTC .us/ft                : DTC
DTS .us/ft                : DTS
RDEP .ohm.m               : RDEP
RMED .ohm.m               : RMED
~Parameter
#==================================================================
~Ascii
# ...
 3205.0209961 5.0000000000 0.1742001176 8.6742000580 8.5000000000 15.715599060 0.0641999990 0.1776999980 2.5285000801 6.0776000023 99.392097473  -999.250000  -999.250000 1.4622299671 1.4053347111
 3205.1733398 5.0000000000 0.1499004066 8.6499004364 8.5000000000 16.650211334 0.0661000013 0.1762000024 2.5459001064 6.2992000580 98.624198914  -999.250000  -999.250000 1.6681361198 1.6141867638
 3205.3256836 6.0000000000 0.0993003845 8.5993003845 8.5000000000 17.464740753 0.0551999994 0.1709000021 2.5673000813 6.3642997742 100.85600281  -999.250000  -999.250000 1.8777278662 1.7930269241
 3205.4782715 6.0000000000 0.0753002167 8.5753002167 8.5000000000 15.923122406 0.0489999987 0.1695999950 2.5885999203 5.9257001877 103.00370026  -999.250000  -999.250000 1.9582626820 1.8730027676
 3205.6306152 6.0000000000 0.0617999993 8.5618000031 8.5000000000 12.438261986 0.0537000000 0.1678999960 2.6463000774 6.9847002029 103.68019867  -999.250000  -999.250000 2.2273488045 2.1546354294
 3205.7829590 6.0000000000 0.0923004225 8.5923004150 8.5000000000 10.356881142 0.0518000014 0.1667000055 2.6714999676 7.1245999336 107.08679962  -999.250000  -999.250000 2.4447016716 2.4259848595
 3205.9353027 6.0000000000 0.1077995002 8.6077995300 8.5000000000 9.4127750397 0.0560000017 0.1668999940 2.6621000767 6.8393001556 111.08049774  -999.250000  -999.250000 2.5079898834 2.5413384438
 3206.0878906 5.0000000000 0.1278000027 8.6277999878 8.5000000000 10.332333565 0.0491999984 0.1615999937 2.6329998970 6.8073000908 99.711097717  -999.250000  -999.250000 2.5016407967 2.6897561550
 3206.2402344 5.0000000000 0.1810999066 8.6810998917 8.5000000000 10.653802872 0.0549000017 0.1582999974 2.6203000546 6.6842999458 86.576400757  -999.250000  -999.250000 2.4824788570 2.6754004955
 3206.3925781 5.0000000000 0.2039002925 8.7039003372 8.5000000000 10.219808578 0.0653000027 0.1527000070 2.6075000763 6.2463002205 81.280403137  -999.250000  -999.250000 2.0327792168 2.2391734123
 3206.5449219 5.0000000000 0.3821001053 8.8821001053 8.5000000000 10.729029655 0.0509999990 0.1640000045 2.5381000042 6.3168997765 90.251800537  -999.250000  -999.250000 1.7698707581 1.9725826979
 3206.6972656 5.0000000000 0.2937001884 8.7937002182 8.5000000000 14.176990509 0.0684999973 0.1670999974 2.4906001091 6.4407000542 91.111297607  -999.250000  -999.250000 1.3152966499 1.4006508589
 3206.8498535 5.0000000000 0.2244997025 8.7244997025 8.5000000000 16.352628708 0.0625000000 0.1666000038 2.4741001129 6.1747999191 91.452201843  -999.250000  -999.250000 1.1264663935 1.1209647655
 3207.0021973 5.0000000000 0.0845003054 8.5845003128 8.5000000000 16.672622681 0.0570000000 0.1702000052 2.4904000759 5.8463997841 84.038497925  -999.250000  -999.250000 1.1786093712 1.1724990606
 3207.1545410 5.0000000000 -0.010100359 8.4898996353 8.5000000000 16.187763214 0.0406000018 0.1745000035 2.5209000111 6.4286999702 79.192596436  -999.250000  -999.250000 1.3712027073 1.2964665890
 3207.3068848 5.0000000000 0.2958002090 8.7958002090 8.5000000000 16.038593292 0.0635000020 0.1645999998 2.5755999088 5.9228000641 78.596199036  -999.250000  -999.250000 1.3103013039 1.2753298283
 3207.4594727 5.0000000000 0.2517996132 8.7517995834 8.5000000000 15.345329285 0.0724999979 0.1670999974 2.5369999409 6.1075000763 87.662597656  -999.250000  -999.250000 1.1247740984 1.0453182459
 3207.6118164 5.0000000000 0.0774002150 8.5774002075 8.5000000000 14.573829651 0.0692000017 0.1764000058 2.5157999992 6.3201999664 96.132202148  -999.250000  -999.250000 1.3038419485 1.2383728027
 3207.7641602 5.0000000000 0.2987003028 8.7987003326 8.5000000000 13.718391418 0.0493000001 0.1766999960 2.5359001160 6.0886001587 96.384803772  -999.250000  -999.250000 1.4540140629 1.5324581861
 3207.9165039 5.0000000000 0.3456000686 8.8456001282 8.5000000000 13.087618828 0.0679000020 0.1796000004 2.5378000736 5.8243999481 88.140296936  -999.250000  -999.250000 1.0886731148 1.2567588091
 3208.0690918 5.0000000000 0.1750002205 8.6750001907 8.5000000000 12.478257179 0.0505999997 0.1815000027 2.4138998985 5.5897002220 84.926200867  -999.250000  -999.250000 0.8846240044 0.9812878370
 3208.2214355 5.0000000000 0.1788998097 8.6788997650 8.5000000000 13.026957512 0.0430999994 0.1805000007 2.3989999294 5.4952998161 75.530403137  -999.250000  -999.250000 0.7675270438 0.7905758023
 3208.3737793 5.0000000000 0.0169000607 8.5169000626 8.5000000000 13.996338844 0.0447999984 0.1765999943 2.4433999062 5.2919998169 74.395500183  -999.250000  -999.250000 0.7845103741 0.7755337954
 3208.5261230 5.0000000000 0.0117998105 8.5117998123 8.5000000000 12.959876060 0.0386999995 0.1771000028 2.5046999454 5.3063001633 74.970298767  -999.250000  -999.250000 0.8536723852 0.7969222665
 3208.6784668 5.0000000000 0.0475997850 8.5475997925 8.5000000000 12.447105408 0.0392000005 0.1799000055 2.5399999619 5.3344998360 78.077003479  -999.250000  -999.250000 1.0861967802 0.9981935620
 3208.8310547 5.0000000000 0.0979995728 8.5979995728 8.5000000000 12.634316444 0.0384999998  -999.250000 2.5478999615 5.4355001450 79.196701050  -999.250000  -999.250000 1.3964283466 1.3069409132
 3208.9833984 5.0000000000 0.1547002941 8.6547002792 8.5000000000 11.982788086 0.0375999995  -999.250000 2.5139000416 5.3471999168 77.390800476  -999.250000  -999.250000 1.6229757071 1.6932657957
 3209.1357422 5.0000000000 0.1724997163 8.6724996567 8.5000000000 10.853727341 0.0474000014  -999.250000 2.4711000919 5.5020999908 80.407203674  -999.250000  -999.250000 1.4204876423 1.5467303991
 3209.2880859 5.0000000000 0.1787995845 8.6787996292 8.5000000000 10.184920311 0.0474000014  -999.250000 2.4479000568 5.2561998367 76.983901978  -999.250000  -999.250000 1.1011697054 1.1917378902
 3209.4406738 5.0000000000 0.1870002896 8.6870002747 8.5000000000 9.8821182251 0.0485999994  -999.250000 2.4272000790 5.2295999527 78.586898804  -999.250000  -999.250000 1.0195510387 1.0900983810
 3209.5930176 5.0000000000 0.1441002041 8.6441001892 8.5000000000 9.0789861679 0.0472999997  -999.250000 2.4080998898 5.1861000061 69.666000366  -999.250000  -999.250000 0.8797302842 0.9025546312
 3209.7453613 3.0000000000 0.0876998901 8.5876998901 8.5000000000 9.6934013367 0.0438000001  -999.250000 2.4374001026 5.2764000893 69.198097229  -999.250000  -999.250000 0.8989362121 0.8121296167
 3209.8977051 3.0000000000 0.0431003682 8.5431003571 8.5000000000 9.3210182190 0.0461000018  -999.250000 2.4781999588 5.6442999840 66.957901001  -999.250000  -999.250000 1.1094155312 0.8938134313
 3210.0502930 3.0000000000 0.0855998993 8.5855998993 8.5000000000 9.5165681839 0.0467000008  -999.250000 2.5185999870 5.7565999031 54.454498291  -999.250000  -999.250000 1.7422161102 1.4635649920
 3210.2026367 3.0000000000 0.1012000963 8.6012001038 8.5000000000 8.5098953247 0.0480000004  -999.250000 2.5455999374 5.7023000717 49.126998901  -999.250000  -999.250000 1.7778887749 1.6705574989
 3210.3549805 3.0000000000 0.1357001960 8.6357002258 8.5000000000 8.5716056824 0.0390999988  -999.250000 2.5028998852 5.6043000221 51.005100250  -999.250000  -999.250000 1.4586446285 1.5811250210
 3210.5073242 3.0000000000 0.1230001003 8.6230001450 8.5000000000 10.135779381 0.0373000018  -999.250000 2.4688000679 5.2477998734 66.869400024  -999.250000  -999.250000 0.9876962900 1.1601824760
 3210.6596680 3.0000000000 0.1302004009 8.6302003860 8.5000000000 12.679842949 0.0412999988  -999.250000 2.4279999733 5.3316998482 80.063102722  -999.250000  -999.250000 0.7983485460 0.8998184204
 3210.8122559 3.0000000000 0.0977001265 8.5977001190 8.5000000000 15.012959480 0.0432000011  -999.250000 2.4217998981 5.2381000519 80.583999634  -999.250000  -999.250000 0.7045516968 0.7245360017
 3210.9645996 3.0000000000 0.0090999603 8.5090999603 8.5000000000 15.154454231 0.0287999995  -999.250000 2.4286000729 4.9415998459 77.369400024  -999.250000  -999.250000 0.8774870038 0.7676471472
 3211.1169434 3.0000000000 0.0461997949 8.5461997986 8.5000000000 14.125742912 0.0318999998  -999.250000 2.5092999935 5.6463999748 78.723701477  -999.250000  -999.250000 1.5561412573 1.2342998981
