# LAS format log file from PETREL
# Project units are specified as depth units
#==================================================================
~Version information
VERS.   2.0:
WRAP.   NO:
#==================================================================
~Well
STRT .m      2122.4746094 :
STOP .m      4102.6074219 :
STEP .m     0.00000000 :
NULL .        -999.250000 :
COMP.           : COMPANY
WELL.  15/9-19A   : WELL
FLD.            : FIELD
LOC.            : LOCATION
SRVC.           : SERVICE COMPANY
DATE.  2018-09-11 14:48:01   : Log Export Date {yyyy-MM-dd HH:mm:ss}
PROV.           : PROVINCE
UWI.   15/9-19 A   : UNIQUE WELL ID
API.            : API NUMBER
#==================================================================
~Curve
DEPT .m                   : DEPTH
Lithology_geolink ._      : Lithology_geolink
CALI .in                  : CALI
RHOB .g/cm3               : RHOB
GR .gAPI                  : GR
RDEP .ohm.m               : RDEP
RSHA .ohm.m               : RSHA
RMED .ohm.m               : RMED
~Parameter
#==================================================================
~Ascii
# ...
 3964.8378906 5.0000000000 8.1880998611 2.4487733841 72.862236023 0.9215000272 1.7238999605 0.9674000144
 3964.9904785 5.0000000000 8.1957998276 2.4318981171 65.424407959 0.8784000278 1.5824999809 0.9230999947
 3965.1428223 5.0000000000 8.1683998108 2.3689849377 58.052612305 0.8616999984 1.4559999704 0.9067000151
 3965.2951660 5.0000000000 8.1593999863 2.3596708775 52.291728973 0.8547000289 1.3451999426 0.9009000063
 3965.4475098 5.0000000000 8.1749000549 2.3415966034 48.784130096 0.8198000193 1.2168999910 0.8644999862
 3965.6000977 5.0000000000 8.1301002502 2.4016473293 49.336494446 0.7695000172 1.0947999954 0.8104000092
 3965.7524414 5.0000000000 8.1318998337 2.3851361275 51.938526154 0.7322999835 1.0127999783 0.7688999772
 3965.9047852 5.0000000000 8.0945997238 2.3454058170 52.300724030 0.7150999904 0.9711999893 0.7470999956
 3966.0568848 5.0000000000 8.1160001755 2.3489999771 51.735229492 0.7226878405 0.9703014493 0.7507941127
 3966.2092285 5.0000000000 8.0760002136 2.3699998856 51.765838623 0.7464238405 0.9986091256 0.7710350156
 3966.3618164 5.0000000000 8.0699996948 2.3842999935 52.467247009 0.7595790029 1.0230609179 0.7797860503
 3966.5141602 5.0000000000 8.0929002762 2.4042999744 53.215900421 0.7536095977 1.0301886797 0.7680189013
 3966.6665039 5.0000000000 8.0946998596 2.4017999172 54.639831543 0.7406208515 1.0323964357 0.7488307357
 3966.8188477 5.0000000000 8.0777997971 2.3931999207 55.719711304 0.7213309407 1.0324000120 0.7253376842
 3966.9711914 5.0000000000 8.1364002228 2.3956000805 52.688865662 0.6823251247 1.0077790022 0.6861257553
 3967.1237793 5.0000000000 8.1673002243 2.3659000397 46.386116028 0.6299837828 0.9509910345 0.6365793347
 3967.2761230 5.0000000000 8.1858997345 2.3424000740 42.740459442 0.5917612314 0.8967868686 0.6017557979
 3967.4284668 5.0000000000 8.1520004272 2.3463997841 42.257869720 0.5761249661 0.8668479323 0.5880219340
 3967.5808105 5.0000000000 8.1301002502 2.3385999203 41.701076508 0.5844731331 0.8689929843 0.5956754088
 3967.7333984 5.0000000000 8.0840997696 2.4073998928 41.256221771 0.6628741622 0.9647463560 0.6691820621
 3967.8857422 5.0000000000 8.1176004410 2.6201000214 43.503566742 0.9780942798 1.3498820066 0.9623296857
 3968.0380859 5.0000000000 8.2200002670 2.7016999722 47.117706299 2.0067496300 2.5378940105 1.8385943174
 3968.1904297 5.0000000000 8.2931995392 2.7437000275 48.806823730 3.3263690472 4.3416156769 2.8328127861
 3968.3430176 5.0000000000 8.1805000305 2.6598999500 49.640544891 3.1137480736 4.4799871445 2.7209844589
 3968.4953613 5.0000000000 8.1372003555 2.6163001060 50.667705536 2.7366049290 3.9284853935 2.5437841415
 3968.6477051 5.0000000000 8.0511999130 2.4656000137 52.078075409 2.0874409676 3.1672203541 2.0654671192
 3968.8000488 5.0000000000 8.0146999359 2.4154999256 53.079891205 1.3280173540 2.2359926701 1.3692164421
 3968.9523926 3.0000000000 8.0269002914 2.4163000584 50.041801453 0.8943881392 1.5833902359 0.9401737452
 3969.1049805 3.0000000000 8.0356998444 2.3617999554 44.362613678 0.6732527614 1.2010104656 0.7151589990
 3969.2573242 3.0000000000 8.0511999130 2.3238999844 41.537826538 0.5521937609 0.9832485914 0.5891017914
 3969.4096680 3.0000000000 8.0509996414 2.3510999680 39.321647644 0.4928948581 0.8715786934 0.5262005925
 3969.5620117 3.0000000000 8.0840997696 2.3917996883 36.992801666 0.4958900809 0.8645220399 0.5305855870
 3969.7145996 3.0000000000 8.0897998810 2.3540999889 36.120269775 0.5433238745 0.9381817579 0.5844136477
 3969.8669434 3.0000000000 8.0923995972 2.4079000950 35.951633453 0.5955163836 1.0340462923 0.6424070597
 3970.0192871 3.0000000000 8.2623996735 2.4346001148 36.215324402 0.6813623309 1.1856569052 0.7343525290
 3970.1716309 3.0000000000 8.3079004288 2.4698998928 34.678432465 0.9327932596 1.5808322430 1.0029382706
 3970.3242188 3.0000000000 8.3788995743 2.6556999683 30.622617722 1.5186609030 2.4697751999 1.6037369967
 3970.4765625 3.0000000000 8.3826999664 2.6851000786 27.543159485 2.2831742764 3.6732704639 2.2784185410
 3970.6289063 3.0000000000 8.4237003326 2.7276999950 25.856391907 3.1073789597 4.6602187157 2.8499841690
 3970.7812500 3.0000000000 8.4209003448 2.7379000187 25.876277924 4.3851509094 5.1986384392 3.6661913395
 3970.9335938 3.0000000000 8.2863998413 2.4946000576 26.453611374 3.8212170601 4.0748105049 3.2106664181
 3971.0861816 3.0000000000 8.2550001144 2.4598999023 28.207569122 2.1855225563 2.5215873718 1.9979442358
 3971.2385254 3.0000000000 8.2487001419 2.3943998814 32.076377869 1.4198248386 1.7224786282 1.3744975328
 3971.3908691 3.0000000000 8.2291002274 2.3199000359 34.830574036 1.0196404457 1.3130551577 1.0221639872
 3971.5432129 5.0000000000 8.2398996353 2.3519001007 38.353744507 0.7934241295 1.0945991278 0.8108764291
 3971.6958008 5.0000000000 8.2656002045 2.3241999149 42.781818390 0.7135270834 1.0306016207 0.7343217731
 3971.8481445 5.0000000000 8.2581996918 2.4349999428 46.803512573 0.7275772095 1.0660429001 0.7447829843
 3972.0004883 5.0000000000 8.2567996979 2.4360001087 52.622695923 0.8217489123 1.1645419598 0.8256701827
 3972.1528320 5.0000000000 8.2712001801 2.4514999390 56.894695282 0.9955425858 1.2992680073 0.9693391919
 3972.3054199 5.0000000000 8.2062997818 2.4416000843 57.802745819 1.1906876564 1.4092241526 1.1193599701
 3972.4577637 5.0000000000 8.1842002869 2.4161999226 57.261451721 1.4046570063 1.5073428154 1.2818394899
 3972.6101074 5.0000000000 8.1563997269 2.4251999855 57.042198181 1.6053783894 1.5924636126 1.4343556166
 3972.7624512 5.0000000000 8.1667995453 2.4361000061 56.479808807 1.5905243158 1.5521647930 1.4102391005
 3972.9147949 5.0000000000 8.2242002487 2.4079000950 53.110065460 1.4570283890 1.4035768509 1.2870951891
 3973.0673828 5.0000000000 8.2121000290 2.4021999836 51.028842926 1.3445798159 1.2455528975 1.1843643188
 3973.2197266 5.0000000000 8.2221002579 2.3780999184 50.668235779 1.1677834988 1.0983358622 1.0447238684
 3973.3720703 5.0000000000 8.2153997421 2.3552999496 48.825183868 0.9486513138 0.9697061181 0.8789657354
 3973.5244141 5.0000000000 8.1854000092 2.2969999313 46.383552551 0.7580108643 0.8637394905 0.7301768064
 3973.6770020 5.0000000000 8.2138996124 2.2978999615 45.963413239 0.6325005293 0.7927134633 0.6272644401
 3973.8293457 5.0000000000 8.2740001678 2.3387000561 46.538246155 0.6195204854 0.8169608712 0.6233060956
 3973.9816895 5.0000000000 8.3229999542 2.4309000969 47.328895569 0.7285249829 0.9903217554 0.7343217731
 3974.1340332 5.0000000000 8.3362998962 2.4653999805 49.776695251 0.8825062513 1.2701027393 0.8823254108
 3974.2866211 3.0000000000 8.3278999329 2.6080000401 49.163108826 0.9924243689 1.5160067081 0.9817411900
 3974.4389648 3.0000000000 8.3220996857 2.5488998890 46.600730896 1.1067167521 1.7043982744 1.0890281200
 3974.5913086 3.0000000000 8.3030004501 2.5404000282 40.344390869 1.2082374096 1.8370873928 1.1947306395
 3974.7436523 3.0000000000 8.2835998535 2.4612998962 33.772701263 1.1307246685 1.7629194260 1.1360944510
 3974.8959961 3.0000000000 8.2919998169 2.4161000252 32.521293640 0.9200758338 1.4944614172 0.9419230223
 3975.0485840 3.0000000000 8.2771997452 2.3798999786 32.884113312 0.7565613389 1.2550828457 0.7863487005
 3975.2009277 3.0000000000 8.2864999771 2.3780000210 32.507514954 0.6558612585 1.1067374945 0.6891556382
 3975.3532715 3.0000000000 8.3002004623 2.3587000370 33.246330261 0.5789232850 0.9966763258 0.6120235324
 3975.5056152 3.0000000000 8.2836999893 2.3401999474 34.157913208 0.5344424248 0.9275214076 0.5676420927
 3975.6582031 3.0000000000 8.2926998138 2.3373000622 34.079566956 0.5288088322 0.9169166684 0.5647044778
 3975.8105469 3.0000000000 8.2962999344 2.3322999477 35.300174713 0.5495666862 0.9629261494 0.5899594426
 3975.9628906 3.0000000000 8.3051996231 2.3489000797 36.894828796 0.5995199084 1.0758188963 0.6462097764
 3976.1152344 5.0000000000 8.3023996353 2.3800001144 39.048336029 0.6852251291 1.2517358065 0.7390024066
 3976.2678223 5.0000000000 8.3225002289 2.4302000999 45.776996613 0.8162900805 1.4739443064 0.8736842871
 3976.4201660 5.0000000000 8.3449001312 2.5260999203 60.464241028 1.0775809288 1.8413108587 1.1337828636
