# LAS format log file from PETREL
# Project units are specified as depth units
#==================================================================
~Version information
VERS.   2.0:
WRAP.   NO:
#==================================================================
~Well
STRT .m      485.02883911 :
STOP .m      3207.3493652 :
STEP .m     0.00000000 :
NULL .        -999.250000 :
COMP.           : COMPANY
WELL.  15/9-15   : WELL
FLD.            : FIELD
LOC.            : LOCATION
SRVC.           : SERVICE COMPANY
DATE.  2018-09-11 14:48:00   : Log Export Date {yyyy-MM-dd HH:mm:ss}
PROV.           : PROVINCE
UWI.   15/9-15   : UNIQUE WELL ID
API.            : API NUMBER
#==================================================================
~Curve
DEPT .m                   : DEPTH
Lithology_geolink ._      : Lithology_geolink
DCAL .in                  : DCAL
CALI .in                  : CALI
BS .in                    : BS
DRHO .g/cm3               : DRHO
NPHI .m3/m3               : NPHI
RHOB .g/cm3               : RHOB
PEF .b/e                  : PEF
GR .gAPI                  : GR
DTC .us/ft                : DTC
DT .us/ft                 : DT
RDEP .ohm.m               : RDEP
SP .mV                    : SP
RSHA .ohm.m               : RSHA
RXO .ohm.m                : RXO
RMED .ohm.m               : RMED
~Parameter
#==================================================================
~Ascii
# ...
 665.47033691  -999.250000 18.846000671 18.654722214 17.500000000 0.0080080098  -999.250000 2.1629893780 2.6349999905 66.320762634 140.29945374 139.74874878 2.3520419598 46.090904236 1.7059919834 -999.9000244 1.7059919834
 665.62274170  -999.250000 18.534999847 18.512756348 17.500000000 0.0089979973  -999.250000 2.1631543636 2.5820000172 62.599960327 140.87689209 140.74839783 2.3160576820 45.855697632 1.6950176954 -999.9000244 1.6950176954
 665.77514648  -999.250000 18.134000778 18.249517441 17.500000000 0.0080020027  -999.250000 2.1586220264 2.5510001183 62.281497955 140.65141296 140.99960327 2.3130047321 45.105743408 1.6750320196 -999.9000244 1.6750320196
 665.92755127  -999.250000 18.202999115 18.250017166 17.500000000 0.0080000004  -999.250000 2.1554543972 2.5320000648 65.494842529 140.44639587 140.37600708 2.3339664936 44.466007233 1.6600240469 -999.9000244 1.6600240469
 666.07995605  -999.250000 18.462999344 18.453483582 17.500000000 0.0040080100  -999.250000 2.1561999321 2.5030000210 72.052490234 140.27986145 140.49980164 2.3419871330 44.481048584 1.6590015888 -999.9000244 1.6590015888
 666.23236084  -999.250000 18.684000015 18.630672455 17.500000000 0.0010060073  -999.250000 2.1541223526 2.4800000191 71.813400269 139.56172180 140.12559509 2.3479905128 44.605804443 1.6829614639 -999.9000244 1.6829614639
 666.38476563  -999.250000 18.687999725 18.594501495 17.500000000 0.0010000000  -999.250000 2.1533982754 2.5409998894 71.250900269 138.77291870 139.12660217 2.3460030556 44.122394562 1.7059631348 -999.9000244 1.7059631348
 666.53717041  -999.250000 18.312000275 18.370685577 17.500000000 0.0039939932  -999.250000 2.1511240005 2.5959999561 67.319313049 138.09301758 138.50100708 2.3130528927 45.105998993 1.7309598923 -999.9000244 1.7309598923
 666.68957520  -999.250000 18.174999237 18.201753616 17.500000000 0.0089899879  -999.250000 2.1549198627 2.5039999485 67.937004089 138.11941528 137.75120544 2.2850449085 45.105991364 1.7569583654 -999.9000244 1.7569583654
 666.84197998  -999.250000 18.146999359 18.155103683 17.500000000 0.0060060071  -999.250000 2.1558258533 2.3970000744 62.600425720 138.79258728 138.37425232 2.2889952660 45.091114044 1.7599964142 -999.9000244 1.7599964142
 666.99438477  -999.250000 18.152000427 18.103248596 17.500000000 0.0040040049  -999.250000 2.1589763165 2.3610000610 62.687885284 139.13780212 139.12409973 2.3029830456 45.371543884 1.7430204153 -999.9000244 1.7430204153
 667.14678955  -999.250000 17.958999634 17.911338806 17.500000000 0.0010060073  -999.250000 2.1629016399 2.4010000229 64.248123169 139.68392944 139.12500000 2.3179819584 44.231811523 1.7300156355 -999.9000244 1.7300156355
 667.29919434  -999.250000 17.572999954 17.660131454 17.500000000 0.0109839747  -999.250000 2.1629862785 2.4979999065 64.749397278 139.92169189 140.12379456 2.3319830894 45.246627808 1.7240071297 -999.9000244 1.7240071297
 667.45159912  -999.250000 17.541999817 17.526220322 17.500000000 0.0199855827  -999.250000 2.1572506428 2.5409998894 64.563224792 139.78733826 139.75045776 2.3439857960 44.778099060 1.7359855175 -999.9000244 1.7359855175
 667.60394287  -999.250000 17.447000504 17.439344406 17.500000000 0.0299799759  -999.250000 2.1487064362 2.5739998817 62.503303528 139.79180908 139.12600708 2.3380095959 44.903301239 1.7489790916 -999.9000244 1.7489790916
 667.75634766  -999.250000 17.320999146 17.360572815 17.500000000 0.0339919925  -999.250000 2.1375341415 2.5320000648 65.308494568 139.79931641 139.00019836 2.3519775867 45.653194427 1.7599823475 -999.9000244 1.7599823475
 667.90875244  -999.250000 17.356000900 17.453933716 17.500000000 0.0389899872  -999.250000 2.1284732819 2.5380001068 65.812202454 139.80680847 168.45272827 2.3769600391 46.137199402 1.7649919987 -999.9000244 1.7649919987
 668.06115723  -999.250000 17.788999557 17.766498566 17.500000000 0.0539699644  -999.250000 2.1210536957 2.6359999180 69.369293213 139.81431580 169.37359619 2.3909776211 46.636402130 1.7699919939 -999.9000244 1.7699919939
 668.21356201  -999.250000 18.129999161 18.073759079 17.500000000 0.0739599541  -999.250000 2.1293771267 2.6789999008 74.305091858 139.82180786 168.75102234 2.4139630795 45.137195587 1.7929631472 -999.9000244 1.7929631472
 668.36596680  -999.250000 18.242000580 18.214723587 17.500000000 0.0779919922  -999.250000 2.1303286552 2.7390000820 72.940208435 139.82931519 169.74839783 2.4339680672 45.622062683 1.8089743853 -999.9000244 1.8089743853
 668.51837158  -999.250000 18.243000031 18.209785461 17.500000000 0.0799959898  -999.250000 2.1221084595 2.7509999275 72.375900269 139.83680725 170.49879456 2.4359970093 45.777763367 1.8179855347 -999.9000244 1.8179855347
 668.67077637  -999.250000 18.108999252 18.055761337 17.500000000 0.0740120187  -999.250000 2.1033012867 2.8480000496 66.821914673 139.84431458 172.37197876 2.4340031147 45.184299469 1.8179999590 -999.9000244 1.8179999590
 668.82318115  -999.250000 17.759000778 17.805040359 17.500000000 0.0759959891  -999.250000 2.0803601742 2.7929999828 71.617294312 139.85174561 173.49818420 2.4220192432 45.933898926 1.8140064478 -999.9000244 1.8140064478
 668.97558594  -999.250000 17.597000122 17.637510300 17.500000000 0.0730060041  -999.250000 2.0789709091 2.6889998913 68.004356384 139.85920715 175.49758911 2.4060192108 45.683296204 1.8070085049 -999.9000244 1.8070085049
 669.12799072  -999.250000 17.600000381 17.617238998 17.500000000 0.0540380478  -999.250000 2.0823333263 2.6089999676 68.562324524 139.86671448 176.49879456 2.3770349026 43.934543610 1.7980108261 -999.9000244 1.7980108261
 669.28039551  -999.250000 17.673000336 17.683887482 17.500000000 0.0470140167  -999.250000 2.1053626537 2.6010000706 69.873420715 139.87420654 176.74969482 2.3500323296 45.293800354 1.7920072079 -999.9000244 1.7920072079
 669.43280029  -999.250000 17.790000916 17.757585526 17.500000000 0.0220400635  -999.250000 2.1242809296 2.7139999866 68.751350403 139.88171387 176.12574768 2.3240311146 45.044075012 1.7860071659 -999.9000244 1.7860071659
 669.58520508  -999.250000 17.774999619 17.756769180 17.500000000 0.0140128154  -999.250000 2.1334338188 2.7439999580 66.690483093 139.88920593 176.49954224 2.3010277748 45.136600494 1.7700191736 -999.9000244 1.7700191736
 669.73754883  -999.250000 17.686000824 17.693847656 17.500000000 0.0100080092  -999.250000 2.1289458275 2.7219998837 62.038459778 139.89671326 176.12559509 2.2830288410 44.637107849 1.7620128393 -999.9000244 1.7620128393
 669.88995361  -999.250000 17.628999710 17.642026901 17.500000000 0.0129939932  -999.250000 2.1225826740 2.7100000381 61.656597137 139.90420532 177.12339783 2.2710192204 44.903099060 1.7619999647 -999.9000244 1.7619999647
 670.04235840  -999.250000 17.625000000 17.611465454 17.500000000 0.0120020024  -999.250000 2.1230278015 2.7379999161 62.249050140 139.91165161 178.37300110 2.2729969025 45.152549744 1.7779743671 -999.9000244 1.7779743671
 670.19476318  -999.250000 17.565999985 17.517505646 17.500000000 0.0110020023  -999.250000 2.1238212585 2.8059999943 63.123600006 139.91917419 179.37339783 2.2909710407 44.028350830 1.7919776440 -999.9000244 1.7919776440
 670.34716797  -999.250000 17.309999466 17.307703018 17.500000000 0.0129959956  -999.250000 2.1042323112 2.7929999828 67.056694031 139.92671204 179.49980164 2.3219504356 44.902992249 1.7959935665 -999.9000244 1.7959935665
 670.49957275  -999.250000 17.045000076 17.064599991 17.500000000 0.0269719679  -999.250000 2.0710802078 2.7509999275 69.870498657 139.93414307 182.12078857 2.3359775543 44.887001038 1.7950015068 -999.9000244 1.7950015068
 670.65197754  -999.250000 16.860000610 16.885286331 17.500000000 0.0429679640  -999.250000 2.0523169041 2.7130000591 71.746994019 139.94160461 198.34896851 2.3300094604 44.886894226 1.8139696121 -999.9000244 1.8139696121
 670.80438232  -999.250000 16.777999878 16.828907013 17.500000000 0.0420020036  -999.250000 2.0523481369 2.6989998817 69.378807068 139.94911194 202.49339294 2.3319969177 44.621952057 1.8419551849 -999.9000244 1.8419551849
 670.95678711  -999.250000 16.902999878 16.888561249 17.500000000 0.0270300359  -999.250000 2.0627501011 2.7660000324 69.812301636 139.95660400 201.50160217 2.3399870396 44.497264862 1.8719519377 -999.9000244 1.8719519377
