# LAS format log file from PETREL
# Project units are specified as depth units
#==================================================================
~Version information
VERS.   2.0:
WRAP.   NO:
#==================================================================
~Well
STRT .m      1517.9528809 :
STOP .m      3212.6408691 :
STEP .m     0.00000000 :
NULL .        -999.250000 :
COMP.           : COMPANY
WELL.  15/9-23   : WELL
FLD.            : FIELD
LOC.            : LOCATION
SRVC.           : SERVICE COMPANY
DATE.  2018-09-11 14:48:03   : Log Export Date {yyyy-MM-dd HH:mm:ss}
PROV.           : PROVINCE
UWI.   15/9-23   : UNIQUE WELL ID
API.            : API NUMBER
#==================================================================
~Curve
DEPT .m                   : DEPTH
Lithology_geolink ._      : Lithology_geolink
DCAL .in                  : DCAL
CALI .in                  : CALI
BS .in                    : BS
ROP .m/h                  : ROP
DRHO .g/cm3               : DRHO
NPHI .m3/m3               : NPHI
RHOB .g/cm3               : RHOB
PEF .b/e                  : PEF
GR .gAPI                  : GR
DTC .us/ft                : DTC
DTS .us/ft                : DTS
RDEP .ohm.m               : RDEP
RMED .ohm.m               : RMED
~Parameter
#==================================================================
~Ascii
# ...
 1630.4241943  -999.250000 0.4638996720 12.713899612 12.250000954 25.625326157 0.0649067312 0.4005139172 2.0964937210 5.3615298271 100.60986328 145.15014648 349.06707764 0.7185908556 0.7439848185
 1630.5765381  -999.250000 0.4670000076 12.716999054 12.250000954 22.524085999 0.0691032857 0.4092014432 2.0926971436 5.5673651695 100.89815521 144.30690002 348.99685669 0.7129004598 0.7344986200
 1630.7290039  -999.250000 0.6565999389 12.906599998 12.250000954 23.260437012 0.0732000023 0.4110317230 2.0889999866 5.7733001709 101.20139313 143.57368469 348.43725586 0.7135000229 0.7327985764
 1630.8813477  -999.250000 0.6565999389 12.906599998 12.250000954 28.338050842 0.0732038468 0.4307998419 2.0890028477 5.7733597755 95.579856873 144.32006836 344.77920532 0.7135052085 0.7319083214
 1631.0336914  -999.250000 0.6605997086 12.910599709 12.250000954 33.514888763 0.0780037642 0.4305848479 2.0925028324 5.8474593163 93.417129517 144.90077209 341.82327271 0.7200063467 0.7423081994
 1631.1861572  -999.250000 0.6646003723 12.914600372 12.250000954 34.121425629 0.0826999992 0.4117022455 2.0959999561 5.9214000702 96.700035095 144.61979675 339.30038452 0.7279078960 0.7526035905
 1631.3385010  -999.250000 0.6646003723 12.914600372 12.250000954 34.781948090 0.0826995969 0.4145087302 2.0959978104 5.9213948250 99.977989197 145.36804199 339.50436401 0.7376998067 0.7570999861
 1631.4909668  -999.250000 0.6625003219 12.912500381 12.250000954 36.724872589 0.0821995959 0.4253775477 2.0933978558 5.9146947861 97.213073730 145.53944397 339.97814941 0.7374969721 0.7570971847
 1631.6433105  -999.250000 0.6604003906 12.910400391 12.250000954 36.313991547 0.0817009583 0.3974006176 2.0906994343 5.9081473351 91.815803528 145.83509827 341.02282715 0.7337029576 0.7536030412
 1631.7957764  -999.250000 0.6890001297 12.939000130 12.250000954 33.303619385 0.0829044133 0.3982081711 2.0901985168 5.9673027992 91.817794800 145.84191895 341.60153198 0.7374010086 0.7574028373
 1631.9481201  -999.250000 0.8118000031 13.061800957 12.250000954 31.948068619 0.0883999988 0.4083957672 2.0882999897 6.2199997902 94.297813416 145.85809326 342.12857056 0.7387037277 0.7610020041
 1632.1005859  -999.250000 0.8118000031 13.061800957 12.250000954 28.671720505 0.0884014443 0.4031001627 2.0883219242 6.2197041512 92.195724487 145.85321045 340.46166992 0.7434060574 0.7635041475
 1632.2528076  -999.250000 0.6547002792 12.904700279 12.250000954 25.083299637 0.0901999995 0.4032999873 2.1157000065 5.8512001038 99.328498840 145.86979675 342.56909180 0.7509999871 0.7687000036
 1632.4051514  -999.250000 0.6547002792 12.904700279 12.250000954 23.837699890 0.0901999995 0.4147000015 2.1157000065 5.8512001038 108.42160034 145.88020325 344.13861084 0.7358999848 0.7659000158
 1632.5576172  -999.250000 0.6168002486 12.866800308 12.250000954 25.806200027 0.0813999996 0.4045999944 2.1063001156 5.5791001320 102.62580109 145.86109924 342.80056763 0.7358999848 0.7523999810
 1632.7099609  -999.250000 0.6178998947 12.867899895 12.250000954 31.985408783 0.0815000013 0.3991000056 2.1066000462 5.5833001137 96.830001831 145.94670105 341.50085449 0.7305999994 0.7501999736
 1632.8624268  -999.250000 0.6318997741 12.881899834 12.250000954 36.250503540 0.0819000006 0.4032999873 2.1098001003 5.6361999512 96.389297485 146.40640259 340.35311890 0.7297000289 0.7477999926
 1633.0147705  -999.250000 0.6335001588 12.883500099 12.250000954 37.811809540 0.0820000023 0.4040000141 2.1101000309 5.6421999931 95.734703064 147.01960754 339.58331299 0.7293999791 0.7437000275
 1633.1672363  -999.250000 0.7909002304 13.040900230 12.250000954 35.854110718 0.0944999978 0.4208999872 2.1201000214 6.3614997864 101.29630280 147.03999329 339.67602539 0.7304000258 0.7429999709
 1633.3195801  -999.250000 0.7712001204 13.021200180 12.250000954 31.047203064 0.0944000036 0.4149999917 2.1205000877 6.3935999870 101.81610107 146.43760681 340.77139282 0.7307999730 0.7458999753
 1633.4720459  -999.250000 0.6871004105 12.937100410 12.250000954 27.528299332 0.0940999985 0.3921999931 2.1224000454 6.5307002068 97.461502075 145.93859863 340.81561279 0.7166000009 0.7390000224
 1633.6243896  -999.250000 0.6084995270 12.858499527 12.250000954 26.892299652 0.0861999989 0.4124000072 2.1170001030 6.1517000198 94.930099487 145.52760315 337.43908691 0.7131000161 0.7304999828
 1633.7768555  -999.250000 0.5462998748 12.796300888 12.250000954 28.763101578 0.0799999982 0.4442000091 2.1126999855 5.8520998955 91.206497192 145.23089600 332.88128662 0.7013999820 0.7150999904
 1633.9291992  -999.250000 0.5849999785 12.835000038 12.250000954 31.440608978 0.0790000036 0.4384999871 2.1120998859 5.6786999702 93.323501587 144.56359863 334.33880615 0.7021999955 0.7154999971
 1634.0816650  -999.250000 0.6043996811 12.854398727 12.250000954 34.469711304 0.0785000026 0.4230999947 2.1117999554 5.5913000107 104.65630341 143.71350098 339.18939209 0.7021999955 0.7184000015
 1634.2340088  -999.250000 0.6043996811 12.854398727 12.250000954 37.332603455 0.0785000026 0.4347000122 2.1117999554 5.5913000107 108.20739746 144.53900146 345.22290039 0.7031000257 0.7214999795
 1634.3863525  -999.250000 0.6279001236 12.877900124 12.250000954 40.731704712 0.0800999999 0.4147999883 2.1031999588 5.7870998383 108.19309998 145.12750244 350.61273193 0.7067000270 0.7250000238
 1634.5388184  -999.250000 0.6279001236 12.877900124 12.250000954 39.888504028 0.0800999999 0.4025999904 2.1031999588 5.7870998383 105.93119812 145.59539795 354.24630737 0.7085999846 0.7287999988
 1634.6911621  -999.250000 0.6349001527 12.884900093 12.250000954 37.101810455 0.0815000013 0.4510999918 2.1024000645 5.8185000420 99.518402100 145.75390625 356.32662964 0.7066000104 0.7240999937
 1634.8436279  -999.250000 0.6419000626 12.891900063 12.250000954 35.773612976 0.0828000009 0.4453000128 2.1015999317 5.8498997688 97.678398132 145.79370117 355.31948853 0.7014999986 0.7189000249
 1634.9959717  -999.250000 0.6176003814 12.867599487 12.250000954 35.941284180 0.0847999975 0.4126000106 2.1082003117 5.8508000374 97.447402954 145.77569580 350.50738525 0.6976000071 0.7177000046
 1635.1484375  -999.250000 0.8021001816 13.052101135 12.250000954 33.775283813 0.0922999978 0.4126000106 2.1059000492 6.1988000870 93.672798157 145.76029968 346.36068726 0.6949999928 0.7095000148
 1635.3007813  -999.250000 0.9062996507 13.156299591 12.250000954 30.940309525 0.0965000018 0.4120999873 2.1036000252 6.4081997871 95.448402405 145.76629639 346.14715576 0.6933000088 0.7092999816
 1635.4532471  -999.250000 0.7967997193 13.046799660 12.250000954 28.350402832 0.1019999981 0.4009000063 2.1145999432 6.5432000160 102.49199677 145.79829407 349.04049683 0.6909000278 0.7077999711
 1635.6055908  -999.250000 0.8947000504 13.144699097 12.250000954 25.461599350 0.0947000012 0.4014999866 2.0973000526 6.5226001740 103.32720184 145.81469727 351.63171387 0.6937999725 0.7117999792
 1635.7580566  -999.250000 0.9274997711 13.177498817 12.250000954 25.199800491 0.1071999967 0.4169999957 2.1105000973 6.9012999535 104.37470245 145.78489685 352.06106567 0.6951000094 0.7121000290
 1635.9104004  -999.250000 0.8836001158 13.133600235 12.250000954 25.521598816 0.1040000021 0.4431000054 2.0982999802 6.9486999512 102.84380341 145.68220520 351.30041504 0.6963000298 0.7124000192
 1636.0628662  -999.250000 0.8245000839 13.074501038 12.250000954 27.164600372 0.1005999967 0.4431000054 2.0906999111 6.9491000175 102.46389771 145.64900208 350.31689453 0.6995000243 0.7160999775
 1636.2152100  -999.250000 0.5907000899 12.840700150 12.250000954 30.482194901 0.0756999999 0.4149000049 2.0947000980 6.1324000359 99.308998108 145.71369934 348.00823975 0.7037000060 0.7190999985
 1636.3675537  -999.250000 0.5945997238 12.844598770 12.250000954 31.575605392 0.0756999999 0.4239999950 2.0936999321 6.1167998314 100.18599701 145.79679871 347.08871460 0.7045999765 0.7215999961
 1636.5200195  -999.250000 0.6153001785 12.865300179 12.250000954 27.822399139 0.0781000033 0.4149000049 2.0905001163 5.8952999115 101.52950287 146.14529419 350.32553101 0.6981999874 0.7213000059
