# LAS format log file from PETREL
# Project units are specified as depth units
#==================================================================
~Version information
VERS.   2.0:
WRAP.   NO:
#==================================================================
~Well
STRT .m      474.34408569 :
STOP .m      3047.1606445 :
STEP .m     0.00000000 :
NULL .        -999.250000 :
COMP.           : COMPANY
WELL.  15/9-9   : WELL
FLD.            : FIELD
LOC.            : LOCATION
SRVC.           : SERVICE COMPANY
DATE.  2018-09-11 14:48:05   : Log Export Date {yyyy-MM-dd HH:mm:ss}
PROV.           : PROVINCE
UWI.   15/9-9   : UNIQUE WELL ID
API.            : API NUMBER
#==================================================================
~Curve
DEPT .m                   : DEPTH
Lithology_geolink ._      : Lithology_geolink
DCAL .in                  : DCAL
CALI .in                  : CALI
DRHO .g/cm3               : DRHO
NPHI .m3/m3               : NPHI
RHOB .g/cm3               : RHOB
GR .gAPI                  : GR
DTC .us/ft                : DTC
DT .us/ft                 : DT
DTE .us/ft                : DTE
RDEP .ohm.m               : RDEP
SP .mV                    : SP
RSHA .ohm.m               : RSHA
RXO .ohm.m                : RXO
RMED .ohm.m               : RMED
~Parameter
#==================================================================
~Ascii
# ...
 819.07293701  -999.250000 19.533000946 19.533000946 0.0519911908  -999.250000 2.0701313019 70.701309204 141.17620850 142.32490540 141.89688110 1.6490056515 99.706199646 1.3800476789  -999.250000 1.3800476789
 819.22528076  -999.250000 19.065999985 19.065999985 0.0809767693  -999.250000 2.1020503044 70.734962463 141.14093018 141.47972107 141.88468933 1.6290640831 100.65495300 1.4009327888  -999.250000 1.4009327888
 819.37768555  -999.250000 18.659999847 18.659999847 0.0780024081  -999.250000 2.1165957451 77.641693115 140.56457520 141.31849670 141.34806824 1.6010897160 100.83044434 1.4338942766  -999.250000 1.4338942766
 819.53009033  -999.250000 18.572999954 18.572999954 0.0690072104  -999.250000 2.1107072830 80.953025818 139.73713684 139.59553528 140.51811218 1.5720928907 101.79590607 1.4300128222  -999.250000 1.4300128222
 819.68249512  -999.250000 18.645999908 18.645999908 0.0670008063  -999.250000 2.0965805054 82.830749512 139.26889038 140.13725281 140.02250671 1.5460833311 102.93634796 1.4270097017  -999.250000 1.4270097017
 819.83489990  -999.250000 18.726999283 18.726999283 0.0540052094  -999.250000 2.0770955086 78.690979004 140.50025940 142.42558289 141.29855347 1.5390197039 99.468765259 1.3950897455  -999.250000 1.3950897455
 819.98730469  -999.250000 18.878999710 18.878999710 0.0559992008  -999.250000 2.0577423573 77.141853333 142.43037415 144.01055908 143.20320129 1.5300252438 99.665420532 1.3740588427  -999.250000 1.3740588427
 820.13970947  -999.250000 18.927999496 18.927999496 0.0310100112  -999.250000 2.0401875973 76.184761047 144.26097107 145.87576294 145.04449463 1.5230196714 99.067680359 1.3490700722  -999.250000 1.3490700722
 820.29211426  -999.250000 18.722000122 18.722000122 0.0369975977  -999.250000 2.0301930904 77.317092896 146.90725708 149.78701782 147.68777466 1.5160197020 99.466873169 1.3440140486  -999.250000 1.3440140486
 820.44451904  -999.250000 18.749000549 18.749000549 0.0230056066  -999.250000 2.0297000408 78.644943237 148.71459961 149.50083923 149.49502563 1.5090196133 99.342353821 1.3390140533  -999.250000 1.3390140533
 820.59692383  -999.250000 18.768999100 18.768999100 0.0269983988  -999.250000 2.0338597298 78.689964294 148.35287476 148.97746277 149.17004395 1.5040140152 101.95764160 1.3559522629  -999.250000 1.3559522629
 820.74932861  -999.250000 18.677999496 18.677999496 0.0260004010  -999.250000 2.0474455357 78.808906555 147.10437012 147.12319946 147.89498901 1.4860503674 102.74381256 1.3849186897  -999.250000 1.3849186897
 820.90173340  -999.250000 18.617000580 18.617000580 0.0449923910  -999.250000 2.0672044754 77.641937256 144.27510071 142.80812073 145.07115173 1.4750308990 102.01804352 1.4129215479  -999.250000 1.4129215479
 821.05413818  -999.250000 18.506999969 18.506999969 0.0589943938  -999.250000 2.0843873024 77.680969238 141.82922363 142.14283752 142.63150024 1.4690167904 102.53154755 1.4050223827  -999.250000 1.4050223827
 821.20648193  -999.250000 18.434000015 18.434000015 0.0729887858  -999.250000 2.0897729397 75.379768372 141.49125671 142.17787170 142.25186157 1.4670064449 103.99430084 1.3601441383  -999.250000 1.3601441383
 821.35888672  -999.250000 18.464000702 18.464000702 0.0690032020  -999.250000 2.0813343525 76.065170288 142.33708191 143.65625000 143.09788513 1.4709870815 99.764610291 1.3191313744  -999.250000 1.3191313744
 821.51129150  -999.250000 18.503000259 18.503000259 0.0839879811  -999.250000 2.0655422211 76.983894348 145.08938599 148.03195190 145.86314392 1.4779776335 99.816787720 1.2821184397  -999.250000 1.2821184397
 821.66369629  -999.250000 18.523000717 18.523000717 0.0610092171  -999.250000 2.0427880287 78.412284851 148.49113464 151.06828308 149.31042480 1.4879679680 99.284706116 1.2640577555  -999.250000 1.2640577555
 821.81610107  -999.250000 18.555999756 18.555999756 0.0410080105  -999.250000 2.0231924057 77.230422974 149.63717651 150.16392517 150.47846985 1.4989646673 98.990936279 1.2520384789  -999.250000 1.2520384789
 821.96850586  -999.250000 18.475999832 18.475999832 0.0280052070  -999.250000 2.0300035477 76.822486877 148.62550354 149.03117371 149.42308044 1.5119634867 97.485237122 1.2938822508  -999.250000 1.2938822508
 822.12091064  -999.250000 18.427000046 18.427000046 0.0639855862  -999.250000 2.0621020794 74.097183228 145.85333252 144.30827332 146.63296509 1.5239664316 99.594055176 1.3657982349  -999.250000 1.3657982349
 822.27331543  -999.250000 18.548999786 18.548999786 0.0869907886  -999.250000 2.0908656120 73.550437927 141.94903564 140.99926758 142.72891235 1.5379607677 100.25315857 1.4487673044  -999.250000 1.4487673044
 822.42572021  -999.250000 18.740999222 18.740999222 0.1029935926  -999.250000 2.0944497585 74.082572937 138.94398499 138.07519531 139.71807861 1.5659215450 98.561759949 1.4868934155  -999.250000 1.4868934155
 822.57812500  -999.250000 18.844999313 18.844999313 0.1020004004  -999.250000 2.0828342438 71.947708130 137.68400574 138.49479675 138.47050476 1.5969130993 99.686828613 1.4989663363  -999.250000 1.4989663363
 822.73052979  -999.250000 19.024000168 19.024000168 0.1069979966  -999.250000 2.0689866543 71.125656128 138.81581116 140.50434875 139.54667664 1.6159467697 100.41097260 1.4561204910  -999.250000 1.4561204910
 822.88293457  -999.250000 19.099000931 19.099000931 0.1000028029  -999.250000 2.0513911247 66.034080505 140.66351318 142.53430176 141.39675903 1.6160000563 100.23549652 1.4240897894  -999.250000 1.4240897894
 823.03533936  -999.250000 18.611000061 18.611000061 0.0750100166  -999.250000 2.0315299034 63.870731354 141.51406860 142.11718750 142.23361206 1.5970532894 101.06267548 1.3940840960  -999.250000 1.3940840960
 823.18774414  -999.250000 18.340999603 18.340999603 0.0839963928  -999.250000 2.0220119953 63.535266876 141.04852295 141.44389343 141.82110596 1.5680812597 99.792579651 1.3979887962  -999.250000 1.3979887962
 823.34008789  -999.250000 18.608999252 18.608999252 0.1119775772  -999.250000 2.0109007359 69.250129700 140.85543823 141.74900818 141.63127136 1.5550415516 100.83065033 1.3880320787  -999.250000 1.3880320787
 823.49249268  -999.250000 18.579999924 18.579999924 0.0820240304  -999.250000 1.9739747047 74.167091370 141.15313721 142.11880493 141.92973328 1.5470256805 103.21335602 1.3650736809  -999.250000 1.3650736809
 823.64489746  -999.250000 18.375000000 18.375000000 0.0560208261  -999.250000 1.9331512451 74.269882202 141.47982788 142.37817383 142.24905396 1.5549743176 99.532859802 1.3400801420  -999.250000 1.3400801420
 823.79730225  -999.250000 18.308000565 18.308000565 0.0110180285  -999.250000 1.9247353077 68.714683533 141.78358459 142.74282837 142.54588318 1.5639711618 100.35731506 1.3360128403  -999.250000 1.3360128403
 823.94970703  -999.250000 18.083000183 18.083000183 0.0189967956  -999.250000 1.9486979246 68.250549316 141.91419983 142.74998474 142.67649841 1.5580167770 100.37495422 1.3379944563  -999.250000 1.3379944563
 824.10211182  -999.250000 17.959999084 17.959999084 0.0269967970  -999.250000 1.9813843966 67.865463257 141.48298645 141.53642273 142.21154785 1.5460336208 99.947204590 1.3599383831  -999.250000 1.3599383831
 824.25451660  -999.250000 18.291999817 18.291999817 0.0529895872  -999.250000 2.0060610771 70.809631348 141.33781433 142.52221680 142.13464355 1.5639495850 103.89788818 1.3609970808  -999.250000 1.3609970808
 824.40692139  -999.250000 18.853000641 18.853000641 0.0699931905  -999.250000 2.0261533260 69.660926819 142.44178772 144.24415588 143.26618958 1.5839439631 100.92538452 1.3719691038  -999.250000 1.3719691038
 824.55932617  -999.250000 19.041000366 19.041000366 0.0779967979  -999.250000 2.0384979248 69.105445862 142.79429626 143.12217712 143.58036804 1.5939719677 101.49836731 1.3769859076  -999.250000 1.3769859076
 824.71173096  -999.250000 18.643999100 18.643999100 0.0909947902  -999.250000 2.0426931381 67.482299805 141.67890930 141.76081848 142.44250488 1.6019775867 102.01654816 1.4089102745  -999.250000 1.4089102745
 824.86413574  -999.250000 18.694000244 18.694000244 0.0919995978  -999.250000 2.0359604359 70.997184753 140.36764526 140.49554443 141.13734436 1.6069859266 99.367454529 1.4060084820  -999.250000 1.4060084820
