# LAS format log file from PETREL
# Project units are specified as depth units
#==================================================================
~Version information
VERS.   2.0:
WRAP.   NO:
#==================================================================
~Well
STRT .m      3164.4333496 :
STOP .m      4228.6425781 :
STEP .m     0.00000000 :
NULL .        -999.250000 :
COMP.           : COMPANY
WELL.  15/9-19B   : WELL
FLD.            : FIELD
LOC.            : LOCATION
SRVC.           : SERVICE COMPANY
DATE.  2018-09-11 14:48:02   : Log Export Date {yyyy-MM-dd HH:mm:ss}
PROV.           : PROVINCE
UWI.   15/9-19 B   : UNIQUE WELL ID
API.            : API NUMBER
#==================================================================
~Curve
DEPT .m                   : DEPTH
Lithology_geolink ._      : Lithology_geolink
CALI .in                  : CALI
RHOB .g/cm3               : RHOB
GR .gAPI                  : GR
DTC .us/ft                : DTC
RDEP .ohm.m               : RDEP
RSHA .ohm.m               : RSHA
RMED .ohm.m               : RMED
~Parameter
#==================================================================
~Ascii
# ...
 3371.6975098 4.0000000000 6.4720997810 2.5041847229 47.973308563 89.843383789 1.2542883158 1.2456037998 1.3010135889
 3371.8498535 4.0000000000 6.4986000061 2.4947245121 46.218883514 80.666297913 1.6837030649 1.6846811771 1.7461519241
 3372.0021973 4.0000000000 6.5267000198 2.5100476742 37.276927948 76.923027039 2.0593791008 2.0467176437 2.0899434090
 3372.1547852 4.0000000000 6.4458994865 2.5397067070 23.564212799 74.380035400 2.0464982986 2.0580191612 2.0548417568
 3372.3071289 4.0000000000 6.3592000008 2.5418021679 16.526760101 73.300704956 2.1087813377 2.1579103470 2.0994553566
 3372.4594727 12.000000000 6.3376998901 2.5432062149 15.571654320 72.430107117 2.4088037014 2.4135732651 2.3832876682
 3372.6118164 12.000000000 6.3415999413 2.5469412804 17.664461136 72.058586121 2.4732549191 2.4590475559 2.4377467632
 3372.7644043 12.000000000 6.3553996086 2.5103302002 19.693092346 71.924308777 2.3824484348 2.3635425568 2.3416991234
 3372.9167480 12.000000000 6.3794002533 2.4886345863 18.502590179 71.834335327 2.2728629112 2.1898519993 2.1856555939
 3373.0690918 12.000000000 6.4335999489 2.5101993084 15.504416466 71.857414246 2.2497611046 2.1600203514 2.1581442356
 3373.2214355 12.000000000 6.4685997963 2.5097963810 14.395390511 71.930198669 2.2876932621 2.1725735664 2.1857018471
 3373.3737793 12.000000000 6.4674000740 2.5075728893 15.761614799 71.930381775 2.2206485271 2.0933587551 2.1240241528
 3373.5263672 12.000000000 6.4685997963 2.4905190468 16.577547073 72.415893555 1.9385328293 1.7553997040 1.8267923594
 3373.6787109 12.000000000 6.5068998337 2.4399490356 13.800168037 73.289894104 1.7719743252 1.6304862499 1.6972903013
 3373.8310547 12.000000000 6.5448999405 2.4080829620 12.034239769 74.662918091 1.6936093569 1.5595059395 1.6289296150
 3373.9833984 12.000000000 6.5528001785 2.3975088596 11.374598503 75.854957581 1.6371767521 1.5008753538 1.5850803852
 3374.1359863 12.000000000 6.5514998436 2.4030759335 11.872113228 76.704032898 1.6224651337 1.4852577448 1.5725564957
 3374.2883301 12.000000000 6.5531997681 2.4267380238 11.972125053 77.022621155 1.5493111610 1.4098023176 1.4967066050
 3374.4406738 12.000000000 6.5440993309 2.4503030777 13.548120499 76.662567139 1.5564069748 1.4112917185 1.5009098053
 3374.5930176 12.000000000 6.5352001190 2.4522969723 15.242465973 76.082977295 1.6230427027 1.4684418440 1.5693489313
 3374.7456055 12.000000000 6.4729003906 2.4502685070 14.845976830 75.448036194 1.6497305632 1.4946085215 1.5999388695
 3374.8979492 12.000000000 6.4228000641 2.4404933453 14.370526314 75.333938599 1.6906554699 1.5286166668 1.6434472799
 3375.0502930 12.000000000 6.4074001312 2.4363455772 13.762631416 75.543876648 1.8499661684 1.6637744904 1.7976531982
 3375.2023926 12.000000000 6.3702998161 2.4646999836 12.909799576 75.401199341 1.9535000324 1.7725000381 1.8931000233
 3375.3547363 12.000000000 6.3421001434 2.4793000221 12.084199905 74.418701172 2.1040000916 1.9048000574 2.0357999802
 3375.5073242 12.000000000 6.2976999283 2.4711000919 12.786800385 72.213699341 2.2774999142 2.0376999378 2.1991999149
 3375.6596680 12.000000000 6.2392997742 2.5460000038 15.836000443 69.483200073 2.5374999046 2.3092999458 2.4497001171
 3375.8120117 12.000000000 6.2142000198 2.6043000221 14.381799698 66.379302979 3.4242000580 3.2988998890 3.3239998817
 3375.9643555 12.000000000 6.2115001678 2.5759000778 11.987799644 63.660202026 4.9910001755 5.0619997978 4.8350000381
 3376.1166992 12.000000000 6.2051000595 2.6023001671 11.108499527 61.027000427 6.1364998817 6.3921999931 5.8094000816
 3376.2692871 12.000000000 6.1630997658 2.6456000805 9.2491998672 58.958301544 5.7788000107 6.3099999428 5.5023999214
 3376.4216309 12.000000000 6.1307001114 2.6384999752 8.2136001587 57.359203339 5.8421998024 6.6648001671 5.5142998695
 3376.5739746 12.000000000 6.1152000427 2.6456999779 8.0081996918 56.653400421 7.1677999496 9.0569000244 6.5047998428
 3376.7263184 12.000000000 6.1065001488 2.6361999512 6.9440999031 56.438899994 7.5360999107 10.092200279 6.7617001534
 3376.8789063 12.000000000 6.1146998405 2.6031999588 5.8688998222 56.585994720 6.3738999367 8.4361000061 5.8857002258
 3377.0312500 12.000000000 6.1209998131 2.5806999207 5.5679001808 57.069900513 5.8544001579 7.5013999939 5.4411001205
 3377.1835938 12.000000000 6.1132998466 2.5471000671 5.9656000137 57.862499237 6.1329998970 7.4579000473 5.6476001740
 3377.3359375 12.000000000 6.1178002357 2.5313999653 5.8667998314 58.325500488 6.9366002083 7.9970002174 6.2895002365
 3377.4885254 12.000000000 6.1516995430 2.5439999104 5.2618999481 58.750999451 8.6298999786 9.2208995819 7.7364001274
 3377.6408691 12.000000000 6.1708998680 2.5452001095 5.2210001945 59.441600800 9.9533996582 9.2754001617 8.9284000397
 3377.7932129 12.000000000 6.1732001305 2.5346999168 5.1339001656 60.790195465 9.3907003403 8.1695003510 8.4348001480
 3377.9455566 12.000000000 6.1697001457 2.5462000370 4.6701998711 62.514099121 7.4247999191 6.5847997665 6.8804001808
 3378.0979004 12.000000000 6.1713995934 2.5585000515 6.2781000137 64.482803345 5.3712000847 4.4539999962 5.0714001656
 3378.2504883 12.000000000 6.1756000519 2.5508999825 8.2624998093 66.919197083 5.4696998596 4.5307002068 5.1300001144
 3378.4028320 12.000000000 6.1760993004 2.4614999294 9.6738004684 69.814102173 3.8706998825 3.2046999931 3.5829000473
 3378.5551758 12.000000000 6.1753001213 2.4133999348 11.162500381 72.342399597 2.1405000687 1.6435999870 1.8114999533
 3378.7075195 12.000000000 6.1694006920 2.4024999142 12.102000237 74.093002319 1.8284000158 1.4357999563 1.5922000408
 3378.8601074 12.000000000 6.2028999329 2.4012000561 12.134300232 73.889503479 1.8263000250 1.4845999479 1.6778999567
 3379.0124512 12.000000000 6.2337999344 2.4869000912 12.141699791 71.964599609 1.7166999578 1.4884999990 1.6392999887
 3379.1647949 12.000000000 6.2458000183 2.5815999508 11.409000397 67.609100342 1.7954000235 1.5276000500 1.6821000576
 3379.3171387 12.000000000 6.2526001930 2.5734999180 9.4518003464 64.168998718 2.2785000801 2.0416998863 2.1405000687
 3379.4697266 12.000000000 6.2495002747 2.5922000408 7.5893998146 61.597099304 3.0014998913 2.6963000298 2.7734000683
 3379.6220703 12.000000000 6.2413992882 2.6238999367 7.0545001030 61.737300873 3.6860001087 3.3836998940 3.3710000515
 3379.7744141 12.000000000 6.2433004379 2.5401000977 6.9847998619 63.429000854 3.5211999416 3.2500998974 3.2428998947
 3379.9267578 12.000000000 6.2547998428 2.4893999100 8.3770999908 66.642700195 2.9725000858 2.7565000057 2.7047998905
 3380.0791016 12.000000000 6.2719998360 2.4890999794 9.7545995712 69.607101440 3.0055000782 2.7808001041 2.7943999767
 3380.2316895 12.000000000 6.3088002205 2.4770998955 9.7339000702 72.291297913 3.0834000111 2.9500000477 2.9147999287
 3380.3840332 12.000000000 6.3093996048 2.4679000378 10.946800232 73.651901245 2.4883000851 2.3506000042 2.3863999844
 3380.5363770 12.000000000 6.3143000603 2.4595000744 12.118499756 74.377799988 1.7821999788 1.6715999842 1.7246999741
 3380.6887207 12.000000000 6.3270001411 2.4607000351 12.525899887 74.481597900 1.6535999775 1.6448999643 1.6638000011
 3380.8413086 12.000000000 6.3351001740 2.4198000431 12.597399712 74.607002258 1.6397999525 1.6376999617 1.6612999439
 3380.9936523 12.000000000 6.3385000229 2.4015998840 11.300600052 74.612098694 1.6028000116 1.5824999809 1.6204999685
 3381.1459961 12.000000000 6.3340001106 2.4191000462 9.7593002319 74.272697449 1.6167000532 1.5801999569 1.6339000463
 3381.2983398 12.000000000 6.3379001617 2.4151000977 9.6674003601 73.863098145 1.5975999832 1.5557999611 1.6118999720
 3381.4509277 12.000000000 6.3418002129 2.4235999584 10.088299751 73.639099121 1.5765000582 1.5372999907 1.5860999823
 3381.6032715 12.000000000 6.3362998962 2.4286000729 10.891799927 73.681602478 1.5812000036 1.5467000008 1.5837999582
 3381.7556152 12.000000000 6.3378000259 2.4339001179 11.217200279 73.731300354 1.6322000027 1.5908000469 1.6231000423
 3381.9079590 12.000000000 6.3397998810 2.4358999729 10.567199707 73.887298584 1.6733000278 1.6238000393 1.6539000273
