# LAS format log file from PETREL
# Project units are specified as depth units
#==================================================================
~Version information
VERS.   2.0:
WRAP.   NO:
#==================================================================
~Well
STRT .m      472.33206177 :
STOP .m      3119.8261719 :
STEP .m     0.00000000 :
NULL .        -999.250000 :
COMP.           : COMPANY
WELL.  15/9-17   : WELL
FLD.            : FIELD
LOC.            : LOCATION
SRVC.           : SERVICE COMPANY
DATE.  2018-09-11 14:48:01   : Log Export Date {yyyy-MM-dd HH:mm:ss}
PROV.           : PROVINCE
UWI.   15/9-17   : UNIQUE WELL ID
API.            : API NUMBER
#==================================================================
~Curve
DEPT .m                   : DEPTH
Lithology_geolink ._      : Lithology_geolink
DCAL .in                  : DCAL
CALI .in                  : CALI
DRHO .g/cm3               : DRHO
SGR .gAPI                 : SGR
NPHI .m3/m3               : NPHI
RHOB .g/cm3               : RHOB
PEF .b/e                  : PEF
GR .gAPI                  : GR
DTC .us/ft                : DTC
DT .us/ft                 : DT
DTE .us/ft                : DTE
RDEP .ohm.m               : RDEP
SP .mV                    : SP
RSHA .ohm.m               : RSHA
RXO .ohm.m                : RXO
RMED .ohm.m               : RMED
~Parameter
#==================================================================
~Ascii
# ...
 2936.6413574 6.0000000000 8.7270002365 8.7270002365 -0.002000000 100.48799896 0.2817099988 2.5150785446 4.6329998970 91.563003540 90.428512573 84.375007629 84.618499756 1.6759999990 58.873779297  -999.250000  -999.250000 1.7649999857
 2936.7937012 6.0000000000 8.7270002365 8.7270002365 -0.009000000 98.694999695 0.2773399949 2.5127525330 4.7030000687 93.188003540 90.325431824 85.187995911 84.670814514 1.6649999619 58.849498749  -999.250000  -999.250000 1.7560000420
 2936.9460449 6.0000000000 8.7270002365 8.7270002365 -0.011000000 99.815002441 0.2772899866 2.4993839264 4.6929998398 92.313003540 89.296058655 84.000000000 83.638778687 1.6569999456 59.124179840  -999.250000  -999.250000 1.7439999580
 2937.0986328 6.0000000000 8.7270002365 8.7270002365 -0.007000000 100.13800049 0.2695299983 2.4788386822 5.5989999771 86.313003540 88.531654358 82.750000000 82.749137878 1.6469999552 58.949100494  -999.250000  -999.250000 1.8209999800
 2937.2509766 6.0000000000 8.7270002365 8.7270002365 0.0189999994 101.46299744 0.2699600160 2.4820494652 5.8150000572 84.813003540 88.070343018 82.563003540 82.578201294 1.6480000019 59.024421692  -999.250000  -999.250000 1.8470000029
 2937.4033203 6.0000000000 8.7270002365 8.7270002365 0.0630000010 104.32700348 0.2626999915 2.5059378147 5.6090002060 85.000000000 88.314628601 82.563003540 82.630287170 1.6729999781 59.123901367  -999.250000  -999.250000 1.8569999933
 2937.5556641 6.0000000000 8.7270002365 8.7270002365 0.0640000030 106.98699951 0.2626700103 2.5252358913 4.9419999123 89.250000000 88.469528198 82.750000000 82.736976624 1.6900000572 59.024021149  -999.250000  -999.250000 1.8630000353
 2937.7082520 6.0000000000 8.7270002365 8.7270002365 0.0430000015 104.97799683 0.2587700188 2.5324459076 4.4479999542 88.875000000 88.485450745 82.750000000 82.750389099 1.6979999542 59.274421692  -999.250000  -999.250000 1.8519999981
 2937.8605957 5.0000000000 8.7270002365 8.7270002365 0.0070000002 101.60700226 0.2563799918 2.5286397934 4.3309998512 85.500000000 88.491950989 82.750000000 82.838737488 1.7000000477 59.449100494  -999.250000  -999.250000 1.9409999847
 2938.0129395 5.0000000000 8.7270002365 8.7270002365 0.0040000002 98.751998901 0.2602500021 2.5265090466 4.2039999962 79.563003540 88.597251892 82.999992371 83.005104065 1.6970000267 59.524299622  -999.250000  -999.250000 1.9249999523
 2938.1652832 5.0000000000 8.7259998322 8.7259998322 -0.004000000 99.114997864 0.2602599859 2.5127847195 4.8899998665 77.250000000 88.977531433 82.999992371 83.368309021 1.6879999638 59.624179840  -999.250000  -999.250000 1.9179999828
 2938.3178711 5.0000000000 8.7030000687 8.7030000687 0.0030000000 97.622001648 0.2622100115 2.5001800060 5.3229999542 76.813003540 90.300338745 84.000000000 84.547821045 1.7050000429 59.223140717  -999.250000  -999.250000 1.8769999743
 2938.4702148 5.0000000000 8.6330003738 8.6330003738 0.0120000001 97.128997803 0.2622599900 2.4956233501 5.1979999542 75.500000000 91.217842102 85.750000000 85.475105286 1.7120000124 58.774421692  -999.250000  -999.250000 1.8630000353
 2938.6225586 5.0000000000 8.6330003738 8.6330003738 0.0219999999 97.676002502 0.2700600028 2.4982364178 4.4419999123 79.250000000 91.180549622 85.375000000 85.389396667 1.7139999866 58.873779297  -999.250000  -999.250000 1.8539999723
 2938.7749023 5.0000000000 8.6330003738 8.6330003738 0.0130000003 95.730003357 0.2762999833 2.5031275749 3.8970000744 78.563003540 90.662094116 85.375000000 85.248657227 1.7139999866 58.924701691  -999.250000  -999.250000 1.8630000353
 2938.9272461 5.0000000000 8.6330003738 8.6330003738 0.0060000001 91.370002747 0.2655600011 2.5086865425 3.9049999714 84.438003540 90.857925415 85.000000000 85.160293579 1.7070000172 59.374179840  -999.250000  -999.250000 1.8669999838
 2939.0798340 5.0000000000 8.6330003738 8.6330003738 -0.003000000 63.217998505 0.2548100054 2.5173206329 4.0450000763 81.000000000 91.079597473 85.375000000 85.341102600 1.6890000105 59.199100494  -999.250000  -999.250000 1.9160000086
 2939.2321777 5.0000000000 8.6330003738 8.6330003738 0.0030000000 58.276000977 0.2442300022 2.5247967243 4.2849998474 86.375000000 91.083946228 85.375000000 85.291671753 1.6759999990 59.123779297  -999.250000  -999.250000 1.9390000105
 2939.3845215 5.0000000000 8.6330003738 8.6330003738 0.0030000000 53.340999603 0.2558799982 2.5272800922 4.7309999466 79.688003540 90.511268616 85.187995911 84.787078857 1.6740000248 58.949100494  -999.250000  -999.250000 1.8769999743
 2939.5368652 5.0000000000 8.6330003738 8.6330003738 0.0130000003 49.549999237 0.2588399947 2.5266447067 4.7449998856 82.563003540 89.718750000 84.000000000 84.157630920 1.6679999828 58.949100494  -999.250000  -999.250000 1.7990000248
 2939.6894531 5.0000000000 8.6330003738 8.6330003738 0.0060000001 47.529998779 0.2670599818 2.5210213661 5.1319999695 76.250000000 89.852867126 84.188003540 84.102615356 1.6590000391 58.949100494  -999.250000  -999.250000 1.7779999971
 2939.8417969 5.0000000000 8.6330003738 8.6330003738 0.0099999998 47.410999298 0.2627499998 2.5207946301 4.9479999542 80.188003540 89.460693359 84.024002075 83.788246155 1.6549999714 58.949100494  -999.250000  -999.250000 1.8190000057
 2939.9941406 5.0000000000 8.6330003738 8.6330003738 0.0130000003 47.991001129 0.2689999938 2.5232584476 5.3049998283 81.375000000 88.856666565 83.323997498 83.124122620 1.6540000439 58.873901367  -999.250000  -999.250000 1.8159999847
 2940.1464844 5.0000000000 8.6330003738 8.6330003738 0.0179999992 50.707000732 0.2626899779 2.5307748318 4.7760000229 89.563003540 88.302597046 82.625000000 82.658294678 1.6549999714 58.848941803  -999.250000  -999.250000 1.8209999800
 2940.2990723 5.0000000000 8.6330003738 8.6330003738 0.0080000004 53.080001831 0.2607200146 2.5360224247 4.5840001106 90.188003540 88.044616699 82.558998108 82.563995361 1.6529999971 59.425060272  -999.250000  -999.250000 1.7840000391
 2940.4514160 5.0000000000 8.6330003738 8.6330003738 -0.001000000 55.118000031 0.2577799857 2.5362999439 4.3039999008 86.063003540 88.232521057 82.556991577 82.557151794 1.6629999876 59.873779297  -999.250000  -999.250000 1.8359999657
 2940.6037598 5.0000000000 8.6330003738 8.6330003738 -0.003000000 54.215999603 0.2534399927 2.5351653099 4.2039999962 80.438003540 88.325881958 82.555999756 82.555961609 1.6710000038 59.548702240  -999.250000  -999.250000 1.9390000105
 2940.7561035 5.0000000000 8.6330003738 8.6330003738 0.0080000004 53.685001373 0.2558900118 2.5385982990 4.2729997635 80.125000000 88.258377075 82.555000305 82.554862976 1.6759999990 59.274021149  -999.250000  -999.250000 1.9459999800
 2940.9084473 5.0000000000 8.6330003738 8.6330003738 0.0179999992 53.289001465 0.2613300085 2.5490896702 4.2210001945 80.563003540 88.247779846 82.553993225 82.553764343 1.6959999800 59.299259186  -999.250000  -999.250000 1.8919999599
 2941.0610352 5.0000000000 8.6330003738 8.6330003738 0.0590000004 54.514999390 0.2763099968 2.5698394775 4.5700001717 84.875000000 88.236244202 82.553001404 82.552658081 1.7170000076 58.949100494  -999.250000  -999.250000 1.8700000048
 2941.2133789 5.0000000000 8.6330003738 8.6330003738 0.0419999994 56.823001862 0.2670899928 2.5656106472 4.5590000153 80.750000000 88.062767029 82.552001953 82.551559448 1.7189999819 59.099742889  -999.250000  -999.250000 1.8580000401
 2941.3657227 5.0000000000 8.6330003738 8.6330003738 0.0469999984 58.028999329 0.2675999999 2.5586814880 4.6350002289 83.063003540 88.306388855 82.550994873 82.550468445 1.7289999723 59.373901367  -999.250000  -999.250000 1.9049999714
 2941.5180664 5.0000000000 8.6330003738 8.6330003738 0.0120000001 57.755001068 0.2715899944 2.5411193371 4.3460001945 79.875000000 88.252937317 82.550003052 82.549362183 1.7439999580 59.049259186  -999.250000  -999.250000 1.9900000095
 2941.6706543 5.0000000000 8.6330003738 8.6330003738 0.0130000003 58.394001007 0.2885400057 2.5402889252 4.1290001869 83.938003540 88.247482300 82.549003601 82.548171997 1.7610000372 58.623779297  -999.250000  -999.250000 1.9750000238
 2941.8229980 5.0000000000 8.6330003738 8.6330003738 0.0040000002 56.870998383 0.2840500176 2.5406782627 4.1290001869 85.500000000 88.237747192 82.546997070 82.547058105 1.7599999905 58.599742889  -999.250000  -999.250000 1.9520000219
