# LAS format log file from PETREL
# Project units are specified as depth units
#==================================================================
~Version information
VERS.   2.0:
WRAP.   NO:
#==================================================================
~Well
STRT .m      474.34408569 :
STOP .m      3047.1606445 :
STEP .m     0.00000000 :
NULL .        -999.250000 :
COMP.           : COMPANY
WELL.  15/9-9   : WELL
FLD.            : FIELD
LOC.            : LOCATION
SRVC.           : SERVICE COMPANY
DATE.  2018-09-11 14:48:05   : Log Export Date {yyyy-MM-dd HH:mm:ss}
PROV.           : PROVINCE
UWI.   15/9-9   : UNIQUE WELL ID
API.            : API NUMBER
#==================================================================
~Curve
DEPT .m                   : DEPTH
Lithology_geolink ._      : Lithology_geolink
DCAL .in                  : DCAL
CALI .in                  : CALI
DRHO .g/cm3               : DRHO
NPHI .m3/m3               : NPHI
RHOB .g/cm3               : RHOB
GR .gAPI                  : GR
DTC .us/ft                : DTC
DT .us/ft                 : DT
DTE .us/ft                : DTE
RDEP .ohm.m               : RDEP
SP .mV                    : SP
RSHA .ohm.m               : RSHA
RXO .ohm.m                : RXO
RMED .ohm.m               : RMED
~Parameter
#==================================================================
~Ascii
# ...
 2697.2504883 3.0000000000 8.3789997101 8.3789997101 -0.031990401 0.2854138315 2.3746395111 27.699853897 88.053924561 84.979690552 85.002647400 0.8217936158 129.33848572 1.7174288034  -999.250000 1.7174288034
 2697.4028320 3.0000000000 8.3830003738 8.3830003738 -0.037971154 0.2691487968 2.3834142685 29.382808685 86.669631958 82.240211487 83.619918823 0.8508605957 129.10116577 1.9498797655  -999.250000 1.9498797655
 2697.5554199 3.0000000000 8.3830003738 8.3830003738 -0.028032051 0.2415983230 2.3966524601 29.113891602 85.561767578 81.303962708 82.414428711 0.8679454923 130.04098511 2.0785896778  -999.250000 2.0785896778
 2697.7077637 3.0000000000 8.3830003738 8.3830003738 -0.020025641 0.2019036710 2.3980553150 32.443290710 86.306198120 83.788993835 83.100028992 0.8759743571 130.12574768 1.9932756424  -999.250000 1.9932756424
 2697.8601074 3.0000000000 8.3830003738 8.3830003738 -0.016019201 0.2037070096 2.3809270859 33.136707306 88.805343628 87.388671875 85.754119873 0.8799808025 130.52706909 1.7601231337  -999.250000 1.7601231337
 2698.0124512 3.0000000000 8.3830003738 8.3830003738 -0.016995193 0.2255000472 2.3554923534 34.561134338 91.925949097 91.268341064 88.871810913 0.8829855919 130.24238586 1.5967836380  -999.250000 1.5967836380
 2698.1650391 3.0000000000 8.3850002289 8.3850002289 -0.018993590 0.2482735515 2.3366844654 31.204814911 93.534736633 91.203269958 90.460739136 0.8780160546 130.40547180 1.4983141422  -999.250000 1.4983141422
 2698.3173828 3.0000000000 8.3920001984 8.3920001984 -0.019996794 0.2573355138 2.3318059444 30.699588776 92.785758972 88.758857727 89.689926147 0.8600577116 129.69728088 1.5139487982  -999.250000 1.5139487982
 2698.4697266 3.0000000000 8.3889999390 8.3889999390 -0.025971200 0.2477454245 2.3391690254 31.712108612 90.808425903 86.289871216 87.650932312 0.8361152411 128.84011841 1.6493471861  -999.250000 1.6493471861
 2698.6220703 3.0000000000 8.3750000000 8.3750000000 -0.030975960 0.2357085943 2.3536975384 31.950870514 88.978515625 84.861846924 85.841156006 0.8071393967 127.77511597 1.8400816917  -999.250000 1.8400816917
 2698.7746582 3.0000000000 8.3750000000 8.3750000000 -0.030999999 0.2242183834 2.3692131042 29.734130859 88.075378418 84.546989441 84.857727051 0.7731089592 126.80809784 1.8719006777  -999.250000 1.8719006777
 2698.9270020 3.0000000000 8.3760004044 8.3760004044 -0.030003205 0.2195374668 2.3767907619 27.037647247 87.931961060 84.375556946 84.692169189 0.7401058078 126.26074982 1.7364358902  -999.250000 1.7364358902
 2699.0793457 3.0000000000 8.3789997101 8.3789997101 -0.034983974 0.2142684609 2.3703691959 27.390836716 88.441612244 85.944946289 85.311378479 0.7150800824 125.81941223 1.5416250229  -999.250000 1.5416250229
 2699.2316895 3.0000000000 8.3830003738 8.3830003738 -0.042961601 0.2192220241 2.3545758724 30.146713257 89.286972046 87.019844055 86.223739624 0.6871343851 126.16831207 1.4076431990  -999.250000 1.4076431990
 2699.3840332 3.0000000000 8.3830003738 8.3830003738 -0.051956732 0.2303044498 2.3421077728 31.293523788 89.786285400 86.502525330 86.711875916 0.6511731148 126.04957581 1.4010288715  -999.250000 1.4010288715
 2699.5366211 3.0000000000 8.3830003738 8.3830003738 -0.047016025 0.2520352006 2.3415024281 32.466247559 90.133331299 87.167854309 86.977249146 0.6181057692 126.53942108 1.4568204880  -999.250000 1.4568204880
 2699.6889648 3.0000000000 8.3830003738 8.3830003738 -0.037032053 0.2657380700 2.3467688560 31.850992203 90.718498230 87.805953979 87.569778442 0.5940769315 126.35958099 1.4709551334  -999.250000 1.4709551334
 2699.8413086 3.0000000000 8.3830003738 8.3830003738 -0.028043201 0.2812351584 2.3451869488 31.301639557 91.757499695 89.156501770 88.516983032 0.5830528140 126.55804443 1.3565520048  -999.250000 1.3565520048
 2699.9936523 3.0000000000 8.3830003738 8.3830003738 -0.029990384 0.3010365367 2.3355932236 29.586273193 92.648384094 90.100471497 89.372726440 0.5820048451 126.55801392 1.2982788086  -999.250000 1.2982788086
 2700.1462402 3.0000000000 8.3830003738 8.3830003738 -0.036977563 0.3006107807 2.3299896717 28.086795807 92.603759766 89.383323669 89.547187805 0.5810031891 126.81018829 1.3657821417  -999.250000 1.3657821417
 2700.2985840 3.0000000000 8.3830003738 8.3830003738 -0.033012819 0.2870517373 2.3376843929 26.335615158 92.026962280 88.734085083 88.984580994 0.5780096054 126.70035553 1.4776411057  -999.250000 1.4776411057
 2700.4509277 3.0000000000 8.3850002289 8.3850002289 -0.026033601 0.2491208613 2.3526761532 26.756940842 91.262008667 87.403411865 88.173744202 0.5740191936 126.57759094 1.5058656931  -999.250000 1.5058656931
 2700.6032715 3.0000000000 8.3909997940 8.3909997940 -0.017043270 0.2325131297 2.3611433506 26.781888962 90.978996277 87.602005005 87.897674561 0.5769855976 126.57202148 1.4184230566  -999.250000 1.4184230566
 2700.7558594 3.0000000000 8.3979997635 8.3979997635 -0.018993590 0.2342471182 2.3573100567 26.796953201 91.650329590 89.494918823 88.548217773 0.5799903870 126.45437622 1.3143333197  -999.250000 1.3143333197
 2700.9082031 3.0000000000 8.3979997635 8.3979997635 -0.018999999 0.2541880012 2.3461856842 26.350437164 92.559013367 89.723281860 89.331909180 0.5690352917 126.43805695 1.2860897779  -999.250000 1.2860897779
 2701.0605469 3.0000000000 8.3979997635 8.3979997635 -0.024980770 0.2747869790 2.3331320286 25.134904861 92.719902039 89.375122070 89.471443176 0.5361058116 126.22169495 1.3029454947  -999.250000 1.3029454947
 2701.2128906 3.0000000000 8.3979997635 8.3979997635 -0.032961600 0.2987815142 2.3185005188 24.338819504 92.216575623 88.961982727 89.104980469 0.4852448106 126.27077484 1.2821007967  -999.250000 1.2821007967
 2701.3652344 3.0000000000 8.3990001678 8.3990001678 -0.038971156 0.3505140543 2.3031566143 24.791793823 91.609428406 88.089202881 88.593513489 0.4352403879 125.67886353 1.1934278011  -999.250000 1.1934278011
 2701.5178223 3.0000000000 8.4020004272 8.4020004272 -0.044980772 0.4092060626 2.2920157909 26.176553726 91.347999573 88.215583801 88.334281921 0.4021057785 125.81455994 1.0514551401  -999.250000 1.0514551401
 2701.6701660 3.0000000000 8.4029998779 8.4029998779 -0.036028843 0.4428361952 2.2884814739 24.874202728 91.672538757 88.821052551 88.649726868 0.4000064135 125.61862946 0.8735705614  -999.250000 0.8735705614
 2701.8225098 3.0000000000 8.4040002823 8.4040002823 -0.035999998 0.4496092200 2.2899680138 22.136184692 92.387573242 90.024208069 89.271972656 0.4308511913 125.81604767 0.6898832321  -999.250000 0.6898832321
 2701.9748535 3.0000000000 8.4110002518 8.4110002518 -0.034009617 0.4994201362 2.2971942425 22.189678192 92.347915649 89.416961670 89.080177307 0.4807596207 126.08171844 0.5855000019  -999.250000 0.5855000019
 2702.1274414 3.0000000000 8.4139995575 8.4139995575 -0.041974358 0.4854426682 2.3207898140 25.782449722 90.138427734 85.387947083 86.948425293 0.5388140678 127.34494781 0.6617531776  -999.250000 0.6617531776
 2702.2797852 3.0000000000 8.4139995575 8.4139995575 -0.041999999 0.4230800867 2.3696990013 28.692678452 86.331375122 81.054893494 83.250259399 0.6107692122 128.95582581 1.1354775429  -999.250000 1.1354775429
 2702.4321289 3.0000000000 8.4139995575 8.4139995575 -0.033043198 0.3721415997 2.4349222183 29.095104218 82.412261963 77.235359192 79.298171997 0.7204720378 130.68170166 2.3013839722  -999.250000 2.3013839722
 2702.5844727 3.0000000000 8.4180002213 8.4180002213 -0.026033655 0.4833028913 2.4914872646 30.360895157 79.344627380 74.136878967 76.295753479 0.9011298418 132.29125977 3.9092595577  -999.250000 3.9092595577
 2702.7370605 3.0000000000 8.4320001602 8.4320001602 -0.015035256 0.8905668855 2.5210690498 33.018474579 78.446533203 75.262329102 75.367538452 1.1970512867 133.61676025 4.2399616241  -999.250000 4.2399616241
 2702.8894043 3.0000000000 8.4499998093 8.4499998093 -0.008022436 1.4549950361 2.5248613358 35.520980835 79.514022827 77.622413635 76.385429382 1.5548526049 135.03843689 3.6339519024  -999.250000 3.6339519024
 2703.0417480 3.0000000000 8.4530000687 8.4530000687 -0.005009615 1.3811000586 2.5172088146 34.997707367 80.869201660 78.318786621 77.638359070 1.8221441507 135.61016846 3.0139873028  -999.250000 3.0139873028
