# LAS format log file from PETREL
# Project units are specified as depth units
#==================================================================
~Version information
VERS.   2.0:
WRAP.   NO:
#==================================================================
~Well
STRT .m      489.99996948 :
STOP .m      1530.0000000 :
STEP .m     0.00000000 :
NULL .        -999.250000 :
COMP.           : COMPANY
WELL.  15/9-22   : WELL
FLD.            : FIELD
LOC.            : LOCATION
SRVC.           : SERVICE COMPANY
DATE.  2018-09-11 14:48:02   : Log Export Date {yyyy-MM-dd HH:mm:ss}
PROV.           : PROVINCE
UWI.   15/9-22   : UNIQUE WELL ID
API.            : API NUMBER
#==================================================================
~Curve
DEPT .m                   : DEPTH
Lithology_geolink ._      : Lithology_geolink
BS .in                    : BS
GR .gAPI                  : GR
RDEP .ohm.m               : RDEP
RMED .ohm.m               : RMED
~Parameter
#==================================================================
~Ascii
# ...
 510.39999390  -999.250000 17.500000000 137.11799622  -999.250000  -999.250000
 510.49996948  -999.250000 17.500000000 138.99299622  -999.250000  -999.250000
 510.60000610  -999.250000 17.500000000 140.98599243  -999.250000  -999.250000
 510.70001221  -999.250000 17.500000000 140.80200195  -999.250000  -999.250000
 510.79998779  -999.250000 17.500000000 137.42599487 1.7599999905 1.5470000505
 510.89999390  -999.250000 17.500000000 132.05799866 1.8519999981 1.5369999409
 511.00000000  -999.250000 17.500000000 126.68299866 1.8580125570 1.5379954576
 511.09997559  -999.250000 17.500000000 123.50499725 1.8990000486 1.5230000019
 511.19998169  -999.250000 17.500000000 123.69599915 1.9069999456 1.8020000458
 511.30001831  -999.250000 17.500000000 127.38800049 1.8569512367 2.0599346161
 511.39999390  -999.250000 17.500000000 133.36500549 1.7769999504 1.9529999495
 511.50000000  -999.250000 17.500000000 138.88800049 1.7949999571 1.9809999466
 511.60000610  -999.250000 17.500000000 142.84300232 1.8130054474 2.0090086460
 511.69998169  -999.250000 17.500000000 144.11000061 1.8309999704 2.0369999409
 511.79998779  -999.250000 17.500000000 142.86799622 1.8489999771 2.0650000572
 511.90002441  -999.250000 17.500000000 141.05999756 1.8660116196 2.0910422802
 512.00000000  -999.250000 17.500000000 140.36999512 1.8849999905 2.1600000858
 512.09997559  -999.250000 17.500000000 140.77000427 1.9019999504 2.2249999046
 512.20001221  -999.250000 17.500000000 140.81900024 1.9200103283 2.2900390625
 512.29998779  -999.250000 17.500000000 139.76600647 1.9370000362 2.3540000916
 512.40002441  -999.250000 17.500000000 137.94700623 1.9539999962 2.4189999104
 512.50000000  -999.250000 17.500000000 136.08200073 1.9720000029 2.4839999676
 512.59997559  -999.250000 17.500000000 147.11500549 1.9889999628 2.5480000973
 512.70001221  -999.250000 17.500000000 160.47799683 1.8630000353 2.2430000305
 512.79998779  -999.250000 17.500000000 156.36999512 1.6879999638 1.8890000582
 512.89996338  -999.250000 17.500000000 152.15499878 1.5130000114 1.7990000248
 513.00000000  -999.250000 17.500000000 147.70199585 1.5470000505 1.9969999790
 513.10003662  -999.250000 17.500000000 144.14495850 1.5829968452 2.2107741833
 513.20001221  -999.250000 17.500000000 142.44299316 1.5779999495 1.8409999609
 513.29998779  -999.250000 17.500000000 142.15800476 1.5670000315 1.8289999962
 513.40002441  -999.250000 17.500000000 142.55616760 1.6378999949 1.9800140858
 513.50000000  -999.250000 17.500000000 142.82099915 1.4739999771 2.0030000210
 513.59997559  -999.250000 17.500000000 143.08599854 1.6829999685 2.2079999447
 513.70001221  -999.250000 17.500000000 145.08180237 1.6849962473 2.1989626884
 513.79998779  -999.250000 17.500000000 149.68699646 1.6790000200 2.1380000114
 513.90002441  -999.250000 17.500000000 122.44799805 1.5690000057 1.8190000057
 514.00000000  -999.250000 17.500000000 122.44799805 1.7259999514 2.1840000153
 514.09997559  -999.250000 17.500000000 122.44799805 1.6679999828 2.0160000324
 514.20001221  -999.250000 17.500000000 122.44799805 1.6699999571 2.3039999008
 514.29998779  -999.250000 17.500000000 122.44799805 1.6749999523 2.3840000629
 514.39996338  -999.250000 17.500000000 122.63400269 1.5230000019 2.1930000782
 514.50000000  -999.250000 17.500000000 129.96299744 1.3489999771 1.7139999866
 514.59997559  -999.250000 17.500000000 139.11900330 1.4400000572 1.7779999971
 514.70001221  -999.250000 17.500000000 143.61999512 1.2719999552 1.6710000038
 514.79998779  -999.250000 17.500000000 147.39900208 1.3270000219 1.6460000277
 514.89996338  -999.250000 17.500000000 150.08599854 1.4190000296 1.8400000334
 515.00000000  -999.250000 17.500000000 151.26100159 1.4129999876 2.0789999962
 515.10003662  -999.250000 17.500000000 149.53500366 1.3060085773 1.6580756903
 515.20001221  -999.250000 17.500000000 144.96600342 1.3200000525 1.7819999456
 515.29998779  -999.250000 17.500000000 139.36199951 1.4259999990 2.1500000954
 515.40002441  -999.250000 17.500000000 135.45199585 1.3661006689 2.0009138584
 515.50000000  -999.250000 17.500000000 134.97300720 1.5310000181 1.8600000143
 515.59997559  -999.250000 17.500000000 137.45700073 1.3940000534 1.6670000553
 515.70001221  -999.250000 17.500000000 139.61799622 1.6838450432 2.0496833324
 515.79998779  -999.250000 17.500000000 140.03100586 1.4299999475 1.5310000181
 515.90002441  -999.250000 17.500000000 140.11300659 1.3839999437 1.6440000534
 516.00000000  -999.250000 17.500000000 141.72000122 1.3519999981 1.5809999704
 516.09997559  -999.250000 17.500000000 145.27200317 1.3439999819 1.5549999475
 516.20001221  -999.250000 17.500000000 148.68200684 1.4639999866 1.6339999437
 516.29998779  -999.250000 17.500000000 148.37800598 1.4149999619 1.4850000143
 516.39996338  -999.250000 17.500000000 144.99299622 1.4010000229 1.3860000372
 516.50000000  -999.250000 17.500000000 142.21499634 1.5240000486 1.5540000200
 516.60003662  -999.250000 17.500000000 141.45300293 1.5990042686 1.6999982595
 516.70001221  -999.250000 17.500000000 141.72200012 1.6059999466 1.6970000267
 516.79998779  -999.250000 17.500000000 142.52400208 1.6360000372 1.8209999800
 516.90002441  -999.250000 17.500000000 143.42300415 1.7449231148 1.8599920273
 517.00000000  -999.250000 17.500000000 144.00500488 1.6189999580 1.8470000029
 517.09997559  -999.250000 17.500000000 144.06500244 1.6250000000 1.6900000572
 517.20001221  -999.250000 17.500000000 143.93899536 1.5350469351 1.4310933352
 517.29998779  -999.250000 17.500000000 143.91000366 1.6119999886 1.5839999914
 517.40002441  -999.250000 17.500000000 143.49299622 1.6410000324 1.5659999847
 517.50000000  -999.250000 17.500000000 141.75300598 1.6000000238 1.6299999952
 517.59997559  -999.250000 17.500000000 138.71099854 1.6030000448 1.6940000057
 517.70001221  -999.250000 17.500000000 135.01600647 1.5140000582 1.6440000534
 517.79998779  -999.250000 17.500000000 131.98800659 1.4650000334 1.4819999933
 517.89996338  -999.250000 17.500000000 130.42500305 1.4529999495 1.5670000315
 518.00000000  -999.250000 17.500000000 130.78300476 1.4969999790 1.4910000563
 518.10003662  -999.250000 17.500000000 132.70249939 1.4809913635 1.4319677353
 518.20001221  -999.250000 17.500000000 135.16099548 1.4670000076 1.3789999485
 518.29998779  -999.250000 17.500000000 137.12899780 1.4630000591 1.3819999695
 518.40002441  -999.250000 17.500000000 138.86293030 1.4589982033 1.3850017786
 518.50000000  -999.250000 17.500000000 140.38600159 1.4559999704 1.3880000114
 518.59997559  -999.250000 17.500000000 140.89500427 1.4520000219 1.3910000324
 518.70001221  -999.250000 17.500000000 139.21134949 1.4479981661 1.3940018415
 518.79998779  -999.250000 17.500000000 134.85600281 1.4450000525 1.3969999552
 518.90002441  -999.250000 17.500000000 129.68200684 1.4419628382 1.3989994526
 519.00000000  -999.250000 17.500000000 126.51699829 1.3810000420 1.3980000019
 519.09997559  -999.250000 17.500000000 126.25599670 1.3339999914 1.3980000019
 519.20001221  -999.250000 17.500000000 128.36000061 1.2879853249 1.3969999552
 519.29998779  -999.250000 17.500000000 131.46400452 1.2640000582 1.3969999552
 519.40002441  -999.250000 17.500000000 133.68899536 1.2599999905 1.4170000553
 519.50000000  -999.250000 17.500000000 133.77900696 1.2580000162 1.4299999475
 519.59997559  -999.250000 17.500000000 132.41299438 1.3750000000 1.4450000525
 519.70001221  -999.250000 17.500000000 131.10600281 1.4229999781 1.5449999571
 519.79998779  -999.250000 17.500000000 130.39199829 1.3869999647 1.4950000048
 519.89996338  -999.250000 17.500000000 130.28500366 1.3439999819 1.3200000525
 520.00000000  -999.250000 17.500000000 130.70799255 1.3099999428 1.1720000505
 520.10003662  -999.250000 17.500000000 131.00999451 1.2819968462 1.1289993525
 520.20001221  -999.250000 17.500000000 132.75900269 1.2769999504 1.1280000210
 520.29998779  -999.250000 17.500000000 141.32299805 1.1929999590 1.1339999437
 520.40002441  -999.250000 17.500000000 151.30900574 1.1690018177 1.1670098305
 520.50000000  -999.250000 17.500000000 151.35499573 1.1720000505 1.1829999685
