# LAS format log file from PETREL
# Project units are specified as depth units
#==================================================================
~Version information
VERS.   2.0:
WRAP.   NO:
#==================================================================
~Well
STRT .m      3164.4333496 :
STOP .m      4228.6425781 :
STEP .m     0.00000000 :
NULL .        -999.250000 :
COMP.           : COMPANY
WELL.  15/9-19B   : WELL
FLD.            : FIELD
LOC.            : LOCATION
SRVC.           : SERVICE COMPANY
DATE.  2018-09-11 14:48:02   : Log Export Date {yyyy-MM-dd HH:mm:ss}
PROV.           : PROVINCE
UWI.   15/9-19 B   : UNIQUE WELL ID
API.            : API NUMBER
#==================================================================
~Curve
DEPT .m                   : DEPTH
Lithology_geolink ._      : Lithology_geolink
CALI .in                  : CALI
RHOB .g/cm3               : RHOB
GR .gAPI                  : GR
DTC .us/ft                : DTC
RDEP .ohm.m               : RDEP
RSHA .ohm.m               : RSHA
RMED .ohm.m               : RMED
~Parameter
#==================================================================
~Ascii
# ...
 4148.9375000 4.0000000000 5.9878997803 2.2925999165 39.861991882 87.536575317 0.3609894216 0.3756807745 0.3659875095
 4149.0898438 4.0000000000 5.9876999855 2.3229999542 40.854454041 86.467773438 0.3587679267 0.3100317419 0.3642221093
 4149.2421875 1.0000000000 5.9855999947 2.1630001068 40.700782776 85.586471558 0.7151263356 1.1203213930 1.0422375202
 4149.3945313 1.0000000000 6.0009999275 2.0436000824 35.872692108 84.765747070 8.3233785629 8.4173126221 6.7310276031
 4149.5468750 1.0000000000 6.0199999809 2.0608446598 25.645490646 83.969245911 31.358676910 60.762928009 31.391550064
 4149.6992188 1.0000000000 6.0296001434 2.0781445503 18.111719131 83.175369263 49.736438751 51.261268616 47.523307800
 4149.8515625 1.0000000000 6.0352997780 2.0954444408 16.651100159 82.384002686 51.370998383 43.481800079 49.584598541
 4150.0039063 1.0000000000 6.0135998726 2.1127443314 17.191900253 81.592399597 26.900800705 23.867799759 37.914299011
 4150.1562500 1.0000000000 5.9882001877 2.1300444603 18.130100250 80.811996460 6.0356998444 5.4973998070 5.2179999352
 4150.3090820 1.0000000000 5.9861998558 2.1401000023 19.164516449 79.984916687 1.4767500162 1.6157951355 1.4374173880
 4150.4614258 1.0000000000 5.9855999947 2.0813000202 19.576225281 79.150161743 0.4034695625 0.5564644337 0.4472115338
 4150.6137695 1.0000000000 5.9770998955 2.1091001034 20.363590240 78.388839722 0.3006346226 0.4209195673 0.3263673186
 4150.7661133 1.0000000000 5.9767999649 2.2120699883 20.921234131 78.122535706 0.2801820338 0.3956497014 0.3160887659
 4150.9184570 1.0000000000 5.9844999313 2.2548635006 21.150758743 78.603034973 0.2434507906 0.3177242577 0.2814476192
 4151.0708008 1.0000000000 5.9792995453 2.2541029453 21.481000900 79.392494202 0.2281000018 0.2940999866 0.2651000023
 4151.2231445 1.0000000000 5.9685001373 2.2395467758 21.883100510 80.331001282 0.2386000007 0.3048999906 0.2827999890
 4151.3754883 1.0000000000 5.9640998840 2.2335193157 23.082500458 80.472396851 0.2601000071 0.3251999915 0.2985999882
 4151.5278320 1.0000000000 5.9566001892 2.2401785851 25.005500793 79.905296326 0.2529999912 0.3005000055 0.2825999856
 4151.6806641 1.0000000000 5.9538998604 2.2576000690 25.387874603 79.164260864 0.2638538480 0.3137791455 0.2921625078
 4151.8330078 1.0000000000 5.9623999596 2.2639999390 23.539205551 78.433395386 0.2805833519 0.3383349478 0.3115660250
 4151.9853516 1.0000000000 5.9609999657 2.2548999786 21.796003342 77.776580811 0.2754916847 0.3182019293 0.3010958433
 4152.1376953 1.0000000000 5.9492998123 2.2646687031 20.769517899 77.052856445 0.3039977551 0.3498669863 0.3308705389
 4152.2900391 1.0000000000 5.9465999603 2.2793529034 20.371402740 76.447364807 0.3033824265 0.3396872282 0.3217661381
 4152.4423828 1.0000000000 5.9553999901 2.2879724503 20.528499603 76.030296326 0.3291000128 0.3668999970 0.3424000144
 4152.5947266 1.0000000000 5.9689998627 2.2970709801 20.551399231 76.444297791 0.3705999851 0.4212999940 0.3889999986
 4152.7470703 1.0000000000 5.9814000130 2.2932124138 21.030099869 76.958297729 0.3433000147 0.3749000132 0.3573000133
 4152.8999023 1.0000000000 5.9876999855 2.2859001160 21.651100159 77.198669434 0.3394984007 0.3744406998 0.3559990227
 4153.0522461 1.0000000000 5.9903998375 2.2899000645 22.059347153 77.252693176 0.3700429499 0.4181051254 0.3867160082
 4153.2045898 1.0000000000 5.9911999702 2.2850000858 23.229978561 77.376472473 0.3523214757 0.3886384666 0.3606204987
 4153.3569336 1.0000000000 5.9842000008 2.2664999962 24.841829300 77.680122375 0.3591156900 0.4007512629 0.3671298325
 4153.5092773 1.0000000000 5.9765000343 2.2598214149 25.287504196 78.155632019 0.3949610293 0.4476217330 0.4073635638
 4153.6616211 1.0000000000 5.9790000916 2.2629897594 25.694799423 78.664009094 0.3515999913 0.3919999897 0.3648000062
 4153.8139648 1.0000000000 5.9842996597 2.2758586407 27.886800766 79.239807129 0.3607000113 0.3986000121 0.3713999987
 4153.9663086 1.0000000000 5.9825000763 2.3051061630 29.554399490 79.661109924 0.4151999950 0.4575000107 0.4259000123
 4154.1186523 1.0000000000 5.9829001427 2.3258337975 31.198799133 79.401397705 0.4438000023 0.4819000065 0.4478000104
 4154.2714844 1.0000000000 5.9857001305 2.3190999031 34.419811249 78.787513733 0.4215259850 0.4433602393 0.4127346277
 4154.4238281 1.0000000000 5.9840002060 2.3069999218 36.226753235 78.575172424 0.4608538449 0.4933112264 0.4547423124
 4154.5761719 4.0000000000 5.9840998650 2.3120999336 36.274509430 79.035964966 0.5088506341 0.5281015635 0.4991593063
 4154.7285156 4.0000000000 5.9828000069 2.3313381672 36.214946747 79.615730286 0.5556349158 0.5906733871 0.5485910177
 4154.8808594 4.0000000000 5.9826998711 2.3531301022 36.077548981 79.813079834 0.5354185104 0.5512913465 0.5147086382
 4155.0332031 4.0000000000 5.9889998436 2.3640649319 37.123001099 79.773498535 0.5411999822 0.5486000180 0.5174000263
 4155.1855469 4.0000000000 5.9897003174 2.3411738873 38.220100403 79.736396790 0.5467000008 0.5856000185 0.5289999843
 4155.3378906 4.0000000000 5.9858999252 2.2904627323 38.127998352 79.875198364 0.4273000062 0.4092000127 0.3899999857
 4155.4907227 4.0000000000 5.9826002121 2.2648999691 38.371921539 80.334564209 0.4338826835 0.4457275569 0.4147016108
 4155.6430664 4.0000000000 5.9871001244 2.2825999260 37.903209686 80.541984558 0.4917586744 0.5180336237 0.4788737297
 4155.7954102 1.0000000000 5.9899997711 2.3060998917 35.404636383 80.535263062 0.8310970664 1.0062910318 0.9460355639
 4155.9477539 1.0000000000 5.9844999313 2.3238999844 31.486160278 80.208969116 3.9834210873 4.5326681137 3.7057805061
 4156.1000977 1.0000000000 5.9781999588 2.3286848068 27.675498962 79.886940002 7.7578568459 9.1613197327 7.4045820236
 4156.2524414 1.0000000000 5.9783000946 2.3507292271 26.464433670 79.617820740 9.2362051010 10.599182129 8.6417131424
 4156.4047852 1.0000000000 5.9822998047 2.3990447521 27.098699570 79.528701782 8.8944997787 10.999099731 8.2403001785
 4156.5571289 1.0000000000 5.9870004654 2.4145505428 25.674999237 79.748596191 5.9622001648 7.9468998909 5.4724998474
 4156.7094727 1.0000000000 5.9848999977 2.3976545334 21.847200394 79.622100830 9.4554996490 9.5740995407 8.5634002686
 4156.8623047 1.0000000000 5.9794998169 2.3666999340 17.940248489 79.238670349 18.055503845 19.784805298 25.500574112
 4157.0146484 1.0000000000 5.9822998047 2.2121000290 16.683002472 78.512519836 20.068399429 18.886089325 38.656372070
 4157.1669922 1.0000000000 5.9847998619 2.1256999969 17.551984787 77.646583557 16.964881897 19.361808777 31.551328659
 4157.3193359 1.0000000000 5.9857001305 2.1462342739 16.858396530 76.707336426 9.3772783279 13.576533318 10.694416046
 4157.4716797 1.0000000000 5.9924998283 2.1667342186 15.326410294 75.750038147 1.7157338858 2.9124958515 1.6452651024
 4157.6240234 1.0000000000 5.9899001122 2.1872341633 13.083200455 74.794403076 0.4471000135 0.6647999883 0.4176000059
 4157.7763672 1.0000000000 5.9932999611 2.2077341080 12.822299957 73.835700989 0.3727999926 0.5184999704 0.3673999906
 4157.9287109 1.0000000000 5.9998002052 2.2282342911 14.816800117 72.897598267 0.3477999866 0.4957999885 0.3752000034
 4158.0810547 1.0000000000 5.9970993996 2.2487342358 15.278400421 72.166099548 0.3531999886 0.4860999882 0.3833000064
 4158.2338867 1.0000000000 5.9987001419 2.2692999840 14.247905731 71.928527832 0.3270089626 0.4197445512 0.3489993513
 4158.3862305 1.0000000000 5.9958996773 2.2897000313 14.998214722 72.533470154 0.3298503160 0.4025214911 0.3488432765
 4158.5385742 1.0000000000 5.9846000671 2.3108000755 15.657670021 74.053306580 0.3456189036 0.4093109071 0.3624169827
 4158.6909180 1.0000000000 5.9875998497 2.3383116722 16.240581512 76.086334229 0.3826150596 0.4437974393 0.3988019228
 4158.8432617 1.0000000000 5.9868998528 2.3596317768 16.611722946 78.560127258 0.3872287571 0.4428971112 0.3993022442
 4158.9956055 1.0000000000 5.9854993820 2.3325872421 17.898500443 80.128700256 0.3650000095 0.4108000100 0.3688000143
 4159.1479492 1.0000000000 5.9819002151 2.3092746735 19.587999344 80.613494873 0.4014999866 0.4634999931 0.4063000083
