# LAS format log file from PETREL
# Project units are specified as depth units
#==================================================================
~Version information
VERS.   2.0:
WRAP.   NO:
#==================================================================
~Well
STRT .m      485.02883911 :
STOP .m      3207.3493652 :
STEP .m     0.00000000 :
NULL .        -999.250000 :
COMP.           : COMPANY
WELL.  15/9-15   : WELL
FLD.            : FIELD
LOC.            : LOCATION
SRVC.           : SERVICE COMPANY
DATE.  2018-09-11 14:48:00   : Log Export Date {yyyy-MM-dd HH:mm:ss}
PROV.           : PROVINCE
UWI.   15/9-15   : UNIQUE WELL ID
API.            : API NUMBER
#==================================================================
~Curve
DEPT .m                   : DEPTH
Lithology_geolink ._      : Lithology_geolink
DCAL .in                  : DCAL
CALI .in                  : CALI
BS .in                    : BS
DRHO .g/cm3               : DRHO
NPHI .m3/m3               : NPHI
RHOB .g/cm3               : RHOB
PEF .b/e                  : PEF
GR .gAPI                  : GR
DTC .us/ft                : DTC
DT .us/ft                 : DT
RDEP .ohm.m               : RDEP
SP .mV                    : SP
RSHA .ohm.m               : RSHA
RXO .ohm.m                : RXO
RMED .ohm.m               : RMED
~Parameter
#==================================================================
~Ascii
# ...
 2842.0466309 3.0000000000 7.4800000191 7.4802441597 8.5000000000 -0.041000001 0.2006699890 2.2922353745 3.4630000591 16.483999252 95.378768921 93.750000000 7.9689998627 87.637001038 6.7699999809 4.3168272972 6.7699999809
 2842.1989746 3.0000000000 7.4800000191 7.4800000191 8.5000000000 -0.041000001 0.1901300102 2.2713088989 3.2479999065 14.866999626 97.224090576 92.750000000 7.6290001869 88.012001038 7.5120000839 4.7653031349 7.5120000839
 2842.3513184 3.0000000000 7.4800000191 7.4807381630 8.5000000000 -0.041000001 0.1748200059 2.2540717125 3.1770000458 15.805000305 97.013465881 94.188003540 7.3319997787 87.918998718 8.2270002365 4.9244484901 8.2270002365
 2842.5039063 3.0000000000 7.4829998016 7.4820213318 8.5000000000 -0.043000001 0.1669799984 2.2575769424 3.4219999313 17.983999252 96.626403809 93.750000000 7.0549998283 87.418998718 8.6169996262 6.8329401016 8.6169996262
 2842.6562500 3.0000000000 7.4819998741 7.4822440147 8.5000000000 -0.043000001 0.1685499996 2.2792780399 3.6600000858 21.141000748 96.733985901 93.563003540 6.6840000153 87.793998718 7.7459998131 11.599555016 7.7459998131
 2842.8085938 3.0000000000 7.4819998741 7.4819998741 8.5000000000 -0.039999999 0.1753399968 2.2993187904 3.7200000286 23.062999725 96.960136414 95.187995911 6.1840000153 88.012001038 6.2379999161 10.117215157 6.2379999161
 2842.9609375 3.0000000000 7.4819998741 7.4815082550 8.5000000000 -0.039000001 0.1804999858 2.3042428493 3.6870000362 24.891000748 97.091255188 95.000000000 5.8909997940 88.262001038 4.8790001869 5.9564061165 4.8790001869
 2843.1135254 3.0000000000 7.4800000191 7.4804883003 8.5000000000 -0.037999999 0.1831600070 2.2977018356 3.7820000648 24.562999725 97.589561462 97.563003540 5.6760001183 88.012001038 4.1449999809 4.2988739014 4.1449999809
 2843.2658691 3.0000000000 7.4800000191 7.4802465439 8.5000000000 -0.039999999 0.1897299886 2.2912170887 4.0019998550 24.266000748 98.424942017 97.999992371 5.5939998627 88.106002808 3.8129999638 3.6724998951 3.8129999638
 2843.4182129 3.0000000000 7.4809999466 7.4810023308 8.5000000000 -0.039999999 0.2028499991 2.2956283092 4.2199997902 20.891000748 99.601097107 97.750000000 5.7189998627 87.981002808 3.9530000687 3.2201111317 3.9530000687
 2843.5705566 3.0000000000 7.4819998741 7.4817557335 8.5000000000 -0.039000001 0.2131399959 2.3186173439 4.4039998055 20.312999725 100.66646576 94.563003540 5.8550000191 88.012001038 4.5819997787 3.3288755417 4.5819997787
 2843.7229004 3.0000000000 7.4819998741 7.4815082550 8.5000000000 -0.035999998 0.2146699876 2.3549654484 4.5809998512 19.968999863 100.59164429 89.563003540 5.9019999504 87.637001038 5.5630002022 4.3635702133 5.5630002022
 2843.8754883 3.0000000000 7.4800000191 7.4804883003 8.5000000000 -0.035000000 0.1979199946 2.3838212490 4.5060000420 20.562999725 98.627655029 86.188003540 6.0700001717 87.387001038 6.8239998817 7.3629002571 6.8239998817
 2844.0278320 3.0000000000 7.4800000191 7.4800000191 8.5000000000 -0.037000000 0.1765699983 2.3847265244 4.3559999466 19.577999115 95.006095886 84.000000000 6.3239998817 87.293998718 7.9959998131 11.673651695 7.9959998131
 2844.1801758 3.0000000000 7.4800000191 7.4802465439 8.5000000000 -0.041000001 0.1604000032 2.3590593338 4.2350001335 19.922000885 91.206649780 85.000000000 6.6250000000 87.262001038 7.8090000153 11.731195450 7.8090000153
 2844.3325195 3.0000000000 7.4809999466 7.4812469482 8.5000000000 -0.044000000 0.1607300043 2.3277401924 4.1269998550 20.562999725 88.698089600 89.563003540 6.8550000191 87.106002808 6.2189998627 7.9468269348 6.2189998627
 2844.4851074 3.0000000000 7.4829998016 7.4827580452 8.5000000000 -0.046000000 0.1697699875 2.3097019196 4.1929998398 20.875000000 88.543083191 95.187995911 6.9299998283 86.824996948 5.1129999161 4.9017200470 5.1129999161
 2844.6374512 3.0000000000 7.4840002060 7.4832634926 8.5000000000 -0.041999999 0.1782200038 2.3087852001 4.2069997787 21.812999725 91.249183655 98.188003540 6.7270002365 87.231002808 4.6250000000 3.6712756157 4.6250000000
 2844.7897949 3.0000000000 7.4819998741 7.4827342033 8.5000000000 -0.039999999 0.1846100092 2.3171277046 4.3130002022 24.687999725 95.668762207 97.750000000 6.4770002365 87.356002808 4.4879999161 3.5161213875 4.4879999161
 2844.9421387 3.0000000000 7.4829998016 7.4825086594 8.5000000000 -0.039999999 0.1952599883 2.3241469860 4.3590002060 23.468999863 99.340095520 97.188003540 6.1680002213 87.356002808 4.4650001526 3.8489098549 4.4650001526
 2845.0947266 3.0000000000 7.4819998741 7.4817514420 8.5000000000 -0.044000000 0.2074600011 2.3270480633 4.3990001678 21.843999863 100.75852203 93.563003540 5.9219999313 87.324996948 4.5549998283 4.1035771370 4.5549998283
 2845.2470703 3.0000000000 7.4800000191 7.4812273979 8.5000000000 -0.046999998 0.2129099965 2.3281898499 4.3130002022 18.016000748 100.19274902 91.188003540 5.8200001717 87.824996948 4.8010001183 4.5171599388 4.8010001183
 2845.3994141 3.0000000000 7.4829998016 7.4820213318 8.5000000000 -0.044000000 0.2077300102 2.3315634727 4.2399997711 19.891000748 98.160446167 91.375000000 5.7459998131 87.574996948 4.9569997787 5.5438818932 4.9569997787
 2845.5517578 3.0000000000 7.4819998741 7.4824895859 8.5000000000 -0.043000001 0.2004299909 2.3416962624 4.2930002213 21.437999725 95.851226807 92.563003540 5.6640000343 87.856002808 4.8629999161 5.8347487450 4.8629999161
 2845.7041016 3.0000000000 7.4829998016 7.4830012321 8.5000000000 -0.039999999 0.1938900054 2.3583402634 4.5009999275 23.031000137 94.867782593 93.188003540 5.5939998627 88.106002808 4.7030000687 5.4667472839 4.7030000687
 2845.8566895 3.0000000000 7.4840002060 7.4830174446 8.5000000000 -0.037000000 0.1884799898 2.3751451969 4.7189998627 23.593999863 95.269744873 94.750000000 5.3979997635 88.606002808 4.5780000687 5.2734999657 4.5780000687
 2846.0090332 3.0000000000 7.4809999466 7.4822244644 8.5000000000 -0.033000000 0.1835600138 2.3825271130 4.7769999504 22.641000748 96.182815552 92.750000000 5.0980000496 88.106002808 4.5159997940 5.3230900764 4.5159997940
 2846.1613770 3.0000000000 7.4829998016 7.4822649956 8.5000000000 -0.030999999 0.1754299998 2.3760643005 4.8699998856 24.531000137 96.889282227 92.563003540 4.8319997787 88.481002808 4.3590002060 5.4540796280 4.3590002060
 2846.3137207 3.0000000000 7.4819998741 7.4824900627 8.5000000000 -0.035000000 0.1740899980 2.3633055687 4.9949998856 25.281000137 96.667892456 94.000000000 4.5430002213 88.512001038 4.0510001183 5.0186591148 4.0510001183
 2846.4663086 3.0000000000 7.4829998016 7.4822635651 8.5000000000 -0.039000001 0.1779599935 2.3540203571 5.1519999504 26.250000000 96.218276978 94.563003540 4.2969999313 88.387001038 3.7300000191 4.2111597061 3.7300000191
 2846.6186523 3.0000000000 7.4809999466 7.4822273254 8.5000000000 -0.041999999 0.1879999936 2.3523185253 5.0999999046 27.531000137 96.628936768 95.563003540 4.1050000191 88.762001038 3.5469999313 3.8494625092 3.5469999313
 2846.7709961 3.0000000000 7.4840002060 7.4827756882 8.5000000000 -0.041000001 0.1896699965 2.3543167114 4.7989997864 29.031000137 97.494071960 96.375000000 3.9300000668 88.637001038 3.4730000496 4.0560507774 3.4730000496
 2846.9233398 3.0000000000 7.4819998741 7.4827346802 8.5000000000 -0.037999999 0.1932599992 2.3538615704 4.6490001678 30.608999252 98.354431152 95.750000000 3.7639999390 88.762001038 3.4159998894 4.1964964867 3.4159998894
 2847.0759277 3.0000000000 7.4829998016 7.4830021858 8.5000000000 -0.037999999 0.1931399852 2.3510103226 4.6449999809 27.422000885 99.015144348 96.749992371 3.6600000858 88.887001038 3.3280000687 3.9368612766 3.3280000687
 2847.2282715 3.0000000000 7.4840002060 7.4830174446 8.5000000000 -0.035999998 0.1973900050 2.3477542400 4.5980000496 26.483999252 99.277877808 97.188003540 3.5840001106 89.043998718 3.2660000324 3.8294999599 3.2660000324
 2847.3806152 3.0000000000 7.4809999466 7.4800090790 8.5000000000 -0.037000000 0.2026799917 2.3457975388 4.4850001335 27.125000000 99.605171204 97.999992371 3.5269999504 88.762001038 3.1930000782 3.8602085114 3.1930000782
 2847.5329590 3.0000000000 7.4739999771 7.4774327278 8.5000000000 -0.034000002 0.2075099945 2.3429462910 4.5739998817 29.641000748 100.19826508 97.999992371 3.5139999390 89.262001038 3.1429998875 3.6887176037 3.1429998875
