# LAS format log file from PETREL
# Project units are specified as depth units
#==================================================================
~Version information
VERS.   2.0:
WRAP.   NO:
#==================================================================
~Well
STRT .m      472.33206177 :
STOP .m      3119.8261719 :
STEP .m     0.00000000 :
NULL .        -999.250000 :
COMP.           : COMPANY
WELL.  15/9-17   : WELL
FLD.            : FIELD
LOC.            : LOCATION
SRVC.           : SERVICE COMPANY
DATE.  2018-09-11 14:48:01   : Log Export Date {yyyy-MM-dd HH:mm:ss}
PROV.           : PROVINCE
UWI.   15/9-17   : UNIQUE WELL ID
API.            : API NUMBER
#==================================================================
~Curve
DEPT .m                   : DEPTH
Lithology_geolink ._      : Lithology_geolink
DCAL .in                  : DCAL
CALI .in                  : CALI
DRHO .g/cm3               : DRHO
SGR .gAPI                 : SGR
NPHI .m3/m3               : NPHI
RHOB .g/cm3               : RHOB
PEF .b/e                  : PEF
GR .gAPI                  : GR
DTC .us/ft                : DTC
DT .us/ft                 : DT
DTE .us/ft                : DTE
RDEP .ohm.m               : RDEP
SP .mV                    : SP
RSHA .ohm.m               : RSHA
RXO .ohm.m                : RXO
RMED .ohm.m               : RMED
~Parameter
#==================================================================
~Ascii
# ...
 3112.6633301  -999.250000 6.0149998665 6.0149998665 0.0099999998 124.30200195 0.2514800131 2.5752274990 3.6809999943 108.75000000 80.974517822 81.000000000 81.000000000 2.2090001106 95.012413025 2000.0000000 2000.0000000 2.3670001030
 3112.8159180  -999.250000 6.0000000000 6.0000000000 0.0149999997 123.06700134 0.2548800111 2.5789988041 3.8229999542 110.12500000 81.078376770 81.000000000 81.000000000 2.0999999046 94.990081787 2000.0000000 2000.0000000 2.3550000191
 3112.9682617  -999.250000 6.0160002708 6.0160002708 0.0250000004 124.12899780 0.2549200058 2.5792000294 3.8929998875 111.68800354 81.091781616 81.000000000 81.000000000 1.9919999838 95.850341797 2000.0000000 2000.0000000 2.2009999752
 3113.1206055  -999.250000 6.0160002708 6.0160002708 0.0209999997 124.70400238 0.2617399991 2.5759851933 3.9609999657 110.25000000 81.084632874 81.000000000 81.000000000 1.9259999990 96.721405029 2000.0000000 2000.0000000 2.1270000935
 3113.2729492  -999.250000 6.0160002708 6.0160002708 0.0219999999 17.906000137 0.2646499872 2.5758945942 3.7669999599 109.18800354 80.987571716 81.000000000 81.000000000 1.8930000067 98.528785706 2000.0000000 2000.0000000 2.1310000420
 3113.4255371  -999.250000 6.0160002708 6.0160002708 0.0149999997 -89.49199677 0.2651099861 2.5753326416 3.6989998817 103.81300354 81.081283569 81.000000000 81.000000000 1.8480000496 100.45279694 2000.0000000 2000.0000000 2.1600000858
 3113.5778809  -999.250000 6.0149998665 6.0149998665 0.0130000003 -196.8699951 0.2617099881 2.5783257484 3.6840000153 103.56300354 81.091926575 81.000000000 81.000000000 1.8389999866 101.84019470 2000.0000000 2000.0000000 2.1860001087
 3113.7302246  -999.250000 5.9850001335 5.9850001335 0.0070000002 -196.8699951 0.2607799768 2.5769872665 3.7769999504 106.50000000 81.083221436 81.000000000 81.000000000 1.8580000401 102.11347961 2000.0000000 2000.0000000 2.2209999561
 3113.8825684  -999.250000 6.0310001373 6.0310001373 0.0060000001 -196.8699951 0.2656599879 2.5750088692 3.7990000248 108.37500000 80.985122681 81.000000000 81.000000000 1.8940000534 101.57135773 2000.0000000 2000.0000000 2.2030000687
 3114.0349121  -999.250000 6.0510001183 6.0510001183 0.0049999999 -196.8699951 0.2685600221 2.5685753822 3.8159999847 108.31300354 81.084564209 81.000000000 81.000000000 1.9099999666 100.16512299 2000.0000000 2000.0000000 2.2969999313
 3114.1875000  -999.250000 6.1090002060 6.1090002060 0.0060000001 -196.8699951 0.2700099945 2.5607304573 3.8259999752 109.43800354 81.092132568 81.000000000 81.000000000 1.9129999876 98.929397583 2000.0000000 2000.0000000 2.4079999924
 3114.3398438  -999.250000 6.0160002708 6.0160002708 0.0049999999 -196.8699951 0.2685399950 2.5546269417 4.0570001602 111.75000000 81.084449768 81.000000000 81.000000000 1.9040000439 98.009956360 2000.0000000 2000.0000000 2.5469999313
 3114.4921875  -999.250000 6.0160002708 6.0160002708 0.0160000008 -196.8699951 0.2670800090 2.5584602356 4.4340000153 112.68800354 80.992851257 81.000000000 81.000000000 1.8990000486 96.057991028 2000.0000000 2000.0000000 2.4630000591
 3114.6445313  -999.250000 6.0149998665 6.0149998665 0.0430000015 -196.8699951 0.2660900056 2.5700461864 4.5310001373 112.68800354 80.967170715 81.000000000 81.000000000 1.9010000229 96.650276184 2000.0000000 2000.0000000 2.2520000935
 3114.7971191  -999.250000 5.9770002365 5.9770002365 0.0689999983 -196.8699951 0.2636800110 2.5767519474 4.4790000916 112.68800354 81.076637268 81.000000000 81.000000000 1.9010000229 97.714447021 2000.0000000 2000.0000000 2.1270000935
 3114.9494629  -999.250000 5.9720001221 5.9720001221 0.0750000030 -196.8699951 0.2651599944 2.5754926205 4.3449997902 112.68800354 81.091705322 81.000000000 81.000000000 1.8890000582 98.923950195 2000.0000000 2000.0000000 2.1310000420
 3115.1018066  -999.250000 5.8819999695 5.8819999695 0.0829999968 -196.8699951 0.2681300044 2.5836260319 3.9619998932 112.68800354 81.089744568 81.000000000 81.000000000 1.8650000095 97.810264587 2000.0000000 2000.0000000 2.1389999390
 3115.2541504  -999.250000 5.8280000687 5.8280000687 0.0780000016 -196.8699951 0.2739199996 2.5885438919 3.9049999714 112.68800354 80.981910706 81.000000000 81.000000000 1.8509999514 94.725852966 2000.0000000 2000.0000000 2.1679999828
 3115.4067383  -999.250000 5.8790001869 5.8790001869 0.0599999987 -196.8699951 0.2724500000 2.5851120949 3.6849999428 112.68800354 81.068740845 81.000000000 81.000000000 1.8489999771 93.307243347 2000.0000000 2000.0000000 2.2149999142
 3115.5590820  -999.250000 5.9219999313 5.9219999313 0.0410000011 -196.8699951 0.2704899907 2.5753502846 3.8389999866 112.68800354 80.999496460 81.000000000 81.000000000 1.8539999723 92.616958618 2000.0000000 2000.0000000 2.2809998989
 3115.7114258  -999.250000 5.9989995956 5.9989995956 0.0379999988 -196.8699951 0.2675900161 2.5734763145 4.0599999428 112.68800354 81.083885193 81.000000000 81.000000000 1.8609999418 92.638000488 2000.0000000 2000.0000000 2.3199999332
 3115.8637695  -999.250000 5.9219999313 5.9219999313 0.0439999998 -196.8699951 0.2690099776 2.5697124004 4.2699999809 112.68800354 80.986129761 81.000000000 81.000000000 1.8869999647 93.602195740 2000.0000000 2000.0000000 2.3050000668
 3116.0161133  -999.250000 5.9219999313 5.9219999313 0.0480000004 -196.8699951 0.2656300068 2.5656294823 4.3369998932 112.68800354 81.077148438 81.000000000 81.000000000 1.9910000563 93.785560608 2000.0000000 2000.0000000 2.2769999504
 3116.1687012  -999.250000 5.9380002022 5.9380002022 0.0540000014 -196.8699951 0.2660700083 2.5636980534 3.9440000057 112.68800354 81.091705322 81.000000000 81.000000000 2.2300000191 93.850723267 2000.0000000 2000.0000000 2.4059998989
 3116.3210449  -999.250000 5.9489998817 5.9489998817 0.0410000011 -196.8699951 0.2607600093 2.5616145134 3.7320001125 112.68800354 81.092208862 81.000000000 81.000000000 2.7090001106 94.395805359 2000.0000000 2000.0000000 2.6519999504
 3116.4733887  -999.250000 5.9499998093 5.9499998093 0.0219999999 -196.8699951 0.2636599839 2.5604598522 3.9119999409 112.68800354 81.092208862 81.000000000 81.000000000 3.0099999905 95.576210022 2000.0000000 2000.0000000 2.7290000916
 3116.6257324  -999.250000 6.0160002708 6.0160002708 0.0049999999 -196.8699951 0.2627400160 2.5490720272 4.1269998550 112.68800354 81.092208862 81.000000000 81.000000000 2.9860000610 96.035064697 2000.0000000 2000.0000000 2.5390000343
 3116.7783203  -999.250000 6.0160002708 6.0160002708 0.0020000001 -196.8699951 0.2690300047 2.5354464054 4.4730000496 112.68800354 81.092208862 81.000000000 81.000000000 2.9749999046 94.889259338 2000.0000000 2000.0000000 2.1519999504
 3116.9306641  -999.250000 6.0149998665 6.0149998665 0.0130000003 -196.8699951 0.2675699890 2.5258121490 4.5079998970 112.68800354 81.092208862 81.000000000 81.000000000 2.9609999657 92.790466309 2000.0000000 2000.0000000 2.2109999657
 3117.0830078  -999.250000 5.9450001717 5.9450001717 0.0379999988 -196.8699951 0.2656100094 2.5321078300 4.4800000191 112.68800354 81.083023071 81.000000000 81.000000000 2.9769999981 91.056297302 2000.0000000 2000.0000000 2.3729999065
 3117.2353516  -999.250000 5.9019999504 5.9019999504 0.0710000023 -196.8699951 0.2626999915 2.5476281643 4.4349999428 112.68800354 80.977836609 81.000000000 81.000000000 3.0099999905 90.417915344 2000.0000000 2000.0000000 2.4939999580
 3117.3879395  -999.250000 5.8480000496 5.8480000496 0.0860000029 -196.8699951 0.2631800175 2.5603201389 4.1770000458 112.68800354 81.077232361 81.000000000 81.000000000 3.0550000668 90.249572754 2000.0000000 2000.0000000 2.5550000668
 3117.5402832  -999.250000 5.8400001526 5.8400001526 0.0820000023 -196.8699951 0.2631800175 2.5627965927 3.8480000496 112.68800354 81.004165649 81.000000000 81.000000000 3.0590000153 92.005813599 2000.0000000 2000.0000000 2.5450000763
 3117.6926270  -999.250000 5.8990001678 5.8990001678 0.0640000030 -196.8699951 0.2626899779 2.5577940941 3.6770000458 112.68800354 81.072883606 81.000000000 81.000000000 2.9430000782 94.352134705 2000.0000000 2000.0000000 2.4820001125
 3117.8449707  -999.250000 5.9730000496 5.9730000496 0.0419999994 -196.8699951 0.2617200017 2.5562708378 3.8169999123 112.68800354 80.969879150 81.000000000 81.000000000 2.7539999485 97.589591980 2000.0000000 2000.0000000 2.5940001011
