# LAS format log file from PETREL
# Project units are specified as depth units
#==================================================================
~Version information
VERS.   2.0:
WRAP.   NO:
#==================================================================
~Well
STRT .m      474.34408569 :
STOP .m      3047.1606445 :
STEP .m     0.00000000 :
NULL .        -999.250000 :
COMP.           : COMPANY
WELL.  15/9-9   : WELL
FLD.            : FIELD
LOC.            : LOCATION
SRVC.           : SERVICE COMPANY
DATE.  2018-09-11 14:48:05   : Log Export Date {yyyy-MM-dd HH:mm:ss}
PROV.           : PROVINCE
UWI.   15/9-9   : UNIQUE WELL ID
API.            : API NUMBER
#==================================================================
~Curve
DEPT .m                   : DEPTH
Lithology_geolink ._      : Lithology_geolink
DCAL .in                  : DCAL
CALI .in                  : CALI
DRHO .g/cm3               : DRHO
NPHI .m3/m3               : NPHI
RHOB .g/cm3               : RHOB
GR .gAPI                  : GR
DTC .us/ft                : DTC
DT .us/ft                 : DT
DTE .us/ft                : DTE
RDEP .ohm.m               : RDEP
SP .mV                    : SP
RSHA .ohm.m               : RSHA
RXO .ohm.m                : RXO
RMED .ohm.m               : RMED
~Parameter
#==================================================================
~Ascii
 474.34408569  -999.250000 20.141000748 20.141000748 -0.870999992  -999.250000 1.9975999594 56.062999725 176.02333069 168.37500000 168.37500000 1.7069759369 83.716537476 1.4659951925  -999.250000 1.4659951925
 474.49649048  -999.250000 20.141000748 20.141000748 -0.919000030  -999.250000 1.9975999594 56.062999725 176.00944519 168.37500000 168.37500000 1.7139831781 84.863227844 1.4819614887  -999.250000 1.4819614887
 474.64889526  -999.250000 20.139999390 20.139999390 -0.878000021  -999.250000 1.9975999594 56.062999725 175.99893188 168.37500000 168.37500000 1.7139999866 84.404113770 1.5069398880  -999.250000 1.5069398880
 474.80130005  -999.250000 20.123998642 20.123998642 -0.825999975  -999.250000 1.9975999594 56.062999725 176.00709534 168.37500000 168.37500000 1.7249735594 84.400009155 1.5229614973  -999.250000 1.5229614973
 474.95367432  -999.250000 20.094999313 20.094999313 -0.750999987  -999.250000 1.9975999594 56.062999725 176.02334595 168.37500000 168.37500000 1.7279921770 84.394012451 1.5180130005  -999.250000 1.5180130005
 475.10607910  -999.250000 20.093999863 20.093999863 -0.740000010  -999.250000 1.9975999594 56.062999725 176.02046204 168.37500000 168.37500000 1.7299947739 84.168586731 1.5080260038  -999.250000 1.5080260038
 475.25848389  -999.250000 20.093999863 20.093999863 -0.759000003  -999.250000 1.9975999594 56.062999725 176.03680420 168.37500000 168.37500000 1.7369831800 84.387474060 1.5040096045  -999.250000 1.5040096045
 475.41088867  -999.250000 20.093999863 20.093999863 -0.794000030  -999.250000 1.9975999594 56.062999725 176.02333069 168.37500000 168.37500000 1.7399928570 84.386009216 1.5089879036  -999.250000 1.5089879036
 475.56329346  -999.250000 20.093999863 20.093999863 -0.829999983  -999.250000 1.9975999594 56.062999725 176.02047729 168.37500000 168.37490845 1.7459856272 84.182487488 1.5099976063  -999.250000 1.5099976063
 475.71569824  -999.250000 20.093999863 20.093999863 -0.902999997  -999.250000 1.9975999594 55.955024719 176.01231384 168.33010864 168.37348938 1.7519855499 84.345603943 1.5119951963  -999.250000 1.5119951963
 475.86810303  -999.250000 20.093999863 20.093999863 -0.972999990  -999.250000 1.9975999594 55.166156769 176.00709534 167.78033447 168.36904907 1.7529976368 83.901069641 1.5100047588  -999.250000 1.5100047588
 476.02047729  -999.250000 20.093999863 20.093999863 -0.904999971  -999.250000 1.9975999594 60.346923828 176.02334595 167.49075317 168.36274719 1.7520025969 83.421249390 1.5179791451  -999.250000 1.5179791451
 476.17288208  -999.250000 20.094999313 20.094999313 -0.824000001  -999.250000 1.9975999594 59.734249115 176.02046204 169.30326843 168.35641479 1.7430235147 83.150703430 1.5289714336  -999.250000 1.5289714336
 476.32528687  -999.250000 20.110998154 20.110998154 -0.787999988  -999.250000 1.9976451397 59.749996185 176.00987244 191.20225525 168.35006714 1.7310287952 82.941505432 1.5389759541  -999.250000 1.5389759541
 476.47769165  -999.250000 20.136999130 20.136999130 -0.797999978  -999.250000 1.9976999760 57.984355927 175.96374512 192.64863586 168.34375000 1.7200264931 83.129539490 1.5300215483  -999.250000 1.5300215483
 476.63009644  -999.250000 20.122999191 20.122999191 -0.861000001  -999.250000 1.9976999760 56.146366119 175.96331787 193.46104431 168.33740234 1.7190023661 83.169898987 1.5080528259  -999.250000 1.5080528259
 476.78250122  -999.250000 20.083997726 20.083997726 -0.880999982  -999.250000 1.9976999760 57.091808319 175.99363708 193.44802856 168.33105469 1.7209951878 83.417404175 1.4730840921  -999.250000 1.4730840921
 476.93490601  -999.250000 20.063997269 20.063997269 -0.930000007  -999.250000 1.9976999760 57.051006317 175.98007202 173.03816223 168.32472229 1.7209999561 83.847961426 1.4470624924  -999.250000 1.4470624924
 477.08728027  -999.250000 20.072999954 20.072999954 -0.875999987  -999.250000 1.9977451563 59.338085175 175.94740295 170.99021912 168.31834412 1.7200026512 83.727317810 1.4400182962  -999.250000 1.4400182962
 477.23968506  -999.250000 20.093000412 20.093000412 -0.813000023  -999.250000 1.9977999926 59.535919189 175.97433472 170.36349487 168.31201172 1.7170071602 84.581939697 1.4509735107  -999.250000 1.4509735107
 477.39208984  -999.250000 20.099000931 20.099000931 -0.787999988  -999.250000 1.9977999926 59.548995972 175.98005676 170.64033508 168.30564880 1.7150048018 84.411415100 1.4859158993  -999.250000 1.4859158993
 477.54449463  -999.250000 20.103998184 20.103998184 -0.845000029  -999.250000 1.9977999926 57.344444275 175.92533875 194.61526489 168.29934692 1.7179929018 84.414993286 1.5049543381  -999.250000 1.5049543381
 477.69689941  -999.250000 20.093999863 20.093999863 -0.837000012  -999.250000 1.9977999926 57.926879883 175.92066956 193.91082764 168.29301453 1.7249832153 84.885864258 1.5119831562  -999.250000 1.5119831562
 477.84930420  -999.250000 20.093999863 20.093999863 -0.847000003  -999.250000 1.9978451729 58.031978607 175.94740295 166.88510132 168.28665161 1.7339783907 84.651565552 1.5010265112  -999.250000 1.5010265112
 478.00170898  -999.250000 20.093999863 20.093999863 -0.815999985  -999.250000 1.9979000092 58.216960907 175.92044067 166.38204956 168.28030396 1.7409832478 84.652992249 1.4980071783  -999.250000 1.4980071783
 478.15408325  -999.250000 20.093999863 20.093999863 -0.867999971  -999.250000 1.9979000092 55.784973145 175.88778687 166.50965881 168.27394104 1.7449896336 84.879409790 1.5109661818  -999.250000 1.5109661818
 478.30648804  -999.250000 20.093999863 20.093999863 -0.857999980  -999.250000 1.9979000092 52.359687805 175.91474915 167.04672241 168.26760864 1.7519831657 84.449035645 1.5080071688  -999.250000 1.5080071688
 478.45889282  -999.250000 20.093999863 20.093999863 -0.818000019  -999.250000 1.9979000092 50.913288116 175.89350891 168.67208862 168.26124573 1.7579855919 85.087455750 1.4970264435  -999.250000 1.4970264435
 478.61129761  -999.250000 20.099000931 20.099000931 -0.820999980  -999.250000 1.9979451895 51.858810425 175.87106323 168.97029114 168.25494385 1.7619903088 84.666023254 1.4910144806  -999.250000 1.4910144806
 478.76370239  -999.250000 20.103002548 20.103002548 -0.815999985  -999.250000 1.9980000257 51.409091949 175.93403625 168.76649475 168.24861145 1.7570120096 84.433555603 1.4989807606  -999.250000 1.4989807606
 478.91610718  -999.250000 20.094999313 20.094999313 -0.832000017  -999.250000 1.9980000257 52.297821045 175.89350891 168.73207092 168.24224854 1.7510144711 84.595611572 1.4890240431  -999.250000 1.4890240431
 479.06851196  -999.250000 20.100000381 20.100000381 -0.790000021  -999.250000 1.9980000257 50.858291626 175.90905762 168.58734131 168.23591614 1.7450144291 84.227882385 1.4800215960  -999.250000 1.4800215960
 479.22088623  -999.250000 20.120000839 20.120000839 -0.794000030  -999.250000 1.9980000257 52.394386292 175.92616272 169.33305359 168.22955322 1.7400130033 84.569107056 1.4800000191  -999.250000 1.4800000191
 479.37329102  -999.250000 20.137998581 20.137998581 -0.787999988  -999.250000 1.9980000257 53.752727509 175.82820129 169.68812561 168.22325134 1.7380048037 84.151008606 1.4919711351  -999.250000 1.4919711351
 479.52569580  -999.250000 20.123998642 20.123998642 -0.801999986  -999.250000 1.9980452061 54.747802734 175.84411621 169.38572693 168.21690369 1.7190456390 83.712051392 1.5029735565  -999.250000 1.5029735565
 479.67810059  -999.250000 20.101999283 20.101999283 -0.762000024  -999.250000 1.9981000423 55.354877472 175.87443542 169.14558411 168.21055603 1.7409472466 83.818740845 1.5089855194  -999.250000 1.5089855194
 479.83050537  -999.250000 20.120000839 20.120000839 -0.718999982  -999.250000 1.9981000423 55.793910980 175.86083984 169.15399170 168.20422363 1.7400023937 83.248374939 1.5089999437  -999.250000 1.5089999437
 479.98291016  -999.250000 20.138999939 20.138999939 -0.691999972  -999.250000 1.9981000423 56.740810394 175.82820129 169.38943481 168.19786072 1.7340143919 83.649032593 1.5030144453  -999.250000 1.5030144453
 480.13531494  -999.250000 20.141000748 20.141000748 -0.757000029  -999.250000 1.9981000423 54.518447876 175.85514832 168.25971985 168.19151306 1.7250216007 84.114875793 1.4920264482  -999.250000 1.4920264482
