# LAS format log file from PETREL
# Project units are specified as depth units
#==================================================================
~Version information
VERS.   2.0:
WRAP.   NO:
#==================================================================
~Well
STRT .m      3164.4333496 :
STOP .m      4228.6425781 :
STEP .m     0.00000000 :
NULL .        -999.250000 :
COMP.           : COMPANY
WELL.  15/9-19B   : WELL
FLD.            : FIELD
LOC.            : LOCATION
SRVC.           : SERVICE COMPANY
DATE.  2018-09-11 14:48:02   : Log Export Date {yyyy-MM-dd HH:mm:ss}
PROV.           : PROVINCE
UWI.   15/9-19 B   : UNIQUE WELL ID
API.            : API NUMBER
#==================================================================
~Curve
DEPT .m                   : DEPTH
Lithology_geolink ._      : Lithology_geolink
CALI .in                  : CALI
RHOB .g/cm3               : RHOB
GR .gAPI                  : GR
DTC .us/ft                : DTC
RDEP .ohm.m               : RDEP
RSHA .ohm.m               : RSHA
RMED .ohm.m               : RMED
~Parameter
#==================================================================
~Ascii
# ...
 3661.8671875 11.000000000 6.2739000320 2.5418999195 16.163341522 64.351905823 6.6365156174 5.7653527260 5.6890416145
 3662.0195313 11.000000000 6.2564992905 2.5571000576 15.839144707 65.724899292 4.1169543266 3.6935386658 3.5203242302
 3662.1718750 11.000000000 6.2551999092 2.5636000633 19.307342529 66.411026001 3.2783300877 2.9076032639 2.7877228260
 3662.3242188 11.000000000 6.2662000656 2.5641000271 27.815515518 66.616874695 3.1766211987 2.7891025543 2.7435207367
 3662.4765625 11.000000000 6.2814998627 2.5659999847 33.053546906 66.350929260 5.8099288940 5.2856712341 5.1890149117
 3662.6291504 11.000000000 6.2905001640 2.5622000694 30.265279770 65.931915283 8.0096321106 7.1375818253 6.9434890747
 3662.7814941 11.000000000 6.2937002182 2.5827999115 24.018560410 65.318466187 6.5308184624 5.8775935173 5.8122439384
 3662.9338379 11.000000000 6.2977995872 2.6008000374 21.126600266 64.798454285 4.4226975441 4.1280751228 3.9072060585
 3663.0861816 11.000000000 6.3038997650 2.5768001080 19.754209518 64.523681641 3.6106441021 3.4888679981 3.1626677513
 3663.2387695 11.000000000 6.3069000244 2.5692999363 18.004329681 64.634857178 3.1394259930 3.0322568417 2.7684452534
 3663.3911133 11.000000000 6.3055005074 2.5660998821 14.453709602 64.466316223 3.0227367878 2.8627772331 2.6577303410
 3663.5434570 11.000000000 6.3012995720 2.5483000278 8.9736299515 64.037643433 2.9290738106 2.6698055267 2.5588154793
 3663.6958008 11.000000000 6.2980999947 2.5287001133 6.5615415573 63.505458832 7.9626359940 7.7852725983 6.8076944351
 3663.8483887 11.000000000 6.3008995056 2.5125000477 5.8994808197 63.044834137 10.144563675 9.9280157089 8.5934371948
 3664.0007324 11.000000000 6.3053998947 2.5148999691 5.0833244324 62.993480682 3.5902144909 3.4209299088 3.1835675240
 3664.1530762 11.000000000 6.3074994087 2.5213999748 4.9120793343 62.981632233 2.6033830643 2.3814337254 2.2918868065
 3664.3054199 11.000000000 6.3148999214 2.5271999836 5.1493945122 62.626846313 3.1550476551 3.0268781185 2.7834525108
 3664.4580078 11.000000000 6.3295998573 2.5429000854 5.7080926895 61.718849182 4.0596666336 3.8890275955 3.6910603046
 3664.6103516 11.000000000 6.3336000443 2.5638000965 6.1735901833 60.797142029 4.9245686531 5.0222902298 4.5535736084
 3664.7626953 11.000000000 6.3380002975 2.5681002140 6.5419816971 59.825355530 6.8998785019 7.0729074478 6.2200903893
 3664.9150391 11.000000000 6.3428997993 2.5690999031 6.9672484398 59.046928406 7.6343755722 7.6386198997 6.7130751610
 3665.0673828 11.000000000 6.3446998596 2.5725998878 7.3092975616 58.380496979 7.9922275543 7.8368444443 6.9465231895
 3665.2199707 11.000000000 6.3404998779 2.5783998966 7.5566062927 57.943164825 7.6355757713 7.1781620979 6.7118034363
 3665.3723145 11.000000000 6.3178000450 2.5987999439 7.4026684761 57.742820740 7.6917538643 6.9179053307 6.6825928688
 3665.5246582 11.000000000 6.3144998550 2.6138999462 7.2576007843 57.570087433 8.5377931595 7.3592271805 7.2408113480
 3665.6770020 11.000000000 6.3481998444 2.6289000511 6.8839550018 57.686649323 10.214365959 8.6206693649 8.5552043915
 3665.8295898 11.000000000 6.3703999519 2.6259000301 6.7975277901 58.345226288 9.3129072189 7.7855043411 7.9288144112
 3665.9819336 11.000000000 6.3772997856 2.6057000160 7.9961009026 60.195960999 6.7865777016 5.8201212883 6.0282788277
 3666.1342773 11.000000000 6.3794999123 2.5829999447 11.931707382 62.976032257 3.3450877666 3.1534595490 2.9614427090
 3666.2866211 11.000000000 6.3828005791 2.5687003136 18.172805786 65.803741455 2.6516919136 2.4420320988 2.2400813103
 3666.4392090 11.000000000 6.3801999092 2.5748999119 21.926105499 68.079292297 2.3358833790 1.8398368359 1.9799679518
 3666.5915527 12.000000000 6.3754000664 2.5826001167 25.640941620 70.012413025 2.5492086411 2.1011140347 2.2197570801
 3666.7438965 12.000000000 6.3762001991 2.5892000198 29.529367447 71.638778687 2.8671734333 2.4847457409 2.5678715706
 3666.8962402 12.000000000 6.3688001633 2.6066999435 29.755739212 72.310203552 3.5991461277 3.1995809078 3.1740336418
 3667.0485840 12.000000000 6.3463001251 2.6264998913 27.719963074 72.378166199 4.1864914894 3.8086109161 3.6915721893
 3667.2011719 12.000000000 6.3340997696 2.6242001057 25.388738632 72.229827881 2.8714888096 2.5061562061 2.5519220829
 3667.3535156 12.000000000 6.3401999474 2.6201999187 24.373579025 71.927856445 2.4636573792 2.1816158295 2.2478566170
 3667.5058594 12.000000000 6.3477997780 2.5950000286 24.982955933 71.776885986 2.8740971088 2.5661778450 2.5955433846
 3667.6582031 12.000000000 6.3422994614 2.5689001083 24.704219818 71.582847595 3.4954431057 3.1133327484 3.1211476326
 3667.8107910 12.000000000 6.3400998116 2.5762000084 23.464450836 71.360916138 3.6457443237 3.2569601536 3.2744014263
 3667.9631348 12.000000000 6.3383002281 2.5715999603 21.421983719 71.023773193 3.2545499802 2.8395264149 2.9322249889
 3668.1154785 12.000000000 6.3408999443 2.5567998886 20.103044510 70.882324219 3.2233977318 2.7937877178 2.9479031563
 3668.2678223 12.000000000 6.3457999229 2.5601999760 20.381282806 70.961044312 3.2839200497 2.8480737209 3.0117449760
 3668.4204102 12.000000000 6.3456997871 2.5762999058 21.556941986 71.426506042 3.0467903614 2.6444454193 2.7278110981
 3668.5727539 12.000000000 6.3480000496 2.5747001171 22.286443710 72.021385193 2.9191200733 2.5650768280 2.6066403389
 3668.7250977 12.000000000 6.3465003967 2.5724999905 22.189748764 72.819282532 2.8689520359 2.5501332283 2.5691673756
 3668.8774414 12.000000000 6.3365001678 2.5715999603 22.533658981 73.617210388 2.5894470215 2.2589457035 2.3615474701
 3669.0297852 12.000000000 6.3351001740 2.5592000484 23.322460175 74.436195374 2.3071098328 2.0381805897 2.1418163776
 3669.1823730 12.000000000 6.3313999176 2.5508999825 25.983915329 75.620109558 2.2513313293 2.0264477730 2.0899074078
 3669.3347168 12.000000000 6.3262000084 2.5576000214 28.201381683 76.683021545 2.3539490700 2.1030306816 2.1539938450
 3669.4870605 12.000000000 6.3334002495 2.5676999092 29.061786652 77.258354187 1.9488432407 1.7486525774 1.8390626907
 3669.6394043 12.000000000 6.3397002220 2.5818998814 28.992101669 76.987426758 2.2259008884 1.9691010714 2.0657794476
 3669.7919922 12.000000000 6.3372998238 2.5820999146 29.303937912 76.128402710 2.7875280380 2.4683952332 2.5516583920
 3669.9443359 12.000000000 6.3382000923 2.5678999424 29.063199997 75.443382263 2.8898718357 2.5293025970 2.6323354244
 3670.0966797 12.000000000 6.3537001610 2.5546998978 27.063106537 74.932830811 2.9964976311 2.5927488804 2.7162709236
 3670.2490234 12.000000000 6.3702998161 2.5525999069 23.139142990 74.891136169 2.6826767921 2.3731813431 2.4480485916
 3670.4016113 12.000000000 6.3653998375 2.5548999310 21.676691055 75.227874756 2.1080412865 1.8636306524 1.9180752039
 3670.5539551 12.000000000 6.3403005600 2.5574998856 23.733663559 76.000259399 2.2766795158 2.0289711952 2.0661730766
 3670.7062988 12.000000000 6.3152999878 2.5653998852 26.144559860 77.220863342 2.3255679607 2.0728018284 2.1112277508
 3670.8586426 12.000000000 6.3034000397 2.5708000660 27.928693771 78.004737854 1.8693058491 1.7000653744 1.7545739412
 3671.0109863 12.000000000 6.3176999092 2.5652000904 29.608911514 78.268791199 1.7484601736 1.6162619591 1.6762117147
 3671.1635742 12.000000000 6.3534994125 2.5599000454 30.864543915 77.764846802 1.8515274525 1.6575901508 1.7485194206
 3671.3159180 12.000000000 6.3713998795 2.5532999039 31.528348923 77.123878479 2.8575022221 2.4961333275 2.5961647034
 3671.4682617 12.000000000 6.3680000305 2.5471000671 28.869340897 75.924781799 3.2323172092 2.8281009197 2.9476051331
 3671.6206055 12.000000000 6.3699998856 2.5420999527 22.411251068 74.416893005 2.9941763878 2.6421241760 2.7019495964
 3671.7731934 12.000000000 6.3660001755 2.5380001068 19.263607025 72.666763306 3.2292716503 2.8448412418 2.9202065468
 3671.9255371 12.000000000 6.3432998657 2.5571999550 18.706035614 71.878684998 3.4069714546 3.0442657471 3.0776259899
 3672.0778809 12.000000000 6.3319001198 2.5701000690 19.105205536 71.745971680 3.1395533085 2.8354644775 2.8440840244
