# LAS format log file from PETREL
# Project units are specified as depth units
#==================================================================
~Version information
VERS.   2.0:
WRAP.   NO:
#==================================================================
~Well
STRT .m      1517.9528809 :
STOP .m      3212.6408691 :
STEP .m     0.00000000 :
NULL .        -999.250000 :
COMP.           : COMPANY
WELL.  15/9-23   : WELL
FLD.            : FIELD
LOC.            : LOCATION
SRVC.           : SERVICE COMPANY
DATE.  2018-09-11 14:48:03   : Log Export Date {yyyy-MM-dd HH:mm:ss}
PROV.           : PROVINCE
UWI.   15/9-23   : UNIQUE WELL ID
API.            : API NUMBER
#==================================================================
~Curve
DEPT .m                   : DEPTH
Lithology_geolink ._      : Lithology_geolink
DCAL .in                  : DCAL
CALI .in                  : CALI
BS .in                    : BS
ROP .m/h                  : ROP
DRHO .g/cm3               : DRHO
NPHI .m3/m3               : NPHI
RHOB .g/cm3               : RHOB
PEF .b/e                  : PEF
GR .gAPI                  : GR
DTC .us/ft                : DTC
DTS .us/ft                : DTS
RDEP .ohm.m               : RDEP
RMED .ohm.m               : RMED
~Parameter
#==================================================================
~Ascii
# ...
 2417.7224121 6.0000000000 0.1964997798 12.446498871 12.250000954 30.065099716 0.0516000018 0.3431000113 2.3194000721 5.6486001015 107.23500061 122.04920197 259.64028931 0.5961999893 0.6118000150
 2417.8750000 5.0000000000 0.2082996070 12.458298683 12.250000954 55.061981201 0.0526000001 0.3499000072 2.3364000320 5.7880001068 106.24099731 120.95950317 258.80859375 0.6040980816 0.6230852604
 2418.0273438 5.0000000000 0.1746998131 12.424699783 12.250000954 56.587566376 0.0540000014 0.3253999949 2.3534998894 5.9524998665 87.757202148 120.90379333 257.37188721 0.6029039025 0.6139035225
 2418.1796875 5.0000000000 0.0978002474 12.347800255 12.250000954 43.406188965 0.0545999967 0.3192999959 2.3638000488 6.0324997902 92.185798645 121.14440155 256.43289185 0.6053152084 0.6161369681
 2418.3320313 5.0000000000 0.1878996044 12.437899590 12.250000954 35.787906647 0.0491000041 0.3470000029 2.3440001011 5.8654999733 101.53780365 120.44049835 253.99821472 0.6147999763 0.6391999722
 2418.4843750 5.0000000000 0.2576999962 12.507699966 12.250000954 30.252799988 0.0553000011 0.3384000063 2.3578999043 5.8853998184 105.63839722 121.35790253 255.27568054 0.6378999949 0.6427999735
 2418.6369629 5.0000000000 0.1906996071 12.440698624 12.250000954 24.883359909 0.0593999997 0.3276999891 2.3733999729 5.9965000153 97.886703491 119.96384430 253.20957947 0.6419155598 0.6519153714
 2418.7893066 5.0000000000 0.1684999019 12.418499947 12.250000954 27.127449036 0.0570000000 0.2888000011 2.3738000393 5.9777998924 98.003601074 120.35668945 251.18750000 0.6516001821 0.6615089178
 2418.9416504 5.0000000000 0.1962995827 12.446299553 12.250000954 44.005012512 0.0485000014 0.3138999939 2.3440999985 5.7955999374 101.96350098 119.85000610 247.36019897 0.6517000198 0.6671000123
 2419.0939941 5.0000000000 0.1836003959 12.433600426 12.250000954 54.878597260 0.0482000001 0.3467000127 2.3318998814 5.6975998878 104.35590363 119.27089691 244.77947998 0.6520000100 0.6668000221
 2419.2465820 5.0000000000 0.1559000015 12.405900002 12.250000954 51.831336975 0.0520999990 0.3540000021 2.3412001133 5.6199002266 102.16790009 119.03800964 248.20280457 0.6571000218 0.6673002839
 2419.3989258 5.0000000000 0.0478000641 12.297800064 12.250000954 50.794952393 0.0469000004 0.3526000082 2.3487000465 5.5500998497 103.82820129 118.97900391 251.80259705 0.6570739150 0.6674796939
 2419.5512695 5.0000000000 0.0146999387 12.264699936 12.250000954 53.064632416 0.0297999997 0.3445000052 2.3351998329 5.4541001320 106.25029755 118.73400879 248.75119019 0.6408180594 0.6548171043
 2419.7036133 5.0000000000 0.1985998154 12.448599815 12.250000954 47.276187897 0.0428000018 0.3327000141 2.3484001160 5.7262997627 95.645500183 118.60858917 247.22579956 0.6521000266 0.6654999852
 2419.8562012 5.0000000000 0.1820002198 12.432000160 12.250000954 43.059753418 0.0568999983 0.3278999925 2.3650999069 6.0706000328 93.765502930 118.94612885 253.24598694 0.6624836922 0.6768925190
 2420.0085449 5.0000000000 0.0880002975 12.337999344 12.250000954 48.089317322 0.0577000007 0.3370999992 2.3754000664 6.2929000854 93.097503662 119.21122742 258.39730835 0.6522904038 0.6721905470
 2420.1608887 5.0000000000 0.0825996399 12.332598686 12.250000954 50.834400177 0.0474999994 0.3145000041 2.3671998978 6.0311999321 101.02940369 119.60037231 255.22331238 0.6462816000 0.6662734151
 2420.3132324 5.0000000000 0.1276998967 12.377699852 12.250000954 50.896907806 0.0405000001 0.2865999937 2.3603000641 5.8306999207 105.96379852 119.76509857 254.01820374 0.6348000169 0.6496999860
 2420.4655762 5.0000000000 0.2124004215 12.462400436 12.250000954 53.681983948 0.0522000007 0.3048999906 2.3606998920 6.2041001320 108.94159698 120.25509644 257.40411377 0.6136999726 0.6341999769
 2420.6181641 5.0000000000 0.1330004036 12.382999420 12.250000954 56.278533936 0.0535000004 0.3310999870 2.3601000309 6.1820998192 105.64140320 120.70817566 260.16909790 0.6011151075 0.6059006453
 2420.7705078 5.0000000000 0.0946998596 12.344700813 12.250000954 58.031879425 0.0423999988 0.3325000107 2.3589000702 5.8228998184 102.79499817 121.62799072 264.16949463 0.6104938984 0.6064383984
 2420.9228516 5.0000000000 0.1241998971 12.374199867 12.250000954 56.889614105 0.0463999994 0.3337000012 2.3613998890 5.8467998505 95.694900513 122.43710327 264.77450562 0.6067000031 0.6927999854
 2421.0751953 5.0000000000 0.1280003041 12.378000259 12.250000954 57.842998505 0.0478000008 0.3454000056 2.3638999462 5.8520998955 99.120399475 122.91630554 262.64999390 0.7770000100 0.6850000024
 2421.2277832 5.0000000000 -0.012499810 12.237501144 12.250000954 66.090240479 0.0502999984 0.3366999924 2.3998000622 5.7522001266 97.498497009 121.37041473 250.34410095 0.7954325676 0.9338709712
 2421.3801270 5.0000000000 0.0040998459 12.254101753 12.250000954 62.874092102 0.0480000004 0.3278000057 2.4014000893 5.7407999039 95.616302490 118.75822449 236.05430603 0.8156285286 0.9156164527
 2421.5324707 5.0000000000 0.0750999525 12.325098991 12.250000954 56.761520386 0.0412000008 0.3300000131 2.4033999443 5.7178997993 98.410003662 116.22132111 231.79391479 0.7710199952 0.8012226820
 2421.6848145 5.0000000000 0.1182003021 12.368201256 12.250000954 54.222911835 0.0392000005 0.3328000009 2.3994998932 5.7021999359 96.030700684 113.99220276 231.07150269 0.7210999727 0.7530000210
 2421.8374023 5.0000000000 0.0925998762 12.342599869 12.250000954 56.925441742 0.0458000004 0.3407000005 2.3977999687 5.4623999596 91.170402527 112.69918060 233.47561646 0.7091751695 0.7251580358
 2421.9897461 5.0000000000 0.0936002731 12.343600273 12.250000954 62.188266754 0.0375999995 0.3400000036 2.3677999973 5.1795997620 106.58840179 112.43334961 233.73591614 0.6936596036 0.6989652514
 2422.1420898 5.0000000000 0.0900001526 12.340000153 12.250000954 68.717514038 0.0362999998 0.3449999988 2.3524000645 5.5079002380 106.94719696 113.46056366 232.12069702 0.6684977412 0.6773129106
 2422.2944336 5.0000000000 0.2223996967 12.472399712 12.250000954 71.905487061 0.0394000001 0.3648000062 2.3594000340 5.6831998825 109.42420197 114.87930298 232.12330627 0.6671000123 0.6854000092
 2422.4467773 5.0000000000 0.2552995980 12.505299568 12.250000954 72.056182861 0.0653000027 0.3481999934 2.3794999123 6.2642998695 99.463500977 116.10610199 234.96939087 0.6887999773 0.6984000206
 2422.5993652 5.0000000000 0.0979003981 12.347900391 12.250000954 85.903938293 0.0790000036 0.3208000064 2.3982000351 6.3825001717 100.84929657 118.17745972 241.52830505 0.6760976315 0.6881956458
 2422.7517090 5.0000000000 0.1689997017 12.418999672 12.250000954 82.962860107 0.0557000004 0.3291000128 2.3891000748 5.8474001884 101.22440338 118.65331268 242.81520081 0.6746321917 0.6855273843
 2422.9040527 5.0000000000 0.1899003983 12.439900398 12.250000954 63.159191132 0.0549000017 0.3357999921 2.3798999786 5.8410000801 99.898002625 118.66349792 244.25599670 0.6947000027 0.7026000023
 2423.0563965 5.0000000000 0.0965995789 12.346599579 12.250000954 59.635490417 0.0505999997 0.3400000036 2.3735001087 5.7618999481 99.440399170 118.15140533 245.05749512 0.7069000006 0.7222999930
 2423.2089844 6.0000000000 0.0747003630 12.324700356 12.250000954 53.242687225 0.0416000001 0.3422999978 2.3594999313 5.6925997734 105.30680084 116.43649292 248.36238098 0.7083695531 0.7160951495
 2423.3613281 6.0000000000 0.2073002011 12.457300186 12.250000954 48.328800201 0.0531000011 0.3316999972 2.3824999332 5.8955001831 110.69360352 116.54615021 247.45300293 0.6893476844 0.7129947543
 2423.5136719 6.0000000000 0.2407999188 12.490799904 12.250000954 57.066390991 0.0564999990 0.3325000107 2.3875999451 5.8903999329 109.50330353 117.32598877 244.70039368 0.6567000151 0.6473000050
 2423.6660156 6.0000000000 0.2213000804 12.471300125 12.250000954 75.263900757 0.0632999986 0.3337999880 2.3979001045 6.3400001526 108.06289673 117.94339752 241.79188538 0.6532999873 0.6546999812
 2423.8186035 6.0000000000 0.1966000199 12.446599960 12.250000954 78.768943787 0.0667999983 0.3404999971 2.4031000137 6.6697001457 105.11620331 117.22388458 243.08219910 0.6554629803 0.6713179350
