# LAS format log file from PETREL
# Project units are specified as depth units
#==================================================================
~Version information
VERS.   2.0:
WRAP.   NO:
#==================================================================
~Well
STRT .m      489.99996948 :
STOP .m      1530.0000000 :
STEP .m     0.00000000 :
NULL .        -999.250000 :
COMP.           : COMPANY
WELL.  15/9-22   : WELL
FLD.            : FIELD
LOC.            : LOCATION
SRVC.           : SERVICE COMPANY
DATE.  2018-09-11 14:48:02   : Log Export Date {yyyy-MM-dd HH:mm:ss}
PROV.           : PROVINCE
UWI.   15/9-22   : UNIQUE WELL ID
API.            : API NUMBER
#==================================================================
~Curve
DEPT .m                   : DEPTH
Lithology_geolink ._      : Lithology_geolink
BS .in                    : BS
GR .gAPI                  : GR
RDEP .ohm.m               : RDEP
RMED .ohm.m               : RMED
~Parameter
#==================================================================
~Ascii
# ...
 1387.5999756  -999.250000 17.500000000 123.38999939 1.3589999676 1.0909999609
 1387.7000732  -999.250000 17.500000000 120.37100220 1.3680000305 1.0770000219
 1387.8000488  -999.250000 17.500000000 118.00499725 1.3500000238 1.0939999819
 1387.9000244  -999.250000 17.500000000 116.99800110 1.3350000381 1.0909999609
 1388.0001221  -999.250000 17.500000000 116.62400055 1.3379317522 1.0939414501
 1388.0999756  -999.250000 17.500000000 114.80722046 1.3099999428 1.0700000525
 1388.1999512  -999.250000 17.500000000 110.98667145 1.3009999990 1.0479999781
 1388.2999268  -999.250000 17.500000000 107.27852631 1.2790000439 1.0210000277
 1388.4000244  -999.250000 17.500000000 105.12162781 1.2710000277 0.9990000129
 1388.5000000  -999.250000 17.500000000 103.84855652 1.2599999905 0.9840000272
 1388.5999756  -999.250000 17.500000000 102.13999939 1.2410000563 0.9760000110
 1388.6999512  -999.250000 17.500000000 99.279998779 1.2389999628 0.9850000143
 1388.8000488  -999.250000 17.500000000 95.478996277 1.2300000191 0.9990000129
 1388.9000244  -999.250000 17.500000000 92.857002258 1.2289999723 0.9959999919
 1389.0000000  -999.250000 17.500000000 92.153999329 1.2309999466 0.9980000257
 1389.1000977  -999.250000 17.500000000 91.384002686 1.2299585342 0.9900195003
 1389.2000732  -999.250000 17.500000000 89.596000671 1.2130171061 0.9980061054
 1389.2999268  -999.250000 17.500000000 87.743263245 1.2269999981 1.0030000210
 1389.3999023  -999.250000 17.500000000 86.424217224 1.2029999495 0.9800000191
 1389.5000000  -999.250000 17.500000000 85.439201355 1.2170000076 0.9959999919
 1389.5999756  -999.250000 17.500000000 85.170326233 1.2029999495 0.9890000224
 1389.6999512  -999.250000 17.500000000 86.992774963 1.2020000219 0.9929999709
 1389.8000488  -999.250000 17.500000000 90.119003296 1.2089999914 0.9819999933
 1389.9000244  -999.250000 17.500000000 92.195999146 1.2020000219 0.9919999838
 1390.0000000  -999.250000 17.500000000 92.189002991 1.2150000334 1.0130000114
 1390.0999756  -999.250000 17.500000000 91.908996582 1.2200000286 1.0319999456
 1390.2000732  -999.250000 17.500000000 92.666999817 1.2170000076 1.0319999456
 1390.3000488  -999.250000 17.500000000 96.599998474 1.2280147076 1.0390110016
 1390.4000244  -999.250000 17.500000000 103.32599640 1.2399853468 1.0479841232
 1390.4998779  -999.250000 17.500000000 108.62903595 1.2280000448 1.0349999666
 1390.5999756  -999.250000 17.500000000 110.10820770 1.2109999657 1.0290000439
 1390.6999512  -999.250000 17.500000000 108.52993011 1.2120000124 1.0329999924
 1390.7999268  -999.250000 17.500000000 105.98421478 1.2120000124 1.0160000324
 1390.9000244  -999.250000 17.500000000 103.99642944 1.2109999657 1.0449999571
 1391.0000000  -999.250000 17.500000000 102.91000366 1.2009999752 1.0420000553
 1391.0999756  -999.250000 17.500000000 102.08999634 1.2009999752 1.0369999409
 1391.2000732  -999.250000 17.500000000 99.888999939 1.2000000477 0.9959999919
 1391.3000488  -999.250000 17.500000000 95.507003784 1.2000000477 1.0019999743
 1391.4000244  -999.250000 17.500000000 89.114997864 1.2009999752 1.0080000162
 1391.5001221  -999.250000 17.500000000 83.291999817 1.1919853687 0.9970194697
 1391.6000977  -999.250000 17.500000000 80.460998535 1.1859951019 1.0049962997
 1391.6999512  -999.250000 17.500000000 80.582847595 1.1820000410 1.0019999743
 1391.7999268  -999.250000 17.500000000 81.714622498 1.1929999590 1.0119999647
 1391.9000244  -999.250000 17.500000000 82.123504639 1.1940000057 1.0269999504
 1392.0000000  -999.250000 17.500000000 80.801620483 1.1820000410 1.0140000582
 1392.0999756  -999.250000 17.500000000 78.666999817 1.1940000057 1.0249999762
 1392.1999512  -999.250000 17.500000000 77.504997253 1.1829999685 1.0279999971
 1392.3000488  -999.250000 17.500000000 77.740997314 1.1890000105 1.0230000019
 1392.4000244  -999.250000 17.500000000 78.686996460 1.1790000200 1.0160000324
 1392.5000000  -999.250000 17.500000000 79.484001160 1.1770000458 1.0099999905
 1392.6000977  -999.250000 17.500000000 80.522003174 1.1760389805 1.0060024261
 1392.7000732  -999.250000 17.500000000 82.891998291 1.1920135021 1.0070195198
 1392.7999268  -999.250000 17.500000000 86.302825928 1.2029999495 1.0230000019
 1392.8999023  -999.250000 17.500000000 88.585433960 1.2050000429 1.0349999666
 1393.0000000  -999.250000 17.500000000 87.816947937 1.2109999657 1.0679999590
 1393.0999756  -999.250000 17.500000000 83.246582031 1.2220000029 1.0720000267
 1393.1999512  -999.250000 17.500000000 78.890319824 1.2289999723 1.0970000029
 1393.3000488  -999.250000 17.500000000 78.027999878 1.2269999981 1.0950000286
 1393.4000244  -999.250000 17.500000000 81.152999878 1.2369999886 1.1000000238
 1393.5000000  -999.250000 17.500000000 85.933998108 1.2330000401 1.0880000591
 1393.5999756  -999.250000 17.500000000 89.540000916 1.2269999981 1.0740000010
 1393.7000732  -999.250000 17.500000000 91.112998962 1.2079999447 1.0509999990
 1393.8000488  -999.250000 17.500000000 89.761001587 1.2060072422 1.0499889851
 1393.9000244  -999.250000 17.500000000 86.268997192 1.2119585276 1.0409573317
 1393.9998779  -999.250000 17.500000000 82.922187805 1.1779999733 1.0060000420
 1394.0999756  -999.250000 17.500000000 82.282768250 1.1679999828 1.0080000162
 1394.1999512  -999.250000 17.500000000 85.253372192 1.1720000505 0.9969999790
 1394.2999268  -999.250000 17.500000000 89.759994507 1.1649999619 0.9950000048
 1394.4000244  -999.250000 17.500000000 94.675003052 1.1759999990 1.0000000000
 1394.5000000  -999.250000 17.500000000 98.513000488 1.1749999523 0.9990000129
 1394.5999756  -999.250000 17.500000000 98.651000977 1.1640000343 1.0000000000
 1394.7000732  -999.250000 17.500000000 95.654998779 1.1720000505 1.0060000420
 1394.8000488  -999.250000 17.500000000 93.911003113 1.1679999828 1.0099999905
 1394.9000244  -999.250000 17.500000000 95.353996277 1.1649999619 0.9940000176
 1395.0000000  -999.250000 17.500000000 97.955001831 1.1569926739 0.9839939475
 1395.1000977  -999.250000 17.500000000 98.964996338 1.1509988308 0.9789926410
 1395.1999512  -999.250000 17.500000000 97.698547363 1.1499999762 0.9729999900
 1395.2999268  -999.250000 17.500000000 95.614547729 1.1540000439 0.9530000091
 1395.3999023  -999.250000 17.500000000 95.508255005 1.1430000067 0.9300000072
 1395.5000000  -999.250000 17.500000000 96.521766663 1.1460000277 0.9120000005
 1395.5999756  -999.250000 17.500000000 95.735961914 1.1380000114 0.8989999890
 1395.6999512  -999.250000 17.500000000 93.612998962 1.1410000324 0.8970000148
 1395.8000488  -999.250000 17.500000000 92.938003540 1.1330000162 0.9020000100
 1395.9000244  -999.250000 17.500000000 96.639999390 1.1330000162 0.8889999986
 1396.0000000  -999.250000 17.500000000 102.37699890 1.1380000114 0.8909999728
 1396.1000977  -999.250000 17.500000000 106.32900238 1.1330000162 0.8970000148
 1396.2000732  -999.250000 17.500000000 107.93599701 1.1380060911 0.9129951000
 1396.2999268  -999.250000 17.500000000 108.82891083 1.1430000067 0.9089999795
 1396.3999023  -999.250000 17.500000000 110.85205841 1.1540000439 0.9110000134
 1396.5000000  -999.250000 17.500000000 112.10647583 1.1369999647 0.9010000229
 1396.5999756  -999.250000 17.500000000 110.02655029 1.1440000534 0.8989999890
 1396.6999512  -999.250000 17.500000000 104.69850922 1.1460000277 0.8960000277
 1396.8000488  -999.250000 17.500000000 98.550003052 1.1430000067 0.8970000148
 1396.9000244  -999.250000 17.500000000 93.263000488 1.1330000162 0.9060000181
 1397.0000000  -999.250000 17.500000000 90.133003235 1.1219999790 0.9150000215
 1397.0999756  -999.250000 17.500000000 88.627998352 1.1399999857 0.9169999957
 1397.2000732  -999.250000 17.500000000 88.057998657 1.1310000420 0.9029999971
 1397.3000488  -999.250000 17.500000000 87.210998535 1.1429706812 0.9259743690
 1397.4000244  -999.250000 17.500000000 84.379997253 1.1189864874 0.9049779773
 1397.4998779  -999.250000 17.500000000 80.449615479 1.1080000401 0.8870000243
 1397.5999756  -999.250000 17.500000000 79.758834839 1.1219999790 0.8750000000
 1397.6999512  -999.250000 17.500000000 84.548141479 1.1210000515 0.8690000176
