# LAS format log file from PETREL
# Project units are specified as depth units
#==================================================================
~Version information
VERS.   2.0:
WRAP.   NO:
#==================================================================
~Well
STRT .m      489.99996948 :
STOP .m      1530.0000000 :
STEP .m     0.00000000 :
NULL .        -999.250000 :
COMP.           : COMPANY
WELL.  15/9-22   : WELL
FLD.            : FIELD
LOC.            : LOCATION
SRVC.           : SERVICE COMPANY
DATE.  2018-09-11 14:48:02   : Log Export Date {yyyy-MM-dd HH:mm:ss}
PROV.           : PROVINCE
UWI.   15/9-22   : UNIQUE WELL ID
API.            : API NUMBER
#==================================================================
~Curve
DEPT .m                   : DEPTH
Lithology_geolink ._      : Lithology_geolink
BS .in                    : BS
GR .gAPI                  : GR
RDEP .ohm.m               : RDEP
RMED .ohm.m               : RMED
~Parameter
#==================================================================
~Ascii
# ...
 1112.1999512  -999.250000 17.500000000 103.68199921 1.4539999962 1.2979999781
 1112.3000488  -999.250000 17.500000000 106.12300110 1.4760475159 1.3069707155
 1112.4000244  -999.250000 17.500000000 108.91699982 1.5150182247 1.2829939127
 1112.5000000  -999.250000 17.500000000 109.29900360 1.5299999714 1.2779999971
 1112.5999756  -999.250000 17.500000000 106.33661652 1.4880000353 1.3040000200
 1112.6999512  -999.250000 17.500000000 104.04380035 1.4420000315 1.3650000095
 1112.8000488  -999.250000 17.500000000 104.06500244 1.4839999676 1.2740000486
 1112.9000244  -999.250000 17.500000000 106.03700256 1.4849902391 1.2260365486
 1113.0000000  -999.250000 17.500000000 108.73799896 1.4769999981 1.2560000420
 1113.0999756  -999.250000 17.500000000 110.63668060 1.4759999514 1.2510000467
 1113.1999512  -999.250000 17.500000000 110.33836365 1.4830000401 1.2289999723
 1113.3000488  -999.250000 17.500000000 107.36100006 1.4349999428 1.2430000305
 1113.4000244  -999.250000 17.500000000 102.76699829 1.3980000019 1.2480000257
 1113.5000000  -999.250000 17.500000000 98.948997498 1.4149999619 1.2469999790
 1113.5999756  -999.250000 17.500000000 99.415428162 1.4129999876 1.2380000353
 1113.6999512  -999.250000 17.500000000 104.49778748 1.4170000553 1.2319999933
 1113.8000488  -999.250000 17.500000000 109.71099854 1.4270000458 1.2669999599
 1113.9000244  -999.250000 17.500000000 110.87200165 1.4170000553 1.2810000181
 1114.0000000  -999.250000 17.500000000 108.69000244 1.4420000315 1.2769999504
 1114.0999756  -999.250000 17.500000000 105.61599731 1.4349999428 1.2879999876
 1114.1999512  -999.250000 17.500000000 102.89332581 1.4379999638 1.3029999733
 1114.2999268  -999.250000 17.500000000 100.28418732 1.4290000200 1.3200000525
 1114.4000244  -999.250000 17.500000000 98.527999878 1.4320000410 1.3229999542
 1114.5000000  -999.250000 17.500000000 98.791999817 1.4659999609 1.3129999638
 1114.5999756  -999.250000 17.500000000 101.47200012 1.4800000191 1.2860000134
 1114.7000732  -999.250000 17.500000000 103.43000031 1.4850281477 1.3060146570
 1114.7999268  -999.250000 17.500000000 102.77280426 1.5080000162 1.3179999590
 1114.9000244  -999.250000 17.500000000 101.01200104 1.5249999762 1.3179999590
 1115.0000000  -999.250000 17.500000000 99.888374329 1.5319999456 1.3250000477
 1115.0999756  -999.250000 17.500000000 98.930000305 1.5319999456 1.3370000124
 1115.2000732  -999.250000 17.500000000 95.977996826 1.5060135126 1.3550072908
 1115.3000488  -999.250000 17.500000000 91.661003113 1.5170060396 1.3609913588
 1115.4000244  -999.250000 17.500000000 90.599998474 1.5219999552 1.3539999723
 1115.5000000  -999.250000 17.500000000 94.222999573 1.5440000296 1.3480000496
 1115.5999756  -999.250000 17.500000000 98.365943909 1.5290000439 1.3339999914
 1115.6999512  -999.250000 17.500000000 99.496002197 1.5299999714 1.3320000172
 1115.8000488  -999.250000 17.500000000 97.570999146 1.5459927320 1.3400073051
 1115.9000244  -999.250000 17.500000000 94.290000916 1.5399743319 1.3459950686
 1116.0000000  -999.250000 17.500000000 91.989997864 1.5190000534 1.3420000076
 1116.0999756  -999.250000 17.500000000 91.083106995 1.5520000458 1.3090000153
 1116.1999512  -999.250000 17.500000000 91.704238892 1.5770000219 1.2970000505
 1116.3000488  -999.250000 17.500000000 94.586997986 1.5870000124 1.3049999475
 1116.4000244  -999.250000 17.500000000 99.402999878 1.5860097408 1.3470377922
 1116.5000000  -999.250000 17.500000000 102.74099731 1.5939999819 1.3780000210
 1116.5999756  -999.250000 17.500000000 101.75220490 1.5989999771 1.4190000296
 1116.6999512  -999.250000 17.500000000 99.708496094 1.5470000505 1.4689999819
 1116.8000488  -999.250000 17.500000000 98.666999817 1.6699999571 1.4559999704
 1116.9000244  -999.250000 17.500000000 98.650001526 1.6959999800 1.3789999485
 1117.0000000  -999.250000 17.500000000 99.144996643 1.6610000134 1.3969999552
 1117.0999756  -999.250000 17.500000000 99.141006470 1.6050000191 1.4270000458
 1117.1999512  -999.250000 17.500000000 97.618858337 1.6000000238 1.4450000525
 1117.3000488  -999.250000 17.500000000 96.030998230 1.6200000048 1.4609999657
 1117.4000244  -999.250000 17.500000000 96.110000610 1.6150000095 1.4809999466
 1117.5000000  -999.250000 17.500000000 97.110000610 1.6119999886 1.4759999514
 1117.5999756  -999.250000 17.500000000 96.679000854 1.5850000381 1.5219999552
 1117.6999512  -999.250000 17.500000000 95.087944031 1.5900000334 1.4659999609
 1117.7999268  -999.250000 17.500000000 93.828536987 1.5579999685 1.4500000477
 1117.9000244  -999.250000 17.500000000 93.844001770 1.5579999685 1.4290000200
 1118.0000000  -999.250000 17.500000000 95.553909302 1.5570000410 1.3860000372
 1118.0999756  -999.250000 17.500000000 97.898002625 1.5709999800 1.4880000353
 1118.2000732  -999.250000 17.500000000 98.021003723 1.6330097914 1.5300011635
 1118.2999268  -999.250000 17.500000000 95.896591187 1.6410000324 1.5310000181
 1118.4000244  -999.250000 17.500000000 96.084999084 1.5980000496 1.5030000210
 1118.5000000  -999.250000 17.500000000 99.433914185 1.5820000172 1.4680000544
 1118.5999756  -999.250000 17.500000000 101.83699799 1.5659999847 1.4340000153
 1118.7000732  -999.250000 17.500000000 101.41600037 1.6140280962 1.4049572945
 1118.8000488  -999.250000 17.500000000 99.250000000 1.6370682716 1.3700060844
 1118.9000244  -999.250000 17.500000000 96.116996765 1.6929999590 1.3750000000
 1119.0000000  -999.250000 17.500000000 92.501998901 1.6250000000 1.4509999752
 1119.0999756  -999.250000 17.500000000 90.615303040 1.5629999638 1.5080000162
 1119.1999512  -999.250000 17.500000000 91.782997131 1.6169999838 1.4529999495
 1119.3000488  -999.250000 17.500000000 93.202003479 1.6609694958 1.4529889822
 1119.4000244  -999.250000 17.500000000 93.785003662 1.6360135078 1.4439256191
 1119.5000000  -999.250000 17.500000000 94.054000854 1.6469999552 1.3830000162
 1119.5999756  -999.250000 17.500000000 94.520431519 1.6440000534 1.3739999533
 1119.6999512  -999.250000 17.500000000 94.752716064 1.6759999990 1.3609999418
 1119.8000488  -999.250000 17.500000000 93.832000732 1.6959999800 1.3539999723
 1119.9000244  -999.250000 17.500000000 91.280998230 1.7210463285 1.4070377350
 1120.0000000  -999.250000 17.500000000 89.388999939 1.7589999437 1.4379999638
 1120.0999756  -999.250000 17.500000000 90.793281555 1.8049999475 1.5099999905
 1120.1999512  -999.250000 17.500000000 93.391822815 1.7949999571 1.5599999428
 1120.3000488  -999.250000 17.500000000 96.113998413 1.7699999809 1.7039999962
 1120.4000244  -999.250000 17.500000000 98.135002136 1.7339999676 1.8070000410
 1120.5000000  -999.250000 17.500000000 97.504997253 1.7819999456 1.6139999628
 1120.5999756  -999.250000 17.500000000 93.616996765 1.7680000067 1.4600000381
 1120.6999512  -999.250000 17.500000000 90.592689514 1.7300000191 1.4079999924
 1120.7999268  -999.250000 17.500000000 90.854675293 1.6380000114 1.3940000534
 1120.9000244  -999.250000 17.500000000 91.441001892 1.6059999466 1.3750000000
 1121.0000000  -999.250000 17.500000000 91.814002991 1.6030000448 1.3279999495
 1121.0999756  -999.250000 17.500000000 92.885002136 1.6139999628 1.2920000553
 1121.1999512  -999.250000 17.500000000 94.350212097 1.5809999704 1.2929999828
 1121.2999268  -999.250000 17.500000000 95.259895325 1.5290000439 1.3150000572
 1121.4000244  -999.250000 17.500000000 94.932998657 1.4739999771 1.3730000257
 1121.5000000  -999.250000 17.500000000 94.421623230 1.4689999819 1.3359999657
 1121.5999756  -999.250000 17.500000000 94.614997864 1.5169999599 1.2539999485
 1121.7000732  -999.250000 17.500000000 96.359001160 1.4789755344 1.2790342569
 1121.7999268  -999.250000 17.500000000 100.43801117 1.4589999914 1.3070000410
 1121.9000244  -999.250000 17.500000000 106.71499634 1.4160000086 1.3589999676
 1122.0000000  -999.250000 17.500000000 114.06003571 1.4379999638 1.3300000429
 1122.0999756  -999.250000 17.500000000 118.59346771 1.4659999609 1.2779999971
 1122.2000732  -999.250000 17.500000000 116.70899963 1.4670000076 1.2979999781
 1122.3000488  -999.250000 17.500000000 111.33899689 1.4569755793 1.2870279551
