# LAS format log file from PETREL
# Project units are specified as depth units
#==================================================================
~Version information
VERS.   2.0:
WRAP.   NO:
#==================================================================
~Well
STRT .m      485.02883911 :
STOP .m      3207.3493652 :
STEP .m     0.00000000 :
NULL .        -999.250000 :
COMP.           : COMPANY
WELL.  15/9-15   : WELL
FLD.            : FIELD
LOC.            : LOCATION
SRVC.           : SERVICE COMPANY
DATE.  2018-09-11 14:48:00   : Log Export Date {yyyy-MM-dd HH:mm:ss}
PROV.           : PROVINCE
UWI.   15/9-15   : UNIQUE WELL ID
API.            : API NUMBER
#==================================================================
~Curve
DEPT .m                   : DEPTH
Lithology_geolink ._      : Lithology_geolink
DCAL .in                  : DCAL
CALI .in                  : CALI
BS .in                    : BS
DRHO .g/cm3               : DRHO
NPHI .m3/m3               : NPHI
RHOB .g/cm3               : RHOB
PEF .b/e                  : PEF
GR .gAPI                  : GR
DTC .us/ft                : DTC
DT .us/ft                 : DT
RDEP .ohm.m               : RDEP
SP .mV                    : SP
RSHA .ohm.m               : RSHA
RXO .ohm.m                : RXO
RMED .ohm.m               : RMED
~Parameter
#==================================================================
~Ascii
# ...
 1573.3168945  -999.250000 14.222999573 14.288866043 12.250000954 0.0739775673 0.4839608669 1.8598779440 2.4919519424 68.246192932 144.09698486 163.49717712 0.8939679265 70.199996948 0.8769615293 0.4276355803 0.8769615293
 1573.4693604  -999.250000 14.363000870 14.415433884 12.250000954 0.0919711739 0.5428982973 1.8623167276 2.5609447956 69.622795105 144.58624268 165.37199402 0.8949983716 67.949996948 0.9099471569 0.4170581400 0.9099471569
 1573.6217041  -999.250000 14.714000702 14.665125847 12.250000954 0.1059775651 0.5541144013 1.8821618557 2.5809841156 66.754608154 144.77388000 165.37500000 0.8949999809 67.449996948 0.9589214921 0.3568847775 0.9589214921
 1573.7740479  -999.250000 14.863999367 14.836874962 12.250000954 0.1089927927 0.5169994235 1.9068248272 2.5959999561 66.812850952 144.75143433 165.12559509 0.9049759507 66.699996948 0.9420408010 0.3667854369 0.9420408010
 1573.9265137  -999.250000 14.902999878 14.888524055 12.250000954 0.1139919907 0.4578098059 1.9156844616 2.6280000210 65.065811157 144.51704407 165.00019836 0.8970128298 66.699996948 0.9280223846 0.4283040762 0.9280223846
 1574.0788574  -999.250000 14.883000374 14.870889664 12.250000954 0.1110072061 0.4357901812 1.9103900194 2.6619999409 64.314804077 144.16395569 163.12950134 0.8979976177 66.699996948 0.8930840492 0.4168150425 0.8930840492
 1574.2313232  -999.250000 14.814000130 14.836561203 12.250000954 0.0950256363 0.4509832263 1.9017870426 2.6879999638 67.682594299 143.99894714 163.00019836 0.9039903879 65.699996948 0.8820176721 0.3746356666 0.8820176721
 1574.3836670  -999.250000 14.836998940 14.864158630 12.250000954 0.0900120139 0.5044981241 1.8957068920 2.7260000706 68.248649597 143.98173523 163.37409973 0.9079903960 66.949996948 0.8680335879 0.4050758183 0.8680335879
 1574.5361328  -999.250000 14.970000267 14.945847511 12.250000954 0.0999839753 0.5611639023 1.8916053772 2.7490000725 69.622795105 144.02684021 163.00059509 0.9000127912 65.949996948 0.8610112071 0.4421211481 0.8610112071
 1574.6884766  -999.250000 15.003998756 14.985562325 12.250000954 0.1069831848 0.5584092736 1.8967351913 2.7860000134 66.695060730 144.35762024 163.74821472 0.9109736085 63.200004578 0.8719735742 0.3923036754 0.8719735742
 1574.8409424  -999.250000 14.963000298 14.988824844 12.250000954 0.1000112221 0.5191345811 1.9173104763 2.8129999638 66.438407898 145.03012085 165.99638367 0.9169903994 65.449996948 0.8899711370 0.3653671443 0.8899711370
 1574.9932861  -999.250000 15.027001381 15.033549309 12.250000954 0.0960096121 0.4736857116 1.9419519901 2.8059999943 69.680198669 145.55833435 168.11988831 0.9150048494 63.950000763 0.9129447341 0.4230297804 0.9129447341
 1575.1457520  -999.250000 15.116999626 15.120182037 12.250000954 0.0989951938 0.4657687247 1.9520560503 2.7479999065 67.192008972 145.44122314 167.50100708 0.9090095758 65.699996948 0.9359631538 0.4154978395 0.9359631538
 1575.2980957  -999.250000 15.218999863 15.207367897 12.250000954 0.1079783887 0.4737642705 1.9477348328 2.7179999352 66.875755310 144.92756653 165.13070679 0.8920408487 65.449996948 0.9270216227 0.4141368568 0.9270216227
 1575.4505615  -999.250000 15.273000717 15.256588936 12.250000954 0.1119935960 0.5008447766 1.9364587069 2.6700000763 63.034080505 144.70866394 164.37559509 0.8700176477 66.449996948 0.8950256705 0.4301754236 0.8950256705
 1575.6029053  -999.250000 15.260000229 15.242452621 12.250000954 0.1139967963 0.5232581496 1.9235842228 2.5280001163 66.310371399 144.67034912 165.74890137 0.8650040030 65.199996948 0.8620264530 0.4217779636 0.8620264530
 1575.7552490  -999.250000 15.175999641 15.203228951 12.250000954 0.0960432366 0.5022477508 1.8973823786 2.3889999390 66.874099731 144.29383850 164.12760925 0.8600080013 65.949996948 0.8240608573 0.4045939744 0.8240608573
 1575.9077148  -999.250000 15.203000069 15.271155357 12.250000954 0.0820224360 0.4727744758 1.8440192938 2.4100000858 65.938751221 143.90917969 162.12660217 0.8530055881 66.199996948 0.8040160537 0.5052385330 0.8040160537
 1576.0600586  -999.250000 15.505999565 15.534588814 12.250000954 0.0740192160 0.4830068052 1.7773594856 2.5580000877 65.001502991 144.11558533 162.99859619 0.8510032296 65.949996948 0.8030015826 0.5073912740 0.8030015826
 1576.2125244  -999.250000 15.923000336 15.843664169 12.250000954 0.0730016008 0.5597850680 1.7323096991 2.7330000401 65.874298096 144.73291016 165.49800110 0.8569951653 65.449996948 0.8039992452 0.4000812471 0.8039992452
 1576.3648682  -999.250000 16.014999390 15.894832611 12.250000954 0.0710048079 0.5992138982 1.7368669510 2.8320000172 63.878204346 144.91459656 166.74800110 0.8579983711 66.449996948 0.8259647489 0.3117177784 0.8259647489
 1576.5173340  -999.250000 15.619000435 15.663090706 12.250000954 0.0600176267 0.5858824253 1.7807805538 2.8410000801 60.003105164 144.07575989 164.12710571 0.8839791417 67.949996948 0.8579743505 0.2779743671 0.8579743505
 1576.6696777  -999.250000 15.404999733 15.439913750 12.250000954 0.0599999987 0.5363889337 1.8274277449 2.8670001030 59.031776428 142.15756226 159.12901306 0.9059823751 65.199996948 0.9069607258 0.3192707002 0.9069607258
 1576.8221436  -999.250000 15.333999634 15.340021133 12.250000954 0.0699839741 0.5279598832 1.8593150377 3.0280001163 62.403297424 139.92396545 151.38121033 0.9179903865 68.449996948 0.9369759560 0.4339131415 0.9369759560
 1576.9744873  -999.250000 15.288000107 15.288398743 12.250000954 0.0819711760 0.5410777926 1.8842027187 3.2400000095 63.405197144 138.32974243 147.75289917 0.9379839897 65.949996948 0.9869599342 0.3866575062 0.9869599342
 1577.1269531  -999.250000 15.244000435 15.229823112 12.250000954 0.0909855738 0.5433247089 1.9115228653 3.2709999084 66.872222900 138.39125061 146.00140381 0.9479920268 66.699996948 0.9600216150 0.3559730053 0.9600216150
 1577.2792969  -999.250000 15.142999649 15.144027710 12.250000954 0.0929951966 0.5216296911 1.9384351969 3.0859999657 70.934745789 139.54835510 153.49397278 0.9509975910 67.199996948 0.9320223927 0.4251530170 0.9320223927
 1577.4317627  -999.250000 15.046999931 15.037633896 12.250000954 0.1019855738 0.5471184254 1.9542167187 2.9010000229 76.308700562 140.28027344 153.99960327 0.9559959769 66.199996948 0.9180111885 0.4052970409 0.9180111885
 1577.5841064  -999.250000 14.913999557 14.900649071 12.250000954 0.1069919914 0.5678834915 1.9592311382 2.6970000267 73.876953125 140.37730408 154.00000000 0.9510039687 67.199996948 0.9090071917 0.4172897339 0.9090071917
 1577.7364502  -999.250000 14.727998734 14.729431152 12.250000954 0.0900408328 0.5680596232 1.9579627514 2.5120000839 67.073913574 140.35124207 153.50077820 0.9380208254 65.699996948 0.9070032239 0.3868326545 0.9070032239
 1577.8889160  -999.250000 14.548999786 14.581204414 12.250000954 0.0650400594 0.5186089277 1.9516668320 2.3559999466 67.562599182 141.24505615 153.99960327 0.9290072322 67.199996948 0.9129951596 0.4572022259 0.9129951596
 1578.0412598  -999.250000 14.501999855 14.515731812 12.250000954 0.0420552418 0.4852268398 1.9380326271 2.2630000114 67.500099182 142.71133423 161.73759460 0.9280015826 64.449996948 0.8940303922 0.5348102450 0.8940303922
 1578.1937256  -999.250000 14.510999680 14.514225960 12.250000954 0.0340128206 0.4752716422 1.9231604338 2.2269999981 71.809547424 143.57484436 162.37448120 0.9230039716 63.699996948 0.8969976306 0.4991261065 0.8969976306
 1578.3460693  -999.250000 14.532999992 14.531064034 12.250000954 0.0300096069 0.4742631018 1.9179236889 2.2890000343 65.822608948 143.89903259 162.99899292 0.9010352492 68.199996948 0.9059855938 0.4945650995 0.9059855938
 1578.4985352  -999.250000 14.547000885 14.537162781 12.250000954 0.0329951905 0.4814726114 1.9219615459 2.4700000286 69.310195923 144.25788879 163.49958801 0.8760200143 67.449996948 0.9020032287 0.5205149055 0.9020032287
 1578.6508789  -999.250000 14.520999908 14.524902344 12.250000954 0.0519543663 0.5119122267 1.9159953594 2.5150001049 69.499847412 144.68106079 165.37350464 0.8440256119 66.449996948 0.8930072188 0.4783734083 0.8930072188
 1578.8033447  -999.250000 14.510999680 14.522571564 12.250000954 0.0809535235 0.5181252956 1.8952445984 2.4960000515 74.745796204 145.20822144 165.74969482 0.8240160346 64.949996948 0.8720167875 0.4053031206 0.8720167875
