# LAS format log file from PETREL
# Project units are specified as depth units
#==================================================================
~Version information
VERS.   2.0:
WRAP.   NO:
#==================================================================
~Well
STRT .m      3164.4333496 :
STOP .m      4228.6425781 :
STEP .m     0.00000000 :
NULL .        -999.250000 :
COMP.           : COMPANY
WELL.  15/9-19B   : WELL
FLD.            : FIELD
LOC.            : LOCATION
SRVC.           : SERVICE COMPANY
DATE.  2018-09-11 14:48:02   : Log Export Date {yyyy-MM-dd HH:mm:ss}
PROV.           : PROVINCE
UWI.   15/9-19 B   : UNIQUE WELL ID
API.            : API NUMBER
#==================================================================
~Curve
DEPT .m                   : DEPTH
Lithology_geolink ._      : Lithology_geolink
CALI .in                  : CALI
RHOB .g/cm3               : RHOB
GR .gAPI                  : GR
DTC .us/ft                : DTC
RDEP .ohm.m               : RDEP
RSHA .ohm.m               : RSHA
RMED .ohm.m               : RMED
~Parameter
#==================================================================
~Ascii
# ...
 4221.4799805 6.0000000000 6.7445998192 2.5641000271 100.39524841 90.450637817 1.1138365269 1.1050429344 1.1291525364
 4221.6323242 6.0000000000 6.8512001038 2.6120998859 99.222518921 88.963989258 1.1563377380 1.1495285034 1.1766419411
 4221.7846680 6.0000000000 6.7196002007 2.5741000175 97.233123779 87.369232178 1.1680971384 1.1583923101 1.1896996498
 4221.9370117 6.0000000000 6.6238999367 2.5388000011 95.310905457 85.544479370 1.1672376394 1.1560249329 1.1896380186
 4222.0893555 5.0000000000 6.6289000511 2.5683000088 94.937103271 85.567497253 1.1790000200 1.1638000011 1.2015000582
 4222.2416992 5.0000000000 6.5869007111 2.5697000027 95.491600037 86.361000061 1.1761000156 1.1527999640 1.1978000402
 4222.3940430 5.0000000000 6.5419001579 2.5243999958 96.411499023 87.970298767 1.1605000496 1.1306999922 1.1829999685
 4222.5463867 5.0000000000 6.5202999115 2.5422999859 96.454002380 87.625503540 1.1601999998 1.1305999756 1.1837999821
 4222.6992188 5.0000000000 6.5124998093 2.5878999233 93.757438660 86.810829163 1.1784936190 1.1545115709 1.2076108456
 4222.8515625 5.0000000000 6.5574002266 2.5889999866 89.032966614 85.226379395 1.2076624632 1.1892676353 1.2421615124
 4223.0039063 5.0000000000 6.4319000244 2.5785000324 85.783966064 83.688056946 1.2270929813 1.2102919817 1.2612891197
 4223.1562500 5.0000000000 6.2852001190 2.5732998848 84.933952332 81.552917480 1.2248871326 1.2077922821 1.2578907013
 4223.3085938 5.0000000000 6.2473001480 2.5773000717 84.791786194 79.752502441 1.2209086418 1.2054165602 1.2550127506
 4223.4609375 5.0000000000 6.2677998543 2.5806000233 84.194396973 78.661499023 1.2236000299 1.2106000185 1.2589999437
 4223.6132813 5.0000000000 6.2663002014 2.5873999596 84.246101379 78.731796265 1.2295000553 1.2167999744 1.2649999857
 4223.7656250 5.0000000000 6.2649006844 2.5919001102 85.357498169 79.034698486 1.2353999615 1.2195999622 1.2698999643
 4223.9184570 5.0000000000 6.3225998878 2.5752999783 87.140274048 79.901725769 1.2411255836 1.2223224640 1.2741255760
 4224.0708008 5.0000000000 6.3653001785 2.5851998329 89.785240173 81.378074646 1.2491179705 1.2293140888 1.2821189165
 4224.2231445 5.0000000000 6.3731994629 2.5590999126 92.882301331 83.521751404 1.2547060251 1.2336984873 1.2880026102
 4224.3754883 5.0000000000 6.3857998848 2.5627999306 94.501510620 85.314277649 1.2566394806 1.2332342863 1.2888396978
 4224.5278320 6.0000000000 6.3989000320 2.5910000801 94.569091797 86.398628235 1.2689776421 1.2439749241 1.3012788296
 4224.6801758 6.0000000000 6.4107003212 2.6008000374 94.689964294 86.842285156 1.2931412458 1.2673418522 1.3258395195
 4224.8325195 6.0000000000 6.4485001564 2.5820000172 94.427902222 86.804199219 1.3059999943 1.2804000378 1.3381999731
 4224.9848633 6.0000000000 6.5371003151 2.5583000183 93.843498230 86.597602844 1.3012000322 1.2755999565 1.3337999582
 4225.1372070 6.0000000000 6.5925002098 2.5385999680 93.959503174 86.362503052 1.2856999636 1.2601000071 1.3198000193
 4225.2900391 6.0000000000 6.6038999557 2.5534000397 95.361129761 86.368888855 1.2818334103 1.2551307678 1.3159303665
 4225.4423828 6.0000000000 6.6711001396 2.5603001118 96.614448547 86.520355225 1.2922003269 1.2646971941 1.3254009485
 4225.5947266 6.0000000000 6.7666997910 2.5711998940 96.815582275 86.755256653 1.2922859192 1.2637842894 1.3256875277
 4225.7470703 6.0000000000 6.8116998672 2.5801000595 96.494941711 87.049354553 1.2878893614 1.2588981390 1.3217942715
 4225.8994141 5.0000000000 6.8372001648 2.5601000786 95.131561279 87.253265381 1.2846214771 1.2583191395 1.3200173378
 4226.0517578 5.0000000000 6.6940999031 2.5706000328 92.435798645 87.241996765 1.2913000584 1.2642999887 1.3253999949
 4226.2041016 5.0000000000 6.5601000786 2.5887999535 90.420303345 86.470298767 1.3112000227 1.2782000303 1.3415000439
 4226.3564453 5.0000000000 6.6016993523 2.6057000160 89.057296753 85.538108826 1.3229000568 1.2862000465 1.3529000282
 4226.5087891 5.0000000000 6.6392002106 2.6282000542 88.029098511 85.103599548 1.3142999411 1.2781000137 1.3451000452
 4226.6616211 5.0000000000 6.6002001762 2.5752000809 88.349639893 85.988441467 1.2958333492 1.2613221407 1.3265304565
 4226.8139648 5.0000000000 6.5528001785 2.4974000454 89.794830322 86.654800415 1.2750012875 1.2369635105 1.3047884703
 4226.9663086 5.0000000000 6.5306000710 2.5028998852 90.552589417 86.871482849 1.2442212105 1.1943913698 1.2700134516
 4227.1186523 5.0000000000 6.4464001656 2.5576999187 90.673072815 86.273300171 1.2196547985 1.1605538130 1.2430605888
 4227.2709961 5.0000000000 6.3713998795 2.5697999001 90.537834167 85.117485046 1.2055658102 1.1461603642 1.2307626009
 4227.4233398 5.0000000000 6.3653001785 2.5754001141 89.642799377 83.210601807 1.1949000359 1.1338000298 1.2190999985
 4227.5756836 5.0000000000 6.3719000816 2.5550999641 88.300796509 81.792800903 1.1758999825 1.1097999811 1.1981999874
 4227.7280273 5.0000000000 6.3756999969 2.5327000618 86.721298218 81.347511292 1.1423000097 1.0719000101 1.1642999649
 4227.8808594 5.0000000000 6.3776001930 2.5302000046 86.108276367 81.337799072 1.1186804771 1.0449836254 1.1395795345
 4228.0332031 5.0000000000 6.3751997948 2.5320999622 87.005073547 81.990242004 1.1125813723 1.0398995876 1.1331810951
 4228.1855469 5.0000000000 6.4100999832 2.5346000195 87.717086792 81.970748901 1.1067640781 1.0397814512 1.1272624731
 4228.3378906 5.0000000000 6.4488000870 2.5401000977 89.248733521 82.736022949 1.0955852270 1.0340009928 1.1155861616
 4228.4902344 5.0000000000 6.4802994728 2.5408999920 92.628990173 83.990264893 1.0910149813 1.0343269110 1.1113128662
 4228.6425781 5.0000000000 6.4882001877 2.5371000767 95.679298401 85.163368225 1.0957431793 1.0427489281 1.1153384447
