# LAS format log file from PETREL
# Project units are specified as depth units
#==================================================================
~Version information
VERS.   2.0:
WRAP.   NO:
#==================================================================
~Well
STRT .m      474.34408569 :
STOP .m      3047.1606445 :
STEP .m     0.00000000 :
NULL .        -999.250000 :
COMP.           : COMPANY
WELL.  15/9-9   : WELL
FLD.            : FIELD
LOC.            : LOCATION
SRVC.           : SERVICE COMPANY
DATE.  2018-09-11 14:48:05   : Log Export Date {yyyy-MM-dd HH:mm:ss}
PROV.           : PROVINCE
UWI.   15/9-9   : UNIQUE WELL ID
API.            : API NUMBER
#==================================================================
~Curve
DEPT .m                   : DEPTH
Lithology_geolink ._      : Lithology_geolink
DCAL .in                  : DCAL
CALI .in                  : CALI
DRHO .g/cm3               : DRHO
NPHI .m3/m3               : NPHI
RHOB .g/cm3               : RHOB
GR .gAPI                  : GR
DTC .us/ft                : DTC
DT .us/ft                 : DT
DTE .us/ft                : DTE
RDEP .ohm.m               : RDEP
SP .mV                    : SP
RSHA .ohm.m               : RSHA
RXO .ohm.m                : RXO
RMED .ohm.m               : RMED
~Parameter
#==================================================================
~Ascii
# ...
 2869.6149902 5.0000000000 10.185999870 10.185999870 0.0729807690 0.5582622290 2.5078928471 69.653709412 92.653663635 89.565299988 89.356445313 2.4753203392 166.63586426 2.4270546436  -999.250000 2.4270546436
 2869.7673340 5.0000000000 10.324001312 10.324001312 0.0600623973 0.6112050414 2.5011851788 67.930328369 93.226097107 90.180038452 89.876182556 2.4242448807 167.08184814 2.4309806824  -999.250000 2.4309806824
 2869.9196777 5.0000000000 10.343999863 10.343999863 0.0440769233 0.6922501326 2.4870336056 67.642349243 93.621681213 90.752250671 90.446174622 2.4190239906 167.16661072 2.2737596035  -999.250000 2.2737596035
 2870.0722656 5.0000000000 10.218998909 10.218998909 0.0290480759 0.7435979247 2.4741542339 65.563674927 93.883499146 91.185615540 90.788032532 2.3512179852 167.39228821 2.0417435169  -999.250000 2.0417435169
 2870.2246094 5.0000000000 10.097999573 10.097999573 0.0309935901 0.6636285186 2.4738445282 61.744258881 93.775199890 90.030715942 90.701423645 2.3330576420 167.63821411 1.8665609360  -999.250000 1.8665609360
 2870.3769531 5.0000000000 10.143999100 10.143999100 0.0459280014 0.5194312334 2.4867615700 61.165729523 93.969177246 91.299858093 90.853775024 2.3558895588 167.81713867 1.7883744240  -999.250000 1.7883744240
 2870.5292969 5.0000000000 10.085000038 10.085000038 0.0559519231 0.4032920897 2.4985210896 61.374977112 94.538002014 92.047424316 91.456115723 2.4057595730 167.39802551 1.7541633844  -999.250000 1.7541633844
 2870.6818848 5.0000000000 10.097999573 10.097999573 0.0579935871 0.3656798005 2.4981169701 67.304931641 94.358276367 91.215682983 91.330116272 2.4927210808 167.05708313 1.7659615278  -999.250000 1.7659615278
 2870.8342285 5.0000000000 10.114999771 10.114999771 0.0390608981 0.3369160891 2.4894912243 66.417915344 93.382621765 88.975196838 90.356803894 2.5239005089 166.23861694 1.8138461113  -999.250000 1.8138461113
 2870.9865723 5.0000000000 9.9589996338 9.9589996338 0.0250672009 0.3275249898 2.4841637611 65.705429077 92.914382935 90.619033813 89.769538879 2.4453790188 166.33352661 2.0468769073  -999.250000 2.0468769073
 2871.1389160 5.0000000000 9.8479986191 9.8479986191 0.0259951930 0.3193461895 2.4857659340 63.114501953 92.360710144 88.262420654 89.114349365 2.3305528164 165.92895508 2.4192066193  -999.250000 2.4192066193
 2871.2915039 5.0000000000 9.9569997787 9.9569997787 0.0379615389 0.3045736551 2.4867660999 62.015495300 90.844566345 86.537506104 87.726615906 2.2103846073 166.10742188 2.5924487114  -999.250000 2.5924487114
 2871.4438477 5.0000000000 10.053000450 10.053000450 0.0409903862 0.3019142449 2.4819531441 65.593490601 90.428527832 87.407188416 87.316612244 2.1143078804 166.10202026 2.4085929394  -999.250000 2.4085929394
 2871.5961914 5.0000000000 10.038001060 10.038001060 0.0439903848 0.3092282414 2.4756684303 67.878692627 91.587203979 89.201240540 88.442504883 2.0412337780 165.86975098 1.9714038372  -999.250000 1.9714038372
 2871.7485352 5.0000000000 10.102000237 10.102000237 0.0400191993 0.3108673692 2.4728283882 68.619461060 93.275924683 91.505905151 90.194320679 1.9643695354 166.08993530 1.8087775707  -999.250000 1.8087775707
 2871.9008789 5.0000000000 10.232999802 10.232999802 0.0390048102 0.3116773963 2.4734942913 66.385810852 94.637237549 91.763809204 91.531036377 1.8654760122 166.36268616 1.7064903975  -999.250000 1.7064903975
 2872.0534668 5.0000000000 10.223999977 10.223999977 0.0290320497 0.3130078614 2.4751534462 64.207962036 95.403045654 92.953178406 92.248435974 1.8012051582 166.60522461 1.7628172636  -999.250000 1.7628172636
 2872.2058105 5.0000000000 10.168000221 10.168000221 0.0240160264 0.3213965297 2.4747929573 68.179206848 95.578010559 92.154571533 92.281845093 1.8000031710 166.85321045 1.8148334026  -999.250000 1.8148334026
 2872.3581543 5.0000000000 10.269000053 10.269000053 0.0080768000 0.3187043667 2.4708473682 67.483421326 94.776031494 90.514900208 91.498130798 1.8427937031 167.29388428 1.8279376030  -999.250000 1.8279376030
 2872.5104980 5.0000000000 10.239999771 10.239999771 0.0060096155 0.3329542577 2.4676260948 66.148429871 94.230361938 91.326049805 91.077331543 1.9047019482 167.11389160 1.8220288754  -999.250000 1.8220288754
 2872.6630859 5.0000000000 10.138999939 10.138999939 0.0189583320 0.4061725736 2.4742949009 64.434494019 94.321617126 91.420707703 91.135559082 1.9957083464 167.56753540 1.8190096617  -999.250000 1.8190096617
 2872.8154297 5.0000000000 10.104999542 10.104999542 0.0429230779 0.5928405523 2.4910705090 67.305755615 93.812248230 89.769309998 90.635635376 2.0946826935 167.41548157 1.8309614658  -999.250000 1.8309614658
 2872.9677734 5.0000000000 10.086999893 10.086999893 0.0619088002 0.7847625017 2.5084855556 66.848251343 93.107299805 90.183975220 90.008567810 2.1626737118 167.81109619 1.8300048113  -999.250000 1.8300048113
 2873.1201172 5.0000000000 10.000000000 10.000000000 0.0570240393 0.7400943637 2.5164811611 66.033920288 92.670623779 88.969871521 89.601196289 2.2177355289 167.88067627 1.8648316860  -999.250000 1.8648316860
 2873.2727051 5.0000000000 9.9479999542 9.9479999542 0.0400544852 0.5597792268 2.5144777298 67.841178894 92.400680542 89.548126221 89.271965027 2.2568750381 168.26576233 2.0264806747  -999.250000 2.0264806747
 2873.4250488 5.0000000000 9.9940004349 9.9940004349 0.0290352553 0.3521328270 2.5110290051 67.944686890 92.274864197 88.565162659 89.064559937 2.2241058350 168.07463074 2.2343332767  -999.250000 2.2343332767
 2873.5773926 5.0000000000 10.050000191 10.050000191 0.0419583321 0.3289267123 2.5087394714 68.802246094 92.238929749 89.132171631 88.949188232 2.1562178135 167.56961060 2.3087627888  -999.250000 2.3087627888
 2873.7297363 5.0000000000 9.9869995117 9.9869995117 0.0489664003 0.3390836418 2.5029342175 66.801658630 92.409172058 89.290245056 89.100318909 2.0793695450 166.85743713 2.3517935276  -999.250000 2.3517935276
 2873.8820801 5.0000000000 10.005000114 10.005000114 0.0509903841 0.3533343375 2.4911210537 65.180778503 92.184608459 88.666023254 89.003753662 1.9874422550 166.12054443 2.1758508682  -999.250000 2.1758508682
 2874.0346680 5.0000000000 10.045999527 10.045999527 0.0300673079 0.4615164101 2.4757795334 60.534912109 92.080749512 89.041770935 88.995498657 1.8713718653 165.65748596 2.0553846359  -999.250000 2.0553846359
 2874.1870117 5.0000000000 10.081000328 10.081000328 0.0260128211 0.6255968809 2.4635264874 59.002880096 92.685150146 89.998924255 89.572082520 1.7812885046 165.64305115 1.8536474705  -999.250000 1.8536474705
 2874.3393555 5.0000000000 10.081999779 10.081999779 0.0200287998 0.6481442451 2.4580132961 63.310203552 93.608558655 90.980285645 90.463745117 1.7292495966 165.62509155 1.7435280085  -999.250000 1.7435280085
 2874.4916992 5.0000000000 10.250000000 10.250000000 0.0249759611 0.5532447696 2.4610385895 66.359367371 94.290153503 91.665710449 91.182723999 1.7051154375 165.42695618 1.6225817204  -999.250000 1.6225817204
 2874.6442871 5.0000000000 10.255000114 10.255000114 0.0359647423 0.3741968870 2.4721050262 66.179626465 94.560653687 91.102821350 91.446914673 1.6750961542 165.89050293 1.6170159578  -999.250000 1.6170159578
 2874.7966309 5.0000000000 10.159999847 10.159999847 0.0350032039 0.3412524164 2.4811408520 65.626777649 94.591964722 92.381881714 91.462738037 1.6710128784 165.91891479 1.7396057844  -999.250000 1.7396057844
 2874.9489746 5.0000000000 10.121000290 10.121000290 0.0300239995 0.3218011260 2.4831011295 65.057739258 93.889312744 88.855026245 90.612976074 1.6879183054 166.15585327 1.8793280125  -999.250000 1.8793280125
 2875.1013184 5.0000000000 10.083999634 10.083999634 0.0210432690 0.3197963536 2.4817302227 64.155349731 92.819824219 89.724716187 89.544830322 1.6919808388 166.40977478 1.9606105089  -999.250000 1.9606105089
 2875.2539063 5.0000000000 10.135000229 10.135000229 0.0279775653 0.3049138784 2.4793486595 61.358974457 92.539657593 89.352210999 89.357269287 1.7238974571 166.87152100 1.9639903307  -999.250000 1.9639903307
 2875.4062500 5.0000000000 10.113000870 10.113000870 0.0240128208 0.3009563088 2.4729287624 63.628673553 92.008979797 88.117965698 88.911224365 1.7897883654 166.18421936 1.9879231453  -999.250000 1.9879231453
