# LAS format log file from PETREL
# Project units are specified as depth units
#==================================================================
~Version information
VERS.   2.0:
WRAP.   NO:
#==================================================================
~Well
STRT .m      3164.4333496 :
STOP .m      4228.6425781 :
STEP .m     0.00000000 :
NULL .        -999.250000 :
COMP.           : COMPANY
WELL.  15/9-19B   : WELL
FLD.            : FIELD
LOC.            : LOCATION
SRVC.           : SERVICE COMPANY
DATE.  2018-09-11 14:48:02   : Log Export Date {yyyy-MM-dd HH:mm:ss}
PROV.           : PROVINCE
UWI.   15/9-19 B   : UNIQUE WELL ID
API.            : API NUMBER
#==================================================================
~Curve
DEPT .m                   : DEPTH
Lithology_geolink ._      : Lithology_geolink
CALI .in                  : CALI
RHOB .g/cm3               : RHOB
GR .gAPI                  : GR
DTC .us/ft                : DTC
RDEP .ohm.m               : RDEP
RSHA .ohm.m               : RSHA
RMED .ohm.m               : RMED
~Parameter
#==================================================================
~Ascii
 3164.4333496 4.0000000000 6.2193999290  -999.250000 41.352977753 123.72869873 0.7727471590  -999.250000 0.7791522145
 3164.5856934 4.0000000000 6.2121000290  -999.250000 43.832321167 124.43379974 0.7397972345  -999.250000 0.6871221066
 3164.7382813 4.0000000000 6.2133998871  -999.250000 44.400264740 124.46749878 0.7380936146  -999.250000 0.7009428740
 3164.8906250 4.0000000000 6.2213001251  -999.250000 42.550373077 123.58399963 0.7360963225  -999.250000 0.7143217921
 3165.0429688 4.0000000000 6.2232999802  -999.250000 41.972255707 121.81280518 0.7337974310  -999.250000 0.7279223204
 3165.1953125 4.0000000000 6.2178997993  -999.250000 42.067199707 120.17290497 0.7322193980  -999.250000 0.7419319153
 3165.3479004 4.0000000000 6.2104005814  -999.250000 41.002243042 119.91339874 0.7443991899  -999.250000 0.8246753812
 3165.5002441 4.0000000000 6.2091999054  -999.250000 39.455959320 121.08879852 0.7753546834  -999.250000 1.0042136908
 3165.6525879 4.0000000000 6.2116003036  -999.250000 37.810443878 122.27629089 0.8094554543  -999.250000 1.1999136209
 3165.8049316 4.0000000000 6.2168002129  -999.250000 36.839450836 122.12480164 0.8440549374  -999.250000 1.3956135511
 3165.9572754 4.0000000000 6.2173995972  -999.250000 36.497772217 120.66400146 0.8783543110  -999.250000 1.5912126303
 3166.1098633 4.0000000000 6.2182998657  -999.250000 36.606597900 118.74059296 0.9123103619  -999.250000 1.7866252661
 3166.2622070 4.0000000000 6.2190999985  -999.250000 36.945995331 116.83699799 0.9467552900  -999.250000 1.9817141294
 3166.4145508 4.0000000000 6.2107000351  -999.250000 34.817790985 114.76170349 0.9812448621  -999.250000 2.1776010990
 3166.5668945 4.0000000000 6.2073993683  -999.250000 31.696105957 112.24230194 1.0091921091  -999.250000 2.3022685051
 3166.7194824 4.0000000000 6.2133002281  -999.250000 31.055753708 109.33129883 1.0042365789  -999.250000 1.9694694281
 3166.8718262 4.0000000000 6.2196998596  -999.250000 44.027145386 106.51069641 0.9844714403  -999.250000 1.4296184778
 3167.0241699 4.0000000000 6.2223997116  -999.250000 61.261581421 104.33039856 0.9665029049  -999.250000 0.9424751997
 3167.1765137 6.0000000000 6.2164001465 2.0883998871 69.157363892 102.82900238 0.8435131311  -999.250000 0.8025258183
 3167.3291016 6.0000000000 6.2154006958 2.0915999413 67.361137390 101.75109863 0.7271822691  -999.250000 0.8808350563
 3167.4814453 6.0000000000 6.2164998055 2.1154999733 58.389114380 100.96419525 0.7528411746  -999.250000 0.8605682850
 3167.6337891 5.0000000000 6.2160000801 2.1294999123 51.355800629 100.43299103 0.7785416842  -999.250000 0.8407669663
 3167.7861328 5.0000000000 6.2189998627 2.0917999744 49.921165466 100.09549713 0.8045411706  -999.250000 0.8201679587
 3167.9384766 5.0000000000 6.2157998085 2.0926001072 48.650527954 99.945503235 0.8302415013  -999.250000 0.8001667857
 3168.0910645 5.0000000000 6.2157998085 2.1143999100 45.861782074 100.05020142 0.8561816216  -999.250000 0.7794369459
 3168.2434082 4.0000000000 6.2214999199 2.1603999138 45.077392578 100.57160187 0.8816300035  -999.250000 0.7597723007
 3168.3957520 4.0000000000 6.2231001854 2.2181999683 45.070621490 101.63189697 0.9002729654  -999.250000 0.7424836755
 3168.5480957 4.0000000000 6.2166004181 2.2344999313 44.396812439 102.98490143 0.8833482862  -999.250000 0.7322762609
 3168.7006836 4.0000000000 6.2153000832 2.2228000164 44.091602325 104.43520355 0.8509976268  -999.250000 0.7174522877
 3168.8530273 4.0000000000 6.2167000771 2.2083001137 43.998085022 106.13040161 0.8190487623  -999.250000 0.7025753260
 3169.0053711 4.0000000000 6.2179999352 2.1958999634 43.303424835 108.08529663 0.7870503664  -999.250000 0.6871764660
 3169.1577148 4.0000000000 6.2175002098 2.1909999847 42.945549011 109.98480225 0.7561142445  -999.250000 0.6725123525
 3169.3103027 4.0000000000 6.2178001404 2.1933000088 43.474365234 111.29019928 0.7652140856  -999.250000 0.6803292632
 3169.4626465 4.0000000000 6.2151999474 2.1846001148 43.276416779 111.44850159 0.8320338130  -999.250000 0.7206801176
 3169.6149902 4.0000000000 6.2157001495 2.1594998837 42.723663330 110.24369812 0.9155336618  -999.250000 0.7706798315
 3169.7673340 4.0000000000 6.2213997841 2.1580998898 41.328807831 108.23439789 0.9989336133  -999.250000 0.8204788566
 3169.9196777 4.0000000000 6.2260999680 2.1602001190 40.396923065 106.36599731 1.0822083950  -999.250000 0.8696137667
 3170.0722656 4.0000000000 6.2294001579 2.1686999798 38.596481323 105.09680176 1.0872588158  -999.250000 0.8781657815
 3170.2246094 4.0000000000 6.2368998528 2.2086000443 36.252601624 104.17569733 1.0432292223  -999.250000 0.8674814105
 3170.3769531 4.0000000000 6.2451000214 2.1315000057 35.004737854 103.22799683 0.9990670085  -999.250000 0.8558918238
 3170.5292969 4.0000000000 6.2490000725 2.0850000381 33.905261993 103.05980682 0.9784655571  -999.250000 0.8507915139
 3170.6818848 4.0000000000 6.2407999039 2.1038000584 33.383163452 104.90039825 0.9567139149  -999.250000 0.8454276919
 3170.8342285 4.0000000000 6.2297000885 2.0090999603 33.590839386 108.23290253 0.8675290346  -999.250000 0.8228828311
 3170.9865723 4.0000000000 6.2195000648 2.0109999180 33.989044189 110.72360229 0.8232549429  -999.250000 0.8121742010
 3171.1389160 4.0000000000 6.2119002342 2.1831998825 33.705261230 110.54579926 0.7952498198  -999.250000 0.7960035205
 3171.2915039 4.0000000000 6.2133998871 2.2527999878 32.807010651 107.98149872 0.8263851404  -999.250000 0.7357345223
 3171.4438477 4.0000000000 6.2186999321 2.2528998852 32.189910889 104.73149872 0.8529024124  -999.250000 0.6841874719
 3171.5961914 4.0000000000 6.2161002159 2.2927000523 33.509197235 102.15079498 0.8543966413  -999.250000 0.6763950586
 3171.7485352 4.0000000000 6.2133998871 2.2774000168 37.187278748 100.39409637 0.8522995114  -999.250000 0.6733005047
 3171.9008789 4.0000000000 6.2182002068 2.2198998928 39.728027344 99.322509766 0.8520444036  -999.250000 0.6736800075
 3172.0534668 4.0000000000 6.2227997780 2.1937999725 39.995128632 98.997001648 0.8797998428  -999.250000 0.7236798406
 3172.2058105 4.0000000000 6.2234997749 2.2037999630 40.064781189 99.311203003 0.9109500051  -999.250000 0.7797914743
 3172.3581543 2.0000000000 6.2216000557 2.1942999363 38.741664886 99.982795715 0.9421432614  -999.250000 0.8368772268
 3172.5104980 2.0000000000 6.2207999229 2.1507999897 36.473403931 100.72630310 0.9690886140  -999.250000 0.8849751353
 3172.6630859 2.0000000000 6.2206997871 2.1640000343 35.040805817 101.29579926 0.9618083239  -999.250000 0.8691307306
 3172.8154297 2.0000000000 6.2203001976 2.2337000370 34.606761932 101.70249939 0.9020166993  -999.250000 0.7539413571
 3172.9677734 2.0000000000 6.2143998146 2.2723999023 34.331623077 102.23609924 0.8500530124  -999.250000 0.6550697088
 3173.1201172 2.0000000000 6.2122001648 2.2592000961 33.723522186 103.27010345 0.8207225800  -999.250000 0.6362556219
 3173.2727051 2.0000000000 6.2132000923 2.2348999977 34.424423218 104.43230438 0.7724177241  -999.250000 0.6709467173
 3173.4250488 2.0000000000 6.2092995644 2.2260999680 35.429908752 104.28230286 0.7467700243  -999.250000 0.6855030656
 3173.5773926 2.0000000000 6.2123994827 2.2179999352 36.308517456 102.05480194 0.7280700207  -999.250000 0.6874035001
 3173.7297363 2.0000000000 6.2203998566 2.2035999298 37.378608704 98.810501099 0.7093708515  -999.250000 0.6896025538
 3173.8820801 2.0000000000 6.2196998596 2.1995000839 37.320343018 96.415100098 0.6911715269  -999.250000 0.6911948919
 3174.0346680 2.0000000000 6.2178001404 2.1926999092 37.221420288 95.632202148 0.6733685732  -999.250000 0.6879730821
 3174.1870117 2.0000000000 6.2173995972 2.1900000572 37.047740936 95.694900513 0.6537657380  -999.250000 0.6711583138
 3174.3393555 2.0000000000 6.2135004997 2.1672000885 37.195941925 95.456398010 0.6323657036  -999.250000 0.6451576948
 3174.4916992 2.0000000000 6.2079000473 2.1145000458 35.906864166 94.861198425 0.6109650731  -999.250000 0.6187584996
 3174.6442871 2.0000000000 6.2059998512 2.0964999199 32.010848999 94.798797607 0.5891280174  -999.250000 0.5928087831
