# LAS format log file from PETREL
# Project units are specified as depth units
#==================================================================
~Version information
VERS.   2.0:
WRAP.   NO:
#==================================================================
~Well
STRT .m      474.34408569 :
STOP .m      3047.1606445 :
STEP .m     0.00000000 :
NULL .        -999.250000 :
COMP.           : COMPANY
WELL.  15/9-9   : WELL
FLD.            : FIELD
LOC.            : LOCATION
SRVC.           : SERVICE COMPANY
DATE.  2018-09-11 14:48:05   : Log Export Date {yyyy-MM-dd HH:mm:ss}
PROV.           : PROVINCE
UWI.   15/9-9   : UNIQUE WELL ID
API.            : API NUMBER
#==================================================================
~Curve
DEPT .m                   : DEPTH
Lithology_geolink ._      : Lithology_geolink
DCAL .in                  : DCAL
CALI .in                  : CALI
DRHO .g/cm3               : DRHO
NPHI .m3/m3               : NPHI
RHOB .g/cm3               : RHOB
GR .gAPI                  : GR
DTC .us/ft                : DTC
DT .us/ft                 : DT
DTE .us/ft                : DTE
RDEP .ohm.m               : RDEP
SP .mV                    : SP
RSHA .ohm.m               : RSHA
RXO .ohm.m                : RXO
RMED .ohm.m               : RMED
~Parameter
#==================================================================
~Ascii
# ...
 3041.9792480  -999.250000 7.8600001335 7.8600001335 -0.012009615 0.1437249333 2.5497462749 -173.3750000  -999.250000 64.375000000  -999.250000 4.6360964775 151.79266357 8.3081340790  -999.250000 8.3081340790
 3042.1315918  -999.250000 7.8480000496 7.8480000496 -0.013990385 0.1468296796 2.5498731136 -173.3750000  -999.250000 64.375000000  -999.250000 4.6459517479 151.52230835 8.3020286560  -999.250000 8.3020286560
 3042.2839355  -999.250000 7.8480000496 7.8480000496 -0.022942400 0.1565188617 2.5412220955 -173.3750000  -999.250000 64.375000000  -999.250000 4.6330828667 150.83641052 8.2761659622  -999.250000 8.2761659622
 3042.4362793  -999.250000 7.8540000916 7.8540000916 -0.028961537 0.1610881090 2.5269305706 -173.3750000  -999.250000 64.375000000  -999.250000 4.6260447502 150.20901489 8.2730188370  -999.250000 8.2730188370
 3042.5886230  -999.250000 7.8530001640 7.8530001640 -0.036948718 0.1608114392 2.5128252506 -173.3750000  -999.250000 64.375000000  -999.250000 4.6329550743 149.86419678 8.2729997635  -999.250000 8.2729997635
 3042.7412109  -999.250000 7.6820001602 7.6820001602 -0.046951920 0.1608099937 2.4994673729 -173.3750000  -999.250000 64.375000000  -999.250000 4.6449422836 149.84606934 8.2729997635  -999.250000 8.2729997635
 3042.8935547  -999.250000 7.1630001068 7.1630001068 -0.066872001 0.1650164723 2.4869990349 -173.3750000  -999.250000 64.375000000  -999.250000 4.6559295654 150.18382263 8.2720069885  -999.250000 8.2720069885
 3043.0458984  -999.250000 6.6929998398 6.6929998398 -0.093826920 0.1711902916 2.4751067162 -173.3750000  -999.250000 64.375000000  -999.250000 4.6639485359 150.56755066 8.2431859970  -999.250000 8.2431859970
 3043.1982422  -999.250000 6.6339998245 6.6339998245 -0.113871798 0.1718768179 2.4703555107 -173.3750000  -999.250000 64.375000000  -999.250000 4.6798973083 150.81343079 8.2420063019  -999.250000 8.2420063019
 3043.3508301  -999.250000 6.6110000610 6.6110000610 -0.114995196 0.1718799919 2.4768681526 -173.3750000  -999.250000 64.375000000  -999.250000 4.6949281693 151.30662537 8.2270727158  -999.250000 8.2270727158
 3043.5031738  -999.250000 6.6100001335 6.6100001335 -0.103076801 0.1718799919 2.4895558357 -173.3750000  -999.250000 64.375000000  -999.250000 4.6959939003 150.84300232 8.2419033051  -999.250000 8.2419033051
 3043.6555176  -999.250000 6.6110000610 6.6110000610 -0.088096157 0.1718799919 2.5002839565 -173.3750000  -999.250000 64.375000000  -999.250000 4.7128906250 151.03573608 8.2419996262  -999.250000 8.2419996262
 3043.8078613  -999.250000 6.6110000610 6.6110000610 -0.087006405 0.1718799919 2.5024635792 -173.3750000  -999.250000 64.375000000  -999.250000 4.6921343803 150.68428040 8.2280893326  -999.250000 8.2280893326
 3043.9604492  -999.250000 6.6079998016 6.6079998016 -0.093966343 0.1718799919 2.4987442493 -173.3750000  -999.250000 64.375000000  -999.250000 4.6919999123 150.85317993 8.2429275513  -999.250000 8.2429275513
 3044.1127930  -999.250000 6.6009998322 6.6009998322 -0.097980767 0.1720394939 2.4976425171 -173.3750000  -999.250000 64.375000000  -999.250000 4.7099137306 150.56936646 8.2688751221  -999.250000 8.2688751221
 3044.2651367  -999.250000 6.5949997902 6.5949997902 -0.097006403 0.1723589748 2.5025866032 -173.3750000  -999.250000 64.375000000  -999.250000 4.7109937668 150.77467346 8.2441606522  -999.250000 8.2441606522
 3044.4174805  -999.250000 6.5949997902 6.5949997902 -0.096006408 0.1723600030 2.5108170509 -173.3750000  -999.250000 64.375000000  -999.250000 4.7100062370 150.85748291 8.2420120239  -999.250000 8.2420120239
 3044.5698242  -999.250000 6.5939998627 6.5939998627 -0.092025638 0.1723600030 2.5124735832 -173.3750000  -999.250000 64.375000000  -999.250000 4.7040386200 151.38261414 8.2429933548  -999.250000 8.2429933548
 3044.7224121  -999.250000 6.5939998627 6.5939998627 -0.081052884 0.1723600030 2.5061135292 -173.3750000  -999.250000 64.375000000  -999.250000 4.7109661102 151.32330322 8.2549428940  -999.250000 8.2549428940
 3044.8747559  -999.250000 6.5939998627 6.5939998627 -0.081000000 0.1723600030 2.4947221279 -173.3750000  -999.250000 64.375000000  -999.250000 4.7169613838 151.38658142 8.2460575104  -999.250000 8.2460575104
 3045.0270996  -999.250000 6.5939998627 6.5939998627 -0.092923082 0.1723600030 2.4789445400 -173.3750000  -999.250000 64.375000000  -999.250000 4.7060704231 152.00599670 8.2708396912  -999.250000 8.2708396912
 3045.1794434  -999.250000 6.5939998627 6.5939998627 -0.103929490 0.1723600030 2.4641511440 -173.3750000  -999.250000 64.375000000  -999.250000 4.7169294357 152.26237488 8.2719936371  -999.250000 8.2719936371
 3045.3320313  -999.250000 6.5949997902 6.5949997902 -0.110966347 0.1723600030 2.4573192596 -173.3750000  -999.250000 64.375000000  -999.250000 4.7150096893 152.84817505 8.2600574493  -999.250000 8.2600574493
 3045.4843750  -999.250000 6.5929999352 6.5929999352 -0.109012797 0.1723600030 2.4623875618 -173.3750000  -999.250000 64.375000000  -999.250000 4.7110257149 152.51715088 8.2719230652  -999.250000 8.2719230652
 3045.6367188  -999.250000 6.5900006294 6.5900006294 -0.104032055 0.1723600030  -999.250000 -173.3750000  -999.250000 64.375000000  -999.250000 4.7050385475 152.56567383 8.2759742737  -999.250000 8.2759742737
 3045.7890625  -999.250000 6.5900006294 6.5900006294 -0.092076920 0.1723600030  -999.250000 -173.3750000  -999.250000 64.375000000  -999.250000 4.7258653641 152.01754761 8.3008394241  -999.250000 8.3008394241
 3045.9416504  -999.250000 6.5900006294 6.5900006294 -0.092995197 0.1723600030  -999.250000 -173.3750000  -999.250000 64.375000000  -999.250000 4.7339615822 151.83088684 8.2761201859  -999.250000 8.2761201859
 3046.0939941  -999.250000 6.5900006294 6.5900006294 -0.095985577 0.1723600030  -999.250000 -173.3750000  -999.250000 64.375000000  -999.250000 4.7369856834 151.27667236 8.2879428864  -999.250000 8.2879428864
 3046.2463379  -999.250000 6.5900006294 6.5900006294 -0.096993603 0.1723600030  -999.250000 -173.3750000  -999.250000 64.375000000  -999.250000 4.7191152573 151.21934509 8.2750825882  -999.250000 8.2750825882
 3046.3986816  -999.250000 6.5900006294 6.5900006294 0.4951795042 0.1723600030  -999.250000 -173.3750000  -999.250000 64.375000000  -999.250000 4.7189998627 150.37841797 8.3038139343  -999.250000 8.3038139343
 3046.5512695  -999.250000 6.5900006294 6.5900006294 1.3240144253 0.1723600030  -999.250000 -173.3750000  -999.250000 64.375000000  -999.250000 4.7418894768 150.38493347 8.3039999008  -999.250000 8.3039999008
 3046.7036133  -999.250000 6.5900006294 6.5900006294 0.1735769212 0.1723600030  -999.250000 -173.3750000  -999.250000 64.375000000  -999.250000 4.7380189896 150.25961304 8.2751388550  -999.250000 8.2751388550
 3046.8559570  -999.250000 6.5900006294 6.5900006294 -0.736175954 0.1723600030  -999.250000 -173.3750000  -999.250000 64.375000000  -999.250000 4.7419743538 150.60079956 8.3028211594  -999.250000 8.3028211594
 3047.0083008  -999.250000 6.5900006294 6.5900006294 -0.741999984 0.1723600030  -999.250000 -173.3750000  -999.250000 64.375000000  -999.250000 4.7449808121 150.49470520 8.2900829315  -999.250000 8.2900829315
 3047.1606445  -999.250000 6.5900006294 6.5900006294 -0.741999984 0.1723600030  -999.250000 -173.3750000  -999.250000 64.375000000  -999.250000 4.7350640297 150.61224365 8.2899999619  -999.250000 8.2899999619
