# LAS format log file from PETREL
# Project units are specified as depth units
#==================================================================
~Version information
VERS.   2.0:
WRAP.   NO:
#==================================================================
~Well
STRT .m      472.33206177 :
STOP .m      3119.8261719 :
STEP .m     0.00000000 :
NULL .        -999.250000 :
COMP.           : COMPANY
WELL.  15/9-17   : WELL
FLD.            : FIELD
LOC.            : LOCATION
SRVC.           : SERVICE COMPANY
DATE.  2018-09-11 14:48:01   : Log Export Date {yyyy-MM-dd HH:mm:ss}
PROV.           : PROVINCE
UWI.   15/9-17   : UNIQUE WELL ID
API.            : API NUMBER
#==================================================================
~Curve
DEPT .m                   : DEPTH
Lithology_geolink ._      : Lithology_geolink
DCAL .in                  : DCAL
CALI .in                  : CALI
DRHO .g/cm3               : DRHO
SGR .gAPI                 : SGR
NPHI .m3/m3               : NPHI
RHOB .g/cm3               : RHOB
PEF .b/e                  : PEF
GR .gAPI                  : GR
DTC .us/ft                : DTC
DT .us/ft                 : DT
DTE .us/ft                : DTE
RDEP .ohm.m               : RDEP
SP .mV                    : SP
RSHA .ohm.m               : RSHA
RXO .ohm.m                : RXO
RMED .ohm.m               : RMED
~Parameter
#==================================================================
~Ascii
# ...
 648.35418701  -999.250000 18.327999115 18.327999115 0.0120000001 69.875000000  -999.250000 2.1943204403 2.3550000191 64.392417908 132.96600342 133.75000000 133.87367249 2.7949936390 1.4211614132  -999.250000  -999.250000 2.0679960251
 648.50659180  -999.250000 18.406000137 18.406000137 0.0089999996 71.313003540  -999.250000 2.1910986900 2.2479999065 63.533027649 133.05146790 134.12409973 133.94987488 2.7700099945 1.1578454971  -999.250000  -999.250000 2.0630018711
 648.65899658  -999.250000 18.452999115 18.452999115 0.0070000002 71.500000000  -999.250000 2.1896831989 2.2109999657 59.946632385 132.76609802 133.75090027 133.64910889 2.7090244293 2.9539508820  -999.250000  -999.250000 2.0390095711
 648.81140137  -999.250000 18.547000885 18.547000885 0.0040000002 66.125000000  -999.250000 2.1914718151 2.2339999676 62.462921143 132.63621521 133.37590027 133.52731323 2.6890079975 4.4290208817  -999.250000  -999.250000 2.0080122948
 648.96380615  -999.250000 18.672000885 18.672000885 0.0000000000 63.719001770  -999.250000 2.1956243515 2.2439999580 62.593700409 132.91181946 133.74909973 133.78657532 2.6660091877 6.1769685745  -999.250000  -999.250000 1.9960048199
 649.11621094  -999.250000 18.577999115 18.577999115 0.0000000000 67.875000000  -999.250000 2.1985204220 2.2850000858 67.426361084 132.73213196 133.99940491 133.66561890 2.6640007496 6.3135824203  -999.250000  -999.250000 1.9960000515
 649.26861572  -999.250000 18.656000137 18.656000137 0.0030000000 69.438003540  -999.250000 2.2016015053 2.2929999828 61.982143402 132.28788757 133.12710571 133.12673950 2.6679983139 7.8715357780  -999.250000  -999.250000 1.9960000515
 649.42102051  -999.250000 18.547000885 18.547000885 0.0089999996 70.375000000  -999.250000 2.2029232979 2.3380000591 60.160354614 132.15498352 133.00030518 133.05099487 2.6679999828 9.5061635971  -999.250000  -999.250000 1.9940007925
 649.57342529  -999.250000 18.733999252 18.733999252 0.0120000001 64.813003540  -999.250000 2.2015955448 2.2709999084 59.813823700 132.19892883 133.12469482 133.08912659 2.6699993610 10.219569206  -999.250000  -999.250000 1.9920008183
 649.72583008  -999.250000 18.625000000 18.625000000 0.0109999999 64.875000000  -999.250000 2.1973800659 2.3050000668 66.297386169 132.38385010 133.00030518 133.27748108 2.6500082016 10.625006676  -999.250000  -999.250000 1.9959985018
 649.87823486  -999.250000 18.562999725 18.562999725 0.0060000001 62.625000000  -999.250000 2.1916692257 2.3359999657 65.501953125 132.87942505 133.74819946 133.84149170 2.6430027485 10.060879707  -999.250000  -999.250000 2.0039968491
 650.03057861  -999.250000 18.516000748 18.516000748 0.0020000001 66.000000000  -999.250000 2.1885857582 2.3929998875 65.126052856 133.33140564 134.12394714 134.22772217 2.6479959488 9.1674070358  -999.250000  -999.250000 2.0119936466
 650.18298340  -999.250000 18.516000748 18.516000748 0.0000000000 68.875000000  -999.250000 2.1886806488 2.4300000668 61.199035645 134.15057373 134.37429810 135.06604004 2.6500000954 9.5307931900  -999.250000  -999.250000 2.0209999084
 650.33538818  -999.250000 18.516000748 18.516000748 0.0010000000 70.500000000  -999.250000 2.1889805794 2.3750000000 62.496845245 135.41259766 136.37019348 136.29844666 2.6640000343 9.2404947281  -999.250000  -999.250000 2.0199999809
 650.48779297  -999.250000 18.593999863 18.593999863 0.0049999999 70.125000000  -999.250000 2.1913397312 2.4059998989 63.248199463 135.34349060 136.49969482 136.22315979 2.6719999313 9.7807931900  -999.250000  -999.250000 2.0000000000
 650.64019775  -999.250000 18.702999115 18.702999115 0.0030000000 68.250000000  -999.250000 2.1947755814 2.3340001106 64.995796204 134.68675232 135.75180054 135.63952637 2.6719999313 8.9057931900  -999.250000  -999.250000 1.9819999933
 650.79260254  -999.250000 18.733999252 18.733999252 0.0070000002 70.000000000  -999.250000 2.1990244389 2.3440001011 69.676742554 133.96031189 135.37590027 134.84127808 2.6640000343 8.5789508820  -999.250000  -999.250000 1.9819999933
 650.94500732  -999.250000 18.733999252 18.733999252 0.0020000001 68.500000000  -999.250000 2.1961178780 2.3259999752 68.378158569 133.04263306 133.75390625 133.95005798 2.6659998894 8.7018985748  -999.250000  -999.250000 2.0039999485
 651.09741211  -999.250000 18.702999115 18.702999115 0.0040000002 68.813003540  -999.250000 2.1929986477 2.3139998913 66.567359924 133.19966125 134.12409973 134.08137512 2.6700000763 7.0673370361  -999.250000  -999.250000 2.0179998875
 651.24981689  -999.250000 18.687999725 18.687999725 0.0000000000 68.250000000  -999.250000 2.1925194263 2.3069999218 62.665386200 133.57557678 134.00030518 134.48889160 2.6679999828 6.6096878052  -999.250000  -999.250000 2.0079998970
 651.40222168  -999.250000 18.718999863 18.718999863 -0.001000000 69.875000000  -999.250000 2.1966180801 2.2249999046 65.867263794 134.26976013 135.37168884 135.17114258 2.6600000858 6.6403660774  -999.250000  -999.250000 1.9819999933
 651.55462646  -999.250000 18.733999252 18.733999252 -0.001000000 68.750000000  -999.250000 2.2024242878 2.2560000420 67.620796204 134.30436707 135.00090027 135.27610779 2.6600000858 6.6891331673  -999.250000  -999.250000 1.9659999609
 651.70703125  -999.250000 18.750000000 18.750000000 -0.001000000 68.500000000  -999.250000 2.2015826702 2.2639999390 64.632209778 134.64768982 135.74819946 135.56906128 2.6480000019 7.7347879410  -999.250000  -999.250000 1.9769999981
 651.85943604  -999.250000 18.733999252 18.733999252 -0.001000000 66.813003540  -999.250000 2.1972866058 2.3180000782 61.912532806 134.73522949 135.37590027 135.63252258 2.6289999485 8.4239149094  -999.250000  -999.250000 1.9900000095
 652.01184082  -999.250000 18.687999725 18.687999725 -0.005000000 67.750000000  -999.250000 2.1910073757 2.2420001030 66.239562988 135.26159668 135.99850464 136.14299011 2.6289999485 9.9909448624  -999.250000  -999.250000 1.9919999838
 652.16418457  -999.250000 18.656000137 18.656000137 -0.006000000 65.688003540  -999.250000 2.1897575855 2.1889998913 67.434669495 135.37927246 136.49859619 136.31704712 2.6349999905 10.859687805  -999.250000  -999.250000 1.9789999723
 652.31658936  -999.250000 18.641000748 18.641000748 -0.005000000 66.688003540  -999.250000 2.1974680424 2.2339999676 69.619743347 135.00799561 136.12590027 135.91452026 2.6410000324 10.780793190  -999.250000  -999.250000 1.9620000124
 652.46899414  -999.250000 18.625000000 18.625000000 0.0000000000 67.188003540  -999.250000 2.2052066326 2.2269999981 62.236797333 134.38499451 135.50149536 135.27757263 2.6429998875 10.015424728  -999.250000  -999.250000 1.9600000381
 652.62139893  -999.250000 18.577999115 18.577999115 0.0010000000 66.625000000  -999.250000 2.2077591419 2.2500000000 64.868614197 133.74305725 134.75180054 134.70953369 2.6349999905 9.0403547287  -999.250000  -999.250000 1.9620000124
 652.77380371  -999.250000 18.468999863 18.468999863 -0.002000000 64.688003540  -999.250000 2.2015359402 2.1989998817 64.563751221 133.64172363 134.50059509 134.52815247 2.6429998875 7.6096878052  -999.250000  -999.250000 1.9750000238
 652.92620850  -999.250000 18.391000748 18.391000748 -0.004000000 63.719001770  -999.250000 2.1952035427 2.3110001087 69.550987244 133.70021057 134.50000000 134.59756470 2.6559998989 7.6038808823  -999.250000  -999.250000 1.9919999838
 653.07861328  -999.250000 18.437999725 18.437999725 -0.005000000 65.375000000  -999.250000 2.1924602985 2.3499999046 68.316009521 133.96412659 134.74940491 134.86618042 2.6760001183 6.9788808823  -999.250000  -999.250000 2.0120000839
 653.23101807  -999.250000 18.437999725 18.437999725 -0.002000000 67.000000000  -999.250000 2.1960437298 2.3420000076 67.501953125 134.31181335 135.12409973 135.18659973 2.6949999332 6.6827754974  -999.250000  -999.250000 2.0039999485
 653.38342285  -999.250000 18.437999725 18.437999725 -0.007000000 65.938003540  -999.250000 2.1967680454 2.3199999332 64.195960999 134.48583984 135.37440491 135.38438416 2.7090001106 6.7807931900  -999.250000  -999.250000 2.0000000000
 653.53582764  -999.250000 18.452999115 18.452999115 -0.010000000 65.750000000  -999.250000 2.1982038021 2.2890000343 65.559700012 134.35160828 135.49969482 135.31610107 2.7109999657 6.4540681839  -999.250000  -999.250000 2.0120000839
