# LAS format log file from PETREL
# Project units are specified as depth units
#==================================================================
~Version information
VERS.   2.0:
WRAP.   NO:
#==================================================================
~Well
STRT .m      485.02883911 :
STOP .m      3207.3493652 :
STEP .m     0.00000000 :
NULL .        -999.250000 :
COMP.           : COMPANY
WELL.  15/9-15   : WELL
FLD.            : FIELD
LOC.            : LOCATION
SRVC.           : SERVICE COMPANY
DATE.  2018-09-11 14:48:00   : Log Export Date {yyyy-MM-dd HH:mm:ss}
PROV.           : PROVINCE
UWI.   15/9-15   : UNIQUE WELL ID
API.            : API NUMBER
#==================================================================
~Curve
DEPT .m                   : DEPTH
Lithology_geolink ._      : Lithology_geolink
DCAL .in                  : DCAL
CALI .in                  : CALI
BS .in                    : BS
DRHO .g/cm3               : DRHO
NPHI .m3/m3               : NPHI
RHOB .g/cm3               : RHOB
PEF .b/e                  : PEF
GR .gAPI                  : GR
DTC .us/ft                : DTC
DT .us/ft                 : DT
RDEP .ohm.m               : RDEP
SP .mV                    : SP
RSHA .ohm.m               : RSHA
RXO .ohm.m                : RXO
RMED .ohm.m               : RMED
~Parameter
#==================================================================
~Ascii
# ...
 3022.4882813 1.0000000000 7.6220002174 7.6205120087 8.5000000000 -0.034000002 0.2512800097 2.2755444050 6.7709999084 33.937999725 86.601730347 84.188003540 0.2899999917 86.313003540 0.4830000103 0.8832022548 0.4830000103
 3022.6406250 1.0000000000 7.6109995842 7.6001410484 8.5000000000 -0.041000001 0.2520099878 2.2683634758 6.6110000610 32.280998230 86.622734070 84.563003540 0.2870000005 88.594001770 0.3959999979 0.7073929310 0.3959999979
 3022.7929688 1.0000000000 7.5560002327 7.5689625740 8.5000000000 -0.041000001 0.2479799986 2.2593209743 7.3969998360 32.280998230 86.900527954 85.000000000 0.2829999924 89.688003540 0.3930000067 0.5984144211 0.3930000067
 3022.9455566 1.0000000000 7.5539999008 7.5613832474 8.5000000000 -0.039999999 0.2468699962 2.2513120174 6.7420001030 31.358999252 87.344795227 84.563003540 0.2820000052 90.155998230 0.4979999959 0.8302600384 0.4979999959
 3023.0979004 1.0000000000 7.5820002556 7.5985593796 8.5000000000 -0.035000000 0.2463800013 2.2502541542 6.2010002136 31.358999252 87.785781860 84.563003540 0.2890000045 91.063003540 0.5630000234 1.1345041990 0.5630000234
 3023.2502441 1.0000000000 7.6770000458 7.6781892776 8.5000000000 -0.028999999 0.2432200015 2.2538568974 5.4650001526 30.468999863 87.937850952 84.563003540 0.3109999895 92.078002930 0.5210000277 0.9191811085 0.5210000277
 3023.4025879 1.0000000000 7.7760000229 7.7675175667 8.5000000000 -0.023000000 0.2357200086 2.2568039894 5.4180002213 30.108999252 87.832702637 84.750000000 0.3600000143 95.203002930 0.4339999855 0.9219223857 0.4339999855
 3023.5551758 1.0000000000 7.8400001526 7.8273324966 8.5000000000 -0.024000000 0.2300000042 2.2639760971 4.6160001755 37.250000000 87.757591248 84.375007629 0.4420000017 99.344001770 0.4920000136 1.3594000340 0.4920000136
 3023.7075195 2.0000000000 7.8520002365 7.8483319283 8.5000000000 -0.028000001 0.2373999953 2.2868416309 4.1350002289 46.094001770 87.806640625 82.563003540 0.5400000215 106.71900177 0.7919999957 1.8590005636 0.7919999957
 3023.8598633 2.0000000000 7.8489999771 7.8497323990 8.5000000000 -0.033000000 0.2566699982 2.3241853714 3.9170000553 55.375000000 87.772071838 81.000000000 0.6729999781 111.47699738 1.1820000410 2.1103246212 1.1820000410
 3024.0122070 2.0000000000 7.8489999771 7.8499836922 8.5000000000 -0.035000000 0.2707200050 2.3616173267 4.0479998589 59.469001770 87.051017761 79.188003540 0.8169999719 114.85199738 1.3539999723 2.1736693382 1.3539999723
 3024.1647949 2.0000000000 7.8530001640 7.8438973427 8.5000000000 -0.034000002 0.2688499987 2.3880536556 4.6929998398 60.375000000 85.641494751 80.375000000 1.0019999743 116.97299957 1.3240000010 2.1860489845 1.3240000010
 3024.3171387 2.0000000000 7.8200001717 7.8218989372 8.5000000000 -0.033000000 0.2601599991 2.3962171078 5.1999998093 63.155998230 83.975502014 81.749992371 1.1959999800 117.22299957 1.3079999685 2.1342799664 1.3079999685
 3024.4694824 2.0000000000 7.7949995995 7.8006105423 8.5000000000 -0.033000000 0.2559399903 2.3900718689 5.9660000801 61.844001770 83.186485291 82.000000000 1.3359999657 116.34400177 1.2760000229 2.1267743111 1.2760000229
 3024.6218262 2.0000000000 7.7930006981 7.7915182114 8.5000000000 -0.035000000 0.2626099885 2.3820192814 6.3429999352 62.000000000 83.798027039 81.563011169 1.3839999437 116.58999634 1.2460000515 2.0569119453 1.2460000515
 3024.7741699 2.0000000000 7.7849998474 7.7844986916 8.5000000000 -0.033000000 0.2645599842 2.3793230057 6.7849998474 57.875000000 84.693969727 81.749992371 1.3229999542 115.21099854 1.2690000534 1.9621598721 1.2690000534
 3024.9267578 2.0000000000 7.7750000954 7.7739939690 8.5000000000 -0.034000002 0.2582300007 2.3788287640 6.8130002022 52.812999725 84.953720093 81.749992371 1.2460000515 112.07800293 1.3320000172 2.2544801235 1.3320000172
 3025.0791016 2.0000000000 7.7610001564 7.7641720772 8.5000000000 -0.028999999 0.2467299998 2.3731544018 7.7439999580 51.750000000 84.894683838 82.188003540 1.1950000525 110.10900116 1.3519999981 2.5949821472 1.3519999981
 3025.2314453 2.0000000000 7.7600002289 7.7619686127 8.5000000000 -0.028999999 0.2395499945 2.3630137444 8.7569999695 50.625000000 84.904792786 82.750000000 1.1590000391 108.20300293 1.3480000496 2.8143177032 1.3480000496
 3025.3837891 2.0000000000 7.7670001984 7.7677464485 8.5000000000 -0.032000002 0.2363100052 2.3545751572 9.4350004196 53.469001770 85.074409485 82.563003540 1.1399999857 108.44499969 1.3689999580 2.9731252193 1.3689999580
 3025.5363770 2.0000000000 7.7769999504 7.7750515938 8.5000000000 -0.035999998 0.2331100106 2.3538813591 9.1020002365 51.062999725 85.467697144 82.375000000 1.1109999418 105.09400177 1.3899999857 2.9169600010 1.3899999857
 3025.6887207 2.0000000000 7.7789998055 7.7792506218 8.5000000000 -0.034000002 0.2357399911 2.3567745686 9.0419998169 49.812999725 85.744621277 82.750000000 1.0980000496 108.22699738 1.4099999666 2.7640104294 1.4099999666
 3025.8410645 2.0000000000 7.7820000648 7.7802824974 8.5000000000 -0.032000002 0.2411000133 2.3608829975 8.6199998856 48.969001770 85.709442139 82.188003540 1.0820000172 108.09400177 1.4040000439 2.7758071423 1.4040000439
 3025.9934082 2.0000000000 7.7779994011 7.7789783478 8.5000000000 -0.030999999 0.2471899986 2.3652403355 7.9739999771 51.187999725 85.727310181 82.188003540 1.0729999542 108.96900177 1.4179999828 2.7873563766 1.4179999828
 3026.1459961 2.0000000000 7.7779994011 7.7750449181 8.5000000000 -0.029999999 0.2438199967 2.3729081154 7.6739997864 51.094001770 85.671607971 82.188003540 1.0119999647 106.71900177 1.4259999990 2.6869559288 1.4259999990
 3026.2983398 2.0000000000 7.7660002708 7.7408556938 8.5000000000 -0.029999999 0.2442799956 2.3805406094 7.5349998474 48.687999725 85.476852417 82.188003540 0.9520000219 105.70300293 1.4340000153 2.6703801155 1.4340000153
 3026.4506836 3.0000000000 7.6519994736 7.6726861000 8.5000000000 -0.033000000 0.2357899994 2.3828115463 7.3969998360 45.594001770 85.383674622 81.375000000 0.8840000033 103.57800293 1.4040000439 2.8166284561 1.4040000439
 3026.6030273 3.0000000000 7.6230001450 7.6300787926 8.5000000000 -0.035999998 0.2383300066 2.3828442097 6.6859998703 45.312999725 85.371398926 81.188003540 0.8209999800 100.32800293 1.3300000429 3.0668601990 1.3300000429
 3026.7553711 3.0000000000 7.6230001450 7.6244750023 8.5000000000 -0.037000000 0.2435300052 2.3814616203 5.3249998093 43.000000000 85.094841003 80.563003540 0.7639999986 98.328002930 1.2330000401 3.2283473015 1.2330000401
 3026.9079590 3.0000000000 7.6290001869 7.6272888184 8.5000000000 -0.039000001 0.2536500096 2.3743035793 5.1069998741 39.469001770 84.655921936 80.750000000 0.7099999785 96.938003540 1.1039999723 3.0232398510 1.1039999723
 3027.0603027 3.0000000000 7.6280002594 7.6272583008 8.5000000000 -0.041000001 0.2384900153 2.3557412624 5.6209998131 34.312999725 84.211029053 82.000000000 0.6650000215 97.688003540 1.0169999599 2.4771144390 1.0169999599
 3027.2126465 3.0000000000 7.6240000725 7.6313791275 8.5000000000 -0.039999999 0.2243099958 2.3318333626 6.4850001335 36.719001770 83.937835693 82.750000000 0.6299999952 97.421997070 0.9710000157 2.1791417599 0.9710000157
 3027.3649902 3.0000000000 7.6500005722 7.6628174782 8.5000000000 -0.032000002 0.2165200114 2.3089518547 6.5390000343 39.500000000 84.339248657 82.563003540 0.6119999886 96.671997070 0.9829999804 2.3792381287 0.9829999804
 3027.5175781 3.0000000000 7.7280001640 7.7232427597 8.5000000000 -0.016000001 0.2190200090 2.2893240452 6.1209998131 41.405998230 85.194725037 82.000000000 0.6090000272 97.030998230 1.0169999599 2.3670799732 1.0169999599
 3027.6699219 3.0000000000 7.7859997749 7.7883410454 8.5000000000 -0.007000000 0.2194499969 2.2798542976 6.8670001030 41.625000000 85.697525024 81.188003540 0.6280000210 99.030998230 1.0290000439 2.1738102436 1.0290000439
 3027.8222656 3.0000000000 7.8530001640 7.8275332451 8.5000000000 -0.002000000 0.2396999896 2.2896237373 8.3319997787 49.875000000 85.572517395 81.563011169 0.6669999957 101.79699707 1.0329999924 1.9069650173 1.0329999924
 3027.9746094 2.0000000000 7.8159999847 7.7980051041 8.5000000000 0.0020000001 0.2671400011 2.3288385868 8.8900003433 58.375000000 85.014175415 81.375000000 0.7080000043 107.17199707 1.0410000086 1.6847271919 1.0410000086
