# LAS format log file from PETREL
# Project units are specified as depth units
#==================================================================
~Version information
VERS.   2.0:
WRAP.   NO:
#==================================================================
~Well
STRT .m      474.34408569 :
STOP .m      3047.1606445 :
STEP .m     0.00000000 :
NULL .        -999.250000 :
COMP.           : COMPANY
WELL.  15/9-9   : WELL
FLD.            : FIELD
LOC.            : LOCATION
SRVC.           : SERVICE COMPANY
DATE.  2018-09-11 14:48:05   : Log Export Date {yyyy-MM-dd HH:mm:ss}
PROV.           : PROVINCE
UWI.   15/9-9   : UNIQUE WELL ID
API.            : API NUMBER
#==================================================================
~Curve
DEPT .m                   : DEPTH
Lithology_geolink ._      : Lithology_geolink
DCAL .in                  : DCAL
CALI .in                  : CALI
DRHO .g/cm3               : DRHO
NPHI .m3/m3               : NPHI
RHOB .g/cm3               : RHOB
GR .gAPI                  : GR
DTC .us/ft                : DTC
DT .us/ft                 : DT
DTE .us/ft                : DTE
RDEP .ohm.m               : RDEP
SP .mV                    : SP
RSHA .ohm.m               : RSHA
RXO .ohm.m                : RXO
RMED .ohm.m               : RMED
~Parameter
#==================================================================
~Ascii
# ...
 1157.8581543  -999.250000 14.715000153 14.715000153 0.0029959967 0.4769888222 2.0038497448 64.633163452 140.94059753 140.55337524 141.72833252 1.6559087038 108.82211304 1.4448028803  -999.250000 1.4448028803
 1158.0104980  -999.250000 14.524999619 14.524999619 0.0039991988 0.5212780237 2.0098307133 63.882209778 139.83732605 140.51312256 140.51971436 1.6968687773 108.63959503 1.4360288382  -999.250000 1.4360288382
 1158.1629639  -999.250000 14.831000328 14.831000328 0.0079967976 0.5211907029 2.0167903900 71.180145264 138.19039917 137.24386597 138.94871521 1.6810384989 108.63301849 1.4848822355  -999.250000 1.4848822355
 1158.3153076  -999.250000 15.229000092 15.229000092 0.0169927888 0.4944360554 2.0264260769 73.901641846 138.27815247 140.30314636 139.05976868 1.6859840155 108.69679260 1.4281824827  -999.250000 1.4281824827
 1158.4677734  -999.250000 15.144000053 15.144000053 0.0150016006 0.4947686791 2.0326714516 75.968345642 140.50871277 142.80798340 141.29554749 1.6730312109 108.22015381 1.4359807968  -999.250000 1.4359807968
 1158.6201172  -999.250000 15.034999847 15.034999847 0.0080056097 0.4799177349 2.0272605419 70.858200073 141.60751343 142.04945374 142.40519714 1.6371152401 108.70941925 1.4359999895  -999.250000 1.4359999895
 1158.7724609  -999.250000 15.152000427 15.152000427 -0.006975981 0.4545617104 2.0087759495 67.403533936 141.94238281 143.68174744 142.72560120 1.6300224066 108.85454559 1.4958077669  -999.250000 1.4958077669
 1158.9249268  -999.250000 15.204000473 15.204000473 -0.007999199 0.4322314560 1.9837170839 70.213485718 141.51692200 141.28671265 142.34590149 1.6359808445 108.74036407 1.4780577421  -999.250000 1.4780577421
 1159.0772705  -999.250000 15.151000023 15.151000023 -0.005004804 0.4287138581 1.9606740475 74.261505127 140.17208862 140.15560913 140.91256714 1.6170608997 108.49079895 1.5019230843  -999.250000 1.5019230843
 1159.2297363  -999.250000 14.869000435 14.869000435 -0.002002404 0.4529918730 1.9434812069 75.044754028 139.81062317 140.73812866 140.56411743 1.6030448675 108.22385406 1.4720960855  -999.250000 1.4720960855
 1159.3820801  -999.250000 14.987999916 14.987999916 -0.004995196 0.4681892395 1.9359413385 71.659431458 140.60006714 141.63412476 141.38110352 1.5880481005 108.88587189 1.4251506329  -999.250000 1.4251506329
 1159.5345459  -999.250000 15.444999695 15.444999695 -0.007997597 0.4604949653 1.9391070604 64.468528748 142.55766296 145.20440674 143.34580994 1.5490937233 108.42810822 1.3850961924  -999.250000 1.3850961924
 1159.6868896  -999.250000 15.843000412 15.843000412 -0.004003205 0.4656093419 1.9505721331 62.546066284 144.43734741 145.59277344 145.27723694 1.5151088238 108.44493866 1.3521057367  -999.250000 1.3521057367
 1159.8393555  -999.250000 15.865999222 15.865999222 -0.001002402 0.4661583006 1.9653115273 61.063373566 145.43324280 146.91481018 146.21330261 1.4920552969 107.71076965 1.3789350986  -999.250000 1.3789350986
 1159.9916992  -999.250000 15.513999939 15.513999939 0.0089919865 0.4781215489 1.9799009562 63.672805786 145.92480469 146.90106201 146.69647217 1.4650864601 106.31447601 1.3381313086  -999.250000 1.3381313086
 1160.1441650  -999.250000 15.664999008 15.664999008 0.0099991988 0.4581243694 1.9873905182 67.566879272 145.13571167 144.88186646 146.01806641 1.4380648136 106.10549927 1.3250312805  -999.250000 1.3250312805
 1160.2965088  -999.250000 15.732000351 15.732000351 0.0090008005 0.4647485018 1.9783711433 69.786445618 144.84884644 146.33132935 145.68188477 1.4100896120 105.39627075 1.2950960398  -999.250000 1.2950960398
 1160.4489746  -999.250000 15.560000420 15.560000420 -0.002990392 0.4841577113 1.9505174160 64.881935120 145.42494202 146.01377869 146.22692871 1.3661057949 105.62743378 1.3229326010  -999.250000 1.3229326010
 1160.6013184  -999.250000 15.454999924 15.454999924 -0.015989585 0.5074951649 1.9173654318 60.445110321 146.19110107 147.97967529 147.01908875 1.3281216621 106.36164093 1.3349616528  -999.250000 1.3349616528
 1160.7536621  -999.250000 15.479999542 15.479999542 -0.023987191 0.5041139126 1.9008058310 62.457756042 147.14709473 148.41961670 147.91227722 1.3050736189 106.02509308 1.2971218824  -999.250000 1.2971218824
 1160.9061279  -999.250000 15.762000084 15.762000084 -0.020003205 0.4736279845 1.9063402414 63.203811646 146.46983337 145.90907288 147.25801086 1.2750960588 106.59117889 1.2521440983  -999.250000 1.2521440983
 1161.0584717  -999.250000 16.270999908 16.270999908 -0.007020817 0.4514587224 1.9158105850 67.929412842 145.97552490 147.16893005 146.81500244 1.2530705929 106.45245361 1.2151186466  -999.250000 1.2151186466
 1161.2109375  -999.250000 16.135000229 16.135000229 -0.000005609 0.4537523389 1.9058647156 66.989517212 147.37167358 149.38688660 148.21502686 1.2390447855 107.72490692 1.2070256472  -999.250000 1.2070256472
 1161.3632813  -999.250000 15.762000084 15.762000084 -0.005990393 0.4782017767 1.8798788786 67.341438293 148.67466736 149.96617126 149.55570984 1.2150769234 108.67396545 1.1860673428  -999.250000 1.1860673428
 1161.5156250  -999.250000 15.733000755 15.733000755 -0.012988782 0.5123431087 1.8682351112 65.321868896 149.33587646 150.16836548 150.14483643 1.2100160122 108.70491028 1.1580897570  -999.250000 1.1580897570
 1161.6680908  -999.250000 15.875000000 15.875000000 -0.012000801 0.5124003291 1.8928595781 59.308643341 149.93238831 151.83464050 150.70292664 1.2189711332 109.51738739 1.1380640268  -999.250000 1.1380640268
 1161.8204346  -999.250000 15.949999809 15.949999809 0.0049727783 0.5008663535 1.9417908192 59.430683136 148.80584717 147.91262817 149.64454651 1.2299647331 109.27079773 1.1380000114  -999.250000 1.1380000114
 1161.9729004  -999.250000 15.942000389 15.942000389 0.0109951925 0.4631012976 1.9790124893 57.972343445 145.85440063 145.15083313 146.72036743 1.2439551353 109.16633606 1.1838526726  -999.250000 1.1838526726
 1162.1252441  -999.250000 15.906000137 15.906000137 -0.000980785 0.4612370133 1.9846425056 60.912277222 143.93305969 144.06446838 144.75012207 1.2719101906 109.42716217 1.2507853508  -999.250000 1.2507853508
 1162.2777100  -999.250000 15.909000397 15.909000397 -0.010991987 0.4462282360 1.9711787701 59.771835327 143.02156067 143.60945129 143.80194092 1.2939295769 109.09207916 1.3048269749  -999.250000 1.3048269749
 1162.4300537  -999.250000 15.932000160 15.932000160 -0.011000000 0.4553232491 1.9579198360 61.928535461 142.25256348 142.08787537 143.01599121 1.3219102621 109.53557587 1.3159646988  -999.250000 1.3159646988
 1162.5823975  -999.250000 15.904000282 15.904000282 -0.008004808 0.4505792260 1.9499834776 61.428211212 142.33323669 143.86384583 143.08911133 1.3528759480 109.16350555 1.3169959784  -999.250000 1.3169959784
 1162.7348633  -999.250000 15.935000420 15.935000420 -0.008998399 0.4587570727 1.9470258951 60.716140747 143.46974182 144.59965515 144.23875427 1.3769230843 109.09919739 1.2890897989  -999.250000 1.2890897989
 1162.8872070  -999.250000 15.904000282 15.904000282 -0.014990385 0.4939286709 1.9519962072 58.510311127 144.59779358 146.34797668 145.38786316 1.3949279785 108.69760895 1.2770479918  -999.250000 1.2770479918
 1163.0396729  -999.250000 15.928000450 15.928000450 -0.009009607 0.4870781302 1.9661961794 63.223426819 145.14430237 146.04100037 145.97549438 1.3900159597 107.58856201 1.2720159292  -999.250000 1.2720159292
 1163.1920166  -999.250000 15.678001404 15.678001404 -0.003009615 0.4963326752 1.9816930294 65.950454712 144.42149353 144.21733093 145.15902710 1.3740639687 107.80511475 1.3148279190  -999.250000 1.3148279190
 1163.3444824  -999.250000 15.553000450 15.553000450 0.0049871895 0.4933820367 1.9873673916 67.485542297 143.27131653 144.02958679 144.03186035 1.3670223951 106.65570068 1.3329422474  -999.250000 1.3329422474
 1163.4968262  -999.250000 15.581000328 15.581000328 0.0069967951 0.5064972043 1.9828069210 64.817428589 141.94129944 141.10041809 142.75265503 1.3530448675 106.25827026 1.3329999447  -999.250000 1.3329999447
 1163.6492920  -999.250000 15.647000313 15.647000313 0.0060016015 0.5013509393 1.9744038582 61.939609528 141.60755920 143.11747742 142.37483215 1.3460223675 106.24902344 1.2761825323  -999.250000 1.2761825323
