# LAS format log file from PETREL
# Project units are specified as depth units
#==================================================================
~Version information
VERS.   2.0:
WRAP.   NO:
#==================================================================
~Well
STRT .m      1517.9528809 :
STOP .m      3212.6408691 :
STEP .m     0.00000000 :
NULL .        -999.250000 :
COMP.           : COMPANY
WELL.  15/9-23   : WELL
FLD.            : FIELD
LOC.            : LOCATION
SRVC.           : SERVICE COMPANY
DATE.  2018-09-11 14:48:03   : Log Export Date {yyyy-MM-dd HH:mm:ss}
PROV.           : PROVINCE
UWI.   15/9-23   : UNIQUE WELL ID
API.            : API NUMBER
#==================================================================
~Curve
DEPT .m                   : DEPTH
Lithology_geolink ._      : Lithology_geolink
DCAL .in                  : DCAL
CALI .in                  : CALI
BS .in                    : BS
ROP .m/h                  : ROP
DRHO .g/cm3               : DRHO
NPHI .m3/m3               : NPHI
RHOB .g/cm3               : RHOB
PEF .b/e                  : PEF
GR .gAPI                  : GR
DTC .us/ft                : DTC
DTS .us/ft                : DTS
RDEP .ohm.m               : RDEP
RMED .ohm.m               : RMED
~Parameter
#==================================================================
~Ascii
# ...
 2755.1362305 11.000000000 0.0916996002 12.341698647 12.250000954 19.474992752 0.0386999995 0.1471000016 2.4431002140 5.8955998421 21.711799622 73.766098022 142.70060730 1.7011198997 1.7385255098
 2755.2885742 11.000000000 0.0113000907 12.261300087 12.250000954 17.912269592 0.0348000005 0.1448000073 2.4426999092 5.8664999008 20.817100525 74.030296326 141.42390442 1.7135857344 1.7544912100
 2755.4409180 11.000000000 0.0142002096 12.264200211 12.250000954 18.020252228 0.0370000005 0.1386999935 2.4614999294 5.9793000221 21.060100555 74.412803650 141.58369446 1.7672357559 1.8115117550
 2755.5932617 12.000000000 0.0228004493 12.272800446 12.250000954 19.176055908 0.0344999991 0.1343999952 2.4779000282 5.9249000549 22.517400742 74.848297119 143.05589294 1.9141987562 1.9434967041
 2755.7458496 12.000000000 0.0373001099 12.287300110 12.250000954 21.077083588 0.0340000018 0.1342999935 2.4835999012 5.8520002365 25.969699860 74.714996338 143.76789856 1.9757431746 2.0038475990
 2755.8981934 12.000000000 0.0204000473 12.270400047 12.250000954 20.633518219 0.0324000008 0.1270000041 2.4865999222 5.9362001419 27.550600052 74.612998962 144.65899658 1.9891251326 2.0497503281
 2756.0505371 12.000000000 -0.018199921 12.231800079 12.250000954 19.520151138 0.0305000003 0.1225000024 2.5000998974 5.8575000763 26.479600906 75.036003113 145.19520569 1.9426565170 2.0189476013
 2756.2028809 12.000000000 -0.052300446 12.197699547 12.250000954 18.115621567 0.0195000004 0.1229000017 2.5009000301 5.7589998245 31.986299515 74.726898193 145.33650208 2.0402791500 2.1109535694
 2756.3554688 12.000000000 0.0213003214 12.271300316 12.250000954 16.940910339 0.0188999996 0.1238999963 2.5046000481 5.8345999718 31.833799362 75.075103760 146.50309753 2.0890555382 2.1439385414
 2756.5078125 12.000000000 0.0642004013 12.314200401 12.250000954 15.759862900 0.0379999988 0.1351000071 2.5294001102 5.8112998009 30.839799881 74.758308411 147.65629578 1.9192414284 2.0000305176
 2756.6601563 12.000000000 0.0802002028 12.330199242 12.250000954 15.363906860 0.0351000018 0.1429000050 2.5102000237 6.0022001266 30.628499985 75.937301636 149.07719421 1.8204300404 1.8942769766
 2756.8125000 11.000000000 0.0920000002 12.341999054 12.250000954 16.237955093 0.0355999991 0.1435000002 2.4853999615 6.0295000076 23.031000137 76.089210510 148.87860107 1.7767772675 1.8175801039
 2756.9650879 11.000000000 0.1168003008 12.366800308 12.250000954 15.147616386 0.0419999994 0.1431999952 2.4647998810 5.9709000587 22.502300262 76.179496765 148.20359802 1.7624812126 1.8050780296
 2757.1174316 11.000000000 0.0613002814 12.311300278 12.250000954 14.562685013 0.0423999988 0.1507000029 2.4623999596 5.9815001488 23.578300476 76.796096802 146.63879395 1.7255005836 1.7670916319
 2757.2697754 11.000000000 0.0467996635 12.296799660 12.250000954 15.549675941 0.0305000003 0.1518000066 2.4547998905 6.0714001656 24.771699905 76.645301819 146.18800354 1.7257921696 1.7618111372
 2757.4221191 11.000000000 0.0322999991 12.282299995 12.250000954 15.597450256 0.0278999992 0.1523000002 2.4612998962 5.6700000763 24.443799973 76.179496765 146.88740540 1.6583956480 1.7062813044
 2757.5744629 11.000000000 0.1004000008 12.350399971 12.250000954 15.941275597 0.0353999995 0.1615999937 2.4635999203 5.8731999397 27.854999542 76.824096680 148.82200623 1.5309512615 1.5698512793
 2757.7270508 11.000000000 0.1370000988 12.387000084 12.250000954 16.674148560 0.0419999994 0.1673000008 2.4540998936 6.0707001686 26.949100494 77.160797119 150.51361084 1.4381915331 1.4770739079
 2757.8793945 11.000000000 0.1207999960 12.370800018 12.250000954 17.187793732 0.0434999987 0.1664000005 2.4284000397 6.1346001625 23.966299057 77.113502502 150.05290222 1.4043478966 1.4377268553
 2758.0317383 11.000000000 0.0846996233 12.334700584 12.250000954 17.682199478 0.0386999995 0.1635999978 2.4066998959 5.9622001648 16.774200439 76.416603088 147.16299438 1.3718653917 1.3920874596
 2758.1840820 11.000000000 0.0829000473 12.332901001 12.250000954 17.557172775 0.0381000005 0.1631000042 2.4001998901 5.9823999405 17.767299652 75.472198486 144.50979614 1.3503335714 1.3843395710
 2758.3366699 11.000000000 0.1075001061 12.357500076 12.250000954 16.728921890 0.0485000014 0.1641000062 2.4161000252 6.3243999481 16.649900436 75.028709412 143.43460083 1.3714625835 1.4091043472
 2758.4890137 11.000000000 0.1297997981 12.379799843 12.250000954 16.300006866 0.0460000001 0.1612000018 2.4202001095 6.4436998367 19.379600525 74.761306763 142.58509827 1.4221725464 1.4417120218
 2758.6413574 11.000000000 0.1225996092 12.372599602 12.250000954 16.680406570 0.0483000018 0.1579000056 2.4300000668 6.2866997719 20.306600571 75.373870850 142.69189453 1.4675270319 1.5116424561
 2758.7937012 11.000000000 0.1332997978 12.383299828 12.250000954 17.309270859 0.0496999994 0.1510999948 2.4426000118 6.1813001633 23.563600540 76.228332520 143.19239807 1.5468227863 1.6005460024
 2758.9462891 11.000000000 0.1196003109 12.369600296 12.250000954 18.168031693 0.0496999994 0.1555999964 2.4505999088 6.2720999718 21.683599472 76.371047974 143.73759460 1.6235076189 1.6916337013
 2759.0986328 11.000000000 0.0761995316 12.326199532 12.250000954 19.394557953 0.0442999974 0.1517000049 2.4570000172 6.3150000572 21.484100342 76.260925293 144.27769470 1.6881824732 1.7332905531
 2759.2509766 11.000000000 0.0910997391 12.341099739 12.250000954 21.111402512 0.0432999991 0.1501999944 2.4642999172 6.2344999313 20.774099350 75.527511597 144.62539673 1.6772623062 1.7273582220
 2759.4033203 11.000000000 0.0950002670 12.345001221 12.250000954 19.927251816 0.0527000017 0.1542000026 2.4677000046 6.6010999680 22.594699860 75.967864990 144.52149963 1.6537942886 1.7013891935
 2759.5556641 11.000000000 0.0608997270 12.310897827 12.250000954 19.587247849 0.0366999991 0.1533000022 2.4447000027 6.3291001320 19.984500885 75.509407043 144.02119446 1.6503027678 1.6946619749
 2759.7082520 11.000000000 0.1700001061 12.419999123 12.250000954 20.053741455 0.0368000008 0.1489000022 2.4407000542 6.2684998512 21.809700012 75.262008667 143.94189453 1.7143957615 1.7334836721
 2759.8605957 11.000000000 0.2453003079 12.495299339 12.250000954 20.249135971 0.0555000007 0.1507000029 2.4595999718 6.5524997711 23.940000534 75.077095032 144.19670105 1.7442384958 1.7907427549
 2760.0129395 11.000000000 0.3238001168 12.573800087 12.250000954 18.400180817 0.0685999990 0.1527000070 2.4781999588 6.9228000641 27.172599792 74.704902649 144.48770142 1.7683318853 1.8175280094
 2760.1652832 11.000000000 0.2121000141 12.462100029 12.250000954 17.829236984 0.0790000036 0.1590999961 2.5053999424 7.3189001083 25.190299988 75.888671875 144.88839722 1.8505545855 1.8973699808
 2760.3178711 11.000000000 0.0987997130 12.348799706 12.250000954 18.353061676 0.0546999983 0.1467999965 2.4860000610 7.0043997765 23.177799225 75.746482849 145.49330139 1.8845392466 1.9409648180
 2760.4702148 11.000000000 0.1048002020 12.354800224 12.250000954 19.367662430 0.0480999984 0.1386999935 2.4700000286 6.4808998108 22.008100510 75.646774292 145.05369568 1.8657275438 1.9301511049
 2760.6225586 11.000000000 0.0237999000 12.273799896 12.250000954 18.220346451 0.0419999994 0.1358000040 2.4790999889 6.3671998978 23.155899048 75.441253662 144.28720093 1.9452967644 2.0243632793
 2760.7749023 11.000000000 0.0422000885 12.292200089 12.250000954 16.628171921 0.0348999985 0.1326999962 2.4955000877 6.0219001770 22.743200302 74.541770935 143.01600647 2.0054664612 2.0635216236
 2760.9274902 11.000000000 0.0726995468 12.322700500 12.250000954 15.860132217 0.0294000003 0.1312000006 2.4753000736 6.2709999084 21.472200394 72.835411072 142.03939819 1.9218103886 1.9519584179
 2761.0798340 11.000000000 0.1144999936 12.364499092 12.250000954 14.997900963 0.0456999987 0.1368000060 2.4737999439 6.4604001045 22.285100937 71.936134338 141.91520691 1.7691392899 1.8142718077
 2761.2321777 11.000000000 0.0574998893 12.307499886 12.250000954 15.124094009 0.0447000004 0.1451999992 2.4642000198 6.3109998703 22.065399170 72.148193359 141.74299622 1.6688607931 1.7342400551
