# LAS format log file from PETREL
# Project units are specified as depth units
#==================================================================
~Version information
VERS.   2.0:
WRAP.   NO:
#==================================================================
~Well
STRT .m      1517.9528809 :
STOP .m      3212.6408691 :
STEP .m     0.00000000 :
NULL .        -999.250000 :
COMP.           : COMPANY
WELL.  15/9-23   : WELL
FLD.            : FIELD
LOC.            : LOCATION
SRVC.           : SERVICE COMPANY
DATE.  2018-09-11 14:48:03   : Log Export Date {yyyy-MM-dd HH:mm:ss}
PROV.           : PROVINCE
UWI.   15/9-23   : UNIQUE WELL ID
API.            : API NUMBER
#==================================================================
~Curve
DEPT .m                   : DEPTH
Lithology_geolink ._      : Lithology_geolink
DCAL .in                  : DCAL
CALI .in                  : CALI
BS .in                    : BS
ROP .m/h                  : ROP
DRHO .g/cm3               : DRHO
NPHI .m3/m3               : NPHI
RHOB .g/cm3               : RHOB
PEF .b/e                  : PEF
GR .gAPI                  : GR
DTC .us/ft                : DTC
DTS .us/ft                : DTS
RDEP .ohm.m               : RDEP
RMED .ohm.m               : RMED
~Parameter
#==================================================================
~Ascii
 1517.9528809  -999.250000 -4.675000191 12.824999809 17.500000000 29.997978210  -999.250000 0.3065981567  -999.250000  -999.250000 89.640701294 150.89379883 341.05703735  -999.250000  -999.250000
 1518.1052246  -999.250000 -4.141099930 13.358900070 17.500000000 35.840389252 -2.382400036 0.4289999902  -999.250000  -999.250000 83.632598877 149.52673340 335.37368774  -999.250000  -999.250000
 1518.2576904  -999.250000 -2.507000208 14.993000031 17.500000000 44.542064667 0.1306000054 0.4290594459  -999.250000  -999.250000 105.06559753 147.32395935 327.08340454  -999.250000  -999.250000
 1518.4100342  -999.250000 0.9785994291 18.478599548 17.500000000 45.257102966 -0.011300000 0.5032047033  -999.250000  -999.250000 94.103599548 145.40650940 322.78259277  -999.250000  -999.250000
 1518.5625000  -999.250000 1.2962000370 18.796199799 17.500000000 43.622173309 0.0223999992 0.5091218352  -999.250000  -999.250000 94.250602722 145.54397583 323.77859497  -999.250000  -999.250000
 1518.7148438  -999.250000 1.7151999474 19.215200424 17.500000000 39.199680328 0.0250000004 0.5360921621  -999.250000  -999.250000 89.571403503 143.77879333 334.39401245  -999.250000  -999.250000
 1518.8673096  -999.250000 1.3437000513 18.843700409 17.500000000 32.567256927 0.0248000007 0.2767056823  -999.250000  -999.250000 100.62010193 142.90272522 333.23779297 0.8617123365 0.8381689191
 1519.0196533  -999.250000 -1.247200012 16.252799988 17.500000000 33.995090485 0.0228000004 0.2839014530  -999.250000  -999.250000 97.752403259 142.42903137 316.49261475 0.8771309853 0.9241344333
 1519.1721191  -999.250000 -3.728899956 13.771100998 17.500000000 36.871051788 -0.005300000 0.4103244245  -999.250000  -999.250000 95.798698425 142.07849121 316.08398438 0.9158380628 0.9671760798
 1519.3244629  -999.250000 -5.279699802 12.220298767 17.500000000 41.396781921 -0.026900001 0.3631773293  -999.250000  -999.250000 104.64929962 141.88896179 318.34811401 0.9396571517 1.0146387815
 1519.4769287  -999.250000 -5.423000336 12.076999664 17.500000000 42.229976654 -0.046300001 0.3350381851  -999.250000  -999.250000 112.56929779 144.45199585 327.59500122 1.0109597445 1.0630246401
 1519.6292725  -999.250000 -5.485999584 12.013999939 17.500000000 35.591892242 -0.083400004 0.4212000072  -999.250000  -999.250000 101.13310242 146.69801331 334.94235229 1.0481902361 1.0784058571
 1519.7817383  -999.250000 -5.500000000 11.999999046 17.500000000 30.570444107 -0.092699997 0.4212000072  -999.250000  -999.250000 98.581596375 148.96215820 341.00839233 1.0359183550 1.0856907368
 1519.9340820  -999.250000 -5.500000000 11.999999046 17.500000000 29.607662201 -0.095700003 0.4212204516  -999.250000  -999.250000 138.46470642 150.49316406 341.03463745 0.9849895239 1.0798751116
 1520.0864258  -999.250000 -5.215199947 12.284800529 17.500000000 30.939197540 0.0320999995 0.4467000067  -999.250000  -999.250000 136.56179810 151.69224548 341.12570190 0.9718951583 1.0487672091
 1520.2388916  -999.250000 -5.121499538 12.378499985 17.500000000 36.288707733 0.2097000033 0.4465951920  -999.250000  -999.250000 136.56179810 147.63725281 332.46072388 0.9658774734 1.0079007149
 1520.3912354  -999.250000 -3.476300001 14.023699760 17.500000000 38.051052094 -0.080799997 0.3159185648  -999.250000  -999.250000 124.28900146 145.95205688 330.57055664 0.9377967119 1.0088036060
 1520.5437012  -999.250000 -4.590000153 12.909999847 17.500000000 35.352657318 -0.085600004 0.3391306102  -999.250000  -999.250000 124.28900146 143.89859009 329.48950195 0.9337092638 1.0132856369
 1520.6960449  -999.250000 -4.059500217 13.440500259 17.500000000 29.688558578 -0.089900002 0.3773019016  -999.250000  -999.250000 128.80299377 144.89688110 327.98229980 0.9451934099 0.9955046177
 1520.8485107  -999.250000 -2.537499905 14.962499619 17.500000000 24.890779495 -0.050900001 0.3796862364  -999.250000  -999.250000 133.40159607 146.87606812 328.24096680 0.9369004965 1.0012032986
 1521.0008545  -999.250000 -1.735399961 15.764599800 17.500000000 21.369255066 -0.228799999 0.3624960184  -999.250000  -999.250000 141.38819885 145.82783508 331.11761475 0.9374963045 1.0052959919
 1521.1533203  -999.250000 -4.876500130 12.623499870 17.500000000 18.824476242 -0.118500002 0.3574634790  -999.250000  -999.250000 136.68020630 143.75939941 331.56326294 0.9328987598 1.0002990961
 1521.3056641  -999.250000 -5.127799988 12.372199059 17.500000000 20.806331635 -0.090999998 0.3347063065  -999.250000  -999.250000 128.56660461 142.31874084 331.57589722 0.9320957661 0.9997065663
 1521.4581299  -999.250000 -3.701800346 13.798199654 17.500000000 24.838386536 -0.086999997 0.3425999880  -999.250000  -999.250000 128.45669556 142.25364685 324.54058838 0.9267809391 1.0078749657
 1521.6104736  -999.250000 0.6002007127 18.100200653 17.500000000 26.823280334 -0.095600002 0.3426325321  -999.250000  -999.250000 138.02459717 144.03465271 315.21029663 0.9148976207 0.9922895432
 1521.7629395  -999.250000 0.6919003129 18.191900253 17.500000000 27.175344467 -0.110399999 0.3833529055  -999.250000  -999.250000 125.42220306 147.59947205 320.60290527 0.9119095802 0.9793077111
 1521.9152832  -999.250000 -2.111999989 15.387999535 17.500000000 28.073246002 -0.101099998 0.4786170721  -999.250000  -999.250000 126.84120178 151.13214111 323.69509888 0.9179020524 0.9841039777
 1522.0676270  -999.250000 -3.018299818 14.481698990 17.500000000 26.385335922 -0.099100001 0.3751795888  -999.250000  -999.250000 125.78859711 148.93795776 328.99468994 0.9204074144 0.9891009331
 1522.2200928  -999.250000 -1.822600007 15.677400589 17.500000000 26.556005478 -0.103799999 0.3497021794  -999.250000  -999.250000 131.08349609 151.00988770 321.47659302 0.9296000004 0.9903032780
 1522.3724365  -999.250000 1.6853009462 19.185300827 17.500000000 29.057773590 -0.107500002 0.3523650169  -999.250000  -999.250000 119.76380157 152.86349487 317.77517700 0.9296104312 0.9944172502
 1522.5249023  -999.250000 1.2171989679 18.717199326 17.500000000 31.269256592 -0.099100001 0.3087109029  -999.250000  -999.250000 114.08450317 153.73483276 318.22909546 0.9426023960 1.0159064531
 1522.6772461  -999.250000 0.7035006881 18.203500748 17.500000000 32.570827484 -0.088900000 0.3223190308  -999.250000  -999.250000 119.30650330 154.24595642 327.55416870 0.9455806613 1.0238950253
 1522.8297119  -999.250000 6.5209012032 24.020902634 17.500000000 31.873134613 -0.083800003 0.3461006582  -999.250000  -999.250000 120.29340363 153.81195068 325.72479248 0.9214928150 1.0175843239
 1522.9820557  -999.250000 5.5608005524 23.060800552 17.500000000 30.676160812 -0.082900003 0.3469005525  -999.250000  -999.250000 125.96649933 153.13269043 315.77499390 0.9124889374 0.9978812337
 1523.1345215  -999.250000 -3.312599897 14.187399864 17.500000000 28.988580704 -0.070500001 0.3475713432  -999.250000  -999.250000 132.76440430 151.25248718 311.01599121 0.8986983895 0.9744890928
 1523.2868652  -999.250000 -3.312599897 14.187399864 17.500000000 26.417409897 -0.070500001 0.3297059238  -999.250000  -999.250000 122.52929688 150.12313843 311.68460083 0.8976998329 0.9677051902
 1523.4393311  -999.250000 -5.500000000 11.999999046 17.500000000 22.933683395 -0.059700001 0.3371792734  -999.250000  -999.250000 120.20909882 149.56620789 315.69250488 0.8975057602 0.9742086530
 1523.5916748  -999.250000 -5.500000000 11.999999046 17.500000000 20.302696228 -0.059700001 0.3865770698  -999.250000  -999.250000 135.04370117 147.19613647 331.15090942 0.9011011720 0.9795988798
 1523.7441406  -999.250000 -5.500000000 11.999999046 17.500000000 18.552753448 -0.059700001 0.3579617441  -999.250000  -999.250000 140.67810059 147.74511719 332.88858032 0.9025977254 0.9781988859
 1523.8964844  -999.250000 -5.500000000 11.999999046 17.500000000 19.209896088 -0.058300000 0.3340220451  -999.250000  -999.250000 137.53779602 150.31718445 323.97119141 0.9012021422 0.9774997830
 1524.0488281  -999.250000 -5.500000000 11.999999046 17.500000000 20.574630737 -0.053300001 0.2368000001  -999.250000  -999.250000 125.78630066 152.40176392 320.89691162 0.9039022923 0.9772049189
