# LAS format log file from PETREL
# Project units are specified as depth units
#==================================================================
~Version information
VERS.   2.0:
WRAP.   NO:
#==================================================================
~Well
STRT .m      1517.9528809 :
STOP .m      3212.6408691 :
STEP .m     0.00000000 :
NULL .        -999.250000 :
COMP.           : COMPANY
WELL.  15/9-23   : WELL
FLD.            : FIELD
LOC.            : LOCATION
SRVC.           : SERVICE COMPANY
DATE.  2018-09-11 14:48:03   : Log Export Date {yyyy-MM-dd HH:mm:ss}
PROV.           : PROVINCE
UWI.   15/9-23   : UNIQUE WELL ID
API.            : API NUMBER
#==================================================================
~Curve
DEPT .m                   : DEPTH
Lithology_geolink ._      : Lithology_geolink
DCAL .in                  : DCAL
CALI .in                  : CALI
BS .in                    : BS
ROP .m/h                  : ROP
DRHO .g/cm3               : DRHO
NPHI .m3/m3               : NPHI
RHOB .g/cm3               : RHOB
PEF .b/e                  : PEF
GR .gAPI                  : GR
DTC .us/ft                : DTC
DTS .us/ft                : DTS
RDEP .ohm.m               : RDEP
RMED .ohm.m               : RMED
~Parameter
#==================================================================
~Ascii
# ...
 2305.2512207  -999.250000 0.4834002554 12.733400345 12.250000954 55.842895508 0.0491999984 0.3871999979 2.4944999218 7.4388999939 81.720901489 124.55850983 343.16900635 0.4805000126 0.4929000139
 2305.4035645  -999.250000 0.5411996841 12.791200638 12.250000954 47.736099243 0.0679000020 0.3871999979 2.4498999119 6.8796000481 83.984596252 125.34430695 350.45855713 0.4573999941 0.4517000020
 2305.5559082  -999.250000 0.2821998894 12.532200813 12.250000954 41.357215881 0.0520000011 0.3860000074 2.3603999615 6.7934999466 82.440002441 126.64929962 347.67419434 0.4334999919 0.4440999925
 2305.7084961  -999.250000 0.2471999973 12.497201920 12.250000954 31.167507172 0.0522000007 0.4280999899 2.3032000065 6.3870000839 84.976799011 129.22909546 346.91989136 0.4284000099 0.4384999871
 2305.8608398  -999.250000 0.4108000100 12.660799980 12.250000954 25.792402267 0.0545999967 0.4291999936 2.2904000282 6.4092998505 86.648399353 131.88830566 345.65393066 0.4169999957 0.4359000027
 2306.0131836  -999.250000 0.4394999146 12.689500809 12.250000954 23.101900101 0.0727000013 0.3975999951 2.2934999466 7.3053002357 87.042396545 133.67770386 341.18231201 0.4564000070 0.4451000094
 2306.1655273  -999.250000 0.2109003067 12.460900307 12.250000954 26.278501511 0.0612999983 0.4002000093 2.2843000889 7.2968997955 85.472396851 133.76589966 335.60150146 0.5048000216 0.4625000060
 2306.3181152  -999.250000 -0.029500009 12.220499992 12.250000954 29.915300369 0.0392999984 0.3912999928 2.2904999256 7.0633997917 87.735702515 132.86770630 330.98190308 0.5777000189 0.4986999929
 2306.4704590  -999.250000 -0.044099811 12.205900192 12.250000954 32.665203094 0.0227000006 0.3741999865 2.3292000294 6.8569002151 85.862899780 129.43310547 324.36178589 0.5814999938 0.5363000035
 2306.6228027  -999.250000 0.1928997189 12.442900658 12.250000954 35.525810242 0.0483000018 0.3806000054 2.4030001163 6.9291000366 88.336898804 126.27709961 320.45181274 0.5737000108 0.5889000297
 2306.7751465  -999.250000 0.2721003890 12.522100449 12.250000954 38.143585205 0.0674000010 0.3871000111 2.4342999458 6.9368000031 87.380302429 125.31620026 323.20761108 0.5551000237 0.5735999942
 2306.9277344  -999.250000 0.2959002852 12.545900345 12.250000954 34.627109528 0.0691000000 0.3808999956 2.3884000778 6.3017997742 88.746902466 125.77300262 325.69210815 0.5503000021 0.5698999763
 2307.0800781  -999.250000 0.2761001885 12.526100159 12.250000954 31.753696442 0.0671999976 0.3934000134 2.3540999889 6.4029002190 90.833801270 127.29709625 326.72119141 0.5489000082 0.5683000088
 2307.2324219  -999.250000 0.3148002923 12.564800262 12.250000954 34.096694946 0.0612999983 0.4050999880 2.3368999958 6.8877000809 90.350700378 129.30450439 326.31289673 0.5468000174 0.5396999717
 2307.3847656  -999.250000 0.1886997074 12.438699722 12.250000954 35.225097656 0.0568000004 0.4163999856 2.3368999958 7.1505999565 92.395896912 130.88830566 325.80200195 0.5314999819 0.5321999788
 2307.5371094  -999.250000 0.1820002198 12.432000160 12.250000954 33.925609589 0.0623999983 0.4056999981 2.3654999733 7.2441000938 85.709602356 131.33819580 322.33822632 0.5188000202 0.5487999916
 2307.6896973  -999.250000 0.3576001823 12.607599258 12.250000954 36.751899719 0.0537000000 0.3905999959 2.3638999462 6.6503000259 89.683700562 131.62519836 318.75119019 0.5277000070 0.5309000015
 2307.8420410  -999.250000 0.8297005892 13.079700470 12.250000954 40.091197968 0.0441000015 0.3914999962 2.3257999420 6.4640998840 81.014099121 130.81039429 303.71270752 0.5681999922 0.5659000278
 2307.9943848  -999.250000 0.3509997725 12.601000786 12.250000954 42.892398834 0.0681999996 0.3921999931 2.3789999485 7.1451001167 81.472801208 129.88139343 295.00900269 0.6306999922 0.6754999757
 2308.1467285  -999.250000 0.1520995945 12.402099609 12.250000954 44.012111664 0.0666999966 0.3878000081 2.3821001053 7.4499001503 92.780700684 127.85150146 295.62188721 0.6765999794 0.6984999776
 2308.2993164  -999.250000 0.2378998101 12.487899780 12.250000954 45.691986084 0.0584999993 0.3824999928 2.3854999542 7.6048998833 92.780700684 125.87339783 288.05169678 0.6607999802 0.6809999943
 2308.4516602  -999.250000 0.0923004225 12.342301369 12.250000954 43.434307098 0.0526000001 0.3664000034 2.3859000206 7.8262000084 91.874397278 123.82701111 287.43710327 0.6412000060 0.6661999822
 2308.6040039  -999.250000 -0.033200260 12.216800690 12.250000954 38.812103271 0.0403999984 0.3702999949 2.3819999695 7.8859000206 84.643501282 121.73770142 278.62561035 0.6158000231 0.6222000122
 2308.7563477  -999.250000 0.0628995895 12.312899590 12.250000954 38.179492950 0.0285000000 0.3849000037 2.3903000355 8.3978996277 83.923797607 119.91120148 272.24069214 0.5914999843 0.5773000121
 2308.9089355  -999.250000 0.1544999927 12.404500008 12.250000954 35.738014221 0.0542000011 0.3867999911 2.4484000206 8.3579998016 97.656097412 119.33139801 266.48818970 0.5103999972 0.5468999743
 2309.0612793  -999.250000 0.0819997787 12.331998825 12.250000954 32.178802490 0.0513999984 0.4088000059 2.4560999870 7.9598999023 103.42620087 119.64179993 265.15969849 0.4769999981 0.5091000199
 2309.2136230  -999.250000 0.3035002053 12.553501129 12.250000954 29.444805145 0.0142999999 0.4059999883 2.3227000237 8.7850999832 96.871803284 121.06089783 262.38391113 0.4643000066 0.4853999913
 2309.3659668  -999.250000 0.9365995526 13.186599731 12.250000954 27.092996597 0.0254999995 0.4066999853 2.2841000557 7.3154001236 93.449096680 123.01770020 266.38751221 0.4697000086 0.4740000069
 2309.5183105  -999.250000 0.8662996292 13.116300583 12.250000954 27.864099503 0.0355999991 0.4000000060 2.2572999001 6.3477001190 104.35089874 124.66030121 271.87658691 0.4806999862 0.4878999889
 2309.6708984  -999.250000 0.2302999049 12.480300903 12.250000954 32.403285980 0.0807999969 0.4483000040 2.4091000557 6.7596001625 93.930702209 126.94100189 290.00299072 0.4934000075 0.4878999889
 2309.8232422  -999.250000 0.3287000954 12.578700066 12.250000954 35.887485504 0.0635000020 0.4480000138 2.3907999992 7.4713001251 96.220596313 128.92630005 304.81146240 0.4963000119 0.5094000101
 2309.9755859  -999.250000 0.3368997872 12.586899757 12.250000954 33.121093750 0.0691000000 0.4316999912 2.3666999340 7.8888001442 84.328796387 130.83039856 321.20059204 0.4925999939 0.5054000020
 2310.1279297  -999.250000 0.2282000035 12.478199959 12.250000954 31.842790604 0.0855000019 0.4298999906 2.3875000477 7.3928999901 88.218200684 131.55999756 328.68484497 0.4997999966 0.5037000179
 2310.2805176  -999.250000 0.2665997148 12.516599655 12.250000954 35.172702789 0.0785999969 0.4187000096 2.3850998878 7.4166002274 92.981002808 131.43420410 334.92602539 0.5127999783 0.5192000270
 2310.4328613  -999.250000 0.2759999931 12.526000977 12.250000954 41.072715759 0.0732999966 0.4154999852 2.3831000328 7.4969000816 95.902702332 129.88850403 330.55062866 0.5038999915 0.5279999971
 2310.5852051  -999.250000 0.3483000100 12.598300934 12.250000954 46.153396606 0.0783000067 0.4399000108 2.4054999352 7.7659001350 97.804298401 130.16999817 325.38211060 0.4900000095 0.5115000010
 2310.7375488  -999.250000 0.3186998069 12.568699837 12.250000954 44.284515381 0.0882000029 0.4212999940 2.4272999763 8.0263004303 88.650299072 130.94630432 323.71209717 0.4898000062 0.5080000162
 2310.8901367  -999.250000 0.2397002876 12.489701271 12.250000954 38.449302673 0.0723000020 0.4165000021 2.4135999680 7.7220997810 100.43160248 130.88450623 322.24359131 0.5085421205 0.4996681213
 2311.0424805  -999.250000 0.1125001982 12.362499237 12.250000954 35.509109497 0.0694999993 0.4056999981 2.4272000790 7.4783000946 97.804496765 130.89179993 323.04611206 0.4724168181 0.4797374904
 2311.1948242  -999.250000 0.4762001336 12.726201057 12.250000954 32.487686157 0.0652000010 0.4095000029 2.4625999928 7.9544000626 84.930801392 130.00219727 325.07980347 0.4206355214 0.4408409595
 2311.3471680  -999.250000 0.4410000443 12.690999985 12.250000954 30.643709183 0.0654999986 0.4077999890 2.4542000294 7.8663997650 84.936096191 128.39250183 303.08911133 0.4427999854 0.4663999975
