# LAS format log file from PETREL
# Project units are specified as depth units
#==================================================================
~Version information
VERS.   2.0:
WRAP.   NO:
#==================================================================
~Well
STRT .m      2122.4746094 :
STOP .m      4102.6074219 :
STEP .m     0.00000000 :
NULL .        -999.250000 :
COMP.           : COMPANY
WELL.  15/9-19A   : WELL
FLD.            : FIELD
LOC.            : LOCATION
SRVC.           : SERVICE COMPANY
DATE.  2018-09-11 14:48:01   : Log Export Date {yyyy-MM-dd HH:mm:ss}
PROV.           : PROVINCE
UWI.   15/9-19 A   : UNIQUE WELL ID
API.            : API NUMBER
#==================================================================
~Curve
DEPT .m                   : DEPTH
Lithology_geolink ._      : Lithology_geolink
CALI .in                  : CALI
RHOB .g/cm3               : RHOB
GR .gAPI                  : GR
RDEP .ohm.m               : RDEP
RSHA .ohm.m               : RSHA
RMED .ohm.m               : RMED
~Parameter
#==================================================================
~Ascii
# ...
 2439.3142090  -999.250000 11.333700180 2.1994068623 73.506958008 0.8228027225 0.9998999834 0.8020007610
 2439.4665527  -999.250000 11.330799103 2.2037000656 76.446281433 0.8245000243 0.9912999868 0.8025000095
 2439.6191406  -999.250000 11.311499596 2.2108056545 75.144302368 0.8262028694 0.9860000014 0.8037038445
 2439.7714844  -999.250000 11.282199860 2.2142975330 71.286300659 0.8280032277 0.9857000113 0.8061051369
 2439.9238281  -999.250000 11.292599678 2.2127993107 71.093505859 0.8300030231 0.9889000058 0.8093049526
 2440.0761719  -999.250000 11.258299828 2.2123999596 74.563629150 0.8319000006 0.9947999716 0.8123999834
 2440.2285156  -999.250000 11.250400543 2.2123000622 76.263977051 0.8334000111 1.0026999712 0.8147000074
 2440.3811035  -999.250000 11.246500015 2.2104928493 74.088996887 0.8346012831 1.0104000568 0.8162011504
 2440.5334473  -999.250000 11.241399765 2.2060918808 73.674263000 0.8354011178 1.0161000490 0.8168995380
 2440.6857910  -999.250000 11.250499725 2.2009999752 72.925895691 0.8360999823 1.0191999674 0.8166000247
 2440.8381348  -999.250000 11.239500046 2.2028000355 75.604797363 0.8371000290 1.0189000368 0.8161000013
 2440.9904785  -999.250000 11.244700432 2.2056999207 79.037200928 0.8389000297 1.0140079260 0.8167999983
 2441.1428223  -999.250000 11.234500885 2.2095999718 76.831649780 0.8417000175 1.0070111752 0.8197000027
 2441.2951660  -999.250000 11.240500450 2.2058000565 73.613815308 0.8452000022 1.0033059120 0.8241999745
 2441.4477539  -999.250000 11.223299980 2.1995999813 74.829833984 0.8488000035 1.0039000511 0.8281999826
 2441.6000977  -999.250000 11.230400085 2.2033998966 75.127326965 0.8519999981 1.0059967041 0.8309000134
 2441.7524414  -999.250000 11.228400230 2.2063999176 72.674438477 0.8544999957 1.0065990686 0.8331000209
 2441.9047852  -999.250000 11.237501144 2.2083001137 72.360389709 0.8560000062 1.0079977512 0.8349999785
 2442.0573730  -999.250000 11.214301109 2.2098000050 77.619354248 0.8565000296 1.0138000250 0.8356000185
 2442.2097168  -999.250000 11.128800392 2.2065000534 77.043937683 0.8558999896 1.0211000443 0.8339999914
 2442.3620605  -999.250000 11.090000153 2.1982998848 74.186386108 0.8546000123 1.0232000351 0.8309999704
 2442.5144043  -999.250000 11.074001312 2.1935000420 75.076431274 0.8532000184 1.0184999704 0.8284000158
 2442.6669922  -999.250000 11.043801308 2.2000999451 75.189926147 0.8521999717 1.0104999542 0.8271999955
 2442.8193359  -999.250000 11.035799980 2.2035000324 77.042427063 0.8514000177 1.0017000437 0.8271999955
 2442.9716797  -999.250000 11.029100418 2.2007000446 79.301574707 0.8506000042 0.9904000163 0.8267999887
 2443.1240234  -999.250000 11.013999939 2.2012999058 78.264274597 0.8492000103 0.9738000035 0.8246999979
 2443.2763672  -999.250000 11.007901192 2.1967999935 76.332992554 0.8476999998 0.9545999765 0.8209000230
 2443.4289551  -999.250000 11.008899689 2.1921000481 78.778862000 0.8464999795 0.9401000142 0.8173000216
 2443.5812988  -999.250000 10.999699593 2.1919999123 78.535499573 0.8465999961 0.9361000061 0.8162999749
 2443.7336426  -999.250000 11.004100800 2.1909000874 76.619972229 0.8481000066 0.9409999847 0.8183000088
 2443.8859863  -999.250000 10.870100021 2.1863999367 73.033401489 0.8510000110 0.9501000047 0.8224999905
 2444.0385742  -999.250000 10.842300415 2.1840999126 71.218894958 0.8549000025 0.9606999755 0.8281000257
 2444.1909180  -999.250000 10.853699684 2.1775000095 71.151603699 0.8590999842 0.9718000293 0.8346999884
 2444.3432617  -999.250000 10.823399544 2.1688001156 72.484466553 0.8630999923 0.9822999835 0.8417000175
 2444.4956055  -999.250000 10.832599640 2.1661999226 72.330604553 0.8658000231 0.9927999973 0.8475000262
 2444.6481934  -999.250000 10.822500229 2.1751000881 73.871025085 0.8662999868 1.0023000240 0.8504999876
 2444.8005371  -999.250000 10.815799713 2.1919999123 77.421508789 0.8637999892 1.0072000027 0.8486999869
 2444.9528809  -999.250000 10.739199638 2.1993999481 75.975624084 0.8586999774 1.0039000511 0.8418999910
 2445.1052246  -999.250000 10.711999893 2.1977999210 71.988395691 0.8522999883 0.9937000275 0.8325999975
 2445.2575684  -999.250000 10.675900459 2.1879000664 71.918609619 0.8461999893 0.9815000296 0.8248000145
 2445.4101563  -999.250000 10.679200172 2.1793000698 75.767723083 0.8413000107 0.9721999764 0.8209999800
 2445.5625000  -999.250000 10.678200722 2.1786000729 75.760826111 0.8374999762 0.9690999985 0.8198000193
 2445.7148438  -999.250000 10.662000656 2.1817998886 76.532264709 0.8335999846 0.9714000225 0.8170999885
 2445.8671875  -999.250000 10.679200172 2.1863000393 79.458709717 0.8291000128 0.9718000293 0.8101000190
 2446.0197754  -999.250000 10.674300194 2.2019999027 78.560356140 0.8242999911 0.9631999731 0.8000000119
 2446.1721191  -999.250000 10.665200233 2.1942000389 78.829566956 0.8205999732 0.9509999752 0.7917000055
 2446.3244629  -999.250000 10.666099548 2.1703000069 78.328506470 0.8190000057 0.9456999898 0.7889999747
 2446.4768066  -999.250000 10.670099258 2.1884000301 77.485206604 0.8191999793 0.9430999756 0.7911999822
 2446.6293945  -999.250000 10.678200722 2.2033998966 76.467636108 0.8195999861 0.9338999987 0.7943999767
 2446.7817383  -999.250000 10.676299095 2.2051999569 75.453025818 0.8181999922 0.9229000211 0.7949000001
 2446.9340820  -999.250000 10.658100128 2.1953001022 73.108863831 0.8140000105 0.9179000258 0.7911999822
 2447.0864258  -999.250000 10.661199570 2.2000000477 71.009567261 0.8075000048 0.9154999852 0.7829999924
 2447.2387695  -999.250000 10.655200005 2.2053999901 69.907325745 0.8003000021 0.9093999863 0.7724000216
 2447.3913574  -999.250000 10.652199745 2.1997001171 71.133720398 0.7947000265 0.9006000161 0.7635999918
 2447.5437012  -999.250000 10.658300400 2.1947000027 75.843246460 0.7922000289 0.8956000209 0.7605000138
 2447.6960449  -999.250000 10.666199684 2.1914000511 77.155212402 0.7928000093 0.8985000253 0.7635999918
 2447.8483887  -999.250000 10.660099030 2.1937999725 70.880752563 0.7950999737 0.9079999924 0.7699999809
 2448.0009766  -999.250000 10.683299065 2.1958999634 69.187889099 0.7969999909 0.9168999791 0.7754999995
 2448.1533203  -999.250000 10.695501328 2.2030000687 70.723030090 0.7973999977 0.9187999964 0.7773000002
 2448.3056641  -999.250000 10.695400238 2.2086000443 72.515625000 0.7962999940 0.9150000215 0.7752000093
 2448.4580078  -999.250000 10.671299934 2.2198998928 73.190940857 0.7947999835 0.9120000005 0.7718999982
 2448.6105957  -999.250000 10.598999977 2.2334001064 73.155761719 0.7944999933 0.9226999879 0.7713000178
 2448.7629395  -999.250000 10.551399231 2.2734999657 72.219505310 0.7968000174 0.9656999707 0.7774000168
 2448.9152832  -999.250000 10.354399681 2.3868999481 70.859382629 0.8027999997 1.0426000357 0.7925999761
 2449.0676270  -999.250000 10.222200394 2.5610001087 59.281482697 0.8123000264 1.1117999554 0.8149999976
 2449.2199707  -999.250000 10.198200226 2.6419999599 49.627334595 0.8237000108 1.1151000261 0.8370000124
 2449.3725586  -999.250000 10.217399597 2.4895999432 51.869152069 0.8341000080 1.0520000458 0.8500999808
 2449.5249023  -999.250000 10.262499809 2.2679998875 61.123153687 0.8407999873 0.9893000126 0.8521000147
 2449.6772461  -999.250000 10.351400375 2.1826999187 69.717826843 0.8417999744 0.9534999728 0.8464999795
 2449.8295898  -999.250000 10.469899178 2.1761000156 72.501907349 0.8370000124 0.9132000208 0.8381999731
 2449.9821777  -999.250000 10.500000000 2.1731998920 71.731452942 0.8267999887 0.8841999769 0.8287000060
 2450.1345215  -999.250000 10.523900032 2.1754999161 70.983299255 0.8126000166 0.9042000175 0.8147000074
 2450.2868652  -999.250000 10.570798874 2.1810998917 70.331047058 0.7971000075 0.9474999905 0.7922000289
 2450.4392090  -999.250000 10.660399437 2.1833999157 75.706039429 0.7840999961 0.9675999880 0.7667999864
 2450.5917969  -999.250000 10.659199715 2.1872999668 77.525207520 0.7771000266 0.9607999921 0.7500000000
 2450.7441406  -999.250000 10.654199600 2.1851000786 76.549072266 0.7774999738 0.9476000071 0.7479000092
 2450.8964844  -999.250000 10.667300224 2.1728000641 78.133255005 0.7843999863 0.9373999834 0.7574999928
