# LAS format log file from PETREL
# Project units are specified as depth units
#==================================================================
~Version information
VERS.   2.0:
WRAP.   NO:
#==================================================================
~Well
STRT .m      1175.9671631 :
STOP .m      1726.7407227 :
STEP .m     0.00000000 :
NULL .        -999.250000 :
COMP.           : COMPANY
WELL.  16/1-6 A Verdandi Appr   : WELL
FLD.            : FIELD
LOC.            : LOCATION
SRVC.           : SERVICE COMPANY
DATE.  2018-09-11 14:48:05   : Log Export Date {yyyy-MM-dd HH:mm:ss}
PROV.           : PROVINCE
UWI.   16/1-6 A   : UNIQUE WELL ID
API.            : API NUMBER
#==================================================================
~Curve
DEPT .m                   : DEPTH
Lithology_geolink ._      : Lithology_geolink
CALI .in                  : CALI
BS .in                    : BS
NPHI .m3/m3               : NPHI
RHOB .g/cm3               : RHOB
PEF .b/e                  : PEF
GR .gAPI                  : GR
DTC .us/ft                : DTC
RDEP .ohm.m               : RDEP
RMED .ohm.m               : RMED
~Parameter
#==================================================================
~Ascii
# ...
 1577.0838623  -999.250000 8.8079996109 8.5000000000 0.4909999967 2.1700000763 4.9229001999 60.120956421 143.19802856 0.5562908053 0.5748100281
 1577.2363281  -999.250000 8.7929000854 8.5000000000 0.4591999948 2.1484000683 4.8618001938 66.182945251 140.98687744 0.5309405327 0.5459461212
 1577.3886719  -999.250000 8.7777996063 8.5000000000 0.4760000110 2.1456999779 4.8814001083 67.468170166 143.46121216 0.5205249786 0.5337293148
 1577.5411377  -999.250000 8.8534002304 8.5000000000 0.4925000072 2.1607999802 4.9018001556 66.147857666 145.05014038 0.5195016265 0.5331009626
 1577.6934814  -999.250000 8.8873996735 8.5000000000 0.5080999732 2.1888000965 4.9218997955 65.098640442 142.08888245 0.5309724212 0.5401829481
 1577.8459473  -999.250000 8.8986997604 8.5000000000 0.4970999956 2.2132999897 4.9327001572 62.547042847 144.26744080 0.5529646873 0.5625641346
 1577.9982910  -999.250000 8.8534002304 8.5000000000 0.4812999964 2.1961998940 4.9535999298 59.548103333 143.41418457 0.5971291661 0.5992411971
 1578.1507568  -999.250000 8.8534002304 8.5000000000 0.4812000096 2.1623001099 4.9594001770 56.168502808 141.50822449 0.5930067301 0.5960053205
 1578.3031006  -999.250000 8.8836002350 8.5000000000 0.5015000105 2.1366999149 4.9562997818 57.082462311 143.49000549 0.5731318593 0.5706406832
 1578.4554443  -999.250000 8.7513999939 8.5000000000 0.5138000250 2.1340999603 4.9352998734 55.580112457 144.61759949 0.5612286329 0.5548379421
 1578.6079102  -999.250000 8.8079996109 8.5000000000 0.4927999973 2.1396999359 4.9017000198 58.944599152 146.30274963 0.5540115833 0.5467129946
 1578.7602539  -999.250000 8.8193998337 8.5000000000 0.4959000051 2.1398999691 4.8592000008 59.195003510 148.16322327 0.5517055392 0.5413129926
 1578.9127197  -999.250000 8.8534002304 8.5000000000 0.4745999873 2.1366000175 4.8393998146 59.777732849 146.16349792 0.5416162014 0.5378056169
 1579.0650635  -999.250000 8.8420000076 8.5000000000 0.5027999878 2.1303000450 4.8750000000 58.964103699 148.44514465 0.5361132026 0.5369021297
 1579.2175293  -999.250000 8.8382997513 8.5000000000 0.4621999860 2.1273000240 4.9706001282 57.681827545 148.29241943 0.5356007814 0.5380980968
 1579.3698730  -999.250000 8.8382997513 8.5000000000 0.4650999904 2.1340000629 5.0436000824 57.797206879 147.49313354 0.5359990597 0.5367033482
 1579.5223389  -999.250000 8.8534002304 8.5000000000 0.4891999960 2.1468999386 5.0269999504 60.694576263 146.99879456 0.5347020626 0.5397950411
 1579.6746826  -999.250000 8.8647003174 8.5000000000 0.5199999809 2.1628000736 4.9366002083 59.988666534 148.32005310 0.5375930071 0.5409971476
 1579.8271484  -999.250000 8.8306999207 8.5000000000 0.5360000134 2.1610000134 4.8812999725 59.988098145 148.08528137 0.5309107304 0.5336118340
 1579.9794922  -999.250000 8.8458003998 8.5000000000 0.5095000267 2.1545999050 4.9022002220 57.100616455 146.56571960 0.5222209096 0.5255194306
 1580.1319580  -999.250000 8.7702999115 8.5000000000 0.5388000011 2.1431999207 4.9692001343 57.796638489 148.35105896 0.5270921588 0.5288946033
 1580.2843018  -999.250000 8.7854003906 8.5000000000 0.5288000107 2.1537001133 5.0700998306 57.098461151 145.24688721 0.5407780409 0.5406811237
 1580.4366455  -999.250000 8.8079996109 8.5000000000 0.5426999927 2.2274999619 5.2133002281 59.858470917 139.72804260 0.5496786237 0.5482817888
 1580.5891113  -999.250000 8.8079996109 8.5000000000 0.4936999977 2.3183000088 5.3783998489 60.105705261 136.84980774 0.5607822537 0.5585834980
 1580.7414551  -999.250000 8.8193998337 8.5000000000 0.5095000267 2.3826999664 5.4148998260 60.329643250 141.47796631 0.5800536275 0.5763572454
 1580.8939209  -999.250000 8.8534002304 8.5000000000 0.4907999933 2.3351998329 5.2848000526 55.936923981 140.99040222 0.6022644043 0.5995628238
 1581.0462646  -999.250000 8.9100999832 8.5000000000 0.4889000058 2.2441999912 5.0289001465 55.584259033 140.72062683 0.5790559649 0.5738620162
 1581.1987305  -999.250000 8.9364995956 8.5000000000 0.4532000124 2.1716001034 4.8024001122 56.631259918 140.77665710 0.5561367273 0.5537321568
 1581.3510742  -999.250000 8.9893999100 8.5000000000 0.4691999853 2.1498000622 4.6807999611 58.728317261 142.16998291 0.5648788214 0.5585882664
 1581.5035400  -999.250000 8.9893999100 8.5000000000 0.4918999970 2.1572000980 4.6476001740 61.126781464 145.31788635 0.5679950714 0.5634921193
 1581.6558838  -999.250000 9.0234003067 8.5000000000 0.5225999951 2.1600999832 4.6543002129 63.234310150 145.04162598 0.5624134541 0.5603076816
 1581.8083496  -999.250000 9.0725002289 8.5000000000 0.5018000007 2.1533999443 4.6469998360 66.368690491 146.56158447 0.5616013408 0.5580037236
 1581.9606934  -999.250000 9.1028003693 8.5000000000 0.5131999850 2.1542999744 4.5830001831 65.022483826 139.77365112 0.5565122962 0.5593966842
 1582.1131592  -999.250000 9.1406002045 8.5000000000 0.5069000125 2.1545999050 4.4300999641 63.027297974 137.94786072 0.5572986603 0.5637929440
 1582.2655029  -999.250000 9.1103000641 8.5000000000 0.5006999969 2.1612999439 4.2097001076 58.146213531 138.27104187 0.5610939264 0.5703894496
 1582.4178467  -999.250000 9.1028003693 8.5000000000 0.4826000035 2.1572999954 4.0124001503 59.073108673 140.15037537 0.5680831671 0.5785803199
 1582.5703125  -999.250000 9.1028003693 8.5000000000 0.4914000034 2.1596999168 3.8922998905 57.915630341 140.76110840 0.5791822672 0.5932764411
 1582.7226563  -999.250000 9.1141004562 8.5000000000 0.5340999961 2.1600000858 3.8359999657 58.729194641 139.94401550 0.5999500751 0.6093612909
 1582.8751221  -999.250000 9.1480998993 8.5000000000 0.5307000279 2.1575999260 3.8018000126 57.904964447 140.05580139 0.6066892743 0.6135932803
 1583.0274658  -999.250000 9.1595001221 8.5000000000 0.5216000080 2.1528999805 3.7771999836 58.495052338 140.68190002 0.6071988344 0.6106072068
 1583.1799316  -999.250000 9.1934995651 8.5000000000 0.4781000018 2.1526999474 3.7741999626 58.263088226 141.00164795 0.6009100676 0.5997174382
 1583.3322754  -999.250000 9.2086000443 8.5000000000 0.4630999863 2.1565999985 3.8015000820 60.358020782 140.05206299 0.5935177803 0.5903226137
 1583.4847412  -999.250000 9.2160997391 8.5000000000 0.4264999926 2.1540999413 3.8696999550 62.934436798 136.93380737 0.5894065499 0.5796171427
 1583.6370850  -999.250000 9.2388000488 8.5000000000 0.4463000000 2.1517000198 3.9798998833 63.159919739 137.81269836 0.5842125416 0.5774053335
 1583.7895508  -999.250000 9.2502002716 8.5000000000 0.4713999927 2.1512999535 4.1048998833 62.123432159 140.87043762 0.5791081786 0.5777993202
 1583.9418945  -999.250000 9.2841997147 8.5000000000 0.4880999923 2.1563999653 4.2086000443 62.332031250 139.90608215 0.5781024098 0.5770019293
 1584.0943604  -999.250000 9.1406002045 8.5000000000 0.4973999858 2.1695001125 4.2996001244 63.739170074 137.64501953 0.5889825225 0.5955702066
 1584.2467041  -999.250000 9.0951995850 8.5000000000 0.4873999953 2.1784999371 4.4435000420 64.904869080 138.35711670 0.6191515923 0.6224569082
 1584.3991699  -999.250000 9.1254997253 8.5000000000 0.4925999939 2.1891999245 4.6921000481 62.689376831 136.78695679 0.6260889769 0.6290894747
 1584.5515137  -999.250000 9.0801000595 8.5000000000 0.4709999859 2.1935999393 4.9528999329 63.619251251 136.77990723 0.6220065355 0.6226104498
 1584.7038574  -999.250000 9.0234003067 8.5000000000 0.4460000098 2.2000000477 5.1086997986 60.468353271 137.11647034 0.6260901690 0.6194077134
 1584.8563232  -999.250000 8.9441003799 8.5000000000 0.4841000140 2.1974000931 5.1243000031 61.758663177 138.54595947 0.6374816895 0.6217961311
 1585.0086670  -999.250000 8.9554004669 8.5000000000 0.4981000125 2.1798999310 5.0904998779 59.539363861 139.84921265 0.6176478267 0.6056389213
 1585.1611328  -999.250000 8.9289999008 8.5000000000 0.5231000185 2.1600999832 5.0212001801 59.895011902 146.07051086 0.6020249724 0.5872294903
 1585.3134766  -999.250000 8.9666996002 8.5000000000 0.4918000102 2.1517000198 4.8997998238 61.291660309 143.68652344 0.5873352885 0.5733333826
 1585.4659424  -999.250000 9.0121002197 8.5000000000 0.4726999998 2.1547000408 4.7375998497 63.039798737 143.73275757 0.5636379719 0.5580245256
