# LAS format log file from PETREL
# Project units are specified as depth units
#==================================================================
~Version information
VERS.   2.0:
WRAP.   NO:
#==================================================================
~Well
STRT .m      2645.2697754 :
STOP .m      2924.0100098 :
STEP .m     0.00000000 :
NULL .        -999.250000 :
COMP.           : COMPANY
WELL.  16/1-2  Ivar Aasen Appr   : WELL
FLD.            : FIELD
LOC.            : LOCATION
SRVC.           : SERVICE COMPANY
DATE.  2018-09-11 14:48:05   : Log Export Date {yyyy-MM-dd HH:mm:ss}
PROV.           : PROVINCE
UWI.   16/1-2   : UNIQUE WELL ID
API.            : API NUMBER
#==================================================================
~Curve
DEPT .m                   : DEPTH
Lithology_geolink ._      : Lithology_geolink
CALI .in                  : CALI
BS .in                    : BS
MUDWEIGHT ._              : MUDWEIGHT
ROP .m/h                  : ROP
DRHO .g/cm3               : DRHO
NPHI .m3/m3               : NPHI
RHOB .g/cm3               : RHOB
GR .gAPI                  : GR
DTC .us/ft                : DTC
DTE .us/ft                : DTE
RDEP .ohm.m               : RDEP
SP .mV                    : SP
RSHA .ohm.m               : RSHA
RHOM .g/cm3               : RHOM
RMED .ohm.m               : RMED
~Parameter
#==================================================================
~Ascii
# ...
 2842.6281738 13.000000000 8.2860002518 8.5000000000 9.0000000000 928152.37500 0.1140000001 0.1135653481 2.4580874443 141.24632263 65.976860046 65.948165894 3.4501411915 93.472000122 7.2001075745 2.6540670395 7.2001075745
 2842.7805176 13.000000000 8.2919998169 8.5000000000 9.0000000000 892885.37500 0.1360000074 0.1169045493 2.4502174854 142.07090759 65.649208069 65.645980835 3.3513169289 93.212997437 6.6430735588 2.6545500755 6.6430735588
 2842.9331055 13.000000000 8.2930002213 8.5000000000 9.0000000000 637495.93750 0.1589999944 0.1197464988 2.4378874302 142.63267517 65.261360168 65.232925415 3.2481648922 93.314002991 6.0657663345 2.6552345753 6.0657663345
 2843.0854492 13.000000000 8.2849998474 8.5000000000 9.0000000000 568202.81250 0.1640000045 0.1217712983 2.4178373814 143.15429688 65.519699097 65.487899780 3.1511554718 93.254997253 5.9935226440 2.6559510231 5.9935226440
 2843.2377930 13.000000000 8.2749996185 8.5000000000 9.0000000000 567975.50000 0.1350000054 0.1225790158 2.3992874622 143.32949829 66.596275330 66.561012268 3.0711283684 93.163002014 6.3193492889 2.6563000679 6.3193492889
 2843.3901367 13.000000000 8.2740001678 8.5000000000 9.0000000000 562752.56250 0.1059999987 0.1219570488 2.3937714100 141.76971436 67.437492371 67.478225708 3.0281376839 93.152999878 6.5369553566 2.6560912132 6.5369553566
 2843.5427246 13.000000000 8.3149995804 8.5000000000 9.0000000000 555760.43750 0.1150000021 0.1201129034 2.4037749767 140.34199524 67.646461487 67.596099854 3.0080318451 93.192001343 6.5093870163 2.6556327343 6.5093870163
 2843.6950684 13.000000000 8.3549995422 8.5000000000 9.0000000000 557128.75000 0.0869999975 0.1178975627 2.4176251888 140.34399414 67.099708557 67.070198059 2.9720575809 93.193000793 6.6304793358 2.6552746296 6.6304793358
 2843.8474121 13.000000000 8.3970003128 8.5000000000 9.0000000000 575985.25000 0.0500000007 0.1163799167 2.4268999100 140.33877563 66.119049072 66.186187744 2.9110977650 93.151000977 6.9289855957 2.6548490524 6.9289855957
 2843.9997559 13.000000000 8.4390001297 8.5000000000 9.0000000000 595174.31250 0.0549999997 0.1163323298 2.4396250248 138.95390320 65.410423279 65.409271240 2.8322527409 93.152000427 6.9191746712 2.6541659832 6.9191746712
 2844.1523438 13.000000000 8.4519996643 8.5000000000 9.0000000000 601382.56250 0.0769999996 0.1177870706 2.4539480209 138.27241516 65.201972961 65.164154053 2.7581183910 92.918998718 6.4026226997 2.6534907818 6.4026226997
 2844.3046875 13.000000000 8.3380002975 8.5000000000 9.0000000000 601289.81250 0.1049999967 0.1199931204 2.4624874592 139.34301758 65.579475403 65.474723816 2.6951007843 92.621002197 5.6613559723 2.6530745029 5.6613559723
 2844.4570313 13.000000000 8.2100000381 8.5000000000 9.0000000000 595832.12500 0.1280000061 0.1219415218 2.4662876129 142.47224426 66.358024597 66.316635132 2.6450800896 92.457000732 5.2598991394 2.6530253887 5.2598991394
 2844.6093750 13.000000000 8.1700000763 8.5000000000 9.0000000000 588940.18750 0.1280000061 0.1228895485 2.4657499790 145.73980713 67.378150940 67.360160828 2.6180431843 92.447998047 5.1969776154 2.6533253193 5.1969776154
 2844.7617188 13.000000000 8.1969995499 8.5000000000 9.0000000000 588940.18750 0.1089999974 0.1226081550 2.4616653919 145.61604309 67.885108948 67.847259521 2.5920832157 92.406997681 5.1830015182 2.6533334255 5.1830015182
 2844.9143066 13.000000000 8.2290000916 8.5000000000 9.0000000000 588940.18750 0.0869999975 0.1214552969 2.4604749680 145.01637268 67.646461487 67.691574097 2.5860095024 92.319000244 5.1840000153 2.6530163288 5.1840000153
 2845.0666504 13.000000000 8.2360000610 8.5000000000 9.0000000000 590514.56250 0.0930000022 0.1199877858 2.4653625488 145.13673401 67.635475159 67.667823792 2.6179487705 92.343002319 5.1841073036 2.6533181667 5.1841073036
 2845.2189941 13.000000000 8.2130002975 8.5000000000 9.0000000000 608301.50000 0.0909999982 0.1186080948 2.4639501572 148.08911133 68.264152527 68.357040405 2.6699166298 92.492996216 5.2512469292 2.6543183327 5.2512469292
 2845.3713379 13.000000000 8.1499996185 8.5000000000 9.0000000000 628862.81250 0.0630000010 0.1174181700 2.4477894306 151.27145386 69.196281433 69.288330078 2.7397758961 92.888999939 5.4052438736 2.6549417973 5.4052438736
 2845.5239258 13.000000000 8.1479997635 8.5000000000 9.0000000000 634413.75000 0.0480000004 0.1162762940 2.4305748940 152.17469788 69.733337402 69.816734314 2.8208703995 93.239997864 5.5576848984 2.6547071934 5.5576848984
 2845.6762695 13.000000000 8.2209997177 8.5000000000 9.0000000000 628087.12500 0.0509999990 0.1151182204 2.4324374199 151.76765442 69.751190186 69.829399109 2.8958797455 93.364997864 5.7715449333 2.6537563801 5.7715449333
 2845.8286133 13.000000000 8.2600002289 8.5000000000 9.0000000000 623072.12500 0.0820000023 0.1140086055 2.4512248039 150.29948425 69.037651062 69.104652405 2.9638910294 93.526000977 6.1117534637 2.6527490616 6.1117534637
 2845.9809570 13.000000000 8.2209997177 8.5000000000 9.0000000000 660666.06250 0.1089999974 0.1131392792 2.4716999531 149.35234070 67.586799622 67.627037048 2.9889199734 93.580001831 6.5815238953 2.6530683041 6.5815238953
 2846.1335449 13.000000000 8.1759996414 8.5000000000 9.0000000000 718904.25000 0.1299999952 0.1126900017 2.4740712643 148.30989075 66.184593201 66.146438599 2.9880015850 93.421997070 6.9072608948 2.6544601917 6.9072608948
 2846.2858887 13.000000000 8.2279996872 8.5000000000 9.0000000000 718088.25000 0.0949999988 0.1126905009 2.4537374973 147.02900696 65.639251709 65.583961487 2.9879999161 93.352996826 6.6761345863 2.6550581455 6.6761345863
 2846.4382324 13.000000000 8.3369998932 8.5000000000 9.0000000000 713087.12500 0.0450000018 0.1130006611 2.4342875481 145.16398621 65.851425171 65.862106323 2.9830081463 93.587997437 6.1366028786 2.6547071934 6.1366028786
 2846.5905762 13.000000000 8.3859996796 8.5000000000 9.0000000000 710205.62500 0.0299999993 0.1134105548 2.4347875118 142.66574097 66.424087524 66.512687683 2.9810030460 93.803001404 5.8891568184 2.6543834209 5.8891568184
 2846.7429199 13.000000000 8.3330001831 8.5000000000 9.0000000000 762974.62500 0.0460000001 0.1137605011 2.4448463917 141.88119507 67.288284302 67.357414246 2.9889745712 94.119003296 5.9873542786 2.6547083855 5.9873542786
 2846.8955078 13.000000000 8.2399997711 8.5000000000 9.0000000000 828223.43750 0.0410000011 0.1140714064 2.4445126057 144.50325012 67.557029724 67.636978149 3.0059728622 94.900001526 6.2094464302 2.6549582481 6.2094464302
 2847.0478516 13.000000000 8.2150001526 8.5000000000 9.0000000000 825345.68750 0.0419999994 0.1145113930 2.4357125759 147.69253540 66.861328125 66.924987793 3.0269663334 95.541999817 6.6605849266 2.6546909809 6.6605849266
 2847.2001953 13.000000000 8.2519998550 8.5000000000 9.0000000000 821198.12500 0.0649999976 0.1153825074 2.4365999699 145.52656555 65.791297913 65.746597290 3.0529582500 95.799003601 7.0247178078 2.6544835567 7.0247178078
 2847.3525391 13.000000000 8.2720003128 8.5000000000 9.0000000000 821198.12500 0.0879999995 0.1169434413 2.4446856976 142.13806152 64.933708191 64.890266418 3.0729360580 95.808998108 6.8480110168 2.6547665596 6.8480110168
 2847.5051270 13.000000000 8.2760000229 8.5000000000 9.0000000000 821198.12500 0.0820000023 0.1190971732 2.4425625801 138.44625854 64.814170837 64.869087219 3.0899727345 95.744003296 6.2302112579 2.6549582481 6.2302112579
 2847.6574707 13.000000000 8.2449998856 8.5000000000 9.0000000000 843330.62500 0.0850000009 0.1213324368 2.4344999790 140.39556885 65.519699097 65.601196289 3.0979871750 95.754997253 5.6727371216 2.6547744274 5.6727371216
 2847.8098145 13.000000000 8.1890001297 8.5000000000 9.0000000000 933410.43750 0.0920000002 0.1228501797 2.4344749451 141.98745728 66.506835938 66.519760132 3.0980000496 95.938003540 5.5092034340 2.6545581818 5.5092034340
 2847.9621582 13.000000000 8.1649999619 8.5000000000 9.0000000000 958086.12500 0.0970000029 0.1229575127 2.4402124882 141.02450562 67.109840393 67.093460083 3.0980000496 96.195999146 5.6364426613 2.6543328762 5.6364426613
 2848.1147461 13.000000000 8.1669998169 8.5000000000 9.0000000000 969120.37500 0.0829999968 0.1214011014 2.4438023567 140.09757996 67.348579407 67.416358948 3.0860192776 96.247001648 5.9134626389 2.6537654400 5.9134626389
