# LAS format log file from PETREL
# Project units are specified as depth units
#==================================================================
~Version information
VERS.   2.0:
WRAP.   NO:
#==================================================================
~Well
STRT .m      2645.2697754 :
STOP .m      2924.0100098 :
STEP .m     0.00000000 :
NULL .        -999.250000 :
COMP.           : COMPANY
WELL.  16/1-2  Ivar Aasen Appr   : WELL
FLD.            : FIELD
LOC.            : LOCATION
SRVC.           : SERVICE COMPANY
DATE.  2018-09-11 14:48:05   : Log Export Date {yyyy-MM-dd HH:mm:ss}
PROV.           : PROVINCE
UWI.   16/1-2   : UNIQUE WELL ID
API.            : API NUMBER
#==================================================================
~Curve
DEPT .m                   : DEPTH
Lithology_geolink ._      : Lithology_geolink
CALI .in                  : CALI
BS .in                    : BS
MUDWEIGHT ._              : MUDWEIGHT
ROP .m/h                  : ROP
DRHO .g/cm3               : DRHO
NPHI .m3/m3               : NPHI
RHOB .g/cm3               : RHOB
GR .gAPI                  : GR
DTC .us/ft                : DTC
DTE .us/ft                : DTE
RDEP .ohm.m               : RDEP
SP .mV                    : SP
RSHA .ohm.m               : RSHA
RHOM .g/cm3               : RHOM
RMED .ohm.m               : RMED
~Parameter
#==================================================================
~Ascii
# ...
 2859.5446777 13.000000000 8.3479995728 8.5000000000 9.0000000000 247796.45313 0.0780000016 0.1317068040 2.4178912640 168.45539856 63.432891846 63.437759399 3.4809999466 104.23799896 8.6501197815 2.6554236412 8.6501197815
 2859.6970215 13.000000000 8.3100004196 8.5000000000 9.0000000000 241823.01563 0.0379999988 0.1234653592 2.4129517078 168.08879089 62.485034943 62.544193268 3.5090000629 105.22699738 8.1001491547 2.6540634632 8.1001491547
 2859.8493652 13.000000000 8.3299999237 8.5000000000 9.0000000000 234237.82813 0.0350000001 0.1143367067 2.4322459698 170.45729065 63.058612823 63.095695496 3.5069999695 106.17700195 6.9459037781 2.6522316933 6.9459037781
 2860.0019531 13.000000000 8.3690004349 8.5000000000 9.0000000000 232259.68750 0.0570000000 0.1060305387 2.4659125805 175.62678528 65.477531433 65.460212708 3.4749999046 107.17800140 6.2639918327 2.6510908604 6.2639918327
 2860.1542969 13.000000000 8.4119997025 8.5000000000 9.0000000000 236137.59375 0.0599999987 0.0999647230 2.4881179333 179.29450989 68.294479370 68.270385742 3.3870000839 108.10600281 6.5733556747 2.6509673595 6.5733556747
 2860.3066406 13.000000000 8.4519996643 8.5000000000 9.0000000000 312143.68750 0.0520000011 0.0966791064 2.4958908558 178.35540771 71.039009094 71.011970520 3.2760000229 108.85199738 6.7936315536 2.6517436504 6.7936315536
 2860.4589844 13.000000000 8.4799995422 8.5000000000 9.0000000000 365362.03125 0.0469999984 0.0961230844 2.4939613342 175.48510742 73.283454895 73.277359009 3.1970000267 109.51300049 5.9387164116 2.6529176235 5.9387164116
 2860.6115723 13.000000000 8.4940004349 8.5000000000 9.0000000000 363325.18750 0.0189999994 0.0980533734 2.4821326733 171.80187988 73.002937317 72.998664856 3.1310000420 110.13300323 4.5126652718 2.6535420418 4.5126652718
 2860.7639160 13.000000000 8.4350004196 8.5000000000 9.0000000000 358803.31250 0.0140000004 0.1022300795 2.4677994251 166.77821350 70.084327698 70.111022949 3.0710000992 110.92299652 3.4733829498 2.6535165310 3.4733829498
 2860.9162598 13.000000000 8.3540000916 8.5000000000 9.0000000000 473928.15625 0.0579999983 0.1085227355 2.4631311893 163.17395020 69.575973511 69.607757568 3.0109999180 111.75800323 3.0889070034 2.6535255909 3.0889070034
 2861.0686035 13.000000000 8.3529996872 8.5000000000 9.0000000000 595629.25000 0.0740000010 0.1164741814 2.4632780552 160.02697754 73.277053833 73.319091797 3.0050001144 112.61799622 3.0310688019 2.6527812481 3.0310688019
 2861.2209473 13.000000000 8.4130001068 8.5000000000 9.0000000000 598788.12500 0.0419999994 0.1253238618 2.4612946510 156.89710999 76.861022949 76.808258057 3.0599999428 113.43399811 3.0741326809 2.6334583759 3.0741326809
 2861.3735352 13.000000000 8.4799995422 8.5000000000 9.0000000000 602110.25000 0.0340000018 0.1339818537 2.4762964249 155.71563721 77.482925415 77.441154480 3.1250000000 114.30899811 3.1571714878 2.6125082970 3.1571714878
 2861.5258789 13.000000000 8.5159997940 8.5000000000 9.0000000000 605047.12500 0.0329999998 0.1413684785 2.5014088154 156.73591614 76.632484436 76.624519348 3.2390000820 115.47499847 3.2641713619 2.6318845749 3.2641713619
 2861.6782227 13.000000000 8.5389995575 8.5000000000 9.0000000000 610670.31250 0.0309999995 0.1466546655 2.5018291473 157.93281555 75.289176941 75.380470276 3.3970000744 116.23300171 3.3712773323 2.6514606476 3.3712773323
 2861.8305664 13.000000000 8.5620002747 8.5000000000 9.0000000000 604690.06250 0.0299999993 0.1495610774 2.4801757336 155.32380676 73.636642456 73.697769165 3.5559999943 116.54900360 3.5445110798 2.6522998810 3.5445110798
 2861.9831543 13.000000000 8.5819997787 8.5000000000 9.0000000000 595806.87500 0.0289999992 0.1502252519 2.4661264420 152.70774841 72.474327087 72.488883972 3.7219998837 116.56199646 3.8647181988 2.6503033638 3.8647181988
 2862.1354980 13.000000000 8.5860004425 8.5000000000 9.0000000000 558901.50000 0.0370000005 0.1487436444 2.4712452888 150.76766968 71.716567993 71.736358643 3.9130001068 116.08200073 4.4012517929 2.6461577415 4.4012517929
 2862.2878418 13.000000000 8.5889997482 8.5000000000 9.0000000000 549363.18750 0.0549999997 0.1447689235 2.4832425117 155.55830383 70.523780823 70.509040833 4.1220002174 115.33899689 5.1819763184 2.6383409500 5.1819763184
 2862.4401855 13.000000000 8.5880002975 8.5000000000 9.0000000000 549489.43750 0.0879999995 0.1378543377 2.4943931103 160.73815918 68.417350769 68.409866333 4.2800002098 114.51399994 5.7904710770 2.6365101337 5.7904710770
 2862.5927734 13.000000000 8.5159997940 8.5000000000 9.0000000000 549616.25000 0.0839999989 0.1280634999 2.5031991005 163.34550476 65.791168213 65.781707764 4.3800001144 113.81400299 6.0845313072 2.6454770565 6.0845313072
 2862.7451172 13.000000000 8.4239997864 8.5000000000 9.0000000000 549744.37500 0.0570000000 0.1166729257 2.5046067238 165.99780273 63.709163666 63.827514648 4.4569997787 113.07800293 6.2500495911 2.6492419243 6.2500495911
 2862.8974609 13.000000000 8.4399995804 8.5000000000 9.0000000000 549868.81250 0.0299999993 0.1060285419 2.5033168793 168.98934937 62.838108063 62.874874115 4.4689998627 112.09400177 6.2807807922 2.6485471725 6.2807807922
 2863.0498047 13.000000000 8.5249996185 8.5000000000 9.0000000000 660949.00000 0.0060000001 0.0988873541 2.5097076893 169.82780457 62.574855804 62.524925232 4.4149999619 111.01799774 6.1429438591 2.6479175091 6.1429438591
 2863.2023926 13.000000000 8.5640001297 8.5000000000 9.0000000000 799172.93750 0.0379999988 0.0972532481 2.5174243450 169.07879639 62.669105530 62.676494598 4.2950000763 109.45999908 5.4819087982 2.6493365765 5.4819087982
 2863.3547363 13.000000000 8.4829998016 8.5000000000 9.0000000000 809672.62500 0.0689999983 0.1013934761 2.5119380951 166.52125549 63.235908508 63.219726563 4.1240000725 107.32299805 4.5180788040 2.6512529850 4.5180788040
 2863.5070801 13.000000000 8.3439998627 8.5000000000 9.0000000000 811664.75000 0.0869999975 0.1098060533 2.4965469837 165.43879700 64.270645142 64.317459106 3.9289999008 104.70999908 3.9437034130 2.6530110836 3.9437034130
 2863.6594238 13.000000000 8.3190002441 8.5000000000 9.0000000000 811791.31250 0.0680000037 0.1198243722 2.4763977528 164.67991638 66.183830261 66.295806885 3.6900000572 101.51999664 3.7590706348 2.6542088985 3.7590706348
 2863.8117676 13.000000000 8.3730001450 8.5000000000 9.0000000000 811917.68750 0.0399999991 0.1287897974 2.4541833401 162.12324524 68.454460144 68.524284363 3.4300000668 97.573997498 3.8039374352 2.6539583206 3.8039374352
 2863.9643555 13.000000000 8.4259996414 8.5000000000 9.0000000000 825398.12500 0.0260000005 0.1348978430 2.4472801685 156.65353394 69.643898010 69.677589417 3.1710000038 93.489997864 4.3911681175 2.6528654099 4.3911681175
 2864.1166992 13.000000000 8.4320001602 8.5000000000 9.0000000000 889319.12500 0.0649999976 0.1373384446 2.4598476887 151.20411682 69.104980469 69.181579590 2.9460000992 90.091003418 5.3792610168 2.6532366276 5.3792610168
 2864.2690430 13.000000000 8.3739995956 8.5000000000 9.0000000000 902260.75000 0.0970000029 0.1363544464 2.4639923573 147.52949524 67.544052124 67.614418030 2.7730000019 87.214996338 6.1655464172 2.6549019814 6.1655464172
 2864.4213867 13.000000000 8.2860002518 8.5000000000 9.0000000000 903667.37500 0.0909999982 0.1328925490 2.4460692406 144.72972107 66.117691040 66.173507690 2.6170001030 85.075996399 6.5059728622 2.6556417942 6.5059728622
 2864.5739746 13.000000000 8.1960000992 8.5000000000 9.0000000000 900736.87500 0.0610000007 0.1282353103 2.4230318069 146.42465210 65.409187317 65.400474548 2.4820001125 83.486000061 6.4880366325 2.6554491520 6.4880366325
 2864.7263184 13.000000000 8.1210002899 8.5000000000 9.0000000000 898319.00000 0.0439999998 0.1236541495 2.4166166782 146.00566101 65.112297058 65.155509949 2.3800001144 82.526000977 6.1872148514 2.6548073292 6.1872148514
 2864.8786621 13.000000000 8.0559997559 8.5000000000 9.0000000000 885668.31250 0.0860000029 0.1200062409 2.4305944443 144.54824829 65.162727356 65.180046082 2.2890000343 81.985000610 5.6973266602 2.6544418335 5.6973266602
 2865.0310059 13.000000000 8.0240001678 8.5000000000 9.0000000000 860415.06250 0.1120000035 0.1176579148 2.4443933964 142.83116150 65.375411987 65.394561768 2.2479999065 81.222999573 5.2776474953 2.6547088623 5.2776474953
