# LAS format log file from PETREL
# Project units are specified as depth units
#==================================================================
~Version information
VERS.   2.0:
WRAP.   NO:
#==================================================================
~Well
STRT .m      1175.9671631 :
STOP .m      1726.7407227 :
STEP .m     0.00000000 :
NULL .        -999.250000 :
COMP.           : COMPANY
WELL.  16/1-6 A Verdandi Appr   : WELL
FLD.            : FIELD
LOC.            : LOCATION
SRVC.           : SERVICE COMPANY
DATE.  2018-09-11 14:48:05   : Log Export Date {yyyy-MM-dd HH:mm:ss}
PROV.           : PROVINCE
UWI.   16/1-6 A   : UNIQUE WELL ID
API.            : API NUMBER
#==================================================================
~Curve
DEPT .m                   : DEPTH
Lithology_geolink ._      : Lithology_geolink
CALI .in                  : CALI
BS .in                    : BS
NPHI .m3/m3               : NPHI
RHOB .g/cm3               : RHOB
PEF .b/e                  : PEF
GR .gAPI                  : GR
DTC .us/ft                : DTC
RDEP .ohm.m               : RDEP
RMED .ohm.m               : RMED
~Parameter
#==================================================================
~Ascii
# ...
 1688.0311279  -999.250000 8.7740001678 8.5000000000 0.5120000243 2.2184000015 5.1707000732 57.680400848 142.41278076 0.5332144499 0.5496163368
 1688.1835938  -999.250000 8.7966995239 8.5000000000 0.5271999836 2.2111999989 5.0904998779 57.097599030 144.09036255 0.5309018493 0.5443042517
 1688.3359375  -999.250000 8.8306999207 8.5000000000 0.5145000219 2.1975998878 4.9850997925 55.583301544 144.43972778 0.5311997533 0.5413023829
 1688.4884033  -999.250000 8.8534002304 8.5000000000 0.5207999945 2.1872999668 4.7747001648 54.628700256 145.51933289 0.5455884933 0.5538899302
 1688.6407471  -999.250000 8.9214000702 8.5000000000 0.4833999872 2.1837000847 4.5260000229 60.339500427 145.54779053 0.5573905110 0.5595954061
 1688.7932129  -999.250000 8.9100999832 8.5000000000 0.4783999920 2.1824998856 4.3632998466 61.630901337 145.81718445 0.5630953908 0.5595999956
 1688.9455566  -999.250000 8.8986997604 8.5000000000 0.4708999991 2.1817998886 4.3168997765 63.857799530 146.32298279 0.5622007251 0.5613985658
 1689.0980225  -999.250000 8.9138002396 8.5000000000 0.4717000127 2.1837999821 4.3358998299 58.296501160 142.79393005 0.5722919106 0.5660962462
 1689.2503662  -999.250000 8.9289999008 8.5000000000 0.4736999869 2.1812000275 4.3720998764 55.615898132 143.98103333 0.5818923116 0.5708961487
 1689.4028320  -999.250000 8.9062995911 8.5000000000 0.4835999906 2.1775999069 4.4407000542 55.033500671 144.29924011 0.5707089305 0.5642053485
 1689.5551758  -999.250000 8.8534002304 8.5000000000 0.5088999867 2.1716001034 4.5425000191 56.282501221 143.77102661 0.5740972757 0.5656988025
 1689.7075195  -999.250000 8.9591999054 8.5000000000 0.5170000196 2.1770000458 4.7035999298 58.963100433 145.35765076 0.5695074201 0.5627048016
 1689.8599854  -999.250000 8.8382997513 8.5000000000 0.4959999919 2.1858000755 4.8927998543 57.914699554 144.73820496 0.5685007572 0.5611013174
 1690.0123291  -999.250000 8.7777996063 8.5000000000 0.5084000230 2.1965999603 5.0630002022 55.001098633 144.47602844 0.5759879947 0.5720823407
 1690.1647949  -999.250000 8.6947002411 8.5000000000 0.5066000223 2.1835999489 5.2255001068 52.203899384 145.02066040 0.5867913365 0.5977794528
 1690.3171387  -999.250000 9.4580001831 8.5000000000 0.4745000005 2.1563000679 5.4366002083 50.107200623 146.47666931 0.5712249875 0.5879158378
 1690.4696045  -999.250000 9.1254997253 8.5000000000 0.4663999975 2.1368999481 5.6434001923 51.971900940 146.43362427 0.5573111176 0.5725123286
 1690.6219482  -999.250000 8.8534002304 8.5000000000 0.4896999896 2.1524000168 5.6504001617 50.914798737 146.61904907 0.5514047146 0.5677039027
 1690.7744141  -999.250000 8.8986997604 8.5000000000 0.4884999990 2.1974999905 5.3901000023 51.971599579 146.05055237 0.5533983707 0.5712971687
 1690.9267578  -999.250000 9.1708002090 8.5000000000 0.4769000113 2.2130000591 5.1669998169 48.824798584 144.45178223 0.5563976169 0.5714998245
 1691.0792236  -999.250000 8.8986997604 8.5000000000 0.4670999944 2.2014999390 5.2502999306 49.873199463 143.40104675 0.5597972870 0.5730987191
 1691.2315674  -999.250000 8.9666996002 8.5000000000 0.4796000123 2.1668999195 5.6201000214 50.922199249 142.08294678 0.5579015613 0.5682039261
 1691.3840332  -999.250000 8.9780998230 8.5000000000 0.4860000014 2.1614000797 5.9449000359 52.320701599 142.03532410 0.5552021265 0.5666012764
 1691.5363770  -999.250000 8.9666996002 8.5000000000 0.5006999969 2.1710999012 6.0769000053 49.175498962 142.41088867 0.5621944070 0.5730947852
 1691.6887207  -999.250000 9.0234003067 8.5000000000 0.4927999973 2.1730000973 6.1065001488 47.893501282 143.15141296 0.5670921206 0.5782916546
 1691.8411865  -999.250000 9.3408002853 8.5000000000 0.4589999914 2.1545999050 6.2747001648 46.953098297 144.76409912 0.5601056218 0.5670090318
 1691.9935303  -999.250000 9.1103000641 8.5000000000 0.4589000046 2.1085999012 6.5659999847 50.573101044 147.94989014 0.5491176248 0.5616086721
 1692.1459961  -999.250000 9.1821002960 8.5000000000 0.5001000166 2.0803999901 6.7305002213 49.407600403 150.86045837 0.5479009748 0.5629988909
 1692.2983398  -999.250000 9.7943000793 8.5000000000 0.5586000085 2.1677999496 6.5494999886 47.194400787 146.65313721 0.5429080129 0.5565104485
 1692.4508057  -999.250000 9.7715997696 8.5000000000 0.5566999912 2.2943000793 6.1347999573 46.844699860 148.03388977 0.5390030742 0.5516039133
 1692.6031494  -999.250000 9.3975000381 8.5000000000 0.5454999804 2.3859999180 5.7308001518 45.562698364 148.54438782 0.5385004282 0.5487022996
 1692.7556152  -999.250000 10.032299042 8.5000000000 0.4999000132 2.3638999462 5.4411001205 47.426498413 145.75454712 0.5512897372 0.5603906512
 1692.9079590  -999.250000 10.130599976 8.5000000000 0.5066000223 2.2792000771 5.2185001373 45.566101074 143.82293701 0.5577948093 0.5719907284
 1693.0604248  -999.250000 8.8306999207 8.5000000000 0.5115000010 2.2042996883 5.0441999435 49.412200928 141.43890381 0.5538032055 0.5629072785
 1693.2127686  -999.250000 9.5410995483 8.5000000000 0.4812000096 2.1359000206 4.9189000130 48.799198151 143.85905457 0.5296193957 0.5433156490
 1693.3652344  -999.250000 8.8760995865 8.5000000000 0.4726999998 2.1206998825 4.7776999474 49.017601013 147.04565430 0.5192083716 0.5266133547
 1693.5175781  -999.250000 8.9819002151 8.5000000000 0.4938000143 2.1480000019 4.5968999863 46.686698914 147.54409790 0.4998155534 0.5075153112
 1693.6699219  -999.250000 8.9893999100 8.5000000000 0.4846999943 2.1717000008 4.4763998985 48.231601715 148.57713318 0.5024956465 0.5046046376
 1693.8223877  -999.250000 8.9969997406 8.5000000000 0.4740000069 2.1700000763 4.4731998444 49.523899078 148.06851196 0.5116925836 0.5170899630
 1693.9747314  -999.250000 9.0008001328 8.5000000000 0.4485999942 2.1473000050 4.5654997826 51.621700287 149.30439758 0.5142958164 0.5196958184
 1694.1271973  -999.250000 8.9893999100 8.5000000000 0.4611999989 2.1384999752 4.6441001892 51.155799866 148.88163757 0.5186964869 0.5267943144
 1694.2795410  -999.250000 9.0347995758 8.5000000000 0.5070999861 2.1498999596 4.6942000389 53.486698151 148.95367432 0.5254890919 0.5291962028
 1694.4320068  -999.250000 8.9893999100 8.5000000000 0.5375000238 2.1508998871 4.7302999496 52.312999725 148.67002869 0.5219028592 0.5226052999
 1694.5843506  -999.250000 8.9214000702 8.5000000000 0.5443000197 2.1442000866 4.7511000633 52.437698364 147.56918335 0.5102093816 0.5110092759
 1694.7368164  -999.250000 8.9138002396 8.5000000000 0.5087000132 2.1352999210 4.7722997665 49.873600006 147.60217285 0.5025061369 0.4968113601
 1694.8891602  -999.250000 8.9289999008 8.5000000000 0.5015000105 2.1384999752 4.8322000504 51.038501740 148.51156616 0.4985032082 0.4979990423
 1695.0416260  -999.250000 8.9743003845 8.5000000000 0.4873000085 2.1436998844 4.9491000175 53.486000061 147.63679504 0.4989996254 0.4975003898
 1695.1939697  -999.250000 8.9969997406 8.5000000000 0.4975000024 2.1514999866 5.0633997917 55.923801422 148.32664490 0.4981007278 0.4986990392
 1695.3464355  -999.250000 8.9554004669 8.5000000000 0.4826999903 2.1533999443 5.0984001160 54.883800507 149.12165833 0.5093909502 0.5040956736
 1695.4987793  -999.250000 8.8986997604 8.5000000000 0.4699000120 2.1536002159 5.0448999405 53.834800720 146.19364929 0.5148956180 0.5057986379
 1695.6511230  -999.250000 8.9743003845 8.5000000000 0.4548000097 2.1496999264 4.9482998848 53.019401550 145.01359558 0.5128033161 0.5031043291
 1695.8035889  -999.250000 8.9289999008 8.5000000000 0.4803000093 2.1524000168 4.8716001511 54.184898376 146.05155945 0.5064051151 0.4967051148
 1695.9559326  -999.250000 9.0121002197 8.5000000000 0.5164999962 2.1570999622 4.8551001549 55.816501617 142.86640930 0.5005095005 0.4954020977
 1696.1083984  -999.250000 8.9100999832 8.5000000000 0.5246999860 2.1559000015 4.9110999107 54.768100739 141.89717102 0.4999004900 0.4864072204
 1696.2607422  -999.250000 8.9100999832 8.5000000000 0.5195000172 2.1463000774 5.0257000923 55.700500488 143.69322205 0.4882187545 0.4836044610
 1696.4132080  -999.250000 8.9327001572 8.5000000000 0.4830000103 2.1405999660 5.1670999527 55.108398438 145.07159424 0.4948946238 0.5009860396
