# LAS format log file from PETREL
# Project units are specified as depth units
#==================================================================
~Version information
VERS.   2.0:
WRAP.   NO:
#==================================================================
~Well
STRT .m      2645.2697754 :
STOP .m      2924.0100098 :
STEP .m     0.00000000 :
NULL .        -999.250000 :
COMP.           : COMPANY
WELL.  16/1-2  Ivar Aasen Appr   : WELL
FLD.            : FIELD
LOC.            : LOCATION
SRVC.           : SERVICE COMPANY
DATE.  2018-09-11 14:48:05   : Log Export Date {yyyy-MM-dd HH:mm:ss}
PROV.           : PROVINCE
UWI.   16/1-2   : UNIQUE WELL ID
API.            : API NUMBER
#==================================================================
~Curve
DEPT .m                   : DEPTH
Lithology_geolink ._      : Lithology_geolink
CALI .in                  : CALI
BS .in                    : BS
MUDWEIGHT ._              : MUDWEIGHT
ROP .m/h                  : ROP
DRHO .g/cm3               : DRHO
NPHI .m3/m3               : NPHI
RHOB .g/cm3               : RHOB
GR .gAPI                  : GR
DTC .us/ft                : DTC
DTE .us/ft                : DTE
RDEP .ohm.m               : RDEP
SP .mV                    : SP
RSHA .ohm.m               : RSHA
RHOM .g/cm3               : RHOM
RMED .ohm.m               : RMED
~Parameter
#==================================================================
~Ascii
# ...
 2915.9328613  -999.250000 8.2030000687 8.5000000000 9.0000000000 112758.90625 0.0020000001 0.0258192793 2.5997874737 105.57121277  -999.250000  -999.250000 113.18800354 98.985946655 1462.7495117 -999.9000244 1462.7495117
 2916.0852051  -999.250000 8.2040004730 8.5000000000 9.0000000000 107911.45313 -0.007000000 0.0256694239 2.5848617554 104.08282471  -999.250000  -999.250000 116.59200287 99.280456543 1479.9938965 -999.9000244 1479.9938965
 2916.2375488  -999.250000 8.2110004425 8.5000000000 9.0000000000 89040.937500 -0.015000000 0.0255498085 2.5518436432 105.22197723  -999.250000  -999.250000 121.88400269 99.568367004 1598.2408447 -999.9000244 1598.2408447
 2916.3898926  -999.250000 8.2200002670 8.5000000000 9.0000000000 80187.625000 -0.014000000 0.0254900977 2.5246653557 108.32233429  -999.250000  -999.250000 130.93099976 99.797279358 1695.8308105 -999.9000244 1695.8308105
 2916.5424805  -999.250000 8.2139997482 8.5000000000 9.0000000000 88095.976563 -0.007000000 0.0255204812 2.5203802586 109.77499390  -999.250000  -999.250000 141.42500305 99.973564148 1696.1113281 -999.9000244 1696.1113281
 2916.6948242  -999.250000 8.1990003586 8.5000000000 9.0000000000 92583.250000 0.0010000000 0.0256207678 2.5409317017 109.77200317  -999.250000  -999.250000 150.83099365 100.15023804 1696.3635254 -999.9000244 1696.3635254
 2916.8471680  -999.250000 8.1990003586 8.5000000000 9.0000000000 92776.625000 0.0099999998 0.0257805120 2.5755031109 109.76998901  -999.250000  -999.250000 159.20199585 100.29615021 1690.6667480 -999.9000244 1690.6667480
 2916.9995117  -999.250000 8.2320003510 8.5000000000 9.0000000000 88770.804688 0.0080000004 0.0259404499 2.6029789448 109.76699066  -999.250000  -999.250000 161.89500427 100.39312744 1688.0998535 -999.9000244 1688.0998535
 2917.1520996  -999.250000 8.2320003510 8.5000000000 9.0000000000 82116.187500 0.0130000003 0.0260804333 2.6164314747 109.76399231  -999.250000  -999.250000 158.20100403 100.47325134 1691.4372559 -999.9000244 1691.4372559
 2917.3044434  -999.250000 8.2209997177 8.5000000000 9.0000000000 80409.070313 0.0189999994 0.0261703357 2.6182498932 109.76100159  -999.250000  -999.250000 156.63299561 100.55213165 1684.8234863 -999.9000244 1684.8234863
 2917.4567871  -999.250000 8.2049999237 8.5000000000 9.0000000000 66134.093750 0.0250000004 0.0262401607 2.6172711849 109.75899506  -999.250000  -999.250000 164.07099915 100.63212585 1634.9503174 -999.9000244 1634.9503174
 2917.6091309  -999.250000 8.1739997864 8.5000000000 9.0000000000 60241.929688 0.0320000015 0.0262900963 2.6262736320 109.75598907  -999.250000  -999.250000 180.86799622 100.70910645 1503.9948730 -999.9000244 1503.9948730
 2917.7614746  -999.250000 8.1459999084 8.5000000000 9.0000000000 60355.210938 0.0399999991 0.0263199676 2.6380231380 109.75299835  -999.250000  -999.250000 201.38299561 100.77610016 1552.3078613 -999.9000244 1552.3078613
 2917.9140625  -999.250000 8.1719999313 8.5000000000 9.0000000000 60481.683594 0.0399999991 0.0263098571 2.6431441307 109.75099182  -999.250000  -999.250000 219.77499390 100.83819580 1684.6929932 -999.9000244 1684.6929932
 2918.0664063  -999.250000 8.2060003281 8.5000000000  -999.250000 60608.007813 0.0350000001 0.0262797121 2.6408586502 109.74799347  -999.250000  -999.250000 224.49400330 100.89881897 1671.6608887 -999.9000244 1671.6608887
 2918.2187500  -999.250000 8.2150001526 8.5000000000  -999.250000  -999.250000 0.0160000008 0.0262198076 2.6259510517 109.74500275  -999.250000  -999.250000 217.66299438 100.78549194 1672.6695557 -999.9000244 1672.6695557
 2918.3710938  -999.250000 8.2030000687 8.5000000000  -999.250000  -999.250000 0.0099999998 0.0261598397 2.6095027924 109.74298859  -999.250000  -999.250000 220.16799927 100.46744537 1674.9805908 -999.9000244 1674.9805908
 2918.5236816  -999.250000 8.1829996109 8.5000000000  -999.250000  -999.250000 0.0170000009 0.0261099041 2.6067194939 109.73999023  -999.250000  -999.250000 234.32299805 100.12088776 1562.1489258 -999.9000244 1562.1489258
 2918.6760254  -999.250000 8.1890001297 8.5000000000  -999.250000  -999.250000 0.0049999999 0.0260899998 2.6063287258 109.73699951  -999.250000  -999.250000 250.78700256 99.774688721 1218.0269775 -999.9000244 1218.0269775
 2918.8283691  -999.250000 8.1940002441 8.5000000000  -999.250000  -999.250000 0.0020000001 0.0260900632 2.6034648418 109.73499298  -999.250000  -999.250000 267.08599854 99.581756592 1288.4127197 -999.9000244 1288.4127197
 2918.9807129  -999.250000 8.1990003586 8.5000000000  -999.250000  -999.250000 0.0010000000 0.0261100642 2.6085050106 109.73199463  -999.250000  -999.250000 278.79199219 99.431404114 1641.4320068 -999.9000244 1641.4320068
 2919.1333008  -999.250000 8.2030000687 8.5000000000  -999.250000  -999.250000 0.0160000008 0.0261300951 2.6176447868 109.72898865  -999.250000  -999.250000 281.85400391 99.060470581 1678.9265137 -999.9000244 1678.9265137
 2919.2856445  -999.250000 8.2089996338 8.5000000000  -999.250000  -999.250000 0.0209999997 0.0261500478 2.6190078259 109.72698975  -999.250000  -999.250000 282.36199951 98.585235596 1653.4265137 -999.9000244 1653.4265137
 2919.4379883  -999.250000 8.2040004730 8.5000000000  -999.250000  -999.250000 0.0250000004 0.0261600316 2.6138079166 109.72399139  -999.250000  -999.250000 284.06100464 98.108238220 1320.1446533 -999.9000244 1320.1446533
 2919.5903320  -999.250000 8.1940002441 8.5000000000  -999.250000  -999.250000 0.0439999998 0.0261700321 2.6145608425 109.72099304  -999.250000  -999.250000 273.15499878 97.632240295 1255.5097656 -999.9000244 1255.5097656
 2919.7426758  -999.250000 8.1899995804 8.5000000000  -999.250000  -999.250000 0.0419999994 0.0261800643 2.6190633774 109.71800232  -999.250000  -999.250000 267.59399414 97.155975342 1594.6754150 -999.9000244 1594.6754150
 2919.8952637  -999.250000 8.2019996643  -999.250000  -999.250000  -999.250000 0.0199999996 0.0262002386 2.6181027889 109.71599579  -999.250000  -999.250000 274.76599121 96.516258240 1676.7252197 -999.9000244 1676.7252197
 2920.0476074  -999.250000 8.1929998398  -999.250000  -999.250000  -999.250000 0.0130000003 0.0262503345 2.6176452637 109.71299744  -999.250000  -999.250000 274.12799072 95.660545349 1639.0727539 -999.9000244 1639.0727539
 2920.1999512  -999.250000 8.1579999924  -999.250000  -999.250000  -999.250000 0.0340000018 0.0263202563 2.6214156151 109.71099091  -999.250000  -999.250000 270.75299072 94.750694275 1460.2731934 -999.9000244 1460.2731934
 2920.3522949  -999.250000 8.1169996262  -999.250000  -999.250000  -999.250000 0.0750000030 0.0264002588 2.6301696301 109.70799255  -999.250000  -999.250000 267.37600708 93.939315796 1192.9592285 -999.9000244 1192.9592285
 2920.5048828  -999.250000 8.0410003662  -999.250000  -999.250000  -999.250000 0.1979999989 0.0264802892 2.6504406929 109.70499420  -999.250000  -999.250000 265.94400024 93.510536194 1020.9880371 -999.9000244 1020.9880371
 2920.6572266  -999.250000 7.8779997826  -999.250000  -999.250000  -999.250000 0.1780000031 0.0265401918 2.6659867764 109.70200348  -999.250000  -999.250000 270.99200439 93.364761353 1329.2829590 -999.9000244 1329.2829590
 2920.8095703  -999.250000 7.7979998589  -999.250000  -999.250000  -999.250000 0.2080000043 0.0265800320 2.6682274342 109.69998932  -999.250000  -999.250000 274.54199219 93.218681335 1686.7364502 -999.9000244 1686.7364502
 2920.9619141  -999.250000 7.7870001793  -999.250000  -999.250000  -999.250000 0.1959999949 0.0265899990 2.6583120823 109.69699097  -999.250000  -999.250000 265.36801147 93.020385742 1688.7388916 -999.9000244 1688.7388916
 2921.1145020  -999.250000 7.7859997749  -999.250000  -999.250000  -999.250000 0.1940000057 0.0265899990 2.6507828236 109.69399261  -999.250000  -999.250000 259.22198486 92.632331848 1689.0183105 -999.9000244 1689.0183105
 2921.2668457  -999.250000 7.7859997749  -999.250000  -999.250000  -999.250000 0.2039999962 0.0265900958 2.6575319767 109.69199371  -999.250000  -999.250000 265.61801147 92.110427856 1689.2983398 -999.9000244 1689.2983398
 2921.4191895  -999.250000 7.7800002098  -999.250000  -999.250000  -999.250000 0.2119999975 0.0266101286 2.6610701084 109.68899536  -999.250000  -999.250000 274.62799072 91.127128601 1689.5769043  -999.250000 1689.5769043
