# LAS format log file from PETREL
# Project units are specified as depth units
#==================================================================
~Version information
VERS.   2.0:
WRAP.   NO:
#==================================================================
~Well
STRT .m      1175.9671631 :
STOP .m      1726.7407227 :
STEP .m     0.00000000 :
NULL .        -999.250000 :
COMP.           : COMPANY
WELL.  16/1-6 A Verdandi Appr   : WELL
FLD.            : FIELD
LOC.            : LOCATION
SRVC.           : SERVICE COMPANY
DATE.  2018-09-11 14:48:05   : Log Export Date {yyyy-MM-dd HH:mm:ss}
PROV.           : PROVINCE
UWI.   16/1-6 A   : UNIQUE WELL ID
API.            : API NUMBER
#==================================================================
~Curve
DEPT .m                   : DEPTH
Lithology_geolink ._      : Lithology_geolink
CALI .in                  : CALI
BS .in                    : BS
NPHI .m3/m3               : NPHI
RHOB .g/cm3               : RHOB
PEF .b/e                  : PEF
GR .gAPI                  : GR
DTC .us/ft                : DTC
RDEP .ohm.m               : RDEP
RMED .ohm.m               : RMED
~Parameter
#==================================================================
~Ascii
# ...
 1397.8615723  -999.250000 8.7513999939 8.5000000000 0.4634999931 2.0838999748 2.8835000992 69.437599182 142.85363770 0.8248960972 0.8180986047
 1398.0140381  -999.250000 8.7249002457 8.5000000000 0.4431000054 2.0817999840 2.8801999092 63.098098755 142.87658691 0.8337928653 0.8320887685
 1398.1663818  -999.250000 8.7325000763 8.5000000000 0.4494999945 2.0897998810 2.8870999813 58.926601410 142.88748169 0.8464897871 0.8452894688
 1398.3187256  -999.250000 8.7399997711 8.5000000000 0.4379999936 2.1022000313 2.8908998966 59.371898651 142.98614502 0.8466997147 0.8383111954
 1398.4711914  -999.250000 8.7627000809 8.5000000000 0.4320000112 2.1119999886 2.8766000271 60.466899872 143.14587402 0.8375073671 0.8284079432
 1398.6235352  -999.250000 8.7399997711 8.5000000000 0.4481000006 2.1285998821 2.8547999859 64.871200562 143.39010620 0.8152356744 0.8014432192
 1398.7760010  -999.250000 8.7740001678 8.5000000000 0.4498000145 2.1396999359 2.8478999138 66.756797791 143.81954956 0.7943167686 0.7803169489
 1398.9283447  -999.250000 8.7627000809 8.5000000000 0.4794999957 2.1403000355 2.8596999645 70.369697571 144.41445923 0.7981937528 0.7805995345
 1399.0808105  -999.250000 8.7854003906 8.5000000000 0.4548999965 2.1291000843 2.8828999996 68.525901794 144.76483154 0.7967011929 0.7775024772
 1399.2331543  -999.250000 8.8004999161 8.5000000000 0.4893999994 2.1154999733 2.9091000557 68.875503540 145.02029419 0.7870077491 0.7670084238
 1399.3856201  -999.250000 8.8079996109 8.5000000000 0.4674000144 2.1103000641 2.9337999821 65.243103027 144.96784973 0.7811046839 0.7555091977
 1399.5379639  -999.250000 8.8079996109 8.5000000000 0.4765999913 2.1085000038 2.9695999622 69.791900635 144.87257385 0.7645133138 0.7414113283
 1399.6904297  -999.250000 8.8156003952 8.5000000000 0.4451999962 2.1061000824 3.0295999050 69.092597961 144.70043945 0.7649995685 0.7414999604
 1399.8427734  -999.250000 8.8079996109 8.5000000000 0.4591000080 2.1080000401 3.1119999886 73.424301147 144.31120300 0.7858832479 0.7621834278
 1399.9952393  -999.250000 8.7740001678 8.5000000000 0.4636999965 2.1098999977 3.2135000229 69.228599548 145.79180908 0.8061837554 0.7787867188
 1400.1475830  -999.250000 8.7173995972 8.5000000000 0.4602000117 2.1150999069 3.3071000576 70.681701660 145.58106995 0.8126947880 0.7887920141
 1400.3000488  -999.250000 8.6947002411 8.5000000000 0.4501000047 2.1131999493 3.3891000748 73.362297058 145.18872070 0.8189949393 0.7955945730
 1400.4523926  -999.250000 8.7060003281 8.5000000000 0.4244999886 2.1057999134 3.4375998974 73.362297058 145.16831970 0.8249951601 0.8023945689
 1400.6047363  -999.250000 8.7097997665 8.5000000000 0.4266000092 2.0966999531 3.4584999084 71.909202576 142.82365417 0.8278953433 0.8077913523
 1400.7572021  -999.250000 8.7173995972 8.5000000000 0.4212000072 2.0978000164 3.4493999481 68.296302795 142.91632080 0.8230039477 0.8056017756
 1400.9095459  -999.250000 8.7173995972 8.5000000000 0.4246999919 2.1061000824 3.4270999432 67.130798340 145.60838318 0.8197053075 0.8024051189
 1401.0620117  -999.250000 8.6833000183 8.5000000000 0.4163999856 2.1138999462 3.3989999294 66.961997986 145.67456055 0.8129054308 0.7961050868
 1401.2143555  -999.250000 8.6719999313 8.5000000000 0.4374000132 2.1108999252 3.3798999786 68.127403259 145.51814270 0.8034151793 0.7870145440
 1401.3668213  -999.250000 8.6947002411 8.5000000000 0.4286000133 2.0984001160 3.3722000122 71.740402222 145.50181580 0.7915095091 0.7794060707
 1401.5191650  -999.250000 8.6795997620 8.5000000000 0.4287000000 2.0880000591 3.3673999310 73.774002075 145.45004272 0.8022913337 0.7898916006
 1401.6716309  -999.250000 8.6795997620 8.5000000000 0.3993999958 2.0813999176 3.3605000973 70.161003113 145.37745667 0.8227835894 0.8126817346
 1401.8239746  -999.250000 8.6947002411 8.5000000000 0.4237999916 2.0829999447 3.3461000919 66.992103577 145.27796936 0.8408855200 0.8333834410
 1401.9764404  -999.250000 8.6871004105 8.5000000000 0.4287000000 2.0831000805 3.3271999359 65.360397339 145.27279663 0.8355043530 0.8274048567
 1402.1287842  -999.250000 8.7173995972 8.5000000000 0.4295000136 2.0852999687 3.2932000160 66.176200867 145.39920044 0.8211115599 0.8148100972
 1402.2812500  -999.250000 8.7173995972 8.5000000000 0.4257999957 2.0903000832 3.2367000580 67.224098206 145.74662781 0.8171032071 0.8108032346
 1402.4335938  -999.250000 8.7286996841 8.5000000000 0.4383000135 2.0964999199 3.1596000195 69.788101196 145.99620056 0.8198977113 0.8139974475
 1402.5859375  -999.250000 8.7475996017 8.5000000000 0.4575000107 2.1001999378 3.0710000992 70.941802979 146.08784485 0.8268887997 0.8206892610
 1402.7384033  -999.250000 8.7475996017 8.5000000000 0.4659999907 2.1010999680 2.9879999161 69.333297729 146.14285278 0.8270998001 0.8209997416
 1402.8907471  -999.250000 8.7627000809 8.5000000000 0.4616999924 2.1064000130 2.9272000790 65.233200073 144.30914307 0.8123237491 0.8062237501
 1403.0432129  -999.250000 8.7627000809 8.5000000000 0.4810000062 2.1126999855 2.9035000801 65.128501892 144.57868958 0.7929155827 0.7869154215
 1403.1955566  -999.250000 8.7513999939 8.5000000000 0.4821000099 2.1226999760 2.9210999012 65.307998657 144.90498352 0.7809191942 0.7745198607
 1403.3480225  -999.250000 8.7513999939 8.5000000000 0.4763999879 2.1224999428 2.9721999168 68.242698669 144.79769897 0.7742053866 0.7678053379
 1403.5003662  -999.250000 8.7627000809 8.5000000000 0.4309000075 2.1182000637 3.0313999653 67.659896851 144.66151428 0.7707027793 0.7639030814
 1403.6528320  -999.250000 8.7475996017 8.5000000000 0.4354999959 2.1019001007 3.0722000599 70.602401733 144.58876038 0.7728981972 0.7662981153
 1403.8051758  -999.250000 8.7475996017 8.5000000000 0.4593000114 2.0927000046 3.0720000267 73.632698059 143.96099854 0.7758976221 0.7687979937
 1403.9576416  -999.250000 8.7627000809 8.5000000000 0.4769999981 2.0845999718 3.0627000332 74.098800659 146.14144897 0.7764995098 0.7701988816
 1404.1099854  -999.250000 8.7399997711 8.5000000000 0.4729000032 2.0855998993 3.0587000847 71.281196594 145.88659668 0.7765999436 0.7698003054
 1404.2624512  -999.250000 8.7513999939 8.5000000000 0.4388999939 2.0919001102 3.0736999512 68.343498230 145.88029480 0.7832946181 0.7765945792
 1404.4147949  -999.250000 8.7286996841 8.5000000000 0.4228999913 2.1063001156 3.0971000195 65.779502869 145.67726135 0.7935917974 0.7839940786
 1404.5671387  -999.250000 8.7286996841 8.5000000000 0.4210999906 2.1182999611 3.1164999008 64.193099976 145.85711670 0.7902054191 0.7807053328
 1404.7196045  -999.250000 8.7399997711 8.5000000000 0.4357999861 2.1247000694 3.1229000092 63.517898560 146.06243896 0.7810074091 0.7703083158
 1404.8719482  -999.250000 8.7325000763 8.5000000000 0.4372999966 2.1215999126 3.1229999065 66.198402405 146.59355164 0.7755088210 0.7644094825
 1405.0244141  -999.250000 8.7399997711 8.5000000000 0.4282000065 2.1222999096 3.1256999969 68.412803650 146.81771851 0.7771986127 0.7649995089
 1405.1767578  -999.250000 8.7399997711 8.5000000000 0.4528000057 2.1259000301 3.1496000290 69.694801331 146.94140625 0.7774994969 0.7649002075
 1405.3292236  -999.250000 8.7513999939 8.5000000000 0.4679999948 2.1324999332 3.1846001148 71.209899902 146.95080566 0.7705056071 0.7587049603
 1405.4815674  -999.250000 8.7627000809 8.5000000000 0.4668999910 2.1328999996 3.2279999256 71.431800842 147.18791199 0.7642050385 0.7527047992
 1405.6340332  -999.250000 8.7627000809 8.5000000000 0.4359000027 2.1294000149 3.2622001171 72.286598206 147.41322327 0.7532088161 0.7428079247
 1405.7863770  -999.250000 8.7777996063 8.5000000000 0.4481000006 2.1287000179 3.2964000702 72.374900818 147.34455872 0.7450065613 0.7359055281
 1405.9388428  -999.250000 8.7627000809 8.5000000000 0.4489000142 2.1306002140 3.3359999657 75.882499695 147.33819580 0.7486970425 0.7406961918
 1406.0911865  -999.250000 8.7551002502 8.5000000000 0.4767999947 2.1310999393 3.3705999851 75.585296631 144.79344177 0.7518974543 0.7448966503
 1406.2436523  -999.250000 8.7286996841 8.5000000000 0.4859000146 2.1301000118 3.3850998878 75.030700684 144.53041077 0.7500015497 0.7436010242
