# LAS format log file from PETREL
# Project units are specified as depth units
#==================================================================
~Version information
VERS.   2.0:
WRAP.   NO:
#==================================================================
~Well
STRT .m      410.00479126 :
STOP .m      2954.3227539 :
STEP .m     0.00000000 :
NULL .        -999.250000 :
COMP.           : COMPANY
WELL.  16/11-1 S   : WELL
FLD.            : FIELD
LOC.            : LOCATION
SRVC.           : SERVICE COMPANY
DATE.  2018-09-11 14:48:06   : Log Export Date {yyyy-MM-dd HH:mm:ss}
PROV.           : PROVINCE
UWI.   16/11-1 S   : UNIQUE WELL ID
API.            : API NUMBER
#==================================================================
~Curve
DEPT .m                   : DEPTH
Lithology_geolink ._      : Lithology_geolink
CALI .in                  : CALI
DRHO .g/cm3               : DRHO
NPHI .m3/m3               : NPHI
RHOB .g/cm3               : RHOB
GR .gAPI                  : GR
DTC .us/ft                : DTC
RDEP .ohm.m               : RDEP
RSHA .ohm.m               : RSHA
RMED .ohm.m               : RMED
~Parameter
#==================================================================
~Ascii
# ...
 1203.7039795  -999.250000 13.675200462  -999.250000  -999.250000  -999.250000 57.810302734 182.42390442 0.8041070104  -999.250000 0.9974223971
 1203.8563232  -999.250000 14.032799721  -999.250000  -999.250000  -999.250000 57.806102753 177.08070374 0.8035004735  -999.250000 0.9797142148
 1204.0087891  -999.250000 13.068900108  -999.250000  -999.250000  -999.250000 58.333599091 174.97729492 0.8026000261  -999.250000 0.9853000045
 1204.1611328  -999.250000 12.322500229  -999.250000  -999.250000  -999.250000 60.884857178 175.49049377 0.8013010025  -999.250000 0.9903959036
 1204.3135986  -999.250000 12.373100281  -999.250000  -999.250000  -999.250000 62.070899963 176.96730042 0.8040999770  -999.250000 0.9950000048
 1204.4659424  -999.250000 12.364500046  -999.250000  -999.250000  -999.250000 62.066703796 179.85260010 0.8033006787  -999.250000 0.9994964004
 1204.6184082  -999.250000 12.246899605  -999.250000  -999.250000  -999.250000 62.291999817 182.89840698 0.8025000095  -999.250000 1.0040999651
 1204.7707520  -999.250000 12.122899055  -999.250000  -999.250000  -999.250000 62.296596527 183.66560364 0.8079956174  -999.250000 1.0085964203
 1204.9232178  -999.250000 12.259799957  -999.250000  -999.250000  -999.250000 60.857498169 184.92709351 0.8167999983  -999.250000 1.0088000298
 1205.0755615  -999.250000 12.131899834  -999.250000  -999.250000  -999.250000 58.573532104 186.95968628 0.8228951097  -999.250000 1.0088999271
 1205.2280273  -999.250000 12.153200150  -999.250000  -999.250000  -999.250000 56.445098877 188.36358643 0.8216000199  -999.250000 1.0090999603
 1205.3803711  -999.250000 12.040899277  -999.250000  -999.250000  -999.250000 57.228176117 188.79499817 0.8145056367  -999.250000 1.0091998577
 1205.5327148  -999.250000 12.143099785  -999.250000  -999.250000  -999.250000 60.198921204 188.49450684 0.8017102480  -999.250000 1.0092998743
 1205.6851807  -999.250000 12.238800049  -999.250000  -999.250000  -999.250000 60.844783783 186.16778564 0.7862123847  -999.250000 1.0063023567
 1205.8375244  -999.250000 12.746500015  -999.250000  -999.250000  -999.250000 60.841205597 183.46690369 0.7802048326  -999.250000 0.9982064962
 1205.9899902  -999.250000 12.353199959  -999.250000  -999.250000  -999.250000 60.836101532 182.25540161 0.7791000009  -999.250000 0.9901000261
 1206.1423340  -999.250000 12.210000038  -999.250000  -999.250000  -999.250000 58.472892761 181.82049561 0.7806987762  -999.250000 0.9820064902
 1206.2947998  -999.250000 12.711999893  -999.250000  -999.250000  -999.250000 56.630401611 180.35429382 0.7846000195  -999.250000 0.9739000201
 1206.4471436  -999.250000 12.810600281  -999.250000  -999.250000  -999.250000 55.507400513 179.86740112 0.7908949256  -999.250000 0.9742997289
 1206.5996094  -999.250000 12.449399948  -999.250000  -999.250000  -999.250000 54.305000305 179.72500610 0.7990000248  -999.250000 0.9811000228
 1206.7519531  -999.250000 12.163299561  -999.250000  -999.250000  -999.250000 53.040115356 179.24769592 0.8079928160  -999.250000 0.9878945947
 1206.9044189  -999.250000 12.729200363  -999.250000  -999.250000  -999.250000 54.033798218 179.71859741 0.8172000051  -999.250000 0.9907000065
 1207.0567627  -999.250000 12.689900398  -999.250000  -999.250000  -999.250000 56.932777405 181.09959412 0.8255932927  -999.250000 0.9908998013
 1207.2092285  -999.250000 12.413000107  -999.250000  -999.250000  -999.250000 58.604499817 181.10990906 0.8339999914  -999.250000 0.9909999967
 1207.3615723  -999.250000 12.768600464  -999.250000  -999.250000  -999.250000 58.004878998 180.83000183 0.8434923887  -999.250000 0.9910999537
 1207.5139160  -999.250000 12.855399132  -999.250000  -999.250000  -999.250000 56.756797791 179.85389709 0.8534920216  -999.250000 0.9912998080
 1207.6663818  -999.250000 12.611200333  -999.250000  -999.250000  -999.250000 56.276786804 179.04100037 0.8592953682  -999.250000 0.9925990105
 1207.8187256  -999.250000 13.123499870  -999.250000  -999.250000  -999.250000 57.323860168 178.12649536 0.8622975945  -999.250000 0.9966967106
 1207.9711914  -999.250000 12.406100273  -999.250000  -999.250000  -999.250000 59.366699219 176.26170349 0.8615000248  -999.250000 1.0008000135
 1208.1235352  -999.250000 12.436200142  -999.250000  -999.250000  -999.250000 60.972812653 174.05880737 0.8591018915  -999.250000 1.0049966574
 1208.2760010  -999.250000 12.025699615  -999.250000  -999.250000  -999.250000 60.912101746 171.31109619 0.8521000147  -999.250000 1.0090999603
 1208.4283447  -999.250000 12.319298744  -999.250000  -999.250000  -999.250000 59.447776794 168.40640259 0.8429073691  -999.250000 1.0098993778
 1208.5808105  -999.250000 12.668899536  -999.250000  -999.250000  -999.250000 57.524299622 166.45500183 0.8327000141  -999.250000 1.0032999516
 1208.7331543  -999.250000 12.611700058  -999.250000  -999.250000  -999.250000 55.606636047 166.42070007 0.8199102283  -999.250000 0.9968051910
 1208.8856201  -999.250000 12.829600334  -999.250000  -999.250000  -999.250000 54.360599518 168.43260193 0.8046000004  -999.250000 0.9902999997
 1209.0379639  -999.250000 12.976799011  -999.250000  -999.250000  -999.250000 54.781959534 171.67059326 0.7965065241  -999.250000 0.9838051796
 1209.1904297  -999.250000 12.890800476  -999.250000  -999.250000  -999.250000 56.431198120 175.59970093 0.7926999927  -999.250000 0.9829000235
 1209.3427734  -999.250000 12.659899712  -999.250000  -999.250000  -999.250000 58.106258392 179.35899353 0.7892028093  -999.250000 0.9829999208
 1209.4952393  -999.250000 13.120600700  -999.250000  -999.250000  -999.250000 58.831199646 181.23469543 0.7911000252  -999.250000 0.9832000136
 1209.6475830  -999.250000 12.554499626  -999.250000  -999.250000  -999.250000 58.604183197 181.67759705 0.7911000252  -999.250000 0.9832999110
 1209.7999268  -999.250000 12.221098900  -999.250000  -999.250000  -999.250000 57.882179260 182.00180054 0.7888018489  -999.250000 0.9833999276
 1209.9523926  -999.250000 12.336500168  -999.250000  -999.250000  -999.250000 57.877204895 181.49819946 0.7896992564  -999.250000 0.9840994477
 1210.1047363  -999.250000 12.830800056  -999.250000  -999.250000  -999.250000 57.386894226 182.07530212 0.7943962216  -999.250000 0.9864981174
 1210.2572021  -999.250000 12.674899101  -999.250000  -999.250000  -999.250000 55.471000671 183.65269470 0.7928000093  -999.250000 0.9890000224
 1210.4095459  -999.250000 12.507900238  -999.250000  -999.250000  -999.250000 54.538948059 184.15730286 0.7937992215  -999.250000 0.9913980961
 1210.5620117  -999.250000 12.844799995  -999.250000  -999.250000  -999.250000 55.010799408 184.10940552 0.7986000180  -999.250000 0.9937999845
 1210.7143555  -999.250000 13.694700241  -999.250000  -999.250000  -999.250000 57.398384094 183.12869263 0.8033961654  -999.250000 0.9983962774
 1210.8668213  -999.250000 13.104299545  -999.250000  -999.250000  -999.250000 57.332298279 181.34910583 0.8062999845  -999.250000 1.0031000376
 1211.0191650  -999.250000 12.780300140  -999.250000  -999.250000  -999.250000 55.626800537 178.25480652 0.8128947020  -999.250000 0.9984037280
 1211.1716309  -999.250000 12.932499886  -999.250000  -999.250000  -999.250000 54.042198181 174.96299744 0.8198000193  -999.250000 0.9905999899
 1211.3239746  -999.250000 12.705499649  -999.250000  -999.250000  -999.250000 53.800399780 172.19949341 0.8297920227  -999.250000 0.9859037399
 1211.4764404  -999.250000 12.686400414  -999.250000  -999.250000  -999.250000 53.480400085 169.37350464 0.8481000066  -999.250000 0.9900000095
 1211.6287842  -999.250000 12.846799850  -999.250000  -999.250000  -999.250000 52.277698517 166.64610291 0.8646867275  -999.250000 0.9940966964
 1211.7811279  -999.250000 12.999899864  -999.250000  -999.250000  -999.250000 50.223598480 165.76602173 0.8728934526  -999.250000 0.9919018149
 1211.9335938  -999.250000 13.094900131  -999.250000  -999.250000  -999.250000 47.330501556 167.57890320 0.8726002574  -999.250000 0.9877033234
 1212.0859375  -999.250000 13.056300163  -999.250000  -999.250000  -999.250000 45.700401306 171.00598145 0.8663050532  -999.250000 0.9913970232
