# LAS format log file from PETREL
# Project units are specified as depth units
#==================================================================
~Version information
VERS.   2.0:
WRAP.   NO:
#==================================================================
~Well
STRT .m      410.00479126 :
STOP .m      2954.3227539 :
STEP .m     0.00000000 :
NULL .        -999.250000 :
COMP.           : COMPANY
WELL.  16/11-1 S   : WELL
FLD.            : FIELD
LOC.            : LOCATION
SRVC.           : SERVICE COMPANY
DATE.  2018-09-11 14:48:06   : Log Export Date {yyyy-MM-dd HH:mm:ss}
PROV.           : PROVINCE
UWI.   16/11-1 S   : UNIQUE WELL ID
API.            : API NUMBER
#==================================================================
~Curve
DEPT .m                   : DEPTH
Lithology_geolink ._      : Lithology_geolink
CALI .in                  : CALI
DRHO .g/cm3               : DRHO
NPHI .m3/m3               : NPHI
RHOB .g/cm3               : RHOB
GR .gAPI                  : GR
DTC .us/ft                : DTC
RDEP .ohm.m               : RDEP
RSHA .ohm.m               : RSHA
RMED .ohm.m               : RMED
~Parameter
#==================================================================
~Ascii
# ...
 1963.2655029 9.0000000000 13.258600235 -0.005400000 0.1200011224 2.4281053543 6.1808681488 72.975196838  -999.250000 0.9201237559  -999.250000
 1963.4179688 9.0000000000 13.259599686 -0.016000001 0.1230975166 2.4077165127 6.2209682465 73.311798096  -999.250000 0.8446600437  -999.250000
 1963.5703125 9.0000000000 13.260700226 -0.018600000 0.1232998371 2.4019045830 6.1869273186 73.667999268  -999.250000 0.8017343879  -999.250000
 1963.7227783 9.0000000000 13.261700630 -0.014900000 0.1324926317 2.3976032734 6.1082630157 73.869003296  -999.250000 0.7701252699  -999.250000
 1963.8751221 9.0000000000 13.263799667 -0.009800000 0.1398940682 2.4017965794 6.0295629501 73.938301086  -999.250000 0.8076698780  -999.250000
 1964.0274658 9.0000000000 13.263799667 -0.004200000 0.1413975954 2.4196712971 5.3468947411 73.838096619  -999.250000 1.0416249037  -999.250000
 1964.1799316 9.0000000000 13.290499687 -0.005600000 0.1350051314 2.4349877834 4.6436629295 73.726799011  -999.250000 0.9846460223  -999.250000
 1964.3322754 9.0000000000 13.320300102 -0.002900000 0.1343011111 2.4297084808 4.6338148117 73.978202820  -999.250000 0.9405706525  -999.250000
 1964.4847412 9.0000000000 13.305600166 0.0041000000 0.1369978338 2.4314985275 5.3470282555 74.363700867  -999.250000 1.0207356215  -999.250000
 1964.6370850 9.0000000000 13.328899384 0.0087000001 0.1462851167 2.4324982166 5.8398103714 74.840202332  -999.250000 0.9548058510  -999.250000
 1964.7895508 9.0000000000 13.381699562 0.0001000000 0.1538939029 2.4225080013 6.3274092674 75.313697815  -999.250000 1.1576372385  -999.250000
 1964.9418945 9.0000000000 13.369000435 -0.004300000 0.1591957510 2.4051139355 5.9799790382 75.376701355  -999.250000 0.8939116001  -999.250000
 1965.0943604 9.0000000000 13.369999886 -0.006900000 0.1639961600 2.4037013054 6.2411904335 75.251197815  -999.250000 0.8844074607  -999.250000
 1965.2467041 9.0000000000 13.351301193 -0.000800000 0.1587042511 2.4047989845 7.0906190872 75.164703369  -999.250000 0.9995076656  -999.250000
 1965.3991699 9.0000000000 13.352299690 0.0142999999 0.1609981507 2.4259831905 7.8212151527 74.947601318  -999.250000 0.7359113097  -999.250000
 1965.5515137 9.0000000000 13.353300095 0.0093000000 0.1648968756 2.4214036465 8.2988176346 74.842597961  -999.250000 0.9506276250  -999.250000
 1965.7039795 9.0000000000 13.360400200 0.0063000000 0.1616026312 2.4093098640 7.9076137543 75.036003113  -999.250000 0.9423068166  -999.250000
 1965.8563232 9.0000000000 13.375200272 0.0126000000 0.1653969586 2.4240880013 6.6000480652 75.239097595  -999.250000 0.8687999845  -999.250000
 1966.0087891 9.0000000000 13.349800110 0.0116999997 0.1655998379 2.4314939976 5.6304764748 75.682800293  -999.250000 0.7799000144  -999.250000
 1966.1611328 9.0000000000 13.366999626 0.0027000001 0.1643010378 2.4017238617 4.9003849030 76.311401367  -999.250000 0.7113999724  -999.250000
 1966.3134766 9.0000000000 13.369400024 -0.005000000 0.1692920029 2.3782377243 4.7905750275 76.939102173  -999.250000 0.8827000260  -999.250000
 1966.4659424 9.0000000000 13.448699951 -0.007100000 0.1736964732 2.3772006035 4.8170785904 77.330696106  -999.250000 0.8033999801  -999.250000
 1966.6182861 9.0000000000 13.438700676 -0.002600000 0.1780929565 2.3853869438 4.9793395996 77.650901794  -999.250000 0.6898999810  -999.250000
 1966.7707520 9.0000000000 13.329899788 0.0016000000 0.1759017557 2.3841009140 5.3502030373 78.075698853  -999.250000 0.7411000133  -999.250000
 1966.9230957 9.0000000000 13.311401367 -0.001700000 0.1710078567 2.3848989010 6.0342030525 78.150596619  -999.250000 0.8597000241  -999.250000
 1967.0755615 9.0000000000 13.327400208 -0.005700000 0.1701007187 2.3852996826 6.6144356728 78.024101257  -999.250000 0.8654999733  -999.250000
 1967.2279053 9.0000000000 13.328899384 -0.008000000 0.1676020026 2.3818027973 7.7898578644 77.948600769  -999.250000 1.0429999828  -999.250000
 1967.3803711 9.0000000000 13.330400467 -0.010400000 0.1567087322 2.3932907581 7.3388619423 77.566200256  -999.250000 0.8590999842  -999.250000
 1967.5327148 9.0000000000 13.320699692 -0.004600000 0.1514042467 2.4037916660 6.7651596069 77.255790710  -999.250000 0.8454999924  -999.250000
 1967.6851807 9.0000000000 13.302100182 -0.013400000 0.1465039253 2.3994035721 6.9801273346 77.723197937  -999.250000 1.1440999508  -999.250000
 1967.8375244 9.0000000000 13.295398712 -0.007000000 0.1509963870 2.4009988308 6.9995846748 78.438102722  -999.250000 1.0822999477  -999.250000
 1967.9899902 9.0000000000 13.296899796 -0.000700000 0.1584939957 2.4007003307 7.0184845924 79.364799500  -999.250000 0.8661000133  -999.250000
 1968.1423340 9.0000000000 13.298400879 0.0010000000 0.1611978412 2.3980021477 7.0373845100 80.506301880  -999.250000 0.9063000083  -999.250000
 1968.2946777 9.0000000000 13.299900055 -0.004900000 0.1613996923 2.3986988068 7.2569479942 81.364700317  -999.250000 1.0835000277  -999.250000
 1968.4471436 9.0000000000 13.301401138 -0.008100000 0.1699931175 2.4022970200 8.1423902512 81.509902954  -999.250000 0.9390000105  -999.250000
 1968.5994873 9.0000000000 13.302900314 -0.002500000 0.1653075218 2.4094884396 8.3968925476 81.360092163  -999.250000 0.8154000044  -999.250000
 1968.7519531 9.0000000000 13.304400444 -0.004100000 0.1595046520 2.4002072811 8.0086116791 80.797096252  -999.250000 0.9916999936  -999.250000
 1968.9042969 9.0000000000 13.286199570 -0.006700000 0.1547076851 2.3972048759 7.4793481827 80.047203064  -999.250000 0.8195999861  -999.250000
 1969.0567627 9.0000000000 13.287699699 -0.009000000 0.1562987119 2.3946020603 7.2040205002 79.497299194  -999.250000 0.9090999961  -999.250000
 1969.2091064 9.0000000000 13.273099899 -0.012400000 0.1636940688 2.3912026882 7.1700272560 79.375595093  -999.250000 0.9168000221  -999.250000
 1969.3615723 9.0000000000 13.270899773 -0.013500000 0.1638998389 2.3955965042 7.1888847351 79.507209778  -999.250000 0.9801999927  -999.250000
 1969.5139160 9.0000000000 13.272399902 -0.013100000 0.1638000757 2.4052920341 7.2078847885 79.758697510  -999.250000 0.9635999799  -999.250000
 1969.6663818 9.0000000000 13.273900032 -0.013700000 0.1654986441 2.4058995247 7.2267847061 79.875396729  -999.250000 1.0894999504  -999.250000
 1969.8187256 9.0000000000 13.275400162 -0.016700000 0.1688972712 2.3990054131 7.2456846237 79.874900818  -999.250000 0.8833000064  -999.250000
 1969.9711914 9.0000000000 13.276900291 -0.019099999 0.1610063165 2.3825130463 6.8681030273 79.769996643  -999.250000 1.0590000153  -999.250000
 1970.1235352 9.0000000000 13.278499603 -0.017600000 0.1559040844 2.3686110973 6.5711379051 79.450599670  -999.250000 0.7753999829  -999.250000
 1970.2758789 9.0000000000 13.238900185 -0.001300000 0.1574974358 2.3701972961 6.8269896507 79.487602234  -999.250000 0.9344999790  -999.250000
 1970.4283447 9.0000000000 13.231800079 0.0022000000 0.1637949497 2.3730976582 7.8267984390 79.589996338  -999.250000 1.0398000479  -999.250000
 1970.5806885 9.0000000000 13.293499947 0.0001000000 0.1708886325 2.3783915043 8.5017185211 79.339996338  -999.250000 0.7813000083  -999.250000
 1970.7331543 9.0000000000 13.285599709 -0.002200000 0.1736977547 2.3799989223 8.3560171127 78.998497009  -999.250000 0.7117999792  -999.250000
 1970.8854980 9.0000000000 13.337300301 -0.002100000 0.1727015972 2.3996684551 7.8980340958 78.707702637  -999.250000 1.0290000439  -999.250000
 1971.0379639 9.0000000000 13.357998848 0.0055999998 0.1856895834 2.4304752350 6.6137294769 78.686500549  -999.250000 1.1983000040  -999.250000
 1971.1903076 9.0000000000 13.368200302 0.0030000000 0.1815033704 2.4337973595 5.6815466881 79.592498779  -999.250000 0.9394999743  -999.250000
 1971.3427734 9.0000000000 13.328598976 -0.000600000 0.1663121730 2.4287040234 5.3190898895 81.257102966  -999.250000 1.0566999912  -999.250000
 1971.4951172 9.0000000000 13.331601143 -0.000600000 0.1561081707 2.4193077087 5.5535116196 83.420692444  -999.250000 0.9469000101  -999.250000
 1971.6475830 9.0000000000 13.377099991 0.0024999999 0.1530024856 2.4273936749 5.5725846291 85.486396790  -999.250000 1.1483999491  -999.250000
