# LAS format log file from PETREL
# Project units are specified as depth units
#==================================================================
~Version information
VERS.   2.0:
WRAP.   NO:
#==================================================================
~Well
STRT .m      1175.9671631 :
STOP .m      1726.7407227 :
STEP .m     0.00000000 :
NULL .        -999.250000 :
COMP.           : COMPANY
WELL.  16/1-6 A Verdandi Appr   : WELL
FLD.            : FIELD
LOC.            : LOCATION
SRVC.           : SERVICE COMPANY
DATE.  2018-09-11 14:48:05   : Log Export Date {yyyy-MM-dd HH:mm:ss}
PROV.           : PROVINCE
UWI.   16/1-6 A   : UNIQUE WELL ID
API.            : API NUMBER
#==================================================================
~Curve
DEPT .m                   : DEPTH
Lithology_geolink ._      : Lithology_geolink
CALI .in                  : CALI
BS .in                    : BS
NPHI .m3/m3               : NPHI
RHOB .g/cm3               : RHOB
PEF .b/e                  : PEF
GR .gAPI                  : GR
DTC .us/ft                : DTC
RDEP .ohm.m               : RDEP
RMED .ohm.m               : RMED
~Parameter
#==================================================================
~Ascii
# ...
 1210.1047363  -999.250000 9.5865001678 8.5000000000 0.5006999969 1.9859000444 3.8977999687 63.397598267 142.02206421 1.1161162853 1.1059169769
 1210.2572021  -999.250000 9.5562000275 8.5000000000 0.4492999911 1.9826999903 3.8736000061 63.219100952 141.12890625 1.0941176414 1.0833181143
 1210.4095459  -999.250000 9.5335998535 8.5000000000 0.4665000141 1.9831999540 3.7715001106 63.106399536 140.11660767 1.0747311115 1.0664271116
 1210.5620117  -999.250000 9.5562000275 8.5000000000 0.4796000123 1.9859999418 3.6512999535 63.551601410 140.15890503 1.0629093647 1.0558084249
 1210.7143555  -999.250000 9.5865001678 8.5000000000 0.5134000182 1.9850000143 3.5525999069 60.429100037 140.11183167 1.0509096384 1.0459079742
 1210.8668213  -999.250000 9.6847000122 8.5000000000 0.5019000173 1.9817999601 3.4897999763 64.387199402 140.19839478 1.0403084755 1.0363075733
 1211.0191650  -999.250000 9.6241998672 8.5000000000 0.4548999965 1.9737999439 3.4245998859 64.408203125 141.08918762 1.0247125626 1.0220113993
 1211.1716309  -999.250000 9.6241998672 8.5000000000 0.4632999897 1.9682999849 3.3850998878 69.923599243 142.71119690 1.0209031105 1.0191022158
 1211.3239746  -999.250000 9.5676002502 8.5000000000 0.4708000124 1.9657000303 3.4210000038 66.679702759 141.69470215 1.0165035725 1.0155028105
 1211.4764404  -999.250000 9.5562000275 8.5000000000 0.4871000051 1.9654999971 3.5016000271 65.980400085 141.62770081 1.0119036436 1.0124025345
 1211.6287842  -999.250000 9.5184001923 8.5000000000 0.5123999715 1.9665000439 3.6212999821 64.115699768 142.06065369 1.0103013515 1.0111011267
 1211.7811279  -999.250000 9.4882001877 8.5000000000 0.4869999886 1.9654999971 3.7623000145 61.515800476 142.53262329 1.0123966932 1.0140951872
 1211.9335938  -999.250000 9.4806995392 8.5000000000 0.4878999889 1.9651999474 3.9126999378 61.103801727 142.80418396 1.0182952881 1.0206947327
 1212.0859375  -999.250000 9.4882001877 8.5000000000 0.4541999996 1.9648000002 4.0307002068 61.919601440 142.79360962 1.0248893499 1.0284874439
 1212.2384033  -999.250000 9.2954998016 8.5000000000 0.4505000114 1.9657000303 4.0819001198 65.531097412 142.83419800 1.0215027332 1.0262018442
 1212.3907471  -999.250000 9.0121002197 8.5000000000 0.4472999871 1.9643000364 4.0552000999 66.904998779 143.73348999 1.0134129524 1.0168150663
 1212.5432129  -999.250000 8.9214000702 8.5000000000 0.4311000109 1.9588999748 3.9823999405 67.021499634 141.99899292 1.0079044104 1.0077072382
 1212.6955566  -999.250000 8.9100999832 8.5000000000 0.4765999913 1.9469000101 3.9391999245 67.631896973 142.93975830 1.0029040575 1.0008054972
 1212.8480225  -999.250000 8.8986997604 8.5000000000 0.5091999769 1.9392000437 4.0191998482 66.553398132 143.68980408 0.9994028211 0.9950046539
 1213.0003662  -999.250000 8.9666996002 8.5000000000 0.5020999908 1.9346998930 4.2781000137 66.786499023 143.62994385 0.9962025881 0.9910032153
 1213.1528320  -999.250000 8.9441003799 8.5000000000 0.4717999995 1.9285999537 4.6606001854 64.790298462 143.79980469 0.9956004620 0.9917993546
 1213.3051758  -999.250000 8.8760995865 8.5000000000 0.4571999907 1.9204000235 5.0149002075 63.741401672 144.11564636 0.9961995482 0.9917000532
 1213.4576416  -999.250000 8.8193998337 8.5000000000 0.4927000105 1.9207999706 5.2330999374 61.548198700 146.21670532 0.9945013523 0.9934985638
 1213.6099854  -999.250000 8.8079996109 8.5000000000 0.4954999983 1.9306000471 5.2607002258 60.838298798 148.96751404 0.9894041419 0.9900028110
 1213.7623291  -999.250000 8.8534002304 8.5000000000 0.5364000201 1.9381999969 5.1637997627 61.537601471 147.79563904 0.9812130928 0.9854074121
 1213.9147949  -999.250000 8.7475996017 8.5000000000 0.5523999929 1.9286999702 5.0128998756 64.285301208 145.29879761 0.9756044745 0.9817029834
 1214.0671387  -999.250000 8.8004999161 8.5000000000 0.5648999810 1.9084000587 4.8246998787 64.888397217 144.67750549 0.9658078551 0.9714082479
 1214.2196045  -999.250000 8.6153001785 8.5000000000 0.5189999938 1.8904999495 4.6374001503 63.443801880 144.22689819 0.9545999765 0.9603000283
 1214.3719482  -999.250000 8.5510997772 8.5000000000 0.4954000115 1.8923000097 4.4772000313 59.625999451 145.49407959 0.9493042231 0.9551041722
 1214.5244141  -999.250000 8.5473003387 8.5000000000 0.4801000059 1.9019999504 4.4295997620 57.237499237 145.65109253 0.9538000226 0.9596999884
 1214.6767578  -999.250000 8.3318996429 8.5000000000 0.5008999705 1.9136999846 4.5390000343 58.798599243 144.96565247 0.9652908444 0.9721899629
 1214.8292236  -999.250000 8.3168001175 8.5000000000 0.4968999922 1.9242999554 4.7929000854 57.283500671 144.03010559 0.9757000208 0.9797000289
 1214.9815674  -999.250000 8.2751998901 8.5000000000 0.5038999915 1.9309999943 5.1245999336 60.153099060 143.45686340 0.9722027779 0.9758030772
 1215.1340332  -999.250000 8.2866001129 8.5000000000 0.4832000136 1.9363000393 5.3972997665 59.570400238 142.71240234 0.9641000032 0.9636999965
 1215.2863770  -999.250000 8.3999004364 8.5000000000 0.4979000092 1.9359999895 5.4994997978 60.511001587 142.25976563 0.9568058252 0.9555065632
 1215.4388428  -999.250000 8.3999004364 8.5000000000 0.4939000010 1.9375000000 5.4151000977 57.582401276 142.89869690 0.9611999989 0.9585999846
 1215.5911865  -999.250000 8.5360002518 8.5000000000 0.5030000210 1.9400000572 5.1645998955 60.850498199 142.72113037 0.9720913172 0.9675927758
 1215.7436523  -999.250000 8.5812997818 8.5000000000 0.4970999956 1.9366999865 4.8295001984 59.909900665 143.25759888 0.9803000093 0.9799000025
 1215.8959961  -999.250000 8.6947002411 8.5000000000 0.5049999952 1.9341000319 4.5391001701 58.511398315 142.72172546 0.9897923470 0.9916905165
 1216.0483398  -999.250000 8.6342000961 8.5000000000 0.4988000095 1.9318000078 4.4738001823 55.763599396 143.40214539 0.9905993342 0.9960964918
 1216.2008057  -999.250000 8.6492996216 8.5000000000 0.4826000035 1.9293999672 4.6883997917 57.142200470 143.34954834 0.9961955547 0.9995971918
 1216.3531494  -999.250000 8.6190996170 8.5000000000 0.4785999954 1.9268000126 5.0299000740 57.745399475 143.17703247 0.9991976023 1.0012986660
 1216.5056152  -999.250000 8.4680004120 8.5000000000 0.4959000051 1.9286999702 5.2618999481 59.555900574 144.51130676 1.0055999756 1.0051000118
 1216.6579590  -999.250000 8.2790002823 8.5000000000 0.5008999705 1.9391000271 5.2930998802 59.342800140 143.64498901 1.0009038448 1.0003038645
 1216.8104248  -999.250000 8.1958999634 8.5000000000 0.5164999962 1.9434000254 5.1901001930 63.441101074 144.50500488 0.9861999750 0.9832000136
 1216.9627686  -999.250000 8.0712003708 8.5000000000 0.5371999741 1.9427000284 5.0559000969 65.189300537 145.57254028 0.9702128172 0.9677124023
 1217.1152344  -999.250000 8.0599002838 8.5000000000 0.5198000073 1.9234000444 4.9197998047 65.837699890 145.45339966 0.9618999958 0.9585999846
 1217.2675781  -999.250000 8.0825004578 8.5000000000 0.4981000125 1.8985999823 4.7804999352 64.516098022 145.29832458 0.9489104152 0.9435120821
 1217.4200439  -999.250000 8.3432998657 8.5000000000 0.4808999896 1.8804999590 4.6065001488 62.418300629 144.38499451 0.9284999967 0.9247999787
 1217.5723877  -999.250000 8.5699996948 8.5000000000 0.4790999889 1.8700000048 4.3646001816 60.566699982 145.53108215 0.9165095687 0.9168063998
 1217.7248535  -999.250000 8.6644001007 8.5000000000 0.5052999854 1.8710999489 4.0989999771 61.128398895 146.67140198 0.9143999815 0.9175000191
 1217.8771973  -999.250000 8.7854003906 8.5000000000 0.4954000115 1.8647999763 3.8733000755 61.166301727 147.09725952 0.9139004350 0.9191986322
 1218.0295410  -999.250000 8.7513999939 8.5000000000 0.5630999804 1.8680000305 3.7355000973 59.572299957 147.57371521 0.9078049064 0.9187003970
 1218.1820068  -999.250000 8.7627000809 8.5000000000 0.5702000260 1.8746999502 3.6556999683 59.106601715 146.19520569 0.9040030241 0.9180005193
 1218.3343506  -999.250000 8.7854003906 8.5000000000 0.5884000063 1.8803999424 3.6056001186 54.057201385 145.37976074 0.9007025957 0.9120048285
 1218.4868164  -999.250000 8.8382997513 8.5000000000 0.5504999757 1.8822000027 3.5919001102 60.996200562 146.90769958 0.8927000165 0.9052000046
