# LAS format log file from PETREL
# Project units are specified as depth units
#==================================================================
~Version information
VERS.   2.0:
WRAP.   NO:
#==================================================================
~Well
STRT .m      410.00479126 :
STOP .m      2954.3227539 :
STEP .m     0.00000000 :
NULL .        -999.250000 :
COMP.           : COMPANY
WELL.  16/11-1 S   : WELL
FLD.            : FIELD
LOC.            : LOCATION
SRVC.           : SERVICE COMPANY
DATE.  2018-09-11 14:48:06   : Log Export Date {yyyy-MM-dd HH:mm:ss}
PROV.           : PROVINCE
UWI.   16/11-1 S   : UNIQUE WELL ID
API.            : API NUMBER
#==================================================================
~Curve
DEPT .m                   : DEPTH
Lithology_geolink ._      : Lithology_geolink
CALI .in                  : CALI
DRHO .g/cm3               : DRHO
NPHI .m3/m3               : NPHI
RHOB .g/cm3               : RHOB
GR .gAPI                  : GR
DTC .us/ft                : DTC
RDEP .ohm.m               : RDEP
RSHA .ohm.m               : RSHA
RMED .ohm.m               : RMED
~Parameter
#==================================================================
~Ascii
# ...
 956.20642090  -999.250000 12.137700081  -999.250000  -999.250000  -999.250000 62.137298584 184.84390259 1.1735999584  -999.250000 1.3308990002
 956.35876465  -999.250000 12.153800011  -999.250000  -999.250000  -999.250000 62.481800079 185.85638428 1.1734999418  -999.250000 1.3331981897
 956.51116943  -999.250000 12.207100868  -999.250000  -999.250000  -999.250000 60.207901001 187.70330811 1.1708999872  -999.250000 1.3353981972
 956.66357422  -999.250000 12.215299606  -999.250000  -999.250000  -999.250000 59.706798553 189.53129578 1.1684999466  -999.250000 1.3371986151
 956.81597900  -999.250000 12.196200371  -999.250000  -999.250000  -999.250000 61.152000427 189.59759521 1.1654000282  -999.250000 1.3370001316
 956.96838379  -999.250000 12.173600197  -999.250000  -999.250000  -999.250000 62.369998932 188.43820190 1.1571999788  -999.250000 1.3367000818
 957.12078857  -999.250000 12.151700020  -999.250000  -999.250000  -999.250000 62.952098846 186.12289429 1.1505999565  -999.250000 1.3365001678
 957.27319336  -999.250000 12.150600433  -999.250000  -999.250000  -999.250000 61.480098724 184.76170349 1.1424000263  -999.250000 1.3363001347
 957.42559814  -999.250000 12.162899971  -999.250000  -999.250000  -999.250000 61.491100311 184.91749573 1.1427999735  -999.250000 1.3361001015
 957.57800293  -999.250000 12.222900391  -999.250000  -999.250000  -999.250000 61.924800873 186.96560669 1.1481000185  -999.250000 1.3358001709
 957.73040771  -999.250000 12.203901291  -999.250000  -999.250000  -999.250000 62.071498871 189.40269470 1.1576000452  -999.250000 1.3358999491
 957.88281250  -999.250000 12.175700188  -999.250000  -999.250000  -999.250000 63.471500397 191.43530273 1.1653000116  -999.250000 1.3380991220
 958.03521729  -999.250000 12.147500992  -999.250000  -999.250000  -999.250000 64.705001831 191.38690186 1.1687999964  -999.250000 1.3402991295
 958.18762207  -999.250000 12.081700325  -999.250000  -999.250000  -999.250000 64.634101868 189.42828369 1.1707999706  -999.250000 1.3424991369
 958.34002686  -999.250000 12.085499763  -999.250000  -999.250000  -999.250000 63.277198792 186.68029785 1.1736999750  -999.250000 1.3445991278
 958.49237061  -999.250000 12.182100296  -999.250000  -999.250000  -999.250000 60.181701660 183.51669312 1.1828999519  -999.250000 1.3418022394
 958.64477539  -999.250000 12.189000130  -999.250000  -999.250000  -999.250000 59.180500031 180.37170410 1.1933000088  -999.250000 1.3390022516
 958.79718018  -999.250000 12.171699524  -999.250000  -999.250000  -999.250000 59.168701172 178.71830750 1.2007000446  -999.250000 1.3361022472
 958.94958496  -999.250000 12.166999817  -999.250000  -999.250000  -999.250000 59.157001495 180.42480469 1.1984000206  -999.250000 1.3313019276
 959.10198975  -999.250000 12.190401077  -999.250000  -999.250000  -999.250000 62.105998993 183.00849915 1.1876000166  -999.250000 1.3185051680
 959.25439453  -999.250000 12.213800430  -999.250000  -999.250000  -999.250000 62.277900696 185.94760132 1.1686999798  -999.250000 1.3057050705
 959.40679932  -999.250000 12.290900230  -999.250000  -999.250000  -999.250000 62.265998840 189.00869751 1.1470999718  -999.250000 1.2929050922
 959.55920410  -999.250000 12.379899979  -999.250000  -999.250000  -999.250000 62.633499146 191.33110046 1.1239999533  -999.250000 1.2806048393
 959.71160889  -999.250000 12.535799980  -999.250000  -999.250000  -999.250000 64.490898132 192.21189880 1.1015000343  -999.250000 1.2697044611
 959.86401367  -999.250000 12.529998779  -999.250000  -999.250000  -999.250000 63.862899780 192.82060242 1.0843000412  -999.250000 1.2589043379
 960.01641846  -999.250000 12.498399734  -999.250000  -999.250000  -999.250000 61.942699432 192.29301453 1.0714000463  -999.250000 1.2492039204
 960.16882324  -999.250000 12.466799736  -999.250000  -999.250000  -999.250000 60.819900513 189.51489258 1.0608999729  -999.250000 1.2410033941
 960.32122803  -999.250000 12.510899544  -999.250000  -999.250000  -999.250000 61.503799438 186.07440186 1.0550999641  -999.250000 1.2328033447
 960.47357178  -999.250000 12.614399910  -999.250000  -999.250000  -999.250000 63.267299652 182.88360596 1.0519000292  -999.250000 1.2344987392
 960.62597656  -999.250000 12.672800064  -999.250000  -999.250000  -999.250000 64.932998657 180.45770264 1.0527000427  -999.250000 1.2366982698
 960.77838135  -999.250000 12.593999863  -999.250000  -999.250000  -999.250000 67.113098145 179.59280396 1.0569000244  -999.250000 1.2388981581
 960.93078613  -999.250000 12.544799805  -999.250000  -999.250000  -999.250000 67.366096497 180.30270386 1.0620000362  -999.250000 1.2409992218
 961.08319092  -999.250000 12.534399986  -999.250000  -999.250000  -999.250000 65.416603088 180.66889954 1.0644999743  -999.250000 1.2447984219
 961.23559570  -999.250000 12.579098701  -999.250000  -999.250000  -999.250000 62.497398376 180.19689941 1.0626000166  -999.250000 1.2495981455
 961.38800049  -999.250000 12.760800362  -999.250000  -999.250000  -999.250000 59.954399109 177.86210632 1.0614999533  -999.250000 1.2444000244
 961.54040527  -999.250000 12.759598732  -999.250000  -999.250000  -999.250000 58.847301483 174.91810608 1.0635999441  -999.250000 1.2323000431
 961.69281006  -999.250000 12.652799606  -999.250000  -999.250000  -999.250000 58.947799683 172.96781921 1.0698000193  -999.250000 1.2217999697
 961.84521484  -999.250000 12.579899788  -999.250000  -999.250000  -999.250000 59.660198212 172.26620483 1.0745999813  -999.250000 1.2259000540
 961.99761963  -999.250000 12.687199593  -999.250000  -999.250000  -999.250000 59.153800964 173.54948425 1.0792000294  -999.250000 1.2301000357
 962.15002441  -999.250000 12.893500328  -999.250000  -999.250000  -999.250000 56.188301086 176.76312256 1.0822999477  -999.250000 1.2459000349
 962.30242920  -999.250000 12.970999718  -999.250000  -999.250000  -999.250000 53.865299225 179.79768372 1.0945999622  -999.250000 1.2654999495
 962.45483398  -999.250000 13.126500130  -999.250000  -999.250000  -999.250000 52.345199585 182.32119751 1.1171000004  -999.250000 1.2704999447
 962.60717773  -999.250000 13.282099724  -999.250000  -999.250000  -999.250000 52.633899689 182.14959717 1.1454000473  -999.250000 1.2704000473
 962.75958252  -999.250000 13.182000160  -999.250000  -999.250000  -999.250000 55.427700043 180.87829590 1.1670000553  -999.250000 1.2782000303
 962.91198730  -999.250000 13.194499969  -999.250000  -999.250000  -999.250000 57.039600372 179.71589661 1.1785999537  -999.250000 1.2865999937
 963.06439209  -999.250000 13.263500214  -999.250000  -999.250000  -999.250000 56.420101166 177.15800476 1.1799000502  -999.250000 1.2779999971
 963.21679688  -999.250000 13.140199661  -999.250000  -999.250000  -999.250000 53.926799774 174.29870605 1.1719000340  -999.250000 1.2704999447
 963.36920166  -999.250000 13.314499855  -999.250000  -999.250000  -999.250000 52.013401031 173.52540588 1.1607999802  -999.250000 1.2812000513
 963.52160645  -999.250000 13.056799889  -999.250000  -999.250000  -999.250000 51.109699249 173.60920715 1.1536999941  -999.250000 1.2894999981
 963.67401123  -999.250000 13.025500298  -999.250000  -999.250000  -999.250000 50.580001831 175.31307983 1.1476000547  -999.250000 1.2828999758
 963.82641602  -999.250000 13.360099792  -999.250000  -999.250000  -999.250000 51.974700928 178.23730469 1.1413999796  -999.250000 1.2657999992
 963.97882080  -999.250000 13.625699997  -999.250000  -999.250000  -999.250000 53.923301697 180.65238953 1.1360000372  -999.250000 1.2496999502
 964.13122559  -999.250000 13.391099930  -999.250000  -999.250000  -999.250000 54.643299103 182.20570374 1.1331000328  -999.250000 1.2581000328
 964.28363037  -999.250000 12.997400284  -999.250000  -999.250000  -999.250000 54.521099091 182.20669556 1.1274000406  -999.250000 1.2664999962
 964.43603516  -999.250000 12.868700027  -999.250000  -999.250000  -999.250000 54.387401581 181.38630676 1.1225999594  -999.250000 1.2654000521
 964.58843994  -999.250000 12.996100426  -999.250000  -999.250000  -999.250000 54.509498596 180.98150635 1.1239999533  -999.250000 1.2603000402
