# LAS format log file from PETREL
# Project units are specified as depth units
#==================================================================
~Version information
VERS.   2.0:
WRAP.   NO:
#==================================================================
~Well
STRT .m      1175.9671631 :
STOP .m      1726.7407227 :
STEP .m     0.00000000 :
NULL .        -999.250000 :
COMP.           : COMPANY
WELL.  16/1-6 A Verdandi Appr   : WELL
FLD.            : FIELD
LOC.            : LOCATION
SRVC.           : SERVICE COMPANY
DATE.  2018-09-11 14:48:05   : Log Export Date {yyyy-MM-dd HH:mm:ss}
PROV.           : PROVINCE
UWI.   16/1-6 A   : UNIQUE WELL ID
API.            : API NUMBER
#==================================================================
~Curve
DEPT .m                   : DEPTH
Lithology_geolink ._      : Lithology_geolink
CALI .in                  : CALI
BS .in                    : BS
NPHI .m3/m3               : NPHI
RHOB .g/cm3               : RHOB
PEF .b/e                  : PEF
GR .gAPI                  : GR
DTC .us/ft                : DTC
RDEP .ohm.m               : RDEP
RMED .ohm.m               : RMED
~Parameter
#==================================================================
~Ascii
# ...
 1431.9991455  -999.250000 8.7399997711 8.5000000000 0.4614000022 2.1085999012 3.3366000652 62.520565033 141.79537964 0.8229922652 0.8198941946
 1432.1514893  -999.250000 8.7399997711 8.5000000000 0.4526000023 2.0984001160 3.2936999798 63.102436066 139.88522339 0.8377881646 0.8322900534
 1432.3039551  -999.250000 8.7551002502 8.5000000000 0.4629999995 2.0801999569 3.2362999916 58.384979248 141.50151062 0.8598822951 0.8550817370
 1432.4562988  -999.250000 8.6871004105 8.5000000000 0.4745000005 2.0727000237 3.1772000790 55.353427887 141.84362793 0.8758871555 0.8767825961
 1432.6087646  -999.250000 8.7097997665 8.5000000000 0.4810000062 2.0729000568 3.1489000320 54.176841736 141.77125549 0.8655083179 0.8619118929
 1432.7611084  -999.250000 8.7060003281 8.5000000000 0.4496000111 2.0752999783 3.1570000648 57.561485291 141.50161743 0.8530099988 0.8505091071
 1432.9134521  -999.250000 8.6947002411 8.5000000000 0.4133999944 2.0599000454 3.1882998943 59.309600830 141.31430054 0.8362268806 0.8340263963
 1433.0659180  -999.250000 8.7173995972 8.5000000000 0.3903999925 2.0418999195 3.2086999416 58.334686279 141.48606873 0.8339018226 0.8278049231
 1433.2182617  -999.250000 8.6947002411 8.5000000000 0.4165999889 2.0332999229 3.2313001156 57.402992249 141.18676758 0.8481771350 0.8428757787
 1433.3707275  -999.250000 8.6417999268 8.5000000000 0.4081999958 2.0353000164 3.2720999718 56.926280975 139.07119751 0.8684837222 0.8611853123
 1433.5230713  -999.250000 8.6267004013 8.5000000000 0.4138999879 2.0320000648 3.3159999847 58.610797882 138.16635132 0.8866708279 0.8755769134
 1433.6755371  -999.250000 8.6267004013 8.5000000000 0.3838999867 2.0250000954 3.3283998966 55.577434540 140.78160095 0.9027871490 0.8951843381
 1433.8278809  -999.250000 8.6606998444 8.5000000000 0.3970000148 2.0269999504 3.3166000843 54.814708710 137.18318176 0.9279797673 0.9201799631
 1433.9803467  -999.250000 8.6833000183 8.5000000000 0.3916999996 2.0348999500 3.3062999249 55.735164642 137.23205566 0.9464851618 0.9387850761
 1434.1326904  -999.250000 8.6947002411 8.5000000000 0.3844000101 2.0378000736 3.2990000248 55.394775391 136.67524719 0.9526950717 0.9442955852
 1434.2851563  -999.250000 8.6719999313 8.5000000000 0.3898999989 2.0387001038 3.2888998985 55.931369781 136.52122498 0.9555976987 0.9494958520
 1434.4375000  -999.250000 8.6606998444 8.5000000000 0.3914000094 2.0383000374 3.2890999317 51.508747101 134.76290894 0.9576983452 0.9537965655
 1434.5899658  -999.250000 8.6644001007 8.5000000000 0.4025000036 2.0439000130 3.3002998829 53.834335327 134.71115112 0.9609974027 0.9600949287
 1434.7423096  -999.250000 8.6871004105 8.5000000000 0.3862999976 2.0434000492 3.3106000423 51.848194122 134.49617004 0.9667953253 0.9690927863
 1434.8946533  -999.250000 8.6795997620 8.5000000000 0.3702000082 2.0511000156 3.3046000004 55.167076111 135.65243530 0.9696953297 0.9734929800
 1435.0471191  -999.250000 8.6947002411 8.5000000000 0.3648999929 2.0573000908 3.3232998848 55.163108826 135.70875549 0.9888846278 0.9963816404
 1435.1994629  -999.250000 8.6833000183 8.5000000000 0.3865000010 2.0685000420 3.3747999668 58.196830750 136.92265320 0.9986843467 1.0057849884
 1435.3519287  -999.250000 8.6569004059 8.5000000000 0.4447999895 2.0815000534 3.4456999302 59.068706512 137.62834167 0.9748191237 0.9761238098
 1435.5042725  -999.250000 8.6795997620 8.5000000000 0.4670999944 2.0999999046 3.5095000267 58.962272644 141.27365112 0.9429510832 0.9423541427
 1435.6567383  -999.250000 8.6492996216 8.5000000000 0.4783999920 2.1143999100 3.5729999542 58.962100983 142.33573914 0.9162213802 0.9103256464
 1435.8090820  -999.250000 8.6267004013 8.5000000000 0.4623000026 2.1140000820 3.6656000614 59.427726746 142.41523743 0.8868235350 0.8772265315
 1435.9615479  -999.250000 8.6606998444 8.5000000000 0.4449999928 2.1031999588 3.7697999477 63.242443085 144.67318726 0.8766081929 0.8553175330
 1436.1138916  -999.250000 8.6492996216 8.5000000000 0.4309999943 2.0905001163 3.8548998833 64.166862488 141.99114990 0.8695056438 0.8471065760
 1436.2663574  -999.250000 8.6267004013 8.5000000000 0.4311999977 2.0913000107 3.9028000832 64.178291321 141.01147461 0.8597078919 0.8366084099
 1436.4187012  -999.250000 8.5812997818 8.5000000000 0.4411999881 2.1178998947 3.9421999454 63.962871552 141.24909973 0.8466104865 0.8243098259
 1436.5711670  -999.250000 8.5812997818 8.5000000000 0.4472000003 2.1477999687 4.0005998611 63.274253845 142.11401367 0.8375072479 0.8181049228
 1436.7235107  -999.250000 8.6040000916 8.5000000000 0.4393999875 2.1547999382 4.0422000885 61.643409729 142.01947021 0.8443944454 0.8253941536
 1436.8758545  -999.250000 8.6379995346 8.5000000000 0.4426999986 2.1310999393 4.0267000198 57.920471191 141.72756958 0.8602745533 0.8427721858
 1437.0283203  -999.250000 8.6379995346 8.5000000000 0.4228000045 2.1033000946 3.9711999893 56.720657349 141.34989929 0.8654958010 0.8504937887
 1437.1806641  -999.250000 8.6040000916 8.5000000000 0.4147999883 2.0738999844 3.9200999737 56.012134552 141.01185608 0.8781796694 0.8673729300
 1437.3331299  -999.250000 8.5888996124 8.5000000000 0.4368999898 2.0441000462 3.9161999226 58.465633392 141.38259888 0.8958858252 0.8804895282
 1437.4854736  -999.250000 8.5662002563 8.5000000000 0.4411999881 2.0190999508 3.9337999821 59.534191132 141.22566223 0.8684440255 0.8558395505
 1437.6379395  -999.250000 8.5812997818 8.5000000000 0.4582000077 2.0072000027 3.9574000835 59.894714355 139.08032227 0.8429204226 0.8315194845
 1437.7902832  -999.250000 8.5888996124 8.5000000000 0.4419000149 2.0116999149 3.9553999901 58.381114960 139.25994873 0.8178200722 0.8101171851
 1437.9427490  -999.250000 8.5812997818 8.5000000000 0.4368999898 2.0169999599 3.9381999969 60.794864655 141.94964600 0.7961173654 0.7918146849
 1438.0950928  -999.250000 8.5812997818 8.5000000000 0.4201000035 2.0290000439 3.9086000919 59.632335663 140.73887634 0.7872071266 0.7875034809
 1438.2475586  -999.250000 8.5812997818 8.5000000000 0.4167000055 2.0469999313 3.8810999393 59.505397797 137.79396057 0.7808051109 0.7831035256
 1438.3999023  -999.250000 8.5586004257 8.5000000000 0.4253000021 2.1712000370 3.8252999783 55.819156647 141.48704529 0.7755042315 0.7817011476
 1438.5523682  -999.250000 8.5699996948 8.5000000000 0.3966000080 2.4737999439 3.8333001137 51.034931183 145.30294800 0.7667070627 0.7870956659
 1438.7047119  -999.250000 8.6267004013 8.5000000000 0.3562999964 2.7486000061 3.9379000664 44.402812958 146.16781616 0.8022714257 0.8182750344
 1438.8571777  -999.250000 8.6417999268 8.5000000000 0.3815999925 2.7462000847 4.0433001518 40.088752747 145.75183105 0.8717443347 0.9139233828
 1439.0095215  -999.250000 8.6417999268 8.5000000000 0.4463999867 2.4697000980 4.0117001534 46.836185455 144.42816162 0.9465400577 0.9787480831
 1439.1618652  -999.250000 8.6267004013 8.5000000000 0.4921999872 2.1958999634 3.8482999802 53.345169067 148.08393860 0.8124152422 0.8290402293
 1439.3143311  -999.250000 8.6833000183 8.5000000000 0.4921000004 2.0899999142 3.6858000755 61.263359070 146.75746155 0.7110810876 0.7320775390
 1439.4666748  -999.250000 8.6719999313 8.5000000000 0.4568000138 2.0843999386 3.6033000946 61.628822327 146.71566772 0.7356604338 0.7405862212
 1439.6191406  -999.250000 8.7173995972 8.5000000000 0.4458999932 2.0875000954 3.5952000618 63.029277802 147.08001709 0.7560836673 0.7530899644
 1439.7714844  -999.250000 8.7249002457 8.5000000000 0.4221999943 2.0971999168 3.6593000889 60.712356567 147.14793396 0.7580983639 0.7556979060
 1439.9239502  -999.250000 8.7325000763 8.5000000000 0.4363999963 2.0989999771 3.7850999832 60.594001770 146.98074341 0.7589992881 0.7528023124
 1440.0762939  -999.250000 8.7325000763 8.5000000000 0.4634000063 2.1026000977 3.9172000885 60.244499207 143.92733765 0.7551031113 0.7492028475
 1440.2287598  -999.250000 8.7286996841 8.5000000000 0.4683000147 2.1031000614 3.9974000454 60.290401459 144.56858826 0.7476060390 0.7415061593
 1440.3811035  -999.250000 8.7060003281 8.5000000000 0.4693999887 2.1022000313 3.9856998920 60.746200562 143.19050598 0.7431035638 0.7358046174
