# LAS format log file from PETREL
# Project units are specified as depth units
#==================================================================
~Version information
VERS.   2.0:
WRAP.   NO:
#==================================================================
~Well
STRT .m      1175.9671631 :
STOP .m      1726.7407227 :
STEP .m     0.00000000 :
NULL .        -999.250000 :
COMP.           : COMPANY
WELL.  16/1-6 A Verdandi Appr   : WELL
FLD.            : FIELD
LOC.            : LOCATION
SRVC.           : SERVICE COMPANY
DATE.  2018-09-11 14:48:05   : Log Export Date {yyyy-MM-dd HH:mm:ss}
PROV.           : PROVINCE
UWI.   16/1-6 A   : UNIQUE WELL ID
API.            : API NUMBER
#==================================================================
~Curve
DEPT .m                   : DEPTH
Lithology_geolink ._      : Lithology_geolink
CALI .in                  : CALI
BS .in                    : BS
NPHI .m3/m3               : NPHI
RHOB .g/cm3               : RHOB
PEF .b/e                  : PEF
GR .gAPI                  : GR
DTC .us/ft                : DTC
RDEP .ohm.m               : RDEP
RMED .ohm.m               : RMED
~Parameter
#==================================================================
~Ascii
# ...
 1252.7767334  -999.250000 8.8836002350 8.5000000000 0.4792999923 1.9435000420 3.9381000996 54.856700897 145.77082825 1.0960631371 1.0661664009
 1252.9291992  -999.250000 8.8836002350 8.5000000000 0.5058000088 1.9658999443 3.8232998848 54.814098358 144.74052429 1.1309720278 1.1021711826
 1253.0815430  -999.250000 8.8760995865 8.5000000000 0.5016000271 1.9901000261 3.7934000492 54.768100739 142.24559021 1.1636476517 1.1364450455
 1253.2340088  -999.250000 8.8760995865 8.5000000000 0.4612999856 2.0150001049 3.8287999630 57.644699097 141.08973694 1.1896791458 1.1629787683
 1253.3863525  -999.250000 8.8873996735 8.5000000000 0.4417000115 2.0241999626 3.8907001019 59.683498383 140.40840149 1.2075713873 1.1822690964
 1253.5388184  -999.250000 8.8760995865 8.5000000000 0.4537000060 2.0195000172 3.8914000988 61.943801880 140.13063049 1.2047022581 1.1775038242
 1253.6911621  -999.250000 8.8760995865 8.5000000000 0.4731999934 2.0048999786 3.8290998936 59.796699524 140.14437866 1.1821181774 1.1571162939
 1253.8436279  -999.250000 8.8684997559 8.5000000000 0.4787000120 1.9888000488 3.7306001186 59.272998810 140.36351013 1.1622159481 1.1391143799
 1253.9959717  -999.250000 8.8534002304 8.5000000000 0.4823000133 1.9687000513 3.6584999561 58.923301697 140.83271790 1.1521080732 1.1272095442
 1254.1484375  -999.250000 8.8534002304 8.5000000000 0.5055999756 1.9479999542 3.6196999550 58.549098969 141.32229614 1.1435068846 1.1202056408
 1254.3007813  -999.250000 8.8534002304 8.5000000000 0.5231000185 1.9385000467 3.6017000675 55.985000610 142.32598877 1.1372050047 1.1139049530
 1254.4532471  -999.250000 8.8420000076 8.5000000000 0.5098999739 1.9377000332 3.5908000469 54.074298859 144.32479858 1.1143183708 1.0911182165
 1254.6055908  -999.250000 8.8420000076 8.5000000000 0.4839000106 1.9394999743 3.5810999870 56.362598419 145.15962219 1.0944160223 1.0696172714
 1254.7579346  -999.250000 8.8306999207 8.5000000000 0.4514000118 1.9291001558 3.5813999176 61.095798492 145.86706543 1.0658457279 1.0459378958
 1254.9104004  -999.250000 8.8458003998 8.5000000000 0.4762000144 1.9134000540 3.5913999081 61.374900818 146.23260498 1.0543091297 1.0324108601
 1255.0627441  -999.250000 8.8306999207 8.5000000000 0.4636000097 1.9054000378 3.6019001007 60.073600769 146.09323120 1.0532017946 1.0324000120
 1255.2152100  -999.250000 8.8156003952 8.5000000000 0.4602999985 1.9091999531 3.6133999825 55.702201843 146.16914368 1.0783798695 1.0556812286
 1255.3675537  -999.250000 8.8079996109 8.5000000000 0.4442000091 1.9234999418 3.6252000332 55.002899170 145.09883118 1.1134438515 1.0868500471
 1255.5200195  -999.250000 8.8004999161 8.5000000000 0.4941999912 1.9345999956 3.6364998817 53.040901184 144.82131958 1.1583640575 1.1328631639
 1255.6723633  -999.250000 8.8079996109 8.5000000000 0.5368000269 1.9456000328 3.6256999969 54.020198822 143.92601013 1.1709898710 1.1439911127
 1255.8248291  -999.250000 8.8004999161 8.5000000000 0.5677000284 1.9530999660 3.6228001118 54.835998535 142.58326721 1.1602087021 1.1350071430
 1255.9771729  -999.250000 8.8079996109 8.5000000000 0.5523999929 1.9621000290 3.6607999802 58.680500031 143.29544067 1.1541048288 1.1279057264
 1256.1296387  -999.250000 8.8193998337 8.5000000000 0.5054000020 1.9645999670 3.7578999996 58.621498108 144.83006287 1.1548993587 1.1296985149
 1256.2819824  -999.250000 8.8079996109 8.5000000000 0.4718999863 1.9618999958 3.8840000629 56.873298645 144.86537170 1.1518025398 1.1274018288
 1256.4344482  -999.250000 8.8079996109 8.5000000000 0.4889000058 1.9522999525 4.0040998459 55.126598358 145.77696228 1.1369118690 1.1098140478
 1256.5867920  -999.250000 8.8079996109 8.5000000000 0.5299999714 1.9400999546 4.0868000984 55.825901031 145.04997253 1.1088225842 1.0853196383
 1256.7392578  -999.250000 8.8079996109 8.5000000000 0.5403000116 1.9280999899 4.1259999275 58.427398682 144.84407043 1.0905146599 1.0657157898
 1256.8916016  -999.250000 8.8156003952 8.5000000000 0.5310000181 1.9134999514 4.1133999825 57.495098114 145.00746155 1.0845047235 1.0614035130
 1257.0439453  -999.250000 8.8079996109 8.5000000000 0.5274999738 1.9007999897 3.9953000546 56.250198364 145.12242126 1.0930861235 1.0687881708
 1257.1964111  -999.250000 8.7966995239 8.5000000000 0.5060999990 1.8950999975 3.7950000763 53.648700714 144.30895996 1.1016930342 1.0776928663
 1257.3487549  -999.250000 8.8156003952 8.5000000000 0.5205000043 1.9012000561 3.5859999657 51.711399078 145.31149292 1.1057934761 1.0826920271
 1257.5012207  -999.250000 8.8079996109 8.5000000000 0.4781999886 1.9131000042 3.4721000195 52.839801788 144.97827148 1.1136937141 1.0911931992
 1257.6535645  -999.250000 8.7854003906 8.5000000000 0.5227000117 1.9203000069 3.4398999214 53.305999756 144.72480774 1.1291751862 1.1084723473
 1257.8060303  -999.250000 8.7854003906 8.5000000000 0.4869000018 1.9207999706 3.4112000465 54.553600311 144.97219849 1.1451871395 1.1205903292
 1257.9583740  -999.250000 8.7966995239 8.5000000000 0.5127000213 1.9187999964 3.3482999802 52.106098175 144.70771790 1.1358075142 1.1113075018
 1258.1108398  -999.250000 8.7929000854 8.5000000000 0.4785999954 1.9171999693 3.3217999935 52.688899994 144.37565613 1.1224107742 1.0967116356
 1258.2631836  -999.250000 8.7854003906 8.5000000000 0.4738999903 1.9182000160 3.3740000725 53.187900543 143.96691895 1.1079115868 1.0808128119
 1258.4156494  -999.250000 8.7854003906 8.5000000000 0.4751999974 1.9272999763 3.4835000038 58.316001892 140.37687683 1.1151942015 1.0876945257
 1258.5679932  -999.250000 8.7966995239 8.5000000000 0.5067999959 1.9401999712 3.5880999565 58.994300842 140.29125977 1.1397802830 1.1090828180
 1258.7204590  -999.250000 8.7966995239 8.5000000000 0.4959999919 1.9552999735 3.6647000313 60.796398163 141.47805786 1.1538887024 1.1227890253
 1258.8728027  -999.250000 8.8004999161 8.5000000000 0.5151000023 1.9623999596 3.7513999939 58.757198334 140.43643188 1.1579966545 1.1282955408
 1259.0251465  -999.250000 8.8193998337 8.5000000000 0.4785999954 1.9699000120 3.8378000259 60.971500397 142.47290039 1.1640902758 1.1349892616
 1259.1776123  -999.250000 8.8079996109 8.5000000000 0.4821999967 1.9759000540 3.8915998936 60.641899109 140.59330750 1.1691958904 1.1410951614
 1259.3299561  -999.250000 8.8079996109 8.5000000000 0.4945999980 1.9805999994 3.8931000233 58.622398376 142.38989258 1.1760889292 1.1475896835
 1259.4824219  -999.250000 8.8004999161 8.5000000000 0.4787999988 1.9793000221 3.8173999786 59.692401886 142.36059570 1.1804964542 1.1518965960
 1259.6347656  -999.250000 8.7854003906 8.5000000000 0.5016000271 1.9709000587 3.7211999893 59.323299408 140.55169678 1.1812987328 1.1534974575
 1259.7872314  -999.250000 8.7854003906 8.5000000000 0.4528999925 1.9544999599 3.6619999409 60.447399139 140.90429688 1.1804007292 1.1533001661
 1259.9395752  -999.250000 8.8079996109 8.5000000000 0.4912000000 1.9287998676 3.7102999687 58.349601746 141.21530151 1.1779019833 1.1518012285
 1260.0920410  -999.250000 8.8193998337 8.5000000000 0.4697000086 1.9020999670 3.7992999554 55.125099182 141.92199707 1.1708056927 1.1456049681
 1260.2443848  -999.250000 8.8004999161 8.5000000000 0.4679000080 1.8897999525 3.8134999275 53.630901337 142.30119324 1.1584099531 1.1342091560
 1260.3968506  -999.250000 8.8079996109 8.5000000000 0.4293000102 1.8969000578 3.6831998825 50.677700043 144.54269409 1.1492073536 1.1241080761
 1260.5491943  -999.250000 8.7854003906 8.5000000000 0.4742000103 1.9170000553 3.5236999989 53.455398560 144.56979370 1.1400073767 1.1140080690
 1260.7016602  -999.250000 8.7777996063 8.5000000000 0.4844000041 1.9406001568 3.3993999958 55.436698914 144.24319458 1.1310071945 1.1044076681
 1260.8540039  -999.250000 8.7627000809 8.5000000000 0.4871000051 1.9624999762 3.3729000092 57.203498840 142.57150269 1.1249048710 1.1008028984
 1261.0063477  -999.250000 8.7475996017 8.5000000000 0.4512999952 1.9830000401 3.3859000206 57.786300659 142.85690308 1.1281948090 1.1056921482
 1261.1588135  -999.250000 8.7627000809 8.5000000000 0.4602000117 1.9970999956 3.4358000755 54.301601410 142.53590393 1.1317971945 1.1090972424
