# LAS format log file from PETREL
# Project units are specified as depth units
#==================================================================
~Version information
VERS.   2.0:
WRAP.   NO:
#==================================================================
~Well
STRT .m      410.00479126 :
STOP .m      2954.3227539 :
STEP .m     0.00000000 :
NULL .        -999.250000 :
COMP.           : COMPANY
WELL.  16/11-1 S   : WELL
FLD.            : FIELD
LOC.            : LOCATION
SRVC.           : SERVICE COMPANY
DATE.  2018-09-11 14:48:06   : Log Export Date {yyyy-MM-dd HH:mm:ss}
PROV.           : PROVINCE
UWI.   16/11-1 S   : UNIQUE WELL ID
API.            : API NUMBER
#==================================================================
~Curve
DEPT .m                   : DEPTH
Lithology_geolink ._      : Lithology_geolink
CALI .in                  : CALI
DRHO .g/cm3               : DRHO
NPHI .m3/m3               : NPHI
RHOB .g/cm3               : RHOB
GR .gAPI                  : GR
DTC .us/ft                : DTC
RDEP .ohm.m               : RDEP
RSHA .ohm.m               : RSHA
RMED .ohm.m               : RMED
~Parameter
#==================================================================
~Ascii
# ...
 2210.7631836 1.0000000000 12.406700134 0.0177999996 0.1313065588 2.4010999203 25.649499893 79.104698181  -999.250000 0.3971000016  -999.250000
 2210.9155273 1.0000000000 12.377499580 0.0183000006 0.1283048093 2.4065001011 23.838499069 78.941101074  -999.250000 0.4499000013  -999.250000
 2211.0678711 1.0000000000 12.365599632 0.0151000004 0.1306961626 2.4084999561 22.852300644 78.697196960  -999.250000 0.5874999762  -999.250000
 2211.2204590 1.0000000000 12.365099907 0.0196000002 0.1368000060 2.4005999565 21.641399384 78.436798096  -999.250000 0.5194000006  -999.250000
 2211.3728027 1.0000000000 12.364500046 0.0223999992 0.1424999982 2.4137001038 20.893100739 78.353599548  -999.250000 0.4232999980  -999.250000
 2211.5251465 1.0000000000 12.384100914 0.0119000003 0.1547803134 2.4177999496 19.803199768 78.593399048  -999.250000 0.4503000081  -999.250000
 2211.6774902 1.0000000000 12.403500557 0.0049999999 0.1457145810 2.4158000946 19.589300156 78.907699585  -999.250000 0.4898999929  -999.250000
 2211.8300781 1.0000000000 12.402199745 0.0096000005 0.1316999942 2.4189999104 19.705200195 79.079193115  -999.250000 0.5792000294  -999.250000
 2211.9824219 1.0000000000 12.371299744 0.0082000000 0.1281999946 2.4256999493 19.772699356 79.112403870  -999.250000 0.4941000044  -999.250000
 2212.1347656 1.0000000000 12.364600182 -0.000600000 0.1338908821 2.4121999741 19.667800903 79.134208679  -999.250000 0.5648000240  -999.250000
 2212.2871094 1.0000000000 12.381299973 -0.005100000 0.1326020807 2.4000000954 19.726400375 79.384590149  -999.250000 0.7012000084  -999.250000
 2212.4396973 1.0000000000 12.384901047 0.0020000001 0.1295000017 2.3914000988 21.205900192 79.924400330  -999.250000 0.6825000048  -999.250000
 2212.5920410 1.0000000000 12.437700272 0.0153000001 0.1247999966 2.4137001038 23.592500687 80.412696838  -999.250000 0.3993999958  -999.250000
 2212.7443848 1.0000000000 12.459699631 0.0062000002 0.1285939217 2.4361000061 25.603099823 80.400802612  -999.250000 0.4014999866  -999.250000
 2212.8967285 1.0000000000 12.465600014 0.0151000004 0.1295983940 2.4439001083 26.468700409 79.978401184  -999.250000 0.4074000120  -999.250000
 2213.0490723 1.0000000000 12.478599548 0.0266999993 0.1278028935 2.4400999546 26.088699341 79.254501343  -999.250000 0.6133999825  -999.250000
 2213.2016602 1.0000000000 12.440400124 0.0228000004 0.1336999983 2.4219999313 24.143999100 78.643600464  -999.250000 0.7947999835  -999.250000
 2213.3540039 1.0000000000 12.389300346 0.0221999995 0.1378932744 2.4260001183 22.569700241 78.578102112  -999.250000 0.4654000103  -999.250000
 2213.5063477 1.0000000000 12.396900177 0.0219999999 0.1360030472 2.4400000572 21.487400055 78.923103333  -999.250000 0.4566999972  -999.250000
 2213.6586914 1.0000000000 12.415699959 0.0107000005 0.1270144284 2.4507000446 20.901599884 79.290603638  -999.250000 0.6564000249  -999.250000
 2213.8112793 1.0000000000 12.431099892 0.0040000002 0.1168000028 2.4386000633 20.932600021 79.566497803  -999.250000 0.5296999812  -999.250000
 2213.9636230 1.0000000000 12.460900307 0.0068999999 0.1155000031 2.4268999100 21.569599152 79.533500671  -999.250000 0.6741999984  -999.250000
 2214.1159668 1.0000000000 12.377400398 0.0065000001 0.1208913550 2.4356999397 21.295900345 79.253402710  -999.250000 0.9643999934  -999.250000
 2214.2683105 1.0000000000 12.390399933 0.0162000004 0.1266907007 2.4368999004 20.474000931 79.019599915  -999.250000 0.7617999911  -999.250000
 2214.4208984 1.0000000000 12.406700134 0.0207000002 0.1322000027 2.4547998905 20.354799271 78.970901489  -999.250000 0.6193000078  -999.250000
 2214.5732422 1.0000000000 12.446299553 0.0043000001 0.1338000000 2.4219999313 20.934600830 79.356597900  -999.250000 0.5791000128  -999.250000
 2214.7255859 1.0000000000 12.412599564 0.0033000000 0.1383926421 2.3889000416 21.994100571 80.051399231  -999.250000 0.5450999737  -999.250000
 2214.8779297 1.0000000000 12.392000198 0.0035000001 0.1368025690 2.3812003136 22.860300064 80.528900146  -999.250000 0.4235000014  -999.250000
 2215.0302734 16.000000000 12.421500206 0.0002000000 0.1286131442 2.3898999691 23.703500748 80.157791138  -999.250000 0.3346999884  -999.250000
 2215.1828613 16.000000000 12.394600868 -0.001500000 0.1156999990 2.4451000690 23.817300797 78.819602966  -999.250000 0.4043999910  -999.250000
 2215.3352051 16.000000000 12.390399933 0.0049000001 0.1075131223 2.4811000824 23.808700562 77.052902222  -999.250000 0.7366999984  -999.250000
 2215.4875488 1.0000000000 12.409899712 0.0269000009 0.1060024053 2.4948999882 23.775499344 75.831901550  -999.250000 1.6638000011  -999.250000
 2215.6398926 1.0000000000 12.409299850 0.0148000000 0.1154847816 2.4419000149 23.036399841 76.020797729  -999.250000 1.6648000479  -999.250000
 2215.7924805 1.0000000000 12.448399544 0.0070000002 0.1453000009 2.3889999390 22.821199417 78.023902893  -999.250000 1.1694999933  -999.250000
 2215.9448242 1.0000000000 12.498299599 0.0071000000 0.1718000025 2.3629000187 22.572099686 80.839996338  -999.250000 0.4047000110  -999.250000
 2216.0971680 1.0000000000 12.427498817 0.0088999998 0.1747951955 2.3612000942 22.101299286 83.367897034  -999.250000 0.4110000134  -999.250000
 2216.2495117 1.0000000000 12.387200356 0.0109000001 0.1659142673 2.3668000698 21.808300018 85.136398315  -999.250000 0.3849000037  -999.250000
 2216.4020996 1.0000000000 12.406599998 0.0130000003 0.1543000042 2.3721001148 23.101699829 85.820610046  -999.250000 0.3923000097  -999.250000
 2216.5544434 1.0000000000 12.447400093 0.0197000001 0.1416999996 2.3882999420 24.949899673 85.257202148  -999.250000 0.3772999942  -999.250000
 2216.7067871 1.0000000000 12.445599556 0.0076000001 0.1371073574 2.4214999676 26.220399857 84.049400330  -999.250000 0.3621000051  -999.250000
 2216.8591309 1.0000000000 12.425099373 0.0092000002 0.1329067349 2.4309000969 27.208000183 82.542999268  -999.250000 0.4043000042  -999.250000
 2217.0114746 1.0000000000 12.396599770 0.0129000004 0.1223169863 2.4372999668 26.959499359 81.113403320  -999.250000 0.5019999743  -999.250000
 2217.1640625 1.0000000000 12.403900146 0.0085000005 0.1213999987 2.4337000847 26.222999573 80.141197205  -999.250000 0.5608000159  -999.250000
 2217.3164063 1.0000000000 12.423399925 0.0020000001 0.1241955236 2.4066998959 25.603500366 79.743400574  -999.250000 0.5182999969  -999.250000
 2217.4687500 1.0000000000 12.436100006 0.0006000000 0.1359810978 2.4100000858 24.338800430 79.480400085  -999.250000 0.5663999915  -999.250000
 2217.6210938 1.0000000000 12.442299843 0.0103000002 0.1468825340 2.4291999340 22.893499374 79.014099121  -999.250000 0.5264000297  -999.250000
 2217.7736816 1.0000000000 12.441799164 0.0190999992 0.1494999975 2.4465000629 22.186199188 78.320610046  -999.250000 0.6890000105  -999.250000
 2217.9260254 1.0000000000 12.439100266 0.0163000003 0.1484999955 2.4330999851 22.388399124 77.500198364  -999.250000 0.6589000225  -999.250000
 2218.0783691 1.0000000000 12.423399925 0.0108000003 0.1404129714 2.4282000065 23.440900803 76.695693970  -999.250000 0.5864999890  -999.250000
 2218.2307129 1.0000000000 12.420100212 0.0275999997 0.1415980756 2.4403998852 25.035900116 76.265502930  -999.250000 0.5774000287  -999.250000
 2218.3833008 1.0000000000 12.419599533 0.0485999994 0.1291999966 2.4637999535 25.860599518 76.112800598  -999.250000 0.9038000107  -999.250000
 2218.5356445 1.0000000000 12.357799530 0.0568999983 0.1252000034 2.4755001068 23.708400726 76.207603455  -999.250000 1.2069000006  -999.250000
 2218.6879883 1.0000000000 12.369400024 0.0419000015 0.1353836805 2.4491999149 22.225999832 76.961402893  -999.250000 1.0691000223  -999.250000
 2218.8403320 1.0000000000 12.633500099 0.0172000006 0.1480796486 2.4001998901 20.749200821 78.347602844  -999.250000 1.1786999702  -999.250000
 2218.9926758 1.0000000000 12.711500168 0.0093000000 0.1598810852 2.3714001179 19.882200241 80.499198914  -999.250000 0.8543000221  -999.250000
 2219.1452637 1.0000000000 12.769598961 0.0086000003 0.1659000069 2.3635001183 20.834600449 83.025299072  -999.250000 0.5996999741  -999.250000
