# LAS format log file from PETREL
# Project units are specified as depth units
#==================================================================
~Version information
VERS.   2.0:
WRAP.   NO:
#==================================================================
~Well
STRT .m      410.00479126 :
STOP .m      2954.3227539 :
STEP .m     0.00000000 :
NULL .        -999.250000 :
COMP.           : COMPANY
WELL.  16/11-1 S   : WELL
FLD.            : FIELD
LOC.            : LOCATION
SRVC.           : SERVICE COMPANY
DATE.  2018-09-11 14:48:06   : Log Export Date {yyyy-MM-dd HH:mm:ss}
PROV.           : PROVINCE
UWI.   16/11-1 S   : UNIQUE WELL ID
API.            : API NUMBER
#==================================================================
~Curve
DEPT .m                   : DEPTH
Lithology_geolink ._      : Lithology_geolink
CALI .in                  : CALI
DRHO .g/cm3               : DRHO
NPHI .m3/m3               : NPHI
RHOB .g/cm3               : RHOB
GR .gAPI                  : GR
DTC .us/ft                : DTC
RDEP .ohm.m               : RDEP
RSHA .ohm.m               : RSHA
RMED .ohm.m               : RMED
~Parameter
#==================================================================
~Ascii
# ...
 1331.7199707  -999.250000 13.454000473  -999.250000  -999.250000  -999.250000 55.254199982 176.38949585 0.6977999806  -999.250000 0.9068999887
 1331.8724365  -999.250000 13.395199776  -999.250000  -999.250000  -999.250000 54.305301666 174.95938110 0.6956999898  -999.250000 0.9006999731
 1332.0247803  -999.250000 13.216898918  -999.250000  -999.250000  -999.250000 53.884601593 174.56199646 0.6923000216  -999.250000 0.8981999755
 1332.1772461  -999.250000 13.039199829  -999.250000  -999.250000  -999.250000 55.798698425 173.66050720 0.6890000105  -999.250000 0.8970000148
 1332.3295898  -999.250000 13.021100044  -999.250000  -999.250000  -999.250000 58.386600494 172.71679688 0.6851999760  -999.250000 0.8957999945
 1332.4820557  -999.250000 13.621101379  -999.250000  -999.250000  -999.250000 59.128101349 173.78269958 0.6796000004  -999.250000 0.8945999742
 1332.6343994  -999.250000 13.952401161  -999.250000  -999.250000  -999.250000 59.216999054 175.03230286 0.6718000174  -999.250000 0.8934000134
 1332.7867432  -999.250000 13.969499588  -999.250000  -999.250000  -999.250000 58.028999329 175.99119568 0.6654999852  -999.250000 0.8921999931
 1332.9392090  -999.250000 13.953199387  -999.250000  -999.250000  -999.250000 56.522701263 176.33808899 0.6599000096  -999.250000 0.8934999704
 1333.0915527  -999.250000 13.827799797  -999.250000  -999.250000  -999.250000 55.024600983 176.35940552 0.6575999856  -999.250000 0.8978999853
 1333.2440186  -999.250000 13.795399666  -999.250000  -999.250000  -999.250000 54.874099731 177.97459412 0.6574000120  -999.250000 0.9023000002
 1333.3963623  -999.250000 14.073399544  -999.250000  -999.250000  -999.250000 53.513900757 180.36770630 0.6610999703  -999.250000 0.9067000151
 1333.5488281  -999.250000 14.069000244  -999.250000  -999.250000  -999.250000 51.852298737 183.04248047 0.6647999883  -999.250000 0.9110999703
 1333.7011719  -999.250000 13.787400246  -999.250000  -999.250000  -999.250000 50.752899170 185.79289246 0.6690000296  -999.250000 0.9154000282
 1333.8536377  -999.250000 13.717800140  -999.250000  -999.250000  -999.250000 50.609199524 187.25219727 0.6733000278  -999.250000 0.9197999835
 1334.0059814  -999.250000 13.921999931  -999.250000  -999.250000  -999.250000 51.903800964 185.38099670 0.6780999899  -999.250000 0.9241999984
 1334.1584473  -999.250000 13.936800003  -999.250000  -999.250000  -999.250000 52.284500122 182.67489624 0.6833000183  -999.250000 0.9246000051
 1334.3107910  -999.250000 13.879099846  -999.250000  -999.250000  -999.250000 52.506301880 179.94119263 0.6877999902  -999.250000 0.9250000119
 1334.4632568  -999.250000 13.673398972  -999.250000  -999.250000  -999.250000 53.483798981 178.20520020 0.6908000112  -999.250000 0.9254000187
 1334.6156006  -999.250000 13.451299667  -999.250000  -999.250000  -999.250000 57.084400177 178.85710144 0.6897000074  -999.250000 0.9258000255
 1334.7680664  -999.250000 13.290200233  -999.250000  -999.250000  -999.250000 58.755699158 181.25129700 0.6869999766  -999.250000 0.9277999997
 1334.9204102  -999.250000 13.241700172  -999.250000  -999.250000  -999.250000 58.698501587 183.41490173 0.6866999865  -999.250000 0.9314000010
 1335.0727539  -999.250000 13.206999779  -999.250000  -999.250000  -999.250000 56.848999023 183.96699524 0.6901000142  -999.250000 0.9348999858
 1335.2252197  -999.250000 13.214400291  -999.250000  -999.250000  -999.250000 55.411300659 182.70759583 0.6966999769  -999.250000 0.9383999705
 1335.3775635  -999.250000 13.560799599  -999.250000  -999.250000  -999.250000 56.894901276 180.53959656 0.6990000010  -999.250000 0.9419999719
 1335.5300293  -999.250000 13.706000328  -999.250000  -999.250000  -999.250000 58.341499329 179.71890259 0.7003999949  -999.250000 0.9455000162
 1335.6823730  -999.250000 13.782299995  -999.250000  -999.250000  -999.250000 58.757598877 180.54261780 0.7042000294  -999.250000 0.9495999813
 1335.8348389  -999.250000 13.913399696  -999.250000  -999.250000  -999.250000 59.244098663 182.47689819 0.7110999823  -999.250000 0.9553999901
 1335.9871826  -999.250000 13.586600304  -999.250000  -999.250000  -999.250000 62.652301788 184.32870483 0.7202000022  -999.250000 0.9611999989
 1336.1396484  -999.250000 13.439100266  -999.250000  -999.250000  -999.250000 65.140502930 185.61109924 0.7303000093  -999.250000 0.9671000242
 1336.2919922  -999.250000 13.327699661  -999.250000  -999.250000  -999.250000 64.485900879 186.45320129 0.7405999899  -999.250000 0.9731000066
 1336.4444580  -999.250000 13.248900414  -999.250000  -999.250000  -999.250000 62.351699829 184.38639832 0.7512000203  -999.250000 0.9792000055
 1336.5968018  -999.250000 13.489398956  -999.250000  -999.250000  -999.250000 62.356201172 181.68949890 0.7620999813  -999.250000 0.9851999879
 1336.7492676  -999.250000 13.827501297  -999.250000  -999.250000  -999.250000 61.321800232 181.08927917 0.7731999755  -999.250000 0.9908000231
 1336.9016113  -999.250000 13.825400352  -999.250000  -999.250000  -999.250000 59.029800415 179.73809814 0.7799000144  -999.250000 0.9911000133
 1337.0539551  -999.250000 13.861399651  -999.250000  -999.250000  -999.250000 55.575500488 177.12770081 0.7824000120  -999.250000 0.9915000200
 1337.2064209  -999.250000 13.977499962  -999.250000  -999.250000  -999.250000 55.234600067 177.27299500 0.7807999849  -999.250000 0.9919000268
 1337.3587646  -999.250000 13.890099525  -999.250000  -999.250000  -999.250000 55.669799805 178.47940063 0.7778999805  -999.250000 0.9922999740
 1337.5112305  -999.250000 13.827099800  -999.250000  -999.250000  -999.250000 55.958099365 178.44830322 0.7771000266  -999.250000 0.9926999807
 1337.6635742  -999.250000 13.748200417  -999.250000  -999.250000  -999.250000 58.931999207 179.41709900 0.7853000164  -999.250000 0.9930999875
 1337.8160400  -999.250000 13.637100220  -999.250000  -999.250000  -999.250000 60.966499329 181.25619507 0.7926999927  -999.250000 0.9934999943
 1337.9683838  -999.250000 13.570500374  -999.250000  -999.250000  -999.250000 60.634601593 182.48600769 0.7990000248  -999.250000 0.9966999888
 1338.1208496  -999.250000 13.590800285  -999.250000  -999.250000  -999.250000 60.348899841 182.22030640 0.8051999807  -999.250000 1.0060000420
 1338.2731934  -999.250000 13.563400269  -999.250000  -999.250000  -999.250000 60.035301208 182.19839478 0.8127999902  -999.250000 1.0154000521
 1338.4256592  -999.250000 13.492401123  -999.250000  -999.250000  -999.250000 60.271400452 182.59550476 0.8242999911  -999.250000 1.0247999430
 1338.5780029  -999.250000 13.492898941  -999.250000  -999.250000  -999.250000 60.742198944 182.96820068 0.8356999755  -999.250000 1.0252000093
 1338.7304688  -999.250000 13.513099670  -999.250000  -999.250000  -999.250000 60.995098114 183.08958435 0.8402000070  -999.250000 1.0255999565
 1338.8828125  -999.250000 13.458600044  -999.250000  -999.250000  -999.250000 62.427799225 183.05020142 0.8338000178  -999.250000 1.0256999731
 1339.0351563  -999.250000 13.216799736  -999.250000  -999.250000  -999.250000 61.226699829 182.87690735 0.8230000138  -999.250000 1.0111000538
 1339.1876221  -999.250000 13.177100182  -999.250000  -999.250000  -999.250000 59.328098297 182.75030518 0.8112000227  -999.250000 1.0068999529
 1339.3399658  -999.250000 13.177498817  -999.250000  -999.250000  -999.250000 58.871601105 182.79190063 0.8032000065  -999.250000 1.0073000193
 1339.4924316  -999.250000 13.283499718  -999.250000  -999.250000  -999.250000 58.638198853 182.95379639 0.7990000248  -999.250000 1.0075999498
 1339.6447754  -999.250000 13.419599533  -999.250000  -999.250000  -999.250000 58.387100220 182.74850464 0.8040000200  -999.250000 1.0080000162
 1339.7972412  -999.250000 13.536700249  -999.250000  -999.250000  -999.250000 58.192901611 181.87240601 0.8087999821  -999.250000 1.0083999634
 1339.9495850  -999.250000 13.472100258  -999.250000  -999.250000  -999.250000 58.893299103 178.88529968 0.8111000061  -999.250000 1.0088000298
 1340.1020508  -999.250000 13.334798813  -999.250000  -999.250000  -999.250000 61.969299316 175.04289246 0.8123000264  -999.250000 1.0091999769
