# LAS format log file from PETREL
# Project units are specified as depth units
#==================================================================
~Version information
VERS.   2.0:
WRAP.   NO:
#==================================================================
~Well
STRT .m      410.00479126 :
STOP .m      2954.3227539 :
STEP .m     0.00000000 :
NULL .        -999.250000 :
COMP.           : COMPANY
WELL.  16/11-1 S   : WELL
FLD.            : FIELD
LOC.            : LOCATION
SRVC.           : SERVICE COMPANY
DATE.  2018-09-11 14:48:06   : Log Export Date {yyyy-MM-dd HH:mm:ss}
PROV.           : PROVINCE
UWI.   16/11-1 S   : UNIQUE WELL ID
API.            : API NUMBER
#==================================================================
~Curve
DEPT .m                   : DEPTH
Lithology_geolink ._      : Lithology_geolink
CALI .in                  : CALI
DRHO .g/cm3               : DRHO
NPHI .m3/m3               : NPHI
RHOB .g/cm3               : RHOB
GR .gAPI                  : GR
DTC .us/ft                : DTC
RDEP .ohm.m               : RDEP
RSHA .ohm.m               : RSHA
RMED .ohm.m               : RMED
~Parameter
#==================================================================
~Ascii
# ...
 1459.7359619  -999.250000 15.485199928  -999.250000  -999.250000  -999.250000 19.184299469 160.52691650 0.5067915320  -999.250000 0.5973919034
 1459.8883057  -999.250000 15.484299660  -999.250000  -999.250000  -999.250000 18.696699142 160.51640320 0.5188806057  -999.250000 0.6077833772
 1460.0407715  -999.250000 15.483499527  -999.250000  -999.250000  -999.250000 18.518299103 160.50590515 0.5247952938  -999.250000 0.6181916595
 1460.1931152  -999.250000 15.482600212  -999.250000  -999.250000  -999.250000 19.034900665 160.49540710 0.5278950334  -999.250000 0.6285833716
 1460.3455811  -999.250000 15.481699944  -999.250000  -999.250000  -999.250000 21.381200790 160.48489380 0.5301981568  -999.250000 0.6389916539
 1460.4979248  -999.250000 15.480899811  -999.250000  -999.250000  -999.250000 23.621900558 160.47439575 0.5326960087  -999.250000 0.6493833661
 1460.6503906  -999.250000 15.479999542  -999.250000  -999.250000  -999.250000 24.592899323 160.46389771 0.5361971855  -999.250000 0.6597916484
 1460.8027344  -999.250000 15.479100227  -999.250000  -999.250000  -999.250000 25.525199890 160.45339966 0.5411959887  -999.250000 0.6701916456
 1460.9552002  -999.250000 15.478299141  -999.250000  -999.250000  -999.250000 26.347799301 160.44290161 0.5479945540  -999.250000 0.6805916429
 1461.1075439  -999.250000 15.477399826  -999.250000  -999.250000  -999.250000 27.170999527 160.43240356 0.5544947982  -999.250000 0.6909916401
 1461.2600098  -999.250000 15.477999687  -999.250000  -999.250000  -999.250000 27.993499756 160.42189026 0.5606950521  -999.250000 0.7053884864
 1461.4123535  -999.250000 15.317199707  -999.250000  -999.250000  -999.250000 28.436399460 160.41130066 0.5667951107  -999.250000 0.7229858637
 1461.5648193  -999.250000 15.067600250  -999.250000  -999.250000  -999.250000 28.443599701 160.40080261 0.5731948614  -999.250000 0.7405859232
 1461.7171631  -999.250000 15.132599831  -999.250000  -999.250000  -999.250000 29.351900101 160.39038086 0.5807939172  -999.250000 0.7582858205
 1461.8695068  -999.250000 15.065099716  -999.250000  -999.250000  -999.250000 30.462699890 160.37980652 0.5879884958  -999.250000 0.7639908791
 1462.0219727  -999.250000 15.013698578  -999.250000  -999.250000  -999.250000 31.569799423 160.36929321 0.5981918573  -999.250000 0.7621015310
 1462.1743164  -999.250000 15.042699814  -999.250000  -999.250000  -999.250000 32.367500305 160.35879517 0.6070857644  -999.250000 0.7601032257
 1462.3267822  -999.250000 15.003500938  -999.250000  -999.250000  -999.250000 32.624000549 160.34829712 0.6124956608  -999.250000 0.7581015825
 1462.4791260  -999.250000 15.003500938  -999.250000  -999.250000  -999.250000 31.993099213 160.33779907 0.6148961782  -999.250000 0.7561032176
 1462.6315918  -999.250000 15.031100273  -999.250000  -999.250000  -999.250000 31.018499374 160.32730103 0.6157993078  -999.250000 0.7528026104
 1462.7839355  -999.250000 15.109600067  -999.250000  -999.250000  -999.250000 29.736000061 160.31678772 0.6161996722  -999.250000 0.7488031983
 1462.9364014  -999.250000 15.221400261  -999.250000  -999.250000  -999.250000 27.864500046 160.30630493 0.6156004667  -999.250000 0.7448031902
 1463.0887451  -999.250000 15.370499611  -999.250000  -999.250000  -999.250000 25.991100311 160.29580688 0.6127023101  -999.250000 0.7408032417
 1463.2412109  -999.250000 15.519901276  -999.250000  -999.250000  -999.250000 24.958200455 160.28527832 0.6075041890  -999.250000 0.7369030714
 1463.3935547  -999.250000 15.502799988  -999.250000  -999.250000  -999.250000 24.552499771 160.27479553 0.6013049483  -999.250000 0.7376993299
 1463.5460205  -999.250000 15.475600243  -999.250000  -999.250000  -999.250000 24.051799774 160.26429749 0.5956045985  -999.250000 0.7405976653
 1463.6983643  -999.250000 15.466899872  -999.250000  -999.250000  -999.250000 23.274000168 160.25379944 0.5871068239  -999.250000 0.7434976697
 1463.8507080  -999.250000 15.467301369  -999.250000  -999.250000  -999.250000 22.662799835 160.24330139 0.5727230906  -999.250000 0.7434001565
 1464.0031738  -999.250000 15.467700005  -999.250000  -999.250000  -999.250000 22.268499374 160.23269653 0.5535153747  -999.250000 0.7329084277
 1464.1555176  -999.250000 15.468099594  -999.250000  -999.250000  -999.250000 21.874599457 160.22219849 0.5395224094  -999.250000 0.7223169804
 1464.3079834  -999.250000 15.468500137  -999.250000  -999.250000  -999.250000 21.755300522 160.21170044 0.5322058201  -999.250000 0.7170042396
 1464.4603271  -999.250000 15.468899727  -999.250000  -999.250000  -999.250000 22.138500214 160.20120239 0.5283062458  -999.250000 0.7192962766
 1464.6127930  -999.250000 15.469300270  -999.250000  -999.250000  -999.250000 22.929300308 160.19070435 0.5260018706  -999.250000 0.7215981483
 1464.7651367  -999.250000 15.469699860  -999.250000  -999.250000  -999.250000 24.091100693 160.18020630 0.5245012045  -999.250000 0.7237982154
 1464.9176025  -999.250000 15.470100403  -999.250000  -999.250000  -999.250000 25.649099350 160.16969299 0.5245000124  -999.250000 0.7260981798
 1465.0699463  -999.250000 15.470500946  -999.250000  -999.250000  -999.250000 27.263599396 160.15919495 0.5291962624  -999.250000 0.7283981442
 1465.2224121  -999.250000 15.470899582  -999.250000  -999.250000  -999.250000 28.982500076 160.14869690 0.5388922691  -999.250000 0.7305982113
 1465.3747559  -999.250000 15.471299171  -999.250000  -999.250000  -999.250000 30.702800751 160.13821411 0.5496913791  -999.250000 0.7328981757
 1465.5272217  -999.250000 15.471699715  -999.250000  -999.250000  -999.250000 31.447900772 160.12770081 0.5600916743  -999.250000 0.7351981401
 1465.6795654  -999.250000 15.472099304  -999.250000  -999.250000  -999.250000 31.795299530 160.11720276 0.5688929558  -999.250000 0.7377979159
 1465.8320313  -999.250000 15.472499847  -999.250000  -999.250000  -999.250000 32.142501831 160.10670471 0.5753948092  -999.250000 0.7406976819
 1465.9843750  -999.250000 15.472900391  -999.250000  -999.250000  -999.250000 32.537700653 160.09620667 0.5800962448  -999.250000 0.7435976863
 1466.1367188  -999.250000 15.473299980  -999.250000  -999.250000  -999.250000 33.081501007 160.08569336 0.5841934681  -999.250000 0.7464953661
 1466.2891846  -999.250000 15.473698616  -999.250000  -999.250000  -999.250000 34.724098206 160.07510376 0.5865980983  -999.250000 0.7516958117
 1466.4415283  -999.250000 15.474100113  -999.250000  -999.250000  -999.250000 36.460800171 160.06459045 0.5853021145  -999.250000 0.7568916678
 1466.5939941  -999.250000 15.474498749  -999.250000  -999.250000  -999.250000 37.416198730 160.05409241 0.5815030336  -999.250000 0.7620958090
 1466.7463379  -999.250000 15.474900246  -999.250000  -999.250000  -999.250000 36.564300537 160.04359436 0.5780056119  -999.250000 0.7672916651
 1466.8988037  -999.250000 15.475199699  -999.250000  -999.250000  -999.250000 36.464298248 160.03308105 0.5758017898  -999.250000 0.7723959088
 1467.0511475  -999.250000 15.475600243  -999.250000  -999.250000  -999.250000 35.692901611 160.02259827 0.5758000016  -999.250000 0.7772960663
 1467.2036133  -999.250000 15.475999832  -999.250000  -999.250000  -999.250000 34.837200165 160.01210022 0.5772988200  -999.250000 0.7804974318
 1467.3559570  -999.250000 15.476400375  -999.250000  -999.250000  -999.250000 35.297000885 160.00160217 0.5781992674  -999.250000 0.7836974263
 1467.5084229  -999.250000 15.476799965  -999.250000  -999.250000  -999.250000 35.340801239 160.18719482 0.5776004791  -999.250000 0.7868974209
 1467.6607666  -999.250000 15.477198601  -999.250000  -999.250000  -999.250000 34.976699829 160.40847778 0.5777997971  -999.250000 0.7900974154
 1467.8132324  -999.250000 15.477600098  -999.250000  -999.250000  -999.250000 35.280300140 160.62948608 0.5803979039  -999.250000 0.7932974100
 1467.9655762  -999.250000 15.477999687  -999.250000  -999.250000  -999.250000 35.795398712 160.85079956 0.5829979181  -999.250000 0.7964974642
 1468.1179199  -999.250000 15.478400230  -999.250000  -999.250000  -999.250000 35.355098724 161.07189941 0.5847971439  -999.250000 0.8009927869
