# LAS format log file from PETREL
# Project units are specified as depth units
#==================================================================
~Version information
VERS.   2.0:
WRAP.   NO:
#==================================================================
~Well
STRT .m      1175.9671631 :
STOP .m      1726.7407227 :
STEP .m     0.00000000 :
NULL .        -999.250000 :
COMP.           : COMPANY
WELL.  16/1-6 A Verdandi Appr   : WELL
FLD.            : FIELD
LOC.            : LOCATION
SRVC.           : SERVICE COMPANY
DATE.  2018-09-11 14:48:05   : Log Export Date {yyyy-MM-dd HH:mm:ss}
PROV.           : PROVINCE
UWI.   16/1-6 A   : UNIQUE WELL ID
API.            : API NUMBER
#==================================================================
~Curve
DEPT .m                   : DEPTH
Lithology_geolink ._      : Lithology_geolink
CALI .in                  : CALI
BS .in                    : BS
NPHI .m3/m3               : NPHI
RHOB .g/cm3               : RHOB
PEF .b/e                  : PEF
GR .gAPI                  : GR
DTC .us/ft                : DTC
RDEP .ohm.m               : RDEP
RMED .ohm.m               : RMED
~Parameter
#==================================================================
~Ascii
# ...
 1321.0520020  -999.250000 8.5246000290 8.5000000000 0.4144999981 2.1487998962 3.9370000362 61.527801514 138.35697937 1.0933932066 1.0630950928
 1321.2043457  -999.250000 8.5360002518 8.5000000000 0.3883999884 2.1405999660 3.8761000633 58.844299316 140.23210144 1.1259739399 1.0944747925
 1321.3568115  -999.250000 8.5473003387 8.5000000000 0.4061999917 2.1433000565 3.9058001041 60.696201324 139.68284607 1.0788377523 1.0473377705
 1321.5091553  -999.250000 8.5360002518 8.5000000000 0.4047999978 2.1442999840 4.0395002365 65.940803528 140.86895752 1.0351350307 1.0036350489
 1321.6616211  -999.250000 8.5360002518 8.5000000000 0.4217999876 2.1405000687 4.1620998383 71.555198669 141.70042419 1.0122183561 0.9813178778
 1321.8139648  -999.250000 8.5360002518 8.5000000000 0.4086999893 2.1324000359 4.2512998581 68.991203308 140.48147583 1.0075038671 0.9832983613
 1321.9664307  -999.250000 8.5208997726 8.5000000000 0.4201000035 2.1356000900 4.3080000877 66.194099426 138.16246033 1.0231875181 0.9929922223
 1322.1187744  -999.250000 8.5132999420 8.5000000000 0.4120999873 2.1659998894 4.4056000710 59.706298828 134.37454224 1.0493789911 1.0260735750
 1322.2712402  -999.250000 8.5019998550 8.5000000000 0.3553000093 2.2053000927 4.5237002373 53.412799835 132.72851563 1.1480209827 1.1271190643
 1322.4235840  -999.250000 8.4905996323 8.5000000000 0.3334999979 2.2290000916 4.5212001801 49.179100037 131.18933105 1.3352499008 1.3148496151
 1322.5759277  -999.250000 8.5019998550 8.5000000000 0.3230000138 2.2035000324 4.3814001083 49.261299133 129.91683960 1.4027918577 1.3718088865
 1322.7283936  -999.250000 8.5284004211 8.5000000000 0.3567000031 2.1698999405 4.2084999084 55.642398834 130.36373901 1.2233439684 1.2006373405
 1322.8807373  -999.250000 8.5360002518 8.5000000000 0.3750999868 2.1407999992 4.1606998444 60.109199524 129.76646423 1.1146740913 1.0932719707
 1323.0332031  -999.250000 8.5360002518 8.5000000000 0.3824000061 2.1405000687 4.2184000015 62.303100586 134.11421204 1.0643401146 1.0492352247
 1323.1855469  -999.250000 8.5434999466 8.5000000000 0.3998999894 2.1486999989 4.2884001732 63.052501678 132.52015686 1.0473271608 1.0304301977
 1323.3380127  -999.250000 8.5473003387 8.5000000000 0.4311000109 2.1612999439 4.3380999565 60.721599579 133.15399170 1.0421041250 1.0344966650
 1323.4903564  -999.250000 8.5434999466 8.5000000000 0.4422000051 2.1851000786 4.3762998581 61.324798584 132.91767883 1.0377036333 1.0366982222
 1323.6428223  -999.250000 8.5434999466 8.5000000000 0.4675000012 2.2309999466 4.4471001625 59.929698944 130.99903870 1.0525881052 1.0590821505
 1323.7951660  -999.250000 8.5246000290 8.5000000000 0.4099000096 2.2888000011 4.5093998909 55.384399414 129.93365479 1.1284391880 1.1403349638
 1323.9476318  -999.250000 8.4905996323 8.5000000000 0.3707999885 2.3306000233 4.4675002098 43.272499084 128.69419861 1.2601945400 1.3052679300
 1324.0999756  -999.250000 8.5057001114 8.5000000000 0.3165999949 2.3176999092 4.2620000839 37.770198822 125.69680023 1.4304635525 1.4896522760
 1324.2524414  -999.250000 8.5360002518 8.5000000000 0.3366999924 2.2676000595 3.9381999969 38.430999756 125.12115479 1.3113955259 1.3439168930
 1324.4047852  -999.250000 8.5434999466 8.5000000000 0.3662999868 2.2079999447 3.6389999390 50.172599792 125.47431946 1.0631989241 1.0818099976
 1324.5571289  -999.250000 8.5473003387 8.5000000000 0.4090000093 2.1719000340 3.4505999088 59.843498230 129.37124634 0.9896177053 0.9893479347
 1324.7095947  -999.250000 8.5586004257 8.5000000000 0.4162999988 2.1561999321 3.4181001186 65.688301086 131.71002197 0.9802074432 0.9753111601
 1324.8619385  -999.250000 8.5699996948 8.5000000000 0.4110000134 2.1484000683 3.5292999744 67.806800842 134.32690430 0.9595331550 0.9473448396
 1325.0144043  -999.250000 8.5360002518 8.5000000000 0.4144000113 2.1400001049 3.6786000729 66.407203674 134.03594971 0.9353193641 0.9200218916
 1325.1667480  -999.250000 8.5132999420 8.5000000000 0.4189999998 2.1477999687 3.7414999008 70.740402222 133.81855774 0.9050484896 0.8919450045
 1325.3192139  -999.250000 8.4566001892 8.5000000000 0.4266999960 2.1633999348 3.7446000576 67.923301697 133.94619751 0.9028018117 0.8892021179
 1325.4715576  -999.250000 8.4225997925 8.5000000000 0.4345000088 2.1789000034 3.7850000858 67.227500916 133.94200134 0.9179878235 0.9029889107
 1325.6240234  -999.250000 8.4225997925 8.5000000000 0.4273999929 2.1691000462 3.9105999470 64.418502808 135.95217896 0.9309895635 0.9138913155
 1325.7763672  -999.250000 8.4225997925 8.5000000000 0.4596999884 2.1549000740 4.0327000618 62.457199097 134.46669006 0.9408921003 0.9262900352
 1325.9288330  -999.250000 8.3697004318 8.5000000000 0.4322000146 2.1422998905 4.1075000763 63.389598846 138.47338867 0.9542892575 0.9378907084
 1326.0811768  -999.250000 8.3659000397 8.5000000000 0.4614999890 2.1319000721 4.1448998451 60.246398926 137.99948120 0.9600953460 0.9449943304
 1326.2336426  -999.250000 8.3545999527 8.5000000000 0.4296999872 2.1293001175 4.1532998085 66.760299683 137.58673096 0.9653957486 0.9489967823
 1326.3859863  -999.250000 8.3659000397 8.5000000000 0.4230000079 2.1328999996 4.1494998932 67.692703247 137.34109497 0.9958755374 0.9807745218
 1326.5383301  -999.250000 8.3432998657 8.5000000000 0.4259000123 2.1401000023 4.1480998993 65.952697754 138.14489746 1.0275492668 1.0098533630
 1326.6907959  -999.250000 8.3395004272 8.5000000000 0.4266000092 2.1421999931 4.1960000992 63.356201172 136.96804810 1.0455856323 1.0314826965
 1326.8431396  -999.250000 8.3318996429 8.5000000000 0.4334000051 2.1312999725 4.2933001518 62.983200073 136.42767334 1.0761510134 1.0653457642
 1326.9956055  -999.250000 8.3243999481 8.5000000000 0.3892000020 2.1275000572 4.4176998138 64.381698608 135.61315918 1.1161679029 1.1084654331
 1327.1479492  -999.250000 8.3092002869 8.5000000000 0.3889999986 2.1215000153 4.5366997719 63.507400513 134.54162598 1.1471503973 1.1331604719
 1327.3004150  -999.250000 8.2979001999 8.5000000000 0.3788999915 2.1238000393 4.5938000679 60.267501831 133.71147156 1.1667842865 1.1456899643
 1327.4527588  -999.250000 8.2866001129 8.5000000000 0.3736999929 2.1254999638 4.5851001740 58.381401062 134.70381165 1.1867840290 1.1647847891
 1327.6052246  -999.250000 8.3092002869 8.5000000000 0.3738999963 2.1236999035 4.5247998238 57.319698334 134.96748352 1.1900973320 1.1627017260
 1327.7575684  -999.250000 8.3318996429 8.5000000000 0.3824999928 2.1196999550 4.4331002235 56.135299683 135.12417603 1.1616228819 1.1338231564
 1327.9100342  -999.250000 8.3395004272 8.5000000000 0.3921999931 2.1110000610 4.3232998848 59.757301331 135.51458740 1.1587022543 1.1273052692
 1328.0623779  -999.250000 8.3621997833 8.5000000000 0.3783999979 2.1038999557 4.2119002342 60.340099335 135.65010071 1.1766855717 1.1449857950
 1328.2148438  -999.250000 8.3773002625 8.5000000000 0.3849999905 2.0968999863 4.1714000702 56.084098816 135.75071716 1.1909885406 1.1601878405
 1328.3671875  -999.250000 8.3545999527 8.5000000000 0.3806000054 2.0963997841 4.2266001701 56.096298218 136.08224487 1.1911998987 1.1596004963
 1328.5196533  -999.250000 8.3773002625 8.5000000000 0.3659999967 2.1087999344 4.3404998779 58.660400391 136.36216736 1.1687179804 1.1393162012
 1328.6719971  -999.250000 8.3773002625 8.5000000000 0.3567999899 2.1224999428 4.4347000122 62.902400970 136.10140991 1.1319293976 1.1072257757
 1328.8243408  -999.250000 8.3886003494 8.5000000000 0.3917999864 2.1303999424 4.4344000816 60.571399689 136.72729492 1.1050430536 1.0813415051
 1328.9768066  -999.250000 8.4301996231 8.5000000000 0.4212999940 2.1263000965 4.3424000740 56.987701416 138.43472290 1.0794204473 1.0599172115
 1329.1291504  -999.250000 8.4905996323 8.5000000000 0.4625999928 2.1208999157 4.2163000107 59.330200195 138.10623169 1.0599312782 1.0403313637
 1329.2816162  -999.250000 8.4905996323 8.5000000000 0.4431999922 2.1143999100 4.1479001045 62.593498230 137.88188171 1.0361191034 1.0163191557
 1329.4339600  -999.250000 8.4680004120 8.5000000000 0.4532000124 2.1089000702 4.1297998428 62.218799591 138.22364807 1.0239195824 1.0047185421
