# LAS format log file from PETREL
# Project units are specified as depth units
#==================================================================
~Version information
VERS.   2.0:
WRAP.   NO:
#==================================================================
~Well
STRT .m      2645.2697754 :
STOP .m      2924.0100098 :
STEP .m     0.00000000 :
NULL .        -999.250000 :
COMP.           : COMPANY
WELL.  16/1-2  Ivar Aasen Appr   : WELL
FLD.            : FIELD
LOC.            : LOCATION
SRVC.           : SERVICE COMPANY
DATE.  2018-09-11 14:48:05   : Log Export Date {yyyy-MM-dd HH:mm:ss}
PROV.           : PROVINCE
UWI.   16/1-2   : UNIQUE WELL ID
API.            : API NUMBER
#==================================================================
~Curve
DEPT .m                   : DEPTH
Lithology_geolink ._      : Lithology_geolink
CALI .in                  : CALI
BS .in                    : BS
MUDWEIGHT ._              : MUDWEIGHT
ROP .m/h                  : ROP
DRHO .g/cm3               : DRHO
NPHI .m3/m3               : NPHI
RHOB .g/cm3               : RHOB
GR .gAPI                  : GR
DTC .us/ft                : DTC
DTE .us/ft                : DTE
RDEP .ohm.m               : RDEP
SP .mV                    : SP
RSHA .ohm.m               : RSHA
RHOM .g/cm3               : RHOM
RMED .ohm.m               : RMED
~Parameter
#==================================================================
~Ascii
# ...
 2718.5744629 15.000000000 12.156999588 8.5000000000 9.8000001907 184509.17188 0.1230000034 0.1708600074 2.4943876266 63.520999908 60.759574890 60.670360565 8.0547885895 108.45557404 12.383000374 2.7999999523 12.383000374
 2718.7268066 6.0000000000 12.152999878 8.5000000000 9.8000001907 185595.25000 0.1129999980 0.1694400012 2.4888124466 71.301002502 59.472087860 59.472286224 7.2233333588 109.31262970 10.687000275 2.7999999523 10.687000275
 2718.8791504 6.0000000000 12.147998810 8.5000000000 9.8000001907 185622.46875 0.1089999974 0.1735899895 2.4855251312 81.714996338 59.031097412 59.086799622 6.3673720360 109.91104126 7.8179998398 2.7999999523 7.8179998398
 2719.0314941 6.0000000000 12.145000458 8.5000000000 9.8000001907 185645.68750 0.1150000021 0.1826600134 2.4811668396 95.577003479 60.638256073 60.641384125 5.5994610786 110.42734528 4.8480000496 2.7999999523 4.8480000496
 2719.1840820 6.0000000000 12.173000336 8.5000000000 9.8000001907 185673.39063 0.1209999993 0.1940999925 2.4709749222 109.41799927 64.694900513 64.673995972 4.9041118622 110.77045441 3.2690000534 2.7999999523 3.2690000534
 2719.3364258 7.0000000000 12.223999977 8.5000000000 9.8000001907 185696.40625 0.1129999980 0.2044200003 2.4578125477 123.26000214 69.719535828 69.668594360 4.2380671501 110.82590485 3.1960000992 2.7999999523 3.1960000992
 2719.4887695 7.0000000000 12.279000282 8.5000000000 9.8000001907 185723.96875 0.1000000015 0.2105500102 2.4557750225 137.10099792 73.208412170 73.121520996 3.7967066765 110.70619202 3.4860000610 2.7999999523 3.4860000610
 2719.6411133 7.0000000000 12.342000961 8.5000000000 9.8000001907 183793.06250 0.0869999975 0.2111800015 2.4746749401 150.23399353 73.728378296 73.682907104 3.5527808666 110.35911560 3.6700000763 2.7999999523 3.6700000763
 2719.7937012 7.0000000000 12.453000069 8.5000000000 9.8000001907 181627.79688 0.0790000036 0.2071499974 2.5086255074 173.20199585 72.713973999 72.758346558 3.3083910942 110.03851318 3.6059999466 2.7999999523 3.6059999466
 2719.9460449 7.0000000000 12.411999702 8.5000000000 9.8000001907 174652.29688 0.0700000003 0.2010100037 2.5442500114 199.16900635 72.224151611 72.247894287 3.1382725239 109.62167358 3.5250000954 2.7999999523 3.5250000954
 2720.0983887 7.0000000000 12.411999702 8.5000000000 9.8000001907 169269.34375 0.0599999987 0.1958499849 2.5664000511 237.48800659 72.105812073 72.099876404 3.0611236095 109.11880493 3.5030000210 2.7999999523 3.5030000210
 2720.2507324 7.0000000000 12.461001396 8.5000000000 9.8000001907 166249.40625 0.0359999985 0.1940800101 2.5612125397 250.91700745 72.297309875 72.349288940 3.0000977516 108.94328308 3.4040000439 2.7999999523 3.4040000439
 2720.4030762 7.0000000000 12.508000374 8.5000000000 9.8000001907 157909.32813 0.0060000001 0.1965800077 2.5377006531 245.87100220 72.923088074 73.012466431 2.9401919842 108.67186737 3.2079999447 2.7999999523 3.2079999447
 2720.5556641 7.0000000000 12.553001404 8.5000000000 9.8000001907 152718.92188 0.0160000008 0.2028000057 2.5214874744 216.60099792 73.489807129 73.536811829 2.8940737247 108.34352875 2.7780001163 2.7999999523 2.7780001163
 2720.7080078 7.0000000000 12.739000320 8.5000000000 9.8000001907 149826.75000 0.0320000015 0.2111700028 2.5096123219 186.89700317 74.785621643 74.789184570 2.8680417538 108.66149139 2.2999999523 2.7999999523 2.2999999523
 2720.8603516 7.0000000000 12.965000153 8.5000000000 9.8000001907 142782.07813 0.0489999987 0.2196599990 2.4858500957 157.12600708 77.408508301 77.373168945 2.8490304947 109.52262115 2.1059999466 2.7999999523 2.1059999466
 2721.0126953 7.0000000000 13.012000084 8.5000000000 9.8000001907 136204.89063 0.0659999996 0.2262599915 2.4632945061 140.44200134 80.315681458 80.284126282 2.8340480328 110.42012024 2.1019999981 2.7999999523 2.1019999981
 2721.1652832 7.0000000000 12.949000359 8.5000000000 9.8000001907 133522.68750 0.0780000016 0.2295800000 2.4544124603 137.77999878 82.076110840 82.106597900 2.8240158558 110.89025116 2.2560000420 2.7999999523 2.2560000420
 2721.3176270 6.0000000000 12.785000801 8.5000000000 9.8000001907 128496.05469 0.0540000014 0.2294599861 2.4502875805 137.99299622 81.848716736 81.829391479 2.8150143623 111.15457916 2.4820001125 2.7999999523 2.4820001125
 2721.4699707 6.0000000000 12.718000412 8.5000000000 9.8000001907 120938.21875 0.0329999998 0.2271261364 2.4519624710 136.01400757 79.610160828 79.611488342 2.8379631042 111.31973267 2.6819999218 2.7999999523 2.6819999218
 2721.6223145 6.0000000000 12.727001190 8.5000000000 9.8000001907 119716.44531 0.0460000001 0.2247192115 2.4648873806 132.40299988 77.127037048 77.197418213 2.8988046646 111.18842316 2.8570001125 2.7999999523 2.8570001125
 2721.7749023 6.0000000000 12.740999222 8.5000000000 9.8000001907 121324.37500 0.0640000030 0.2242383957 2.4811894894 128.24499512 75.724899292 75.812461853 2.9638957977 110.95337677 2.9800000191 2.7999999523 2.9800000191
 2721.9272461 6.0000000000 12.753999710 8.5000000000 9.8000001907 137209.45313 0.0799999982 0.2268592715 2.4907124043 123.75800323 74.995201111 75.013565063 3.0199103355 110.77028656 2.9560000896 2.7999999523 2.9560000896
 2722.0795898 6.0000000000 12.765999794 8.5000000000 9.8000001907 152132.39063 0.0549999997 0.2326526642 2.4843876362 120.65599823 75.173912048 75.177352905 3.0329792500 110.48445892 2.8110001087 2.7999999523 2.8110001087
 2722.2319336 6.0000000000 12.788000107 8.5000000000 9.8000001907 152997.48438 0.0540000014 0.2405531257 2.4672625065 118.75199890 76.471160889 76.528396606 3.0110352039 110.26435089 2.7090001106 2.7999999523 2.7090001106
 2722.3842773 6.0000000000 12.826999664 8.5000000000 9.8000001907 152295.46875 0.0989999995 0.2487303019 2.4601469040 117.74900055 78.139694214 78.120819092 2.9900672436 110.14837646 2.6909999847 2.7999999523 2.6909999847
 2722.5368652 6.0000000000 12.871000290 8.5000000000 9.8000001907 148900.84375 0.1379999965 0.2551593482 2.4623875618 116.68900299 79.631378174 79.569198608 2.9690337181 110.02120972 2.7449998856 2.7999999523 2.7449998856
 2722.6892090 6.0000000000 12.937999725 8.5000000000 9.8000001907 148925.68750 0.1199999973 0.2580672503 2.4565751553 112.37300110 80.417762756 80.405685425 2.9480335712 109.91616821 2.8570001125 2.7999999523 2.8570001125
 2722.8415527 6.0000000000 13.055999756 8.5000000000 9.8000001907 148951.68750 0.1080000028 0.2563395500 2.4500751495 108.71600342 80.087387085 80.061340332 2.9579839706 109.76324463 2.9679999352 2.7999999523 2.9679999352
 2722.9938965 6.0000000000 13.022000313 8.5000000000 9.8000001907 144453.37500 0.0710000023 0.2498031706 2.4587872028 106.91000366 78.976226807 78.977043152 3.0148177147 109.76100922 3.0490000248 2.7999999523 3.0490000248
 2723.1464844 6.0000000000 12.960000038 8.5000000000 9.8000001907 140707.51563 0.0740000010 0.2392677814 2.4828751087 103.62599945 77.604103088 77.639091492 3.0948717594 109.85485077 3.0950000286 2.7999999523 3.0950000286
 2723.2988281 6.0000000000 12.904001236 8.5000000000 9.8000001907 140731.75000 0.0719999969 0.2260958701 2.5013999939 97.773002625 76.246803284 76.276672363 3.1878509521 109.96881866 3.1240000725 2.7999999523 3.1240000725
 2723.4511719 6.0000000000 12.906000137 8.5000000000 9.8000001907 140758.25000 0.0729999989 0.2110426426 2.4991497993 89.021003723 75.590415955 75.518630981 3.3397562504 110.05486298 3.1410000324 2.7999999523 3.1410000324
 2723.6035156 6.0000000000 13.013999939 8.5000000000 9.8000001907 140782.15625 0.1010000035 0.1939680874 2.4942874908 80.253997803 75.278663635 75.231521606 3.6350526810 109.96428680 3.2139999866 2.7999999523 3.2139999866
 2723.7561035 15.000000000 13.118000031 8.5000000000 9.8000001907 145462.42188 0.1089999974 0.1740156561 2.4996831417 70.214996338 74.681182861 74.648872375 4.0782899857 109.91607666 3.5360000134 2.7999999523 3.5360000134
 2723.9084473 15.000000000 12.979999542 8.5000000000 9.8000001907 149127.78125 0.0599999987 0.1508187354 2.5134251118 58.645000458 72.821075439 72.850807190 4.9825496674 110.00086212 4.6040000916 2.7999999523 4.6040000916
 2724.0607910 15.000000000 12.867000580 8.5000000000 9.8000001907 202050.45313 0.0520000011 0.1250579953 2.5440001488 47.075000763 68.946739197 68.871444702 6.3038816452 110.18969727 7.3559999466 2.7999999523 7.3559999466
