# LAS format log file from PETREL
# Project units are specified as depth units
#==================================================================
~Version information
VERS.   2.0:
WRAP.   NO:
#==================================================================
~Well
STRT .m      2645.2697754 :
STOP .m      2924.0100098 :
STEP .m     0.00000000 :
NULL .        -999.250000 :
COMP.           : COMPANY
WELL.  16/1-2  Ivar Aasen Appr   : WELL
FLD.            : FIELD
LOC.            : LOCATION
SRVC.           : SERVICE COMPANY
DATE.  2018-09-11 14:48:05   : Log Export Date {yyyy-MM-dd HH:mm:ss}
PROV.           : PROVINCE
UWI.   16/1-2   : UNIQUE WELL ID
API.            : API NUMBER
#==================================================================
~Curve
DEPT .m                   : DEPTH
Lithology_geolink ._      : Lithology_geolink
CALI .in                  : CALI
BS .in                    : BS
MUDWEIGHT ._              : MUDWEIGHT
ROP .m/h                  : ROP
DRHO .g/cm3               : DRHO
NPHI .m3/m3               : NPHI
RHOB .g/cm3               : RHOB
GR .gAPI                  : GR
DTC .us/ft                : DTC
DTE .us/ft                : DTE
RDEP .ohm.m               : RDEP
SP .mV                    : SP
RSHA .ohm.m               : RSHA
RHOM .g/cm3               : RHOM
RMED .ohm.m               : RMED
~Parameter
#==================================================================
~Ascii
# ...
 2825.7119141 13.000000000 8.0690002441 8.5000000000 9.0000000000 501723.09375 0.1209999993 0.1195628494 2.4438335896 149.99317932 67.438255310 67.503341675 2.9940946102 90.926002502 5.9379916191 2.6550908089 5.9379916191
 2825.8642578 13.000000000 8.0459995270 8.5000000000 9.0000000000 501700.09375 0.1110000014 0.1204511225 2.4351375103 149.10925293 67.873825073 67.893676758 2.9560608864 90.641998291 6.2479376793 2.6546745300 6.2479376793
 2826.0166016 13.000000000 8.0319995880 8.5000000000 9.0000000000 499605.87500 0.0939999968 0.1211504117 2.4211001396 147.38964844 67.876335144 67.824935913 2.9510080814 90.364997864 6.8325958252 2.6545000076 6.8325958252
 2826.1689453 13.000000000 8.0550003052 8.5000000000 9.0000000000 481631.09375 0.0939999968 0.1214094013 2.4178750515 144.68212891 67.229049683 67.192276001 2.9569904804 90.267997742 7.2036952972 2.6547505856 7.2036952972
 2826.3212891 13.000000000 8.0690002441 8.5000000000 9.0000000000 451281.31250 0.0970000029 0.1210385412 2.4233610630 142.89332581 66.692504883 66.620819092 2.9609870911 90.328002930 7.0134148598 2.6553084850 7.0134148598
 2826.4738770 13.000000000 8.0959997177 8.5000000000 9.0000000000 442775.09375 0.0939999968 0.1201264411 2.4210875034 143.09474182 66.503395081 66.433593750 2.9889552593 90.642997742 6.6492114067 2.6555581093 6.6492114067
 2826.6262207 13.000000000 8.0950002670 8.5000000000 9.0000000000 439361.12500 0.0909999982 0.1190186962 2.4077749252 142.70161438 66.387359619 66.417739868 3.0469069481 91.143997192 6.7159810066 2.6554162502 6.7159810066
 2826.7785645 13.000000000 8.0909996033 8.5000000000 9.0000000000 439335.71875 0.0710000023 0.1181997433 2.3918874264 139.34167480 66.215362549 66.303695679 3.1089005470 91.510002136 7.3276491165 2.6553835869 7.3276491165
 2826.9309082 13.000000000 8.0769996643 8.5000000000 9.0000000000 444485.50000 0.0799999982 0.1180411652 2.3872592449 137.27087402 65.798416138 65.871307373 3.1498689651 91.629997253 7.7315959930 2.6557087898 7.7315959930
 2827.0834961 13.000000000 8.0439996719 8.5000000000 9.0000000000 473091.18750 0.0790000036 0.1187749580 2.3943750858 139.70181274 65.043708801 65.102256775 3.1899359226 91.463996887 7.4781823158 2.6528630257 7.4781823158
 2827.2358398 13.000000000 8.0299997330 8.5000000000 9.0000000000 587387.00000 0.0930000022 0.1203233451 2.4034249783 145.24963379 64.570671082 64.594795227 3.2459104061 91.085998535 6.9113864899 2.6486253738 6.9113864899
 2827.3881836 13.000000000 8.0059995651 8.5000000000 9.0000000000 622972.81250 0.1010000035 0.1224135235 2.4090125561 145.01455688 64.993049622 65.005889893 3.3098974228 90.710998535 6.5292868614 2.6518533230 6.5292868614
 2827.5405273 13.000000000 8.0089998245 8.5000000000 9.0000000000 629645.93750 0.0949999988 0.1246130019 2.4198000431 139.74993896 65.947052002 66.008201599 3.3488752842 90.588996887 6.7090129852 2.6560165882 6.7090129852
 2827.6931152 13.000000000 8.0270004272 8.5000000000 9.0000000000 634562.31250 0.1159999967 0.1264841557 2.4527575970 137.84675598 66.543296814 66.522018433 3.3599822521 90.710998535 7.3420863152 2.6558582783 7.3420863152
 2827.8454590 13.000000000 8.0329999924 8.5000000000 9.0000000000 636454.00000 0.1360000074 0.1277812868 2.4874250889 139.95602417 66.414070129 66.393836975 3.3400318623 90.833000183 7.9923720360 2.6556744576 7.9923720360
 2827.9978027 13.000000000 8.0329999924 8.5000000000 9.0000000000 638709.87500 0.1369999945 0.1285809726 2.4949250221 142.47297668 65.880737305 65.899360657 3.2880835533 90.788002014 8.2234582901 2.6547052860 8.2234582901
 2828.1501465 13.000000000 8.0340003967 8.5000000000 9.0000000000 638709.87500 0.1239999980 0.1291811764 2.4856250286 146.20303345 65.171928406 65.221176147 3.1931524277 90.377998352 7.8851237297 2.6508440971 7.8851237297
 2828.3024902 13.000000000 8.0340003967 8.5000000000 9.0000000000 685276.18750 0.1140000001 0.1299114525 2.4780025482 149.34346008 65.052391052 65.041160583 3.1062784195 89.655998230 7.3381714821 2.6470000744 7.3381714821
 2828.4550781 13.000000000 8.0229997635 8.5000000000 9.0000000000 725486.18750 0.1099999994 0.1308118999 2.4757251740 149.62188721 65.668762207 65.602836609 3.0560801029 88.975997925 6.8204126358 2.6486313343 6.8204126358
 2828.6074219 13.000000000 8.0019998550 8.5000000000 9.0000000000 734101.56250 0.1110000014 0.1313990951 2.4754624367 148.64581299 66.506835938 66.503486633 2.9950976372 88.678001404 6.3252902031 2.6513600349 6.3252902031
 2828.7597656 13.000000000 7.9530000687 8.5000000000 9.0000000000 734101.56250 0.1260000020 0.1308262348 2.4686625004 146.04130554 67.378150940 67.420120239 2.9410865307 88.611999512 5.8823413849 2.6520419121 5.8823413849
 2828.9121094 13.000000000 7.9349999428 8.5000000000 9.0000000000 733064.18750 0.1070000008 0.1284734160 2.4499273300 144.36048889 68.152992249 68.159523010 2.9001312256 88.610000610 5.4717102051 2.6519329548 5.4717102051
 2829.0646973 13.000000000 7.9789996147 8.5000000000 9.0000000000 719252.18750 0.0850000009 0.1243537739 2.4330999851 145.91082764 68.588912964 68.650871277 2.9149758816 88.647003174 5.2921104431 2.6519508362 5.2921104431
 2829.2170410 13.000000000 8.0069999695 8.5000000000 9.0000000000 677221.37500 0.1010000035 0.1192921624 2.4375748634 146.16207886 68.948898315 68.961723328 2.9479470253 88.620002747 5.6393542290 2.6530528069 5.6393542290
 2829.3693848 13.000000000 8.0139999390 8.5000000000 9.0000000000 565613.12500 0.1350000054 0.1144041196 2.4552750587 141.84458923 69.077461243 69.071250916 2.9619774818 88.765998840 6.4851922989 2.6545183659 6.4851922989
 2829.5217285 13.000000000 8.0129995346 8.5000000000 9.0000000000 535023.00000 0.1529999971 0.1107367873 2.4665999413 137.84288025 68.481208801 68.590698242 2.9919040203 88.914001465 7.8529534340 2.6550166607 7.8529534340
 2829.6743164 13.000000000 8.0139999390 8.5000000000 9.0000000000 535522.93750 0.1519999951 0.1087288186 2.4664192200 134.65187073 67.018455505 67.099876404 3.0628862381 88.732002258 9.0699291229 2.6544816494 9.0699291229
 2829.8266602 13.000000000 8.0159997940 8.5000000000 9.0000000000 539170.56250 0.1410000026 0.1083615273 2.4608125687 136.48619080 65.252510071 65.248001099 3.1488621235 88.374000549 9.0467395782 2.6536071301 9.0467395782
 2829.9790039 13.000000000 8.0139999390 8.5000000000 9.0000000000 595462.37500 0.1169999987 0.1093132198 2.4545373917 139.72705078 63.974613190 63.920814514 3.2059087753 87.786003113 8.2598075867 2.6532418728 8.2598075867
 2830.1313477 13.000000000 8.0030002594 8.5000000000 9.0000000000 617972.37500 0.0900000036 0.1113246754 2.4475374222 142.24287415 63.532238007 63.537311554 3.1590752602 87.478996277 7.5163769722 2.6534671783 7.5163769722
 2830.2836914 13.000000000 8.0229997635 8.5000000000 9.0000000000 617972.37500 0.0949999988 0.1142458767 2.4457473755 142.78826904 64.127777100 64.150382996 3.0832431316 87.536003113 7.1276583672 2.6538667679 7.1276583672
 2830.4362793 13.000000000 8.0620002747 8.5000000000 9.0000000000 617972.37500 0.0890000015 0.1179229617 2.4481248856 144.83636475 65.102775574 65.067535400 3.0310833454 87.436996460 6.9134926796 2.6542255878 6.9134926796
 2830.5886230 13.000000000 8.0290002823 8.5000000000 9.0000000000 610610.18750 0.1019999981 0.1219662204 2.4447624683 148.38908386 65.702613831 65.743080139 2.9621105194 87.357002258 6.4430432320 2.6544001102 6.4430432320
 2830.7409668 13.000000000 7.9899997711 8.5000000000 9.0000000000 606343.62500 0.1230000034 0.1258449554 2.4399375916 155.28907776 66.424087524 66.492050171 2.8891170025 87.382003784 5.8465785980 2.6543581486 5.8465785980
 2830.8933105 13.000000000 7.9789996147 8.5000000000 9.0000000000 621155.81250 0.1330000013 0.1289430410 2.4420084953 155.33425903 67.377578735 67.401962280 2.8501245975 87.483001709 5.5842518806 2.6544251442 5.5842518806
 2831.0458984 13.000000000 7.9789996147 8.5000000000 9.0000000000 902298.25000 0.1389999986 0.1308417022 2.4503250122 151.74145508 68.242713928 68.264846802 2.8499999046 87.834999084 5.7415924072 2.6546835899 5.7415924072
 2831.1982422 13.000000000 7.9869999886 8.5000000000 9.0000000000 962113.62500 0.1389999986 0.1313688308 2.4586999416 145.64880371 68.827262878 68.879364014 2.8519968987 88.237998962 5.9261717796 2.6546745300 5.9261717796
