# LAS format log file from PETREL
# Project units are specified as depth units
#==================================================================
~Version information
VERS.   2.0:
WRAP.   NO:
#==================================================================
~Well
STRT .m      410.00479126 :
STOP .m      2954.3227539 :
STEP .m     0.00000000 :
NULL .        -999.250000 :
COMP.           : COMPANY
WELL.  16/11-1 S   : WELL
FLD.            : FIELD
LOC.            : LOCATION
SRVC.           : SERVICE COMPANY
DATE.  2018-09-11 14:48:06   : Log Export Date {yyyy-MM-dd HH:mm:ss}
PROV.           : PROVINCE
UWI.   16/11-1 S   : UNIQUE WELL ID
API.            : API NUMBER
#==================================================================
~Curve
DEPT .m                   : DEPTH
Lithology_geolink ._      : Lithology_geolink
CALI .in                  : CALI
DRHO .g/cm3               : DRHO
NPHI .m3/m3               : NPHI
RHOB .g/cm3               : RHOB
GR .gAPI                  : GR
DTC .us/ft                : DTC
RDEP .ohm.m               : RDEP
RSHA .ohm.m               : RSHA
RMED .ohm.m               : RMED
~Parameter
#==================================================================
~Ascii
# ...
 700.17437744  -999.250000 13.294100761  -999.250000  -999.250000  -999.250000 64.171401978 181.57800293 0.8776000142  -999.250000 1.1894999743
 700.32678223  -999.250000 13.304100037  -999.250000  -999.250000  -999.250000 66.526199341 180.36999512 0.8773999810  -999.250000 1.1926000118
 700.47918701  -999.250000 13.490400314  -999.250000  -999.250000  -999.250000 70.671302795 179.74929810 0.8773000240  -999.250000 1.1953999996
 700.63159180  -999.250000 13.432399750  -999.250000  -999.250000  -999.250000 71.345199585 179.50090027 0.8770999908  -999.250000 1.1952999830
 700.78399658  -999.250000 13.631500244  -999.250000  -999.250000  -999.250000 68.859497070 179.61599731 0.8769000173  -999.250000 1.1952999830
 700.93640137  -999.250000 13.573900223  -999.250000  -999.250000  -999.250000 66.295997620 179.31390381 0.8766999841  -999.250000 1.1952999830
 701.08880615  -999.250000 13.446498871  -999.250000  -999.250000  -999.250000 63.825500488 178.51319885 0.8766000271  -999.250000 1.1951999664
 701.24121094  -999.250000 13.342700005  -999.250000  -999.250000  -999.250000 62.896999359 177.49969482 0.8992999792  -999.250000 1.1952999830
 701.39361572  -999.250000 13.416199684  -999.250000  -999.250000  -999.250000 63.588199615 176.08419800 0.9293000102  -999.250000 1.1952999830
 701.54602051  -999.250000 13.027199745  -999.250000  -999.250000  -999.250000 63.383300781 174.20249939 0.9546999931  -999.250000 1.1952999830
 701.69842529  -999.250000 13.015199661  -999.250000  -999.250000  -999.250000 64.362503052 172.49290466 0.9800999761  -999.250000 1.1953999996
 701.85083008  -999.250000 13.001099586  -999.250000  -999.250000  -999.250000 67.326400757 170.82009888 0.9887999892  -999.250000 1.2115999460
 702.00323486  -999.250000 13.035300255  -999.250000  -999.250000  -999.250000 68.195198059 169.15710449 0.9649999738  -999.250000 1.2316000462
 702.15557861  -999.250000 13.076099396  -999.250000  -999.250000  -999.250000 67.050697327 167.83329773 0.9574999809  -999.250000 1.2516000271
 702.30798340  -999.250000 13.043199539  -999.250000  -999.250000  -999.250000 65.254096985 166.83410645 0.9577000141  -999.250000 1.2705999613
 702.46038818  -999.250000 13.304400444  -999.250000  -999.250000  -999.250000 63.882900238 165.71652222 0.9578999877  -999.250000 1.2892999649
 702.61279297  -999.250000 13.391799927  -999.250000  -999.250000  -999.250000 63.420200348 164.44531250 0.9581000209  -999.250000 1.3056999445
 702.76519775  -999.250000 13.311598778  -999.250000  -999.250000  -999.250000 62.761501312 163.26899719 0.9700999856  -999.250000 1.3090000153
 702.91760254  -999.250000 13.272499084  -999.250000  -999.250000  -999.250000 63.572700500 162.34919739 1.0030000210  -999.250000 1.3123999834
 703.07000732  -999.250000 13.188600540  -999.250000  -999.250000  -999.250000 65.564697266 161.70950317 1.0357999802  -999.250000 1.3145999908
 703.22241211  -999.250000 12.966899872  -999.250000  -999.250000  -999.250000 64.725898743 161.45390320 1.0686999559  -999.250000 1.3111000061
 703.37481689  -999.250000 13.003999710  -999.250000  -999.250000  -999.250000 62.881999969 161.86650085 1.0873999596  -999.250000 1.3076000214
 703.52722168  -999.250000 13.036199570  -999.250000  -999.250000  -999.250000 62.473701477 162.49859619 1.1002000570  -999.250000 1.3080999851
 703.67962646  -999.250000 13.189900398  -999.250000  -999.250000  -999.250000 62.781700134 163.16979980 1.1131000519  -999.250000 1.3158999681
 703.83203125  -999.250000 13.208200455  -999.250000  -999.250000  -999.250000 63.947498322 163.94610596 1.1188999414  -999.250000 1.3237999678
 703.98443604  -999.250000 12.997900009  -999.250000  -999.250000  -999.250000 64.743202209 164.59100342 1.1018999815  -999.250000 1.3315999508
 704.13677979  -999.250000 12.785099983  -999.250000  -999.250000  -999.250000 65.567298889 165.17289734 1.0774999857  -999.250000 1.3301000595
 704.28918457  -999.250000 12.703001022  -999.250000  -999.250000  -999.250000 66.704597473 166.38240051 1.0434000492  -999.250000 1.3201999664
 704.44158936  -999.250000 12.685400009  -999.250000  -999.250000  -999.250000 66.388999939 168.01289368 1.0131000280  -999.250000 1.3101999760
 704.59399414  -999.250000 12.667899132  -999.250000  -999.250000  -999.250000 65.655403137 169.79870605 1.0003999472  -999.250000 1.3009999990
 704.74639893  -999.250000 12.805998802  -999.250000  -999.250000  -999.250000 64.658500671 171.60249329 1.0005999804  -999.250000 1.2925000191
 704.89880371  -999.250000 12.852000237  -999.250000  -999.250000  -999.250000 62.390399933 173.35292053 0.9696999788  -999.250000 1.2840000391
 705.05120850  -999.250000 12.827900887  -999.250000  -999.250000  -999.250000 61.347999573 174.97630310 0.9610999823  -999.250000 1.2755999565
 705.20361328  -999.250000 12.763699532  -999.250000  -999.250000  -999.250000 61.640499115 176.52041626 0.9613000154  -999.250000 1.2696000338
 705.35601807  -999.250000 12.855500221  -999.250000  -999.250000  -999.250000 62.301700592 178.06060791 0.9614999890  -999.250000 1.2635999918
 705.50842285  -999.250000 13.023900032  -999.250000  -999.250000  -999.250000 63.805400848 179.71609497 0.8733999729  -999.250000 1.2576999664
 705.66082764  -999.250000 13.275698662  -999.250000  -999.250000  -999.250000 67.664398193 181.06680298 0.8102999926  -999.250000 1.2436000109
 705.81323242  -999.250000 13.355299950  -999.250000  -999.250000  -999.250000 72.245101929 181.90551758 0.8404999971  -999.250000 1.2265000343
 705.96563721  -999.250000 12.929300308  -999.250000  -999.250000  -999.250000 73.883003235 182.13670349 0.8472999930  -999.250000 1.2088999748
 706.11804199  -999.250000 12.537500381  -999.250000  -999.250000  -999.250000 69.056297302 181.85820007 0.8646000028  -999.250000 1.1905000210
 706.27038574  -999.250000 12.517700195  -999.250000  -999.250000  -999.250000 65.928100586 180.95359802 0.8820000291  -999.250000 1.1805000305
 706.42279053  -999.250000 12.661499977  -999.250000  -999.250000  -999.250000 65.107597351 179.54669189 0.8831999898  -999.250000 1.1963000298
 706.57519531  -999.250000 12.582699776  -999.250000  -999.250000  -999.250000 65.376502991 177.74639893 0.8833000064  -999.250000 1.2121000290
 706.72760010  -999.250000 12.506999969  -999.250000  -999.250000  -999.250000 66.340301514 175.73170471 0.8834999800  -999.250000 1.2289999723
 706.88000488  -999.250000 12.654398918  -999.250000  -999.250000  -999.250000 66.533798218 173.63240051 0.9027000070  -999.250000 1.2569999695
 707.03240967  -999.250000 13.016699791  -999.250000  -999.250000  -999.250000 65.009101868 172.04389954 0.9229000211  -999.250000 1.2849999666
 707.18481445  -999.250000 13.011900902  -999.250000  -999.250000  -999.250000 63.674701691 171.14280701 1.0003999472  -999.250000 1.3018000126
 707.33721924  -999.250000 13.016900063  -999.250000  -999.250000  -999.250000 64.831497192 170.85169983 1.0420999527  -999.250000 1.3111000061
 707.48962402  -999.250000 13.024000168  -999.250000  -999.250000  -999.250000 66.796699524 170.88630676 1.0836000443  -999.250000 1.3136999607
 707.64202881  -999.250000 13.089200020  -999.250000  -999.250000  -999.250000 66.412902832 170.76170349 1.0837999582  -999.250000 1.3077000380
 707.79443359  -999.250000 12.949500084  -999.250000  -999.250000  -999.250000 64.444198608 170.37030029 1.0670000315  -999.250000 1.3016999960
 707.94683838  -999.250000 12.694599152  -999.250000  -999.250000  -999.250000 63.650199890 170.20500183 1.0394999981  -999.250000 1.2950999737
 708.09924316  -999.250000 12.305899620  -999.250000  -999.250000  -999.250000 62.286899567 170.45289612 1.0053999424  -999.250000 1.2831000090
 708.25164795  -999.250000 12.548000336  -999.250000  -999.250000  -999.250000 60.360500336 171.01429749 1.0283999443  -999.250000 1.2793999910
 708.40399170  -999.250000 13.018600464  -999.250000  -999.250000  -999.250000 59.460498810 171.88021851 1.0376000404  -999.250000 1.2854000330
 708.55639648  -999.250000 13.016400337  -999.250000  -999.250000  -999.250000 59.101200104 172.73159790 1.0149999857  -999.250000 1.2913999557
