# LAS format log file from PETREL
# Project units are specified as depth units
#==================================================================
~Version information
VERS.   2.0:
WRAP.   NO:
#==================================================================
~Well
STRT .m      410.00479126 :
STOP .m      2954.3227539 :
STEP .m     0.00000000 :
NULL .        -999.250000 :
COMP.           : COMPANY
WELL.  16/11-1 S   : WELL
FLD.            : FIELD
LOC.            : LOCATION
SRVC.           : SERVICE COMPANY
DATE.  2018-09-11 14:48:06   : Log Export Date {yyyy-MM-dd HH:mm:ss}
PROV.           : PROVINCE
UWI.   16/11-1 S   : UNIQUE WELL ID
API.            : API NUMBER
#==================================================================
~Curve
DEPT .m                   : DEPTH
Lithology_geolink ._      : Lithology_geolink
CALI .in                  : CALI
DRHO .g/cm3               : DRHO
NPHI .m3/m3               : NPHI
RHOB .g/cm3               : RHOB
GR .gAPI                  : GR
DTC .us/ft                : DTC
RDEP .ohm.m               : RDEP
RSHA .ohm.m               : RSHA
RMED .ohm.m               : RMED
~Parameter
#==================================================================
~Ascii
# ...
 1835.2495117 9.0000000000 14.238101006 0.0031000001 0.2401815802 2.2230308056 7.0300002098 92.057800293  -999.250000 0.4648999870  -999.250000
 1835.4019775 9.0000000000 14.424900055 0.0029000000 0.2499921471 2.2198026180 6.7887001038 92.618400574  -999.250000 0.4501999915  -999.250000
 1835.5543213 9.0000000000 14.189700127 0.0040000002 0.2654751837 2.2105147839 6.1942000389 92.868499756  -999.250000 0.4447000027  -999.250000
 1835.7067871 9.0000000000 14.114299774 0.0124000004 0.2826862335 2.2108998299 6.0679998398 92.919998169  -999.250000 0.4855000079  -999.250000
 1835.8591309 9.0000000000 14.111499786 0.0052000000 0.2915857434 2.2182881832 5.8260998726 92.719299316  -999.250000 0.5471000075  -999.250000
 1836.0115967 9.0000000000 14.168299675 0.0063999998 0.2836064100 2.2230961323 5.8214998245 92.297897339  -999.250000 0.5220000148  -999.250000
 1836.1639404 9.0000000000 14.170099258 0.0166999996 0.2714097798 2.2477803230 5.6838998795 91.888908386  -999.250000 0.5112000108  -999.250000
 1836.3164063 9.0000000000 14.189799309 0.0131000001 0.2635063231 2.2420046329 5.5750999451 91.710296631  -999.250000 0.4643999934  -999.250000
 1836.4687500 9.0000000000 14.207400322 0.0038999999 0.2637997568 2.2212166786 5.8074002266 91.668502808  -999.250000 0.4458000064  -999.250000
 1836.6212158 9.0000000000 14.377400398 0.0049000001 0.2618016005 2.2129065990 5.5657000542 91.874900818  -999.250000 0.4821000099  -999.250000
 1836.7735596 9.0000000000 14.411600113 0.0055999998 0.2592020929 2.2108016014 4.9373998642 92.018898010  -999.250000 0.4830000103  -999.250000
 1836.9260254 9.0000000000 14.223099709 0.0078999996 0.2694917321 2.2109000683 4.6491999626 91.978805542  -999.250000 0.5026999712  -999.250000
 1837.0783691 9.0000000000 14.308198929 0.0098999999 0.2705990970 2.2209918499 4.0496001244 91.799697876  -999.250000 0.5469999909  -999.250000
 1837.2307129 9.0000000000 14.213700294 0.0124000004 0.2620137632 2.2240951061 3.8875999451 91.543403625  -999.250000 0.5192000270  -999.250000
 1837.3831787 9.0000000000 14.262499809 0.0153999999 0.2558000088 2.2269976139 4.5234999657 91.265197754  -999.250000 0.5044999719  -999.250000
 1837.5355225 9.0000000000 14.259599686 0.0094999997 0.2565000057 2.2290966511 5.2673997879 91.135299683  -999.250000 0.5134000182  -999.250000
 1837.6879883 9.0000000000 14.175299644 0.0035000001 0.2490999997 2.2227053642 5.8568000793 91.164299011  -999.250000 0.5090000033  -999.250000
 1837.8403320 9.0000000000 14.258199692 0.0041000000 0.2560999990 2.2237982750 6.0022997856 91.415000916  -999.250000 0.4896000028  -999.250000
 1837.9927979 9.0000000000 14.128700256 0.0100999996 0.2576000094 2.2287960052 5.9976000786 91.847000122  -999.250000 0.4587000012  -999.250000
 1838.1451416 9.0000000000 14.144700050 0.0129000004 0.2736999989 2.2293994427 6.1795997620 92.313102722  -999.250000 0.3937000036  -999.250000
 1838.2976074 9.0000000000 14.220800400 0.0135000004 0.2788999975 2.2042202950 6.2252998352 92.710800171  -999.250000 0.3939999938  -999.250000
 1838.4499512 9.0000000000 14.274399757 0.0218000002 0.2775999904 2.1990039349 6.0254998207 93.034103394  -999.250000 0.4113000035  -999.250000
 1838.6024170 9.0000000000 14.141500473 0.0281000007 0.2781000137 2.2053949833 5.9788999557 93.377601624  -999.250000 0.4577000141  -999.250000
 1838.7547607 9.0000000000 14.192799568 0.0044000000 0.2786999941 2.1860156059 6.4140000343 93.745697021  -999.250000 0.4756000042  -999.250000
 1838.9072266 9.0000000000 14.130398750 0.0026000000 0.2711000144 2.1857001781 6.8870000839 93.981498718  -999.250000 0.4320000112  -999.250000
 1839.0595703 9.0000000000 14.093400002 0.0099999998 0.2799000144 2.1922948360 6.6763000488 94.113800049  -999.250000 0.4194000065  -999.250000
 1839.2119141 9.0000000000 14.185200691 0.0201999992 0.2806999981 2.2077751160 5.8083000183 94.134002686  -999.250000 0.4485000074  -999.250000
 1839.3643799 9.0000000000 14.279600143 0.0167999994 0.2786000073 2.2128958702 5.2445001602 94.090599060  -999.250000 0.4972999990  -999.250000
 1839.5167236 9.0000000000 14.354299545 0.0165999997 0.2824999988 2.2117018700 5.4766001701 94.194099426  -999.250000 0.5113000274  -999.250000
 1839.6691895 9.0000000000 14.314299583 0.0142000001 0.2890999913 2.2074999809 5.5862998962 94.510902405  -999.250000 0.4239999950  -999.250000
 1839.8215332 9.0000000000 14.329600334 0.0157999992 0.2849000096 2.1967000961 5.9713997841 94.894096375  -999.250000 0.4043000042  -999.250000
 1839.9739990 9.0000000000 14.342900276 0.0215000007 0.2748999894 2.1998999119 6.0553002357 95.321098328  -999.250000 0.4167999923  -999.250000
 1840.1263428 9.0000000000 14.360799789 0.0245999992 0.2851999998 2.1974000931 6.1691999435 95.612503052  -999.250000 0.4034000039  -999.250000
 1840.2788086 9.0000000000 14.480299950 0.0060999999 0.3032000065 2.1919999123 6.4015998840 95.577003479  -999.250000 0.4844999909  -999.250000
 1840.4311523 9.0000000000 14.491701126 -0.000400000 0.3019999862 2.1995999813 6.1482000351 95.289993286  -999.250000 0.5279999971  -999.250000
 1840.5836182 9.0000000000 14.475499153 -0.000300000 0.3001999855 2.1968998909 5.4352002144 94.803001404  -999.250000 0.4557000101  -999.250000
 1840.7359619 9.0000000000 14.475198746 0.0018000000 0.3064000010 2.1960000992 5.2020998001 94.277702332  -999.250000 0.4451999962  -999.250000
 1840.8884277 9.0000000000 14.481599808 -0.000200000 0.3046999872 2.1961998940 4.9601998329 94.019699097  -999.250000 0.4178999960  -999.250000
 1841.0407715 9.0000000000 14.420399666 -0.002200000 0.3021000028 2.1961998940 4.9857997894 93.890304565  -999.250000 0.4866999984  -999.250000
 1841.1932373 9.0000000000 14.445798874 -0.006700000 0.3043000102 2.1961998940 5.1880002022 93.865699768  -999.250000 0.4630999863  -999.250000
 1841.3455811 9.0000000000 14.456999779 -0.007200000 0.3061000109 2.1840999126 5.2216000557 93.937103271  -999.250000 0.4163999856  -999.250000
 1841.4979248 9.0000000000 14.468600273 -0.004500000 0.2955999970 2.1861000061 5.4156999588 93.979591370  -999.250000 0.3849000037  -999.250000
 1841.6503906 9.0000000000 14.487999916 -0.000400000 0.3021999896 2.1872000694 5.4109997749 93.926696777  -999.250000 0.4343000054  -999.250000
 1841.8027344 9.0000000000 14.488499641 0.0023000001 0.3050999939 2.1872999668 5.4063000679 93.961997986  -999.250000 0.4715000093  -999.250000
 1841.9552002 9.0000000000 14.593000412 0.0043000001 0.2998999953 2.2044000626 5.4015998840 93.929397583  -999.250000 0.4440000057  -999.250000
 1842.1075439 9.0000000000 14.574799538 0.0078999996 0.2739000022 2.2169001102 5.6340999603 93.673896790  -999.250000 0.4517000020  -999.250000
 1842.2600098 9.0000000000 14.504899025 0.0167999994 0.2840000093 2.2174999714 5.6918001175 93.187301636  -999.250000 0.5213000178  -999.250000
 1842.4123535 9.0000000000 14.478999138 0.0105999997 0.2899999917 2.2125999928 6.0988998413 92.514602661  -999.250000 0.5827000141  -999.250000
 1842.5648193 9.0000000000 14.471501350 0.0027999999 0.2815999985 2.2162001133 5.7859001160 91.699401855  -999.250000 0.5857999921  -999.250000
 1842.7171631 9.0000000000 14.415800095 0.0057999999 0.2811000049 2.2228000164 5.4587998390 91.065605164  -999.250000 0.5547000170  -999.250000
 1842.8696289 9.0000000000 14.344599724 0.0114000002 0.2804999948 2.2444999218 5.3575000763 90.790199280  -999.250000 0.5235999823  -999.250000
 1843.0219727 9.0000000000 14.243300438 0.0085000005 0.2754000127 2.2497999668 5.1487998962 90.768501282  -999.250000 0.4988000095  -999.250000
 1843.1744385 9.0000000000 14.251099586 0.0049000001 0.2746999860 2.2374000549 5.5704002380 90.993797302  -999.250000 0.5198000073  -999.250000
 1843.3267822 9.0000000000 14.301699638 0.0063999998 0.2669000030 2.2388999462 5.9654002190 91.317001343  -999.250000 0.5708000064  -999.250000
 1843.4791260 9.0000000000 14.301499367 0.0043000001 0.2626999915 2.2355000973 6.0661997795 91.557601929  -999.250000 0.6351000071  -999.250000
 1843.6315918 9.0000000000 14.240599632 0.0107000005 0.2522000074 2.2314999104 6.5357999802 91.768402100  -999.250000 0.6272000074  -999.250000
