# LAS format log file from PETREL
# Project units are specified as depth units
#==================================================================
~Version information
VERS.   2.0:
WRAP.   NO:
#==================================================================
~Well
STRT .m      410.00479126 :
STOP .m      2954.3227539 :
STEP .m     0.00000000 :
NULL .        -999.250000 :
COMP.           : COMPANY
WELL.  16/11-1 S   : WELL
FLD.            : FIELD
LOC.            : LOCATION
SRVC.           : SERVICE COMPANY
DATE.  2018-09-11 14:48:06   : Log Export Date {yyyy-MM-dd HH:mm:ss}
PROV.           : PROVINCE
UWI.   16/11-1 S   : UNIQUE WELL ID
API.            : API NUMBER
#==================================================================
~Curve
DEPT .m                   : DEPTH
Lithology_geolink ._      : Lithology_geolink
CALI .in                  : CALI
DRHO .g/cm3               : DRHO
NPHI .m3/m3               : NPHI
RHOB .g/cm3               : RHOB
GR .gAPI                  : GR
DTC .us/ft                : DTC
RDEP .ohm.m               : RDEP
RSHA .ohm.m               : RSHA
RMED .ohm.m               : RMED
~Parameter
#==================================================================
~Ascii
# ...
 828.19036865  -999.250000 12.852800369  -999.250000  -999.250000  -999.250000 57.065971375 187.83474731 1.0912023783  -999.250000 1.3181023598
 828.34277344  -999.250000 12.609399796  -999.250000  -999.250000  -999.250000 57.161361694 188.43984985 1.0857021809  -999.250000 1.3074042797
 828.49517822  -999.250000 12.606699944  -999.250000  -999.250000  -999.250000 55.260662079 188.99198914 1.0840007067  -999.250000 1.2968043089
 828.64758301  -999.250000 12.865500450  -999.250000  -999.250000  -999.250000 54.948925018 191.24401855 1.0935962200  -999.250000 1.2861043215
 828.79998779  -999.250000 13.220199585  -999.250000  -999.250000  -999.250000 56.422309875 194.31491089 1.1098934412  -999.250000 1.2858000994
 828.95233154  -999.250000 12.963298798  -999.250000  -999.250000  -999.250000 56.473159790 196.79820251 1.1184930801  -999.250000 1.2888975143
 829.10473633  -999.250000 13.228599548  -999.250000  -999.250000  -999.250000 55.685630798 197.30700684 1.1199988127  -999.250000 1.2919975519
 829.25714111  -999.250000 12.969800949  -999.250000  -999.250000  -999.250000 54.682304382 196.81809998 1.1186010838  -999.250000 1.2895020247
 829.40954590  -999.250000 13.095799446  -999.250000  -999.250000  -999.250000 53.944992065 194.72860718 1.1122026443  -999.250000 1.2853016853
 829.56195068  -999.250000 12.462900162  -999.250000  -999.250000  -999.250000 54.775669098 191.86819458 1.1076017618  -999.250000 1.2831008434
 829.71435547  -999.250000 12.502300262  -999.250000  -999.250000  -999.250000 58.023498535 189.88859558 1.1094993353  -999.250000 1.2865985632
 829.86676025  -999.250000 12.815899849  -999.250000  -999.250000  -999.250000 57.589374542 189.43089294 1.1203955412  -999.250000 1.2900985479
 830.01916504  -999.250000 12.937299728  -999.250000  -999.250000  -999.250000 56.617889404 188.57080078 1.1251981258  -999.250000 1.2833027840
 830.17156982  -999.250000 13.181299210  -999.250000  -999.250000  -999.250000 55.695068359 187.76499939 1.1248000860  -999.250000 1.2705050707
 830.32397461  -999.250000 13.010299683  -999.250000  -999.250000  -999.250000 54.908218384 187.74589539 1.1186025143  -999.250000 1.2643024921
 830.47637939  -999.250000 13.266500473  -999.250000  -999.250000  -999.250000 55.097225189 189.38450623 1.1012068987  -999.250000 1.2697978020
 830.62878418  -999.250000 13.129899979  -999.250000  -999.250000  -999.250000 54.789722443 191.35739136 1.0901044607  -999.250000 1.2894921303
 830.78118896  -999.250000 13.195300102  -999.250000  -999.250000  -999.250000 54.569889069 192.53889465 1.0814034939  -999.250000 1.2800037861
 830.93359375  -999.250000 13.445899963  -999.250000  -999.250000  -999.250000 55.199848175 194.67430115 1.0741029978  -999.250000 1.2692042589
 831.08593750  -999.250000 13.429100037  -999.250000  -999.250000  -999.250000 55.206497192 195.53662109 1.0676052570  -999.250000 1.2601072788
 831.23834229  -999.250000 13.406000137  -999.250000  -999.250000  -999.250000 57.465988159 193.56239319 1.0576080084  -999.250000 1.2618985176
 831.39074707  -999.250000 13.012701035  -999.250000  -999.250000  -999.250000 60.510162354 191.70269775 1.0461091995  -999.250000 1.2635986805
 831.54315186  -999.250000 12.570599556  -999.250000  -999.250000  -999.250000 60.535491943 190.23970032 1.0382032394  -999.250000 1.2653993368
 831.69555664  -999.250000 12.572899818  -999.250000  -999.250000  -999.250000 60.491920471 188.04580688 1.0395994186  -999.250000 1.2671992779
 831.84796143  -999.250000 12.861101151  -999.250000  -999.250000  -999.250000 60.958614349 187.02859497 1.0489962101  -999.250000 1.2685993910
 832.00036621  -999.250000 13.231100082  -999.250000  -999.250000  -999.250000 61.441204071 186.05529785 1.0637940168  -999.250000 1.2684000731
 832.15277100  -999.250000 13.017800331  -999.250000  -999.250000  -999.250000 60.964591980 183.77110291 1.0749955177  -999.250000 1.2682001591
 832.30517578  -999.250000 13.259599686  -999.250000  -999.250000  -999.250000 58.591850281 181.09609985 1.0805977583  -999.250000 1.2679001093
 832.45758057  -999.250000 13.439000130  -999.250000  -999.250000  -999.250000 55.634983063 178.51860046 1.0812997818  -999.250000 1.2677000761
 832.60998535  -999.250000 13.468199730  -999.250000  -999.250000  -999.250000 53.503955841 176.49420166 1.0779013634  -999.250000 1.2648011446
 832.76239014  -999.250000 13.697099686  -999.250000  -999.250000  -999.250000 51.950820923 175.70979309 1.0707029104  -999.250000 1.2606016397
 832.91479492  -999.250000 13.548600197  -999.250000  -999.250000  -999.250000 50.877029419 176.19129944 1.0652021170  -999.250000 1.2561018467
 833.06719971  -999.250000 13.507100105  -999.250000  -999.250000  -999.250000 50.046531677 177.73680115 1.0618013144  -999.250000 1.2504022121
 833.21954346  -999.250000 13.606900215  -999.250000  -999.250000  -999.250000 49.213169098 180.50109863 1.0565042496  -999.250000 1.2447044849
 833.37194824  -999.250000 13.719799042  -999.250000  -999.250000  -999.250000 49.351787567 183.35409546 1.0504049063  -999.250000 1.2390044928
 833.52435303  -999.250000 13.789999962  -999.250000  -999.250000  -999.250000 50.569423676 186.21739197 1.0424064398  -999.250000 1.2377010584
 833.67675781  -999.250000 14.096400261  -999.250000  -999.250000  -999.250000 51.678459167 188.86460876 1.0396010876  -999.250000 1.2402989864
 833.82916260  -999.250000 14.078300476  -999.250000  -999.250000  -999.250000 53.200191498 190.02290344 1.0437983274  -999.250000 1.2428989410
 833.98156738  -999.250000 13.806599617  -999.250000  -999.250000  -999.250000 55.048561096 189.90229797 1.0534961224  -999.250000 1.2454988956
 834.13397217  -999.250000 13.603599548  -999.250000  -999.250000  -999.250000 55.482528687 189.66200256 1.0621964931  -999.250000 1.2483987808
 834.28637695  -999.250000 13.649600029  -999.250000  -999.250000  -999.250000 55.815765381 189.23771667 1.0727957487  -999.250000 1.2513988018
 834.43878174  -999.250000 13.488100052  -999.250000  -999.250000  -999.250000 55.797107697 188.65609741 1.0823961496  -999.250000 1.2542988062
 834.59118652  -999.250000 13.628700256  -999.250000  -999.250000  -999.250000 54.837486267 188.06399536 1.0902967453  -999.250000 1.2504014969
 834.74359131  -999.250000 13.413200378  -999.250000  -999.250000  -999.250000 54.643474579 187.66909790 1.0928989649  -999.250000 1.2455018759
 834.89599609  -999.250000 13.236899376  -999.250000  -999.250000  -999.250000 54.087322235 187.50090027 1.0901011229  -999.250000 1.2466995716
 835.04840088  -999.250000 13.049699783  -999.250000  -999.250000  -999.250000 53.247837067 187.49909973 1.0806038380  -999.250000 1.2501986027
 835.20074463  -999.250000 13.282600403  -999.250000  -999.250000  -999.250000 55.308849335 187.59890747 1.0704082251  -999.250000 1.2534973621
 835.35314941  -999.250000 13.190899849  -999.250000  -999.250000  -999.250000 57.284317017 187.89709473 1.0645047426  -999.250000 1.2532002926
 835.50555420  -999.250000 12.966300964  -999.250000  -999.250000  -999.250000 57.354545593 188.21270752 1.0592043400  -999.250000 1.2530001402
 835.65795898  -999.250000 12.501299858  -999.250000  -999.250000  -999.250000 56.726051331 188.42100525 1.0576006174  -999.250000 1.2567985058
 835.81036377  -999.250000 12.717700005  -999.250000  -999.250000  -999.250000 56.117401123 188.31880188 1.0603989363  -999.250000 1.2445049286
 835.96276855  -999.250000 13.102199554  -999.250000  -999.250000  -999.250000 56.395999908 188.22639465 1.0619994402  -999.250000 1.2490981817
 836.11517334  -999.250000 13.201800346  -999.250000  -999.250000  -999.250000 58.439201355 188.59330750 1.0634994507  -999.250000 1.2563970089
 836.26757813  -999.250000 13.346700668  -999.250000  -999.250000  -999.250000 60.418701172 190.29280090 1.0750952959  -999.250000 1.2644968033
 836.41998291  -999.250000 12.880998611  -999.250000  -999.250000  -999.250000 59.659801483 190.97430420 1.0949920416  -999.250000 1.2750957012
 836.57238770  -999.250000 12.629899979  -999.250000  -999.250000  -999.250000 57.672500610 191.32339478 1.1147919893  -999.250000 1.2795982361
