# LAS format log file from PETREL
# Project units are specified as depth units
#==================================================================
~Version information
VERS.   2.0:
WRAP.   NO:
#==================================================================
~Well
STRT .m      1175.9671631 :
STOP .m      1726.7407227 :
STEP .m     0.00000000 :
NULL .        -999.250000 :
COMP.           : COMPANY
WELL.  16/1-6 A Verdandi Appr   : WELL
FLD.            : FIELD
LOC.            : LOCATION
SRVC.           : SERVICE COMPANY
DATE.  2018-09-11 14:48:05   : Log Export Date {yyyy-MM-dd HH:mm:ss}
PROV.           : PROVINCE
UWI.   16/1-6 A   : UNIQUE WELL ID
API.            : API NUMBER
#==================================================================
~Curve
DEPT .m                   : DEPTH
Lithology_geolink ._      : Lithology_geolink
CALI .in                  : CALI
BS .in                    : BS
NPHI .m3/m3               : NPHI
RHOB .g/cm3               : RHOB
PEF .b/e                  : PEF
GR .gAPI                  : GR
DTC .us/ft                : DTC
RDEP .ohm.m               : RDEP
RMED .ohm.m               : RMED
~Parameter
#==================================================================
~Ascii
# ...
 1645.3591309  -999.250000 9.3219003677 8.5000000000 0.5078999996 2.1698000431 4.8815999031 51.739685059 135.65812683 0.7381542921 0.8014476299
 1645.5114746  -999.250000 9.3182001114 8.5000000000 0.4990000129 2.1375000477 4.9562997818 54.417350769 133.23263550 0.7149557471 0.7532159686
 1645.6639404  -999.250000 9.1480998993 8.5000000000 0.5124999881 2.1122999191 5.0556001663 53.246036530 138.98999023 0.6931349039 0.7330321670
 1645.8162842  -999.250000 9.0460996628 8.5000000000 0.5131000280 2.1127998829 5.0704002380 57.212219238 140.04995728 0.7065783739 0.7381916642
 1645.9686279  -999.250000 9.0687999725 8.5000000000 0.5351999998 2.1140000820 4.9776000977 53.259143829 140.10791016 0.7126853466 0.7457817793
 1646.1210938  -999.250000 9.2313003540 8.5000000000 0.5486000180 2.1087999344 4.8432002068 52.416172028 138.06245422 0.7121009827 0.7398095727
 1646.2734375  -999.250000 9.4278001785 8.5000000000 0.5048000216 2.1342999935 4.6782999039 51.251865387 139.43788147 0.7042189837 0.7302230597
 1646.4259033  -999.250000 9.5184001923 8.5000000000 0.5109999776 2.1586000919 4.5075998306 51.125698090 138.38504028 0.7151823640 0.7256073952
 1646.5782471  -999.250000 9.5448999405 8.5000000000 0.4762000144 2.1844999790 4.3811001778 53.948673248 137.13002014 0.7128058076 0.7292911410
 1646.7307129  -999.250000 9.6808996201 8.5000000000 0.5133000016 2.1756999493 4.3481001854 53.012954712 134.02458191 0.6951283813 0.7207137942
 1646.8830566  -999.250000 9.3143997192 8.5000000000 0.4738999903 2.1782000065 4.4095997810 56.280677795 134.73872375 0.6976937652 0.7221964002
 1647.0355225  -999.250000 9.5032997131 8.5000000000 0.4796000123 2.1628999710 4.5999999046 52.959064484 135.26986694 0.7050881386 0.7229986787
 1647.1878662  -999.250000 9.3597002029 8.5000000000 0.4810999930 2.1098999977 4.9031000137 53.081501007 130.46794128 0.6947249770 0.7101309896
 1647.3403320  -999.250000 8.9666996002 8.5000000000 0.4914000034 2.0309000015 5.1430997849 48.423530579 129.90513611 0.6772280931 0.6900321841
 1647.4926758  -999.250000 8.9554004669 8.5000000000 0.4950000048 2.0318999290 5.1591000557 49.639022827 131.82475281 0.6531578898 0.6629650593
 1647.6451416  -999.250000 9.8622999191 8.5000000000 0.4641999900 2.1110000610 4.9284000397 48.358924866 130.63954163 0.6656798124 0.6647969484
 1647.7974854  -999.250000 9.2502002716 8.5000000000 0.4941999912 2.1946001053 4.6676001549 51.377079010 134.97181702 0.7097293139 0.7145202160
 1647.9498291  -999.250000 9.6695995331 8.5000000000 0.4835000038 2.1923999786 4.6146998405 47.177341461 133.33831787 0.7389298677 0.7560003400
 1648.1022949  -999.250000 10.780500412 8.5000000000 0.4894999862 2.1326999664 4.8039999008 47.744537354 131.69741821 0.7465878129 0.7837556005
 1648.2546387  -999.250000 9.1934995651 8.5000000000 0.5145999789 2.0899999142 5.0781998634 47.637271881 131.85543823 0.7179689407 0.7702326775
 1648.4071045  -999.250000 9.3861999512 8.5000000000 0.5325999856 2.0903999805 5.2104997635 51.385692596 134.33871460 0.7147051096 0.7626121640
 1648.5594482  -999.250000 9.2728004456 8.5000000000 0.5131000280 2.1022000313 5.2017998695 51.621227264 137.08230591 0.7222817540 0.7575122714
 1648.7119141  -999.250000 9.1821002960 8.5000000000 0.4889999926 2.0792996883 5.1484999657 49.728519440 136.95910645 0.7203032374 0.7491135001
 1648.8642578  -999.250000 9.2313003540 8.5000000000 0.4905999899 2.0334999561 5.0329999924 49.377677917 134.65045166 0.7059345841 0.7299461365
 1649.0167236  -999.250000 9.7981004715 8.5000000000 0.4938000143 2.0625998974 4.7873001099 48.803562164 138.80236816 0.6886277199 0.7033426166
 1649.1690674  -999.250000 9.9190006256 8.5000000000 0.4972999990 2.1193997860 4.4298000336 49.756435394 142.16252136 0.7089509964 0.7080885172
 1649.3215332  -999.250000 9.3975000381 8.5000000000 0.4817999899 2.1621999741 4.1402001381 48.010398865 142.74034119 0.7202818990 0.7225767374
 1649.4738770  -999.250000 9.6128997803 8.5000000000 0.4521999955 2.1335000992 4.0802001953 51.958332062 142.27058411 0.7150127292 0.7128235698
 1649.6263428  -999.250000 9.6128997803 8.5000000000 0.4821999967 2.1171998978 4.2244000435 55.463191986 145.29476929 0.6980272532 0.6957274079
 1649.7786865  -999.250000 9.4958000183 8.5000000000 0.5109000206 2.1177999973 4.5002999306 56.514060974 145.22256470 0.6814265847 0.6841185689
 1649.9311523  -999.250000 9.1784000397 8.5000000000 0.5382999778 2.1166999340 4.7639999390 52.610328674 143.06752014 0.6751101017 0.6823028326
 1650.0834961  -999.250000 9.2993001938 8.5000000000 0.5321999788 2.1136000156 4.9941000938 50.278068542 144.26223755 0.6700081825 0.6902871728
 1650.2358398  -999.250000 9.6695995331 8.5000000000 0.4740999937 2.1229999065 5.1532001495 50.965892792 144.17074585 0.6820709109 0.6998769045
 1650.3883057  -999.250000 9.2954998016 8.5000000000 0.4602999985 2.1461999416 5.2781000137 51.271755219 140.69569397 0.6977748275 0.7271562219
 1650.5406494  -999.250000 9.6997995377 8.5000000000 0.4384000003 2.1951000690 5.4256000519 51.961093903 138.52418518 0.6737578511 0.6942792535
 1650.6931152  -999.250000 9.4125995636 8.5000000000 0.4422999918 2.2209000587 5.5815000534 49.059326172 140.02288818 0.6627176404 0.6798230410
 1650.8454590  -999.250000 9.2917003632 8.5000000000 0.4584000111 2.2230999470 5.6291999817 45.512084961 137.72358704 0.6604055166 0.6730163097
 1650.9979248  -999.250000 9.1708002090 8.5000000000 0.4677999914 2.2035999298 5.5465002060 43.652286530 136.96490479 0.6669894457 0.6806876659
 1651.1502686  -999.250000 9.0121002197 8.5000000000 0.4999000132 2.1745998859 5.4625000954 45.514003754 137.96290588 0.6721875072 0.6827949286
 1651.3027344  -999.250000 9.2388000488 8.5000000000 0.5171999931 2.1224999428 5.5296001434 53.827037811 139.42163086 0.6630147099 0.6753120422
 1651.4550781  -999.250000 10.236399651 8.5000000000 0.5175999999 2.0750999451 5.6451997757 54.992668152 140.70896912 0.6439458728 0.6526545286
 1651.6075439  -999.250000 9.3408002853 8.5000000000 0.5361999869 2.0843999386 5.6585998535 54.061946869 143.20109558 0.6343153715 0.6449123621
 1651.7598877  -999.250000 9.9076004028 8.5000000000 0.5317999721 2.1438999176 5.4344000816 50.112567902 145.51553345 0.6419815421 0.6467953920
 1651.9123535  -999.250000 9.3295001984 8.5000000000 0.5062999725 2.1816999912 5.0416002274 50.106304169 146.22084045 0.6442962885 0.6659692526
 1652.0646973  -999.250000 9.2463998795 8.5000000000 0.4887000024 2.1782000065 4.6826000214 50.339214325 145.90426636 0.6538846493 0.6836716533
 1652.2170410  -999.250000 9.5335998535 8.5000000000 0.4607000053 2.1563000679 4.4942002296 52.201114655 142.75016785 0.6491115093 0.6941747665
 1652.3695068  -999.250000 9.6015996933 8.5000000000 0.4709999859 2.1410999298 4.5626001358 52.830898285 144.04216003 0.6419115663 0.6858134866
 1652.5218506  -999.250000 9.8963003159 8.5000000000 0.4833999872 2.1335000992 4.7364997864 55.382408142 141.83193970 0.6397053003 0.6845030785
 1652.6743164  -999.250000 9.2765998840 8.5000000000 0.4966000021 2.1263000965 4.9526000023 57.482719421 142.96598816 0.6369044781 0.6868961453
 1652.8266602  -999.250000 9.1632003784 8.5000000000 0.4867999852 2.1282000542 5.1255002022 57.448558807 142.92776489 0.6341067553 0.6836079359
 1652.9791260  -999.250000 9.0347995758 8.5000000000 0.4708000124 2.1296000481 5.2604999542 57.564907074 142.51434326 0.6345992088 0.6801056266
 1653.1314697  -999.250000 9.0347995758 8.5000000000 0.4699000120 2.1254999638 5.3621997833 55.352474213 140.45164490 0.6343007088 0.6751120090
 1653.2839355  -999.250000 9.1028003693 8.5000000000 0.4575000107 2.1161000729 5.4018001556 56.864585876 144.43551636 0.6207218170 0.6540337801
 1653.4362793  -999.250000 9.0573997498 8.5000000000 0.4284999967 2.1226000786 5.3326001167 57.913360596 144.49435425 0.6125196815 0.6351454258
 1653.5887451  -999.250000 9.0725002289 8.5000000000 0.4589000046 2.1470000744 5.1524000168 57.167900085 145.15936279 0.6286740303 0.6431869864
 1653.7410889  -999.250000 9.0573997498 8.5000000000 0.5169000030 2.1648001671 4.9868998528 54.954673767 145.38751221 0.6473550797 0.6539740562
