# LAS format log file from PETREL
# Project units are specified as depth units
#==================================================================
~Version information
VERS.   2.0:
WRAP.   NO:
#==================================================================
~Well
STRT .m      1175.9671631 :
STOP .m      1726.7407227 :
STEP .m     0.00000000 :
NULL .        -999.250000 :
COMP.           : COMPANY
WELL.  16/1-6 A Verdandi Appr   : WELL
FLD.            : FIELD
LOC.            : LOCATION
SRVC.           : SERVICE COMPANY
DATE.  2018-09-11 14:48:05   : Log Export Date {yyyy-MM-dd HH:mm:ss}
PROV.           : PROVINCE
UWI.   16/1-6 A   : UNIQUE WELL ID
API.            : API NUMBER
#==================================================================
~Curve
DEPT .m                   : DEPTH
Lithology_geolink ._      : Lithology_geolink
CALI .in                  : CALI
BS .in                    : BS
NPHI .m3/m3               : NPHI
RHOB .g/cm3               : RHOB
PEF .b/e                  : PEF
GR .gAPI                  : GR
DTC .us/ft                : DTC
RDEP .ohm.m               : RDEP
RMED .ohm.m               : RMED
~Parameter
#==================================================================
~Ascii
# ...
 1722.1687012  -999.250000 8.9819002151 8.5000000000 0.4810999930 2.1373999119 4.3544998169 47.028724670 145.96466064 0.5295925140 0.5341984034
 1722.3210449  -999.250000 8.9743003845 8.5000000000 0.4837999940 2.1347999573 4.1406998634 46.686550140 146.53208923 0.5252105594 0.5327035785
 1722.4735107  -999.250000 8.9780998230 8.5000000000 0.4727999866 2.1389999390 3.8749001026 44.496753693 144.96046448 0.5313900709 0.5363941193
 1722.6258545  -999.250000 8.9666996002 8.5000000000 0.4787999988 2.1431999207 3.6565999985 44.450073242 144.76560974 0.5371860266 0.5397918224
 1722.7783203  -999.250000 9.0347995758 8.5000000000 0.4867999852 2.1482000351 3.4990000725 44.816707611 145.80216980 0.5396959782 0.5446921587
 1722.9306641  -999.250000 8.8986997604 8.5000000000 0.4866000116 2.1484000683 3.3900001049 44.404331207 144.20077515 0.5363081694 0.5427048206
 1723.0831299  -999.250000 8.8534002304 8.5000000000 0.4853999913 2.1468999386 3.2711000443 43.553684235 143.97288513 0.5387960076 0.5431992412
 1723.2354736  -999.250000 8.8035001755 8.5000000000 0.4859000146 2.1452000141 3.1361999512 43.905715942 141.35818481 0.5355079174 0.5410053134
 1723.3879395  -999.250000 9.2479000092 8.5000000000 0.4803000093 2.1496000290 2.9951999187 44.722347260 143.04763794 0.5360990167 0.5380048156
 1723.5402832  -999.250000 8.8144998550 8.5000000000 0.4850000143 2.1531999111 2.8736000061 44.210411072 144.46217346 0.5347033143 0.5379002094
 1723.6927490  -999.250000 8.7658996582 8.5000000000 0.4857000113 2.1538000107 2.7646000385 43.748371124 146.16963196 0.5343006849 0.5350046754
 1723.8450928  -999.250000 8.9635000229 8.5000000000 0.4846000075 2.1468000412 2.6610999107 44.644283295 147.48065186 0.5355979204 0.5368969440
 1723.9974365  -999.250000 8.9630002975 8.5000000000 0.4835999906 2.1428999901 2.5501999855 45.120235443 149.47489929 0.5402887464 0.5421872735
 1724.1499023  -999.250000 8.7820997238 8.5000000000 0.4841000140 2.1452999115 2.4386999607 44.051856995 148.98719788 0.5487863421 0.5528828502
 1724.3022461  -999.250000 8.6590003967 8.5000000000 0.4867999852 2.1566998959 2.3575000763 43.132472992 148.92269897 0.5572795272 0.5654697418
 1724.4547119  -999.250000 8.6267004013 8.5000000000 0.4873000085 2.1666998863 2.3276998997 44.040271759 147.61175537 0.5562018156 0.5625048280
 1724.6070557  -999.250000 8.6233997345 8.5000000000 0.4875000119 2.1714999676 2.3531999588 46.383243561 146.54051208 0.5499151349 0.5567139387
 1724.7595215  -999.250000 8.6229000092 8.5000000000 0.4875000119 2.1609001160 2.4082000256 46.408981323 145.20187378 0.5552913547 0.5615921617
 1724.9118652  -999.250000 8.6007995605 8.5000000000 0.4875999987 2.1568999290 2.4426000118 44.781303406 145.20770264 0.5641785860 0.5680843592
 1725.0643311  -999.250000 8.5964002609 8.5000000000 0.4875999987 2.1545000076 2.4667000771 44.239433289 143.89845276 0.5719875097 0.5735911727
 1725.2166748  -999.250000 7.4639000893 8.5000000000 0.4893000126 2.1635999680 2.4979000092 44.160064697 142.14630127 0.5783846378 0.5754954219
 1725.3691406  -999.250000 3.9637000561 8.5000000000 0.5328000188 2.1573998928 2.5745999813 44.238933563 143.08515930 0.5726093054 0.5670136213
 1725.5214844  -999.250000 3.9221999645 8.5000000000  -999.250000 2.1507000923 2.6522998810 44.066139221 140.53414917 0.5718019009 0.5661021471
 1725.6739502  -999.250000 3.9270000458 8.5000000000  -999.250000 2.1493000984 2.7128999233 44.634544373 141.86112976 0.5681058764 0.5678971410
 1725.8262939  -999.250000 3.9140999317 8.5000000000  -999.250000 2.1524000168 2.7636001110 45.180561066 140.49789429 0.5653044581 0.5650046468
 1725.9786377  -999.250000 3.9172999859 8.5000000000  -999.250000 2.1466000080 2.8096001148 45.516460419 141.35002136 0.5641028881 0.5613088608
 1726.1311035  -999.250000 3.9107999802 8.5000000000  -999.250000 2.1366000175 2.8359000683 45.188262939 140.63996887 0.5583093166 0.5522146225
 1726.2834473  -999.250000 3.9140999317 8.5000000000  -999.250000 2.1287999153 2.8371000290 44.480136871 140.45120239 0.5583997369 0.5622757673
 1726.4359131  -999.250000 3.9184000492 8.5000000000  -999.250000 2.1270999908 2.8173999786 44.073326111 141.17391968 0.5577011108 0.5587058067
 1726.5882568  -999.250000 3.9221999645 8.5000000000  -999.250000 2.1240999699 2.7832999229 43.568809509 141.51284790 0.5577997565 0.5587000251
 1726.7407227  -999.250000 3.9107999802 8.5000000000  -999.250000 2.1228001118 2.7379000187 43.999652863 142.38139343 0.5613942146 0.5637918115
