# LAS format log file from PETREL
# Project units are specified as depth units
#==================================================================
~Version information
VERS.   2.0:
WRAP.   NO:
#==================================================================
~Well
STRT .m      410.00479126 :
STOP .m      2954.3227539 :
STEP .m     0.00000000 :
NULL .        -999.250000 :
COMP.           : COMPANY
WELL.  16/11-1 S   : WELL
FLD.            : FIELD
LOC.            : LOCATION
SRVC.           : SERVICE COMPANY
DATE.  2018-09-11 14:48:06   : Log Export Date {yyyy-MM-dd HH:mm:ss}
PROV.           : PROVINCE
UWI.   16/11-1 S   : UNIQUE WELL ID
API.            : API NUMBER
#==================================================================
~Curve
DEPT .m                   : DEPTH
Lithology_geolink ._      : Lithology_geolink
CALI .in                  : CALI
DRHO .g/cm3               : DRHO
NPHI .m3/m3               : NPHI
RHOB .g/cm3               : RHOB
GR .gAPI                  : GR
DTC .us/ft                : DTC
RDEP .ohm.m               : RDEP
RSHA .ohm.m               : RSHA
RMED .ohm.m               : RMED
~Parameter
#==================================================================
~Ascii
# ...
 2091.2817383 13.000000000 14.721301079 0.0617999993 0.3001999855 2.3271000385 47.287498474 104.40760803  -999.250000 0.4914000034  -999.250000
 2091.4340820 13.000000000 14.530798912 0.0791999996 0.3334999979 2.3573000431 45.944900513 102.65499878  -999.250000 0.4431999922  -999.250000
 2091.5864258 13.000000000 14.101799965 0.0674000010 0.3204999864 2.3712999821 45.128398895 101.90830231  -999.250000 0.5299000144  -999.250000
 2091.7387695 13.000000000 14.060999870 0.1086999997 0.2806000113 2.3991000652 44.640300751 103.68679810  -999.250000 0.6870999932  -999.250000
 2091.8911133 13.000000000 14.135000229 0.1327999979 0.2743999958 2.4114000797 44.511699677 106.78389740  -999.250000 0.4995000064  -999.250000
 2092.0437012 13.000000000 14.147399902 0.1309999973 0.2727999985 2.3691000938 45.444000244 110.76309967  -999.250000 0.3039999902  -999.250000
 2092.1960449 13.000000000 13.993300438 0.0958999991 0.2820000052 2.3540999889 46.717300415 114.38259888  -999.250000 0.3136000037  -999.250000
 2092.3483887 13.000000000 13.948699951 0.0546999983 0.2913999856 2.3385000229 47.869701385 116.66470337  -999.250000 0.2820999920  -999.250000
 2092.5007324 13.000000000 14.236199379 0.0432999991 0.3158000112 2.3438000679 49.330699921 116.90950012  -999.250000 0.2815999985  -999.250000
 2092.6533203 13.000000000 14.245699883 0.0644000024 0.3425000012 2.3763999939 48.735000610 115.32170105  -999.250000 0.3145999908  -999.250000
 2092.8056641 13.000000000 13.945699692 0.0715999976 0.3436000049 2.4221000671 47.329601288 112.10109711  -999.250000 0.3826000094  -999.250000
 2092.9580078 13.000000000 13.515099525 0.0570000000 0.3382000029 2.4586000443 46.053798676 108.34249878  -999.250000 0.4295000136  -999.250000
 2093.1103516 13.000000000 13.529700279 0.0472999997 0.3136999905 2.4804000854 46.083198547 105.73650360  -999.250000 0.3964999914  -999.250000
 2093.2629395 13.000000000 13.569999695 0.0705000013 0.2980000079 2.4909000397 47.432701111 105.89840698  -999.250000 0.5995000005  -999.250000
 2093.4152832 13.000000000 13.714599609 0.1013000011 0.2847999930 2.5014998913 48.368999481 109.47209167  -999.250000 1.2228000164  -999.250000
 2093.5676270 13.000000000 13.889500618 0.0877000019 0.2669000030 2.4625000954 49.644599915 115.97889709  -999.250000 0.7620000243  -999.250000
 2093.7199707 13.000000000 14.056699753 0.0747999996 0.2689000070 2.4172999859 50.716499329 122.79000854  -999.250000 0.3014999926  -999.250000
 2093.8723145 13.000000000 14.271799088 0.0653999969 0.2657999992 2.3159000874 51.217498779 127.70500183  -999.250000 0.2660000026  -999.250000
 2094.0249023 13.000000000 14.293000221 0.0599000007 0.2720000148 2.2885000706 50.522399902 129.62049866  -999.250000 0.2633000016  -999.250000
 2094.1772461 13.000000000 14.272999763 0.0560999997 0.3003000021 2.3073000908 48.883300781 128.56430054  -999.250000 0.2845999897  -999.250000
 2094.3295898 13.000000000 13.623500824 0.0397999994 0.3564000130 2.3243999481 49.698001862 125.79740143  -999.250000 0.3050999939  -999.250000
 2094.4819336 13.000000000 13.631599426 0.0353999995 0.3592999876 2.3399000168 50.640701294 122.67819977  -999.250000 0.3070000112  -999.250000
 2094.6345215 13.000000000 13.668499947 0.0702000037 0.3565999866 2.3701000214 51.399101257 119.42939758  -999.250000 0.3016000092  -999.250000
 2094.7868652 13.000000000 13.735099792 0.0645999983 0.3510000110 2.3766999245 51.537998199 116.94490051  -999.250000 0.3093000054  -999.250000
 2094.9392090 13.000000000 13.756799698 0.0617999993 0.3318000138 2.3691000938 51.379600525 115.37889862  -999.250000 0.3269999921  -999.250000
 2095.0915527 13.000000000 13.798599243 0.0904999971 0.3190000057 2.4005999565 50.444599152 114.22969818  -999.250000 0.3348000050  -999.250000
 2095.2441406 13.000000000 13.829700470 0.1027000025 0.3091000021 2.4412000179 49.387401581 113.37551117  -999.250000 0.4203000069  -999.250000
 2095.3964844 13.000000000 13.542799950 0.0750000030 0.3010999858 2.4712998867 48.458599091 112.66560364  -999.250000 0.3571000099  -999.250000
 2095.5488281 13.000000000 13.524800301 0.0366000012 0.3057000041 2.4907000065 49.081501007 111.68640137  -999.250000 0.3941000104  -999.250000
 2095.7011719 13.000000000 13.464200020 0.0187999997 0.2964000106 2.4856998920 48.595798492 111.04699707  -999.250000 0.6317999959  -999.250000
 2095.8537598 13.000000000 13.280099869 0.0038000001 0.3001999855 2.4365000725 47.139301300 112.41619873  -999.250000 0.5022000074  -999.250000
 2096.0061035 13.000000000 13.231200218 0.0057999999 0.3009000123 2.4140999317 47.331798553 114.46540070  -999.250000 0.5146999955  -999.250000
 2096.1584473 13.000000000 13.174699783 0.0118000004 0.2865999937 2.4098000526 49.250000000 116.07009888  -999.250000 0.6287000179  -999.250000
 2096.3107910 13.000000000 13.223999977 0.0080000004 0.2791999876 2.3975999355 50.629798889 116.82640076  -999.250000 0.4411000013  -999.250000
 2096.4631348 13.000000000 13.192600250 0.0001000000 0.2815999985 2.3970999718 52.604000092 115.91870117  -999.250000 0.3628000021  -999.250000
 2096.6154785 13.000000000 13.189100266 0.0159745608 0.2727142572 2.4189648628 56.922378540 112.88096619  -999.250000 0.5362220407  -999.250000
 2096.7678223 13.000000000 13.298898697 0.0451532081 0.2624165118 2.4581372738 60.141841888 109.98533630  -999.250000 0.8881356120  -999.250000
 2096.9204102 13.000000000 13.460499763 0.0520999990 0.2551999986 2.4665999413 61.280498505 107.80280304  -999.250000 0.9882000089  -999.250000
 2097.0727539 13.000000000 13.538599968 0.0381999984 0.2452999949 2.4498000145 60.129199982 106.64869690  -999.250000 0.5616000295  -999.250000
 2097.2250977 13.000000000 13.500399590 0.0205283202 0.2556833625 2.4532945156 59.601047516 106.69452667  -999.250000 0.4855219126  -999.250000
 2097.3774414 13.000000000 13.482000351 0.0258913469 0.2403246760 2.4617865086 58.857891083 107.85973358  -999.250000 0.6421484351  -999.250000
 2097.5297852 13.000000000 13.402299881 0.0245022438 0.2493854165 2.4481220245 56.436985016 109.63076019  -999.250000 0.6454950571  -999.250000
 2097.6823730 13.000000000 13.285400391 0.0179999992 0.2657999992 2.4351999760 52.975200653 111.47359467  -999.250000 0.4688000083  -999.250000
 2097.8347168 13.000000000 13.268300056 0.0103123197 0.2744860947 2.4144334793 51.582233429 112.65730286  -999.250000 0.3729535937  -999.250000
 2097.9870605 13.000000000 13.179499626 0.0101003200 0.2775950134 2.4085094929 51.943515778 112.92088318  -999.250000 0.3281716406  -999.250000
 2098.1394043 13.000000000 13.191900253 0.0126958331 0.2745049894 2.4166867733 50.877811432 112.31877136  -999.250000 0.3657395840  -999.250000
 2098.2919922 13.000000000 13.261099815 0.0156999994 0.2838000059 2.4284000397 49.610900879 111.31279755  -999.250000 0.3790000081  -999.250000
 2098.4443359 13.000000000 13.254099846 0.0223999992 0.2766000032 2.4282000065 49.996799469 110.13410187  -999.250000 0.3736000061  -999.250000
 2098.5966797 13.000000000 13.245800972 0.0380748808 0.2704099119 2.4491662979 50.990409851 109.43691254  -999.250000 0.3884761631  -999.250000
 2098.7490234 13.000000000 13.317199707 0.0255201925 0.2633113861 2.4404139519 51.715240479 109.43320465  -999.250000 0.4471059442  -999.250000
 2098.9016113 13.000000000 13.426500320 0.0298999995 0.2576999962 2.4365999699 52.119701385 109.90249634  -999.250000 0.5181999803  -999.250000
 2099.0539551 13.000000000 13.447699547 0.0207000002 0.2601999938 2.4307999611 51.854598999 111.01280212  -999.250000 0.3404999971  -999.250000
 2099.2062988 13.000000000 13.439200401 0.0045259199 0.2689859271 2.4221138954 52.565757751 112.67293549  -999.250000 0.3315143883  -999.250000
 2099.3586426 13.000000000 13.429200172 0.0043003205 0.2796828747 2.4201028347 53.874401093 113.96273041  -999.250000 0.3931011260  -999.250000
 2099.5109863 13.000000000 13.422200203 0.0112887826 0.2827950120 2.4259905815 55.266868591 114.47559357  -999.250000 0.5032234192  -999.250000
 2099.6635742 13.000000000 13.312699318 0.0109999999 0.2632000148 2.4544000626 57.075298309 114.08059692  -999.250000 0.3892999887  -999.250000
