# LAS format log file from PETREL
# Project units are specified as depth units
#==================================================================
~Version information
VERS.   2.0:
WRAP.   NO:
#==================================================================
~Well
STRT .m      2645.2697754 :
STOP .m      2924.0100098 :
STEP .m     0.00000000 :
NULL .        -999.250000 :
COMP.           : COMPANY
WELL.  16/1-2  Ivar Aasen Appr   : WELL
FLD.            : FIELD
LOC.            : LOCATION
SRVC.           : SERVICE COMPANY
DATE.  2018-09-11 14:48:05   : Log Export Date {yyyy-MM-dd HH:mm:ss}
PROV.           : PROVINCE
UWI.   16/1-2   : UNIQUE WELL ID
API.            : API NUMBER
#==================================================================
~Curve
DEPT .m                   : DEPTH
Lithology_geolink ._      : Lithology_geolink
CALI .in                  : CALI
BS .in                    : BS
MUDWEIGHT ._              : MUDWEIGHT
ROP .m/h                  : ROP
DRHO .g/cm3               : DRHO
NPHI .m3/m3               : NPHI
RHOB .g/cm3               : RHOB
GR .gAPI                  : GR
DTC .us/ft                : DTC
DTE .us/ft                : DTE
RDEP .ohm.m               : RDEP
SP .mV                    : SP
RSHA .ohm.m               : RSHA
RHOM .g/cm3               : RHOM
RMED .ohm.m               : RMED
~Parameter
#==================================================================
~Ascii
# ...
 2679.1027832 5.0000000000 15.989999771 8.5000000000 9.8000001907 966518.81250 0.0759999976 0.3413200080 2.3456759453 59.255001068 88.635520935 84.605583191 1.2900447845 99.342674255 1.3680000305 2.6500000954 1.3680000305
 2679.2551270 5.0000000000 15.991000175 8.5000000000 9.8000001907 1002848.5000 0.0640000030 0.3449200094 2.3446278572 57.464000702 88.813552856 84.757667542 1.2750480175 99.213203430 1.2970000505 2.6500000954 1.2970000505
 2679.4074707 5.0000000000 15.992000580 8.5000000000 9.8000001907 1011554.6875 0.0719999969 0.3484199941 2.3425307274 55.368999481 89.140823364 85.049903870 1.2600719929 99.381729126 1.2519999743 2.6500000954 1.2519999743
 2679.5598145 5.0000000000 15.993000031 8.5000000000 9.8000001907 1015373.5000 0.0560000017 0.3512300253 2.3395242691 53.874000549 89.617347717 85.477195740 1.2530336380 99.081962585 1.2410000563 2.6500000954 1.2410000563
 2679.7124023 5.0000000000 15.994000435 8.5000000000 9.8000001907 1015243.4375 0.0430000015 0.3540700078 2.3376107216 54.354000092 89.863273621 85.751655579 1.2530000210 98.605766296 1.2300000191 2.6500000954 1.2300000191
 2679.8647461 5.0000000000 15.994999886 8.5000000000 9.8000001907 1004977.7500 0.0529999994 0.3588300049 2.3424072266 56.326999664 89.203407288 85.075096130 1.2569870949 98.413307190 1.2130000591 2.6500000954 1.2130000591
 2680.0170898 5.0000000000 15.996999741 8.5000000000 9.8000001907 860768.00000 0.0450000018 0.3678799868 2.3504202366 59.215000153 88.069290161 83.949981689 1.2599855661 98.382057190 1.2300000191 2.6500000954 1.2300000191
 2680.1694336 5.0000000000 15.998000145 8.5000000000 9.8000001907 314349.75000 0.0370000005 0.3832899928 2.3473045826 62.578998566 88.570655823 84.393379211 1.2500480413 98.387977600 1.2999999523 2.6500000954 1.2999999523
 2680.3220215 6.0000000000 15.999000549 8.5000000000 9.8000001907 317070.71875 0.0209999997 0.4057700038 2.3329257965 64.780998230 90.663497925 86.451148987 1.2310608625 98.197303772 1.3780000210 2.6500000954 1.3780000210
 2680.4743652 6.0000000000 16.000000000 8.5000000000 9.8000001907 318446.56250 0.0040000002 0.4331600070 2.3190166950 65.430000305 92.505569458 88.480995178 1.2170448303 97.905464172 1.4220000505 2.6500000954 1.4220000505
 2680.6267090 6.0000000000 16.000999451 8.5000000000 9.8000001907 318420.53125 0.0250000004 0.4602199793 2.3088779449 62.868000031 94.028930664 90.000999451 1.2100224495 97.697334290 1.3899999857 2.6500000954 1.3899999857
 2680.7790527 5.0000000000 16.002000809 8.5000000000 9.8000001907 318395.50000 0.0500000007 0.4805899858 2.2991838455 57.904998779 95.548027039 91.491203308 1.2050240040 97.386497498 1.2649999857 2.6500000954 1.2649999857
 2680.9313965 5.0000000000 16.003000259 8.5000000000 9.8000001907 318370.84375 0.0619999990 0.4892899990 2.2920961380 53.956001282 96.714805603 92.598052979 1.2010191679 97.095932007 1.1519999504 2.6500000954 1.1519999504
 2681.0839844 5.0000000000 16.003999710 8.5000000000 9.8000001907 318345.31250 0.0240000002 0.4848699868 2.2937233448 51.643001556 96.440521240 92.348197937 1.1960159540 96.984176636 1.0779999495 2.6500000954 1.0779999495
 2681.2363281 5.0000000000 16.004999161 8.5000000000 9.8000001907 321734.25000 0.0480000004 0.4700900018 2.3067679405 50.694999695 94.483383179 90.353385925 1.1880255938 97.011955261 1.0210000277 2.6500000954 1.0210000277
 2681.3886719 5.0000000000 16.004999161 8.5000000000 9.8000001907 477633.28125 0.0839999989 0.4508499801 2.3245937824 50.410999298 91.829261780 87.667404175 1.1720768213 97.198699951 1.0039999485 2.6500000954 1.0039999485
 2681.5410156 5.0000000000 16.004999161 8.5000000000 9.8000001907 623217.31250 0.0790000036 0.4336999953 2.3324961662 50.536998749 90.721176147 86.489311218 1.1471201181 97.479103088 1.0559999943 2.6500000954 1.0559999943
 2681.6936035 5.0000000000 16.004999161 8.5000000000 9.8000001907 629301.43750 0.0680000037 0.4233900011 2.3279995918 52.647998810 91.261276245 87.147850037 1.1340416670 97.713623047 1.1940000057 2.6500000954 1.1940000057
 2681.8459473 5.0000000000 16.006000519 8.5000000000 9.8000001907 626532.31250 0.0529999994 0.4211800098 2.3233745098 55.807998657 91.882141113 87.825553894 1.1559294462 97.945625305 1.3420000076 2.6500000954 1.3420000076
 2681.9982910 5.0000000000 16.006000519 8.5000000000 9.8000001907 621003.81250 0.0340000018 0.4253799915 2.3247694969 59.032001495 91.646888733 87.616317749 1.2037695646 98.355346680 1.4329999685 2.6500000954 1.4329999685
 2682.1506348 5.0000000000 16.003999710 8.5000000000 9.8000001907 629792.12500 0.0350000001 0.4336399734 2.3271982670 63.066001892 91.347999573 87.266212463 1.2577403784 98.846427917 1.4179999828 2.6500000954 1.4179999828
 2682.3032227 6.0000000000 15.998000145 8.5000000000 9.8000001907 708338.50000 0.0469999984 0.4449599981 2.3307991028 68.051002502 90.848838806 86.742187500 1.3088365793 99.097595215 1.3539999723 2.6500000954 1.3539999723
 2682.4555664 6.0000000000 15.991000175 8.5000000000 9.8000001907 1040730.5625 0.0250000004 0.4589699805 2.3415262699 72.975997925 89.263549805 85.206558228 1.3379070759 99.266731262 1.3509999514 2.6500000954 1.3509999514
 2682.6079102 6.0000000000 15.993000031 8.5000000000 9.8000001907 1048046.6250 0.0030000000 0.4740599692 2.3539366722 75.542999268 87.563621521 83.462463379 1.3429840803 99.274986267 1.4190000296 2.6500000954 1.4190000296
 2682.7602539 6.0000000000 16.002000809 8.5000000000 9.8000001907 1047854.2500 0.0140000004 0.4871099889 2.3569631577 73.621002197 87.172042847 83.042694092 1.3410096169 99.150199890 1.4880000353 2.6500000954 1.4880000353
 2682.9125977 5.0000000000 16.003000259 8.5000000000 9.8000001907 1043147.1250 0.0560000017 0.4941000044 2.3480691910 68.577003479 88.426475525 84.285652161 1.3380144835 99.157974243 1.4539999962 2.6500000954 1.4539999962
 2683.0651855 5.0000000000 16.000000000 8.5000000000 9.8000001907 1033780.5625 0.0599999987 0.4915100038 2.3351805210 63.360000610 90.122917175 86.111785889 1.3429840803 99.319740295 1.2790000439 2.6500000954 1.2790000439
 2683.2175293 5.0000000000 15.996999741 8.5000000000 9.8000001907 1190539.0000 0.0509999990 0.4778600037 2.3251500130 59.731998444 91.554779053 87.566062927 1.3320353031 99.439811707 1.1410000324 2.6500000954 1.1410000324
 2683.3698730 5.0000000000 15.994000435 8.5000000000 9.8000001907 1207339.7500 0.0649999976 0.4548099935 2.3196034431 57.672000885 92.390953064 88.385276794 1.3001534939 99.452980042 1.1569999456 2.6500000954 1.1569999456
 2683.5222168 5.0000000000 15.991000175 8.5000000000 9.8000001907 1210075.8750 0.0439999998 0.4265599847 2.3191204071 56.083000183 92.451889038 88.456008911 1.2691490650 99.557662964 1.2200000286 2.6500000954 1.2200000286
 2683.6748047 5.0000000000 15.957999229 8.5000000000 9.8000001907 1213211.3750 0.0089999996 0.3981000185 2.3211574554 55.785999298 92.157943726 88.153129578 1.2480673790 99.669815063 1.2530000210 2.6500000954 1.2530000210
 2683.8271484 5.0000000000 15.843000412 8.5000000000 9.8000001907 1213742.8750 0.0120000001 0.3733299971 2.3267593384 55.870998383 91.347808838 87.334823608 1.2380321026 99.848709106 1.2180000544 2.6500000954 1.2180000544
 2683.9794922 5.0000000000 15.791999817 8.5000000000 9.8000001907 1207126.3750 0.0149999997 0.3541600108 2.3364100456 54.666999817 90.037780762 85.931037903 1.2270528078 100.02471924 1.1740000248 2.6500000954 1.1740000248
 2684.1318359 5.0000000000 15.793000221 8.5000000000 9.8000001907 594607.00000 0.0250000004 0.3408800066 2.3447604179 53.673999786 88.995399475 84.737304688 1.2140624523 100.34597015 1.2109999657 2.6500000954 1.2109999657
 2684.2844238 5.0000000000 15.740000725 8.5000000000 9.8000001907 581271.43750 0.0340000018 0.3332899809 2.3516633511 54.880001068 87.839012146 83.768653870 1.1970545053 100.80027771 1.3710000515 2.6500000954 1.3710000515
 2684.4367676 5.0000000000 15.614999771 8.5000000000 9.8000001907 579078.31250 0.0419999994 0.3305699825 2.3564493656 55.883998871 87.116813660 83.104957581 1.1820480824 101.34413147 1.5659999847 2.6500000954 1.5659999847
 2684.5891113 5.0000000000 15.586999893 8.5000000000 9.8000001907 579054.18750 0.0500000007 0.3311500251 2.3518831730 55.744998932 87.767379761 83.748023987 1.1750223637 101.94403839 1.5779999495 2.6500000954 1.5779999495
