# LAS format log file from PETREL
# Project units are specified as depth units
#==================================================================
~Version information
VERS.   2.0:
WRAP.   NO:
#==================================================================
~Well
STRT .m      1175.9671631 :
STOP .m      1726.7407227 :
STEP .m     0.00000000 :
NULL .        -999.250000 :
COMP.           : COMPANY
WELL.  16/1-6 A Verdandi Appr   : WELL
FLD.            : FIELD
LOC.            : LOCATION
SRVC.           : SERVICE COMPANY
DATE.  2018-09-11 14:48:05   : Log Export Date {yyyy-MM-dd HH:mm:ss}
PROV.           : PROVINCE
UWI.   16/1-6 A   : UNIQUE WELL ID
API.            : API NUMBER
#==================================================================
~Curve
DEPT .m                   : DEPTH
Lithology_geolink ._      : Lithology_geolink
CALI .in                  : CALI
BS .in                    : BS
NPHI .m3/m3               : NPHI
RHOB .g/cm3               : RHOB
PEF .b/e                  : PEF
GR .gAPI                  : GR
DTC .us/ft                : DTC
RDEP .ohm.m               : RDEP
RMED .ohm.m               : RMED
~Parameter
#==================================================================
~Ascii
# ...
 1355.1894531  -999.250000 8.3923997879 8.5000000000 0.3874000013 2.1199998856 3.3090000153 75.763633728 139.44097900 1.0313844681 1.0224800110
 1355.3419189  -999.250000 8.4338998795 8.5000000000 0.3923999965 2.1138999462 3.3705999851 77.010704041 141.39613342 1.0330986977 1.0244984627
 1355.4942627  -999.250000 8.4680004120 8.5000000000 0.4009000063 2.1133000851 3.4600999355 72.150199890 141.91337585 1.0159275532 1.0105223656
 1355.6467285  -999.250000 8.4905996323 8.5000000000 0.4431999922 2.1131000519 3.5450999737 71.327255249 140.27740479 0.9961158633 0.9834216833
 1355.7990723  -999.250000 8.5360002518 8.5000000000 0.4496000111 2.1249001026 3.5589001179 70.394950867 140.35684204 0.9786140323 0.9653145075
 1355.9515381  -999.250000 8.5208997726 8.5000000000 0.4451999962 2.1356000900 3.4916000366 76.449745178 142.39656067 0.9846951365 0.9670985937
 1356.1038818  -999.250000 8.5132999420 8.5000000000 0.4429000020 2.1407001019 3.3835000992 73.932220459 141.10543823 0.9943922758 0.9743941426
 1356.2563477  -999.250000 8.4680004120 8.5000000000 0.4334000051 2.1366000175 3.3090000153 75.909912109 141.44712830 0.9974974990 0.9755990505
 1356.4086914  -999.250000 8.4112997055 8.5000000000 0.4566000104 2.1243000031 3.2915999889 71.253341675 139.57339478 0.9878077507 0.9733018279
 1356.5611572  -999.250000 8.3773002625 8.5000000000 0.4320000112 2.1108000278 3.3234000206 72.374603271 138.83149719 1.0262690783 1.0081721544
 1356.7135010  -999.250000 8.3318996429 8.5000000000 0.4406000078 2.0938000679 3.3789000511 63.292182922 136.52615356 1.0837539434 1.0643548965
 1356.8658447  -999.250000 8.3016996384 8.5000000000 0.4027999938 2.0848999023 3.4498000145 60.937866211 136.16825867 1.1442030668 1.1220076084
 1357.0183105  -999.250000 8.3092002869 8.5000000000 0.3901999891 2.0833001137 3.5432999134 56.625255585 134.51182556 1.2124453783 1.1882469654
 1357.1706543  -999.250000 8.3318996429 8.5000000000 0.3650999963 2.0873999596 3.6401998997 60.532928467 133.70379639 1.2351636887 1.2079683542
 1357.3231201  -999.250000 8.3773002625 8.5000000000 0.3648000062 2.0991001129 3.6968998909 60.675487518 134.09188843 1.1870386600 1.1571407318
 1357.4754639  -999.250000 8.3999004364 8.5000000000 0.3718000054 2.1129999161 3.7039999962 64.841819763 134.79927063 1.1409738064 1.1063812971
 1357.6279297  -999.250000 8.4225997925 8.5000000000 0.3725000024 2.1273000240 3.6688001156 66.989883423 135.99183655 1.1058281660 1.0681306124
 1357.7802734  -999.250000 8.4225997925 8.5000000000 0.4002999961 2.1352999210 3.6180000305 71.416755676 139.25978088 1.0626345873 1.0206379890
 1357.9327393  -999.250000 8.4453001022 8.5000000000 0.4273000062 2.1366000175 3.5652999878 74.445075989 139.92936707 1.0252299309 0.9932219386
 1358.0850830  -999.250000 8.3999004364 8.5000000000 0.4472000003 2.1282999516 3.5299000740 74.214584351 140.34365845 1.0126100779 0.9865053892
 1358.2375488  -999.250000 8.3621997833 8.5000000000 0.4302000105 2.1140999794 3.5188999176 71.349296570 137.33171082 1.0597622395 1.0339620113
 1358.3898926  -999.250000 8.3395004272 8.5000000000 0.3930999935 2.1017000675 3.5248000622 66.831123352 137.65783691 1.1183530092 1.0986481905
 1358.5423584  -999.250000 8.3395004272 8.5000000000 0.3795000017 2.0971999168 3.5459001064 63.662635803 139.09774780 1.1567692757 1.1451628208
 1358.6947021  -999.250000 8.3395004272 8.5000000000 0.3763000071 2.1101000309 3.5585000515 63.497428894 137.32841492 1.1484066248 1.1394046545
 1358.8470459  -999.250000 8.3773002625 8.5000000000 0.3986999989 2.1291000843 3.5597999096 65.591743469 138.98922729 1.1208442450 1.1181341410
 1358.9995117  -999.250000 8.3545999527 8.5000000000 0.4054000080 2.1517000198 3.5295000076 68.759956360 136.33573914 1.0789335966 1.0741353035
 1359.1518555  -999.250000 8.3545999527 8.5000000000 0.3955000043 2.1747000217 3.4921998978 69.577095032 128.65231323 1.0787003040 1.0794912577
 1359.3043213  -999.250000 8.3243999481 8.5000000000 0.3521000147 2.1893000603 3.4749000072 65.153144836 128.75730896 1.1768213511 1.1821177006
 1359.4566650  -999.250000 8.3697004318 8.5000000000 0.3452999890 2.1865000725 3.5034000874 60.478790283 130.89816284 1.3620032072 1.3673031330
 1359.6091309  -999.250000 8.3999004364 8.5000000000 0.3574999869 2.1556999683 3.5766999722 56.628383636 130.99092102 1.2765687704 1.2730758190
 1359.7614746  -999.250000 8.4566001892 8.5000000000 0.4002000093 2.1296999454 3.6387999058 63.263076782 135.82472229 1.1081351042 1.1120290756
 1359.9139404  -999.250000 8.5360002518 8.5000000000 0.3860000074 2.1238000393 3.6375000477 66.196159363 137.45808411 1.0244668722 1.0191742182
 1360.0662842  -999.250000 8.5360002518 8.5000000000 0.3905999959 2.1340000629 3.5692000389 76.329971313 139.10498047 0.9721419215 0.9543519020
 1360.2187500  -999.250000 8.5699996948 8.5000000000 0.4084999859 2.1382000446 3.4939000607 77.851989746 140.11059570 0.9366284609 0.9265222549
 1360.3710938  -999.250000 8.5586004257 8.5000000000 0.4347000122 2.1368999481 3.4437999725 80.298637390 140.36010742 0.9450932145 0.9348932505
 1360.5235596  -999.250000 8.5510997772 8.5000000000 0.4081000090 2.1377999783 3.4321999550 78.410812378 140.46232605 0.9551919103 0.9462909102
 1360.6759033  -999.250000 8.5360002518 8.5000000000 0.3928000033 2.1366000175 3.4482998848 76.662506104 139.66844177 0.9625940919 0.9538938999
 1360.8283691  -999.250000 8.5360002518 8.5000000000 0.4081000090 2.1405000687 3.4827001095 79.295387268 139.86833191 0.9512091279 0.9438080788
 1360.9807129  -999.250000 8.5132999420 8.5000000000 0.4498000145 2.1431000233 3.5388998985 78.974761963 138.91735840 0.9365118146 0.9294115901
 1361.1330566  -999.250000 8.5132999420 8.5000000000 0.4499999881 2.1449999809 3.5859000683 80.111679077 138.92178345 0.9187284708 0.9125270844
 1361.2855225  -999.250000 8.5019998550 8.5000000000 0.4417000115 2.1361000538 3.6203999519 76.896881104 138.53300476 0.9094074368 0.9041067362
 1361.4378662  -999.250000 8.4680004120 8.5000000000 0.4201000035 2.1247999668 3.6105999947 72.821731567 139.71530151 0.9204822183 0.9163803458
 1361.5903320  -999.250000 8.4453001022 8.5000000000 0.3957000077 2.1212999821 3.5769999027 69.557708740 139.40493774 0.9365871549 0.9309883118
 1361.7426758  -999.250000 8.4603996277 8.5000000000 0.3840999901 2.1247000694 3.5603001118 67.282447815 139.44842529 0.9474825263 0.9439792037
 1361.8951416  -999.250000 8.4905996323 8.5000000000 0.3930000067 2.1240999699 3.5887999535 68.093940735 139.21568298 0.9466007352 0.9428009391
 1362.0474854  -999.250000 8.4905996323 8.5000000000 0.4257999957 2.1185998917 3.6203000546 68.234283447 138.97000122 0.9412043691 0.9388031960
 1362.1999512  -999.250000 8.4905996323 8.5000000000 0.4472999871 2.1131999493 3.6219000816 69.205322266 138.81542969 0.9395013452 0.9360022545
 1362.3522949  -999.250000 8.4792995453 8.5000000000 0.4370999932 2.1136999130 3.5922999382 69.089591980 139.96806335 0.9380012155 0.9342014194
 1362.5047607  -999.250000 8.4680004120 8.5000000000 0.4216000140 2.1199998856 3.5527999401 66.876869202 139.77095032 0.9389992356 0.9343998432
 1362.6571045  -999.250000 8.4680004120 8.5000000000 0.3862000108 2.1159000397 3.5329999924 66.664871216 139.92918396 0.9395995140 0.9353992343
 1362.8095703  -999.250000 8.4905996323 8.5000000000 0.3754000068 2.1127998829 3.5123999119 67.246932983 141.96136475 0.9358030558 0.9303041101
 1362.9619141  -999.250000 8.5208997726 8.5000000000 0.3917999864 2.1110000610 3.5004999638 66.996597290 142.30992126 0.9345009923 0.9291009307
 1363.1142578  -999.250000 8.5360002518 8.5000000000 0.4438999891 2.1192998886 3.4618000984 67.461853027 139.67712402 0.9319041967 0.9263044596
 1363.2667236  -999.250000 8.5360002518 8.5000000000 0.4803000093 2.1301999092 3.4231998920 68.044837952 139.52232361 0.9314004183 0.9257004857
 1363.4190674  -999.250000 8.5360002518 8.5000000000 0.4634000063 2.1368000507 3.3784000874 70.739479065 139.40240479 0.9323983788 0.9259995222
 1363.5715332  -999.250000 8.5360002518 8.5000000000 0.4332000017 2.1407001019 3.3447999954 72.374198914 139.64849854 0.9354975224 0.9286978245
