# LAS format log file from PETREL
# Project units are specified as depth units
#==================================================================
~Version information
VERS.   2.0:
WRAP.   NO:
#==================================================================
~Well
STRT .m      2645.2697754 :
STOP .m      2924.0100098 :
STEP .m     0.00000000 :
NULL .        -999.250000 :
COMP.           : COMPANY
WELL.  16/1-2  Ivar Aasen Appr   : WELL
FLD.            : FIELD
LOC.            : LOCATION
SRVC.           : SERVICE COMPANY
DATE.  2018-09-11 14:48:05   : Log Export Date {yyyy-MM-dd HH:mm:ss}
PROV.           : PROVINCE
UWI.   16/1-2   : UNIQUE WELL ID
API.            : API NUMBER
#==================================================================
~Curve
DEPT .m                   : DEPTH
Lithology_geolink ._      : Lithology_geolink
CALI .in                  : CALI
BS .in                    : BS
MUDWEIGHT ._              : MUDWEIGHT
ROP .m/h                  : ROP
DRHO .g/cm3               : DRHO
NPHI .m3/m3               : NPHI
RHOB .g/cm3               : RHOB
GR .gAPI                  : GR
DTC .us/ft                : DTC
DTE .us/ft                : DTE
RDEP .ohm.m               : RDEP
SP .mV                    : SP
RSHA .ohm.m               : RSHA
RHOM .g/cm3               : RHOM
RMED .ohm.m               : RMED
~Parameter
#==================================================================
~Ascii
# ...
 2735.4907227 15.000000000 12.743999481 8.5000000000 9.8000001907 393342.59375 -0.082999997 0.4289070368 2.1851823330 54.673000336 111.91265106 111.87212372 0.2480607927 100.59035492 0.4000000060 2.7999999523 0.4000000060
 2735.6433105 15.000000000 12.394000053 8.5000000000 9.8000001907 392191.50000 -0.072999999 0.4270572662 2.1372251511 54.756000519 121.90668488 121.88833618 0.2529919744 96.539489746 0.3659999967 2.7999999523 0.3659999967
 2735.7956543 15.000000000 12.106999397 8.5000000000 9.8000001907 389356.25000 -0.097999997 0.4230667949 2.1239500046 51.242000580 124.79855347 124.79502106 0.2669775486 91.459136963 0.4300000072 2.7999999523 0.4300000072
 2735.9479980 15.000000000 12.196000099 8.5000000000 9.8000001907 388123.18750 -0.119000003 0.4148286581 2.1662499905 47.243000031 115.84964752 115.91872406 0.3079342842 85.699234009 0.5600000024 2.7999999523 0.5600000024
 2736.1003418 15.000000000 12.027999878 8.5000000000 9.8000001907 381104.06250 -0.090999998 0.4015115499 2.2142624855 43.069000244 106.11734009 106.14360809 0.3817631900 80.529563904 0.6439999938 2.7999999523 0.6439999938
 2736.2529297 15.000000000 11.708001137 8.5000000000 9.8000001907 381153.15625 -0.059999999 0.3837352097 2.2184960842 39.215999603 105.15472412 105.21809387 0.4678621888 77.323120117 0.6570000052 2.7999999523 0.6570000052
 2736.4052734 15.000000000 11.116000175 8.5000000000 9.8000001907 380983.31250 -0.035999998 0.3635179996 2.2082376480 35.369998932 107.08950043 107.09353638 0.5538622141 75.381103516 0.6710000038 2.7999999523 0.6710000038
 2736.5576172 15.000000000 10.250000000 8.5000000000 9.8000001907 377104.78125 -0.027000001 0.3435431421 2.2137000561 31.524000168 106.13227844 106.08655548 0.6678172946 73.700691223 0.8040000200 2.7999999523 0.8040000200
 2736.7099609 15.000000000 10.245999336 8.5000000000 9.8000001907 377161.50000 -0.025000000 0.3268016279 2.2422375679 29.638999939 102.00595093 101.89655304 0.8157628179 72.674636841 1.0010000467 2.7999999523 1.0010000467
 2736.8623047 15.000000000 10.713999748 8.5000000000 9.8000001907 377207.81250 -0.003000000 0.3153606355 2.3028426170 30.141000748 93.590751648 93.486457825 0.9695072174 72.047004700 1.3400000334 2.7999999523 1.3400000334
 2737.0148926 15.000000000 10.995999336 8.5000000000 9.8000001907 384885.00000 0.0160000008 0.3095248044 2.3708124161 30.364000320 82.642539978 82.627975464 1.1277468204 71.417007446 1.9409999847 2.7999999523 1.9409999847
 2737.1672363 15.000000000 9.2100000381 8.5000000000 9.8000001907 506631.71875 0.0099999998 0.3079109490 2.4165372849 30.327999115 74.252029419 74.278343201 1.2887420654 70.811965942 2.8269999027 2.7999999523 2.8269999027
 2737.3195801 15.000000000 8.3420000076 8.5000000000 9.8000001907 586724.25000 0.0060000001 0.3085020781 2.4435124397 31.007999420 70.526649475 70.425712585 1.4507403374 70.291831970 3.8919999599 2.7999999523 3.8919999599
 2737.4719238 15.000000000 8.2700004578 8.5000000000 9.8000001907 593078.37500 0.0299999993 0.3098023534 2.4670248032 31.291000366 69.226814270 69.123825073 1.5696192980 69.837455750 4.8049998283 2.7999999523 4.8049998283
 2737.6245117 15.000000000 8.2379999161 8.5000000000 9.8000001907 596174.31250 0.0379999988 0.3112761378 2.4780373573 31.118999481 69.017837524 68.925567627 1.6229151487 69.448623657 5.3660001755 2.7999999523 5.3660001755
 2737.7768555 15.000000000 8.2270002365 8.5000000000 9.8000001907 596440.68750 0.0260000005 0.3131943643 2.4683375359 30.815999985 69.077461243 69.046615601 1.6549487114 69.170440674 5.5300002098 2.7999999523 5.5300002098
 2737.9291992 15.000000000 8.2220001221 8.5000000000 9.8000001907 592023.87500 0.0140000004 0.3159052134 2.4557249546 30.357999802 68.797752380 68.817573547 1.6510064602 68.934379578 5.4730000496 2.7999999523 5.4730000496
 2738.0815430 15.000000000 8.2170000076 8.5000000000 9.8000001907 570733.25000 0.0099999998 0.3191646934 2.4547250271 30.208000183 68.263465881 68.197723389 1.6011599302 68.697753906 5.3350000381 2.7999999523 5.3350000381
 2738.2341309 15.000000000 8.2139997482 8.5000000000 9.8000001907 516755.65625 0.0230000000 0.3220838606 2.4611303806 30.398000717 67.646224976 67.592208862 1.5630608797 68.508308411 5.1350002289 2.7999999523 5.1350002289
 2738.3864746 15.000000000 8.2110004425 8.5000000000 9.8000001907 510432.31250 0.0289999992 0.3232768476 2.4637124538 32.035999298 67.407958984 67.374389648 1.5460273027 68.467071533 4.9239997864 2.7999999523 4.9239997864
 2738.5388184 15.000000000 8.2089996338 8.5000000000 9.8000001907 510484.96875 0.0299999993 0.3213101625 2.4595124722 32.353000641 67.218513489 67.287811279 1.5280288458 68.529899597 4.7699999809 2.7999999523 4.7699999809
 2738.6911621 15.000000000 8.2060003281 8.5000000000 9.8000001907 510534.06250 0.0209999997 0.3151633739 2.4526374340 33.445999146 67.281021118 67.289672852 1.5240064859 68.591903687 4.6459999084 2.7999999523 4.6459999084
 2738.8435059 15.000000000 8.2030000687 8.5000000000 9.8000001907 510586.93750 0.0109999999 0.3047886193 2.4489753246 34.930999756 67.586692810 67.542419434 1.5309776068 68.653800964 4.4549999237 2.7999999523 4.4549999237
 2738.9960938 15.000000000 8.2010002136 8.5000000000 9.8000001907 510417.59375 0.0020000001 0.2914047837 2.4498748779 35.808998108 67.378112793 67.394577026 1.5389871597 68.716903687 4.2329998016 2.7999999523 4.2329998016
 2739.1484375 15.000000000 8.1990003586 8.5000000000 9.8000001907 494012.37500 0.0040000002 0.2773002982 2.4590873718 36.286998749 66.027374268 66.080184937 1.5569711924 68.740959167 4.2560000420 2.7999999523 4.2560000420
 2739.3007813 15.000000000 8.1990003586 8.5000000000 9.8000001907 394606.68750 0.0140000004 0.2650167048 2.4825999737 36.277999878 63.914512634 63.962364197 1.5939407349 68.691085815 4.6989998817 2.7999999523 4.6989998817
 2739.4531250 15.000000000 8.1990003586 8.5000000000 9.8000001907 394657.18750 0.0350000001 0.2567348778 2.5131072998 36.159000397 61.863639832 61.949497223 1.6408495903 68.605278015 5.3579998016 2.7999999523 5.3579998016
 2739.6057129 15.000000000 8.1990003586 8.5000000000 9.8000001907 390561.87500 0.0390000008 0.2535452247 2.5403499603 36.021999359 60.550888062 60.589740753 1.6809358597 68.519134521 5.8920001984 2.7999999523 5.8920001984
 2739.7580566 15.000000000 8.1999998093 8.5000000000 9.8000001907 390610.93750 0.0280000009 0.2551779151 2.5599751472 34.977001190 60.282573700 60.287826538 1.7159438133 68.433135986 6.2109999657 2.7999999523 6.2109999657
 2739.9104004 15.000000000 8.1999998093 8.5000000000 9.8000001907 391099.00000 0.0089999996 0.2601198852 2.5699377060 33.171001434 61.080123901 61.080375671 1.7379647493 68.414031982 6.2449998856 2.7999999523 6.2449998856
 2740.0627441 15.000000000 8.1999998093 8.5000000000 9.8000001907 404198.50000 -0.008000000 0.2662988007 2.5732250214 32.016998291 62.396884918 62.373298645 1.7280319929 68.516670227 6.0859999657 2.7999999523 6.0859999657
 2740.2153320 15.000000000 8.2010002136 8.5000000000 9.8000001907 440536.09375 -0.012000000 0.2717915177 2.5721335411 31.833000183 63.293910980 63.217311859 1.7000448704 68.673751831 6.0069999695 2.7999999523 6.0069999695
 2740.3676758 15.000000000 8.1999998093 8.5000000000 9.8000001907 440582.81250 -0.014000000 0.2753820717 2.5676374435 32.972999573 63.263885498 63.193801880 1.6750400066 68.830749512 5.8499999046 2.7999999523 5.8499999046
 2740.5200195 15.000000000 8.1940002441 8.5000000000 9.8000001907 438905.59375 -0.014000000 0.2766586542 2.5597374439 34.479999542 62.570747375 62.472339630 1.6979631186 68.979766846 5.4299998283 2.7999999523 5.4299998283
 2740.6723633 15.000000000 8.1840000153 8.5000000000 9.8000001907 429279.37500 -0.017999999 0.2758264840 2.5477249622 35.930999756 61.502510071 61.410812378 1.7658910751 69.120773315 4.9450001717 2.7999999523 4.9450001717
 2740.8247070 15.000000000 8.1739997864 8.5000000000 9.8000001907 428292.03125 -0.014000000 0.2736358941 2.5406241417 37.199001312 60.551315308 60.509372711 1.8327854872 69.260551453 4.9829998016 2.7999999523 4.9829998016
 2740.9772949 15.000000000 8.1639995575 8.5000000000 9.8000001907 427226.46875 0.0010000000 0.2710666656 2.5437126160 38.469001770 60.014263153 59.993885040 1.9358348846 69.400779724 5.8443636894 2.7999999523 5.8443636894
