# LAS format log file from PETREL
# Project units are specified as depth units
#==================================================================
~Version information
VERS.   2.0:
WRAP.   NO:
#==================================================================
~Well
STRT .m      2645.2697754 :
STOP .m      2924.0100098 :
STEP .m     0.00000000 :
NULL .        -999.250000 :
COMP.           : COMPANY
WELL.  16/1-2  Ivar Aasen Appr   : WELL
FLD.            : FIELD
LOC.            : LOCATION
SRVC.           : SERVICE COMPANY
DATE.  2018-09-11 14:48:05   : Log Export Date {yyyy-MM-dd HH:mm:ss}
PROV.           : PROVINCE
UWI.   16/1-2   : UNIQUE WELL ID
API.            : API NUMBER
#==================================================================
~Curve
DEPT .m                   : DEPTH
Lithology_geolink ._      : Lithology_geolink
CALI .in                  : CALI
BS .in                    : BS
MUDWEIGHT ._              : MUDWEIGHT
ROP .m/h                  : ROP
DRHO .g/cm3               : DRHO
NPHI .m3/m3               : NPHI
RHOB .g/cm3               : RHOB
GR .gAPI                  : GR
DTC .us/ft                : DTC
DTE .us/ft                : DTE
RDEP .ohm.m               : RDEP
SP .mV                    : SP
RSHA .ohm.m               : RSHA
RHOM .g/cm3               : RHOM
RMED .ohm.m               : RMED
~Parameter
#==================================================================
~Ascii
# ...
 2701.6579590 5.0000000000 16.011999130 8.5000000000 9.8000001907 514561.90625 0.0390000008 0.3098500073 2.2072253227 56.173000336 88.397232056 88.437850952 1.0689791441 103.71199036 1.0980000496 2.6500000954 1.0980000496
 2701.8103027 5.0000000000 16.011999130 8.5000000000 9.8000001907 513454.34375 0.0590000004 0.3145000041 2.2047140598 57.623001099 88.841583252 88.816162109 1.0939599276 104.02449799 1.1260000467 2.6500000954 1.1260000467
 2701.9626465 5.0000000000 16.011999130 8.5000000000 9.8000001907 505265.68750 0.1000000015 0.3193600178 2.1977255344 59.978000641 89.883369446 89.876884460 1.1278911829 104.59516907 1.0959999561 2.6500000954 1.0959999561
 2702.1152344 5.0000000000 16.011999130 8.5000000000 9.8000001907 476458.06250 0.1030000001 0.3236899972 2.1914303303 63.855998993 90.845108032 90.833145142 1.1609470844 105.38473511 1.0509999990 2.6500000954 1.0509999990
 2702.2675781 6.0000000000 16.011999130 8.5000000000 9.8000001907 259156.98438 0.0719999969 0.3277899921 2.1884412766 65.641998291 91.345512390 91.297073364 1.1929486990 106.01898193 1.0789999962 2.6500000954 1.0789999962
 2702.4199219 6.0000000000 16.011999130 8.5000000000 9.8000001907 216069.84375 0.0769999996 0.3328300118 2.1877467632 67.013999939 91.408393860 91.399322510 1.2249487638 106.43333435 1.1549999714 2.6500000954 1.1549999714
 2702.5722656 6.0000000000 16.010999680 8.5000000000 9.8000001907 216096.82813 0.0590000004 0.3401599824 2.1921315193 66.985000610 90.664939880 90.724037170 1.2628784180 106.60644531 1.2280000448 2.6500000954 1.2280000448
 2702.7248535 6.0000000000 16.010999680 8.5000000000 9.8000001907 216120.40625 0.0750000030 0.3503099680 2.1997525692 64.477996826 89.560783386 89.562240601 1.3069294691 106.63095856 1.2259999514 2.6500000954 1.2259999514
 2702.8771973 5.0000000000 16.010999680 8.5000000000 9.8000001907 212951.17188 0.1110000014 0.3623899817 2.2034013271 61.589000702 88.998733521 89.008674622 1.3509293795 106.73084259 1.1870000362 2.6500000954 1.1870000362
 2703.0295410 5.0000000000 16.010999680 8.5000000000 9.8000001907 202312.28125 0.1289999932 0.3741299808 2.2014436722 59.335998535 89.290122986 89.301452637 1.3879407644 106.68606567 1.1870000362 2.6500000954 1.1870000362
 2703.1818848 5.0000000000 16.010999680 8.5000000000 9.8000001907 150377.00000 0.1049999967 0.3826699853 2.1991863251 58.279998779 89.678497314 89.644317627 1.4009791613 106.58216858 1.2380000353 2.6500000954 1.2380000353
 2703.3344727 5.0000000000 16.010999680 8.5000000000 9.8000001907 145714.65625 0.0750000030 0.3858700097 2.2008442879 57.787998199 89.411331177 89.397560120 1.3970063925 106.49514008 1.3120000362 2.6500000954 1.3120000362
 2703.4868164 5.0000000000 16.010999680 8.5000000000 9.8000001907 145739.89063 0.0439999998 0.3835499883 2.2094476223 58.192001343 88.109596252 88.132362366 1.3940048218 106.29331970 1.3550000191 2.6500000954 1.3550000191
 2703.6391602 5.0000000000 16.010000229 8.5000000000 9.8000001907 145765.09375 0.0460000001 0.3775900006 2.2276053429 57.506999969 85.571609497 85.502738953 1.3949984312 106.19216156 1.3470000029 2.6500000954 1.3470000029
 2703.7915039 5.0000000000 16.010000229 8.5000000000 9.8000001907 145790.34375 0.0579999983 0.3708700240 2.2374413013 56.243999481 84.071449280 84.090255737 1.3979952335 105.98732758 1.3220000267 2.6500000954 1.3220000267
 2703.9438477 5.0000000000 16.010000229 8.5000000000 9.8000001907 146446.00000 0.0460000001 0.3656300008 2.2246949673 56.811000824 85.911262512 85.917823792 1.4049775600 105.78066254 1.3140000105 2.6500000954 1.3140000105
 2704.0964355 5.0000000000 16.010000229 8.5000000000 9.8000001907 149895.59375 0.0599999987 0.3624500036 2.2056231499 57.530998230 88.756553650 88.693389893 1.4089936018 105.91278839 1.2999999523 2.6500000954 1.2999999523
 2704.2487793 5.0000000000 16.010000229 8.5000000000 9.8000001907 164479.12500 0.0839999989 0.3603900075 2.1924178600 56.353000641 90.688468933 90.689285278 1.4099984169 105.95992279 1.2649999857 2.6500000954 1.2649999857
 2704.4011230 5.0000000000 16.010000229 8.5000000000 9.8000001907 174737.57813 0.0939999968 0.3578699827 2.1834583282 54.290000916 92.092201233 92.079605103 1.4020128250 105.90608215 1.2230000496 2.6500000954 1.2230000496
 2704.5534668 5.0000000000 16.010000229 8.5000000000 9.8000001907 179096.60938 0.0750000030 0.3537699878 2.1810574532 54.770999908 92.451652527 92.450630188 1.3860511780 105.93589783 1.2200000286 2.6500000954 1.2200000286
 2704.7060547 5.0000000000 16.009000778 8.5000000000 9.8000001907 178616.12500 0.0570000000 0.3482500017 2.1857485771 53.416000366 91.767669678 91.721939087 1.3650336266 106.04682159 1.2640000582 2.6500000954 1.2640000582
 2704.8583984 5.0000000000 16.009000778 8.5000000000 9.8000001907 166436.53125 0.0560000017 0.3430700004 2.1962780952 53.344001770 90.105384827 90.105514526 1.3390417099 106.12187958 1.3099999428 2.6500000954 1.3099999428
 2705.0107422 5.0000000000 16.009000778 8.5000000000 9.8000001907 147614.64063 0.0659999996 0.3407899737 2.2060322762 52.978000641 88.606567383 88.620361328 1.3340079784 106.20586395 1.3009999990 2.6500000954 1.3009999990
 2705.1630859 5.0000000000 16.009000778 8.5000000000 9.8000001907 128998.65625 0.0549999997 0.3437200189 2.2050802708 52.691001892 88.692001343 88.765129089 1.3499488831 106.35552216 1.2960000038 2.6500000954 1.2960000038
 2705.3156738 5.0000000000 16.009000778 8.5000000000 9.8000001907 117011.09375 0.0670000017 0.3529999852 2.1973116398 52.506000519 89.885276794 89.942321777 1.3639775515 106.56765747 1.3569999933 2.6500000954 1.3569999933
 2705.4680176 5.0000000000 16.009000778 8.5000000000 9.8000001907 117036.56250 0.0920000002 0.3682099879 2.1916050911 51.901000977 90.845108032 90.807846069 1.3789758682 107.00429535 1.4119999409 2.6500000954 1.4119999409
 2705.6203613 5.0000000000 16.009000778 8.5000000000 9.8000001907 117061.72656 0.0839999989 0.3872999847 2.1879570484 53.803001404 91.434562683 91.370178223 1.3939759731 107.54113770 1.3810000420 2.6500000954 1.3810000420
 2705.7727051 5.0000000000 16.007999420 8.5000000000 9.8000001907 117087.07031 0.1030000001 0.4072499871 2.1847527027 53.847000122 91.913948059 91.874519348 1.4109727144 107.83452606 1.3179999590 2.6500000954 1.3179999590
 2705.9250488 5.0000000000 16.007999420 8.5000000000 9.8000001907 117112.61719 0.1340000033 0.4250999689 2.1884243488 53.351001740 91.354179382 91.312591553 1.4339264631 108.37526703 1.2580000162 2.6500000954 1.2580000162
 2706.0776367 5.0000000000 16.007999420 8.5000000000 9.8000001907 113909.15625 0.1400000006 0.4389400184 2.1947424412 53.263000488 90.368377686 90.341262817 1.4679455757 109.01197815 1.2289999723 2.6500000954 1.2289999723
 2706.2299805 5.0000000000 16.007999420 8.5000000000 9.8000001907 113015.75781 0.1239999980 0.4485599995 2.1853320599 52.812999725 91.848594666 91.807121277 1.5139263868 109.77378082 1.2489999533 2.6500000954 1.2489999533
 2706.3823242 5.0000000000 16.007999420 8.5000000000 9.8000001907 113040.71094 0.1080000028 0.4554000199 2.1725018024 53.451000214 93.822013855 93.817039490 1.5878814459 110.37902832 1.3029999733 2.6500000954 1.3029999733
 2706.5346680 5.0000000000 16.007999420 8.5000000000 9.8000001907 113066.42969 0.0920000002 0.4617200196 2.1768331528 54.410999298 93.173507690 93.123878479 1.7145936489 110.97209930 1.3589999676 2.6500000954 1.3589999676
 2706.6872559 5.0000000000 16.007999420 8.5000000000 9.8000001907 113091.45313 0.0820000023 0.4693399668 2.1885099411 55.791000366 91.290664673 91.283309937 1.8477869034 111.82663727 1.4110000134 2.6500000954 1.4110000134
 2706.8395996 5.0000000000 16.006999969 8.5000000000 9.8000001907 113117.39844 0.1010000035 0.4787600040 2.1960430145 57.219001770 90.162155151 90.120422363 1.9248765707 112.62072754 1.4609999657 2.6500000954 1.4609999657
 2706.9919434 5.0000000000 16.006999969 8.5000000000 9.8000001907 113141.82813 0.1250000000 0.4890000224 2.1993601322 58.647998810 89.648719788 89.614601135 2.1696074009 113.11720276 1.5520000458 2.6500000954 1.5520000458
 2707.1442871 6.0000000000 16.006999969 8.5000000000 9.8000001907 113168.12500 0.1049999967 0.4981499910 2.2024993896 61.383998871 89.084312439 89.146667480 2.3434433937 113.57752991 1.6809999943 2.6500000954 1.6809999943
