# LAS format log file from PETREL
# Project units are specified as depth units
#==================================================================
~Version information
VERS.   2.0:
WRAP.   NO:
#==================================================================
~Well
STRT .m      1175.9671631 :
STOP .m      1726.7407227 :
STEP .m     0.00000000 :
NULL .        -999.250000 :
COMP.           : COMPANY
WELL.  16/1-6 A Verdandi Appr   : WELL
FLD.            : FIELD
LOC.            : LOCATION
SRVC.           : SERVICE COMPANY
DATE.  2018-09-11 14:48:05   : Log Export Date {yyyy-MM-dd HH:mm:ss}
PROV.           : PROVINCE
UWI.   16/1-6 A   : UNIQUE WELL ID
API.            : API NUMBER
#==================================================================
~Curve
DEPT .m                   : DEPTH
Lithology_geolink ._      : Lithology_geolink
CALI .in                  : CALI
BS .in                    : BS
NPHI .m3/m3               : NPHI
RHOB .g/cm3               : RHOB
PEF .b/e                  : PEF
GR .gAPI                  : GR
DTC .us/ft                : DTC
RDEP .ohm.m               : RDEP
RMED .ohm.m               : RMED
~Parameter
#==================================================================
~Ascii
# ...
 1286.9143066  -999.250000 8.5473003387 8.5000000000 0.3959000111 2.1684000492 3.9739000797 75.098251343 134.18994141 1.2083877325 1.1810870171
 1287.0666504  -999.250000 8.5586004257 8.5000000000 0.4185999930 2.1631999016 3.9832999706 73.847717285 136.10173035 1.2048057318 1.1867908239
 1287.2191162  -999.250000 8.5434999466 8.5000000000 0.3901999891 2.1575000286 3.9521000385 71.701118469 135.69781494 1.2323777676 1.2239701748
 1287.3714600  -999.250000 8.5360002518 8.5000000000 0.3815999925 2.1594998837 3.8917000294 65.997749329 133.90118408 1.2787257433 1.2750182152
 1287.5239258  -999.250000 8.5360002518 8.5000000000 0.3865999877 2.1640000343 3.8575000763 64.771774292 134.29667664 1.2442277670 1.2290369272
 1287.6762695  -999.250000 8.5360002518 8.5000000000 0.4183999896 2.1673998833 3.8856999874 63.235065460 135.12127686 1.1766083241 1.1596113443
 1287.8287354  -999.250000 8.5360002518 8.5000000000 0.4334000051 2.1638998985 3.9883000851 66.481788635 136.80923462 1.1288383007 1.1150356531
 1287.9810791  -999.250000 8.5360002518 8.5000000000 0.4262000024 2.1591000557 4.0518999100 64.536766052 137.79690552 1.1045194864 1.0902198553
 1288.1335449  -999.250000 8.5360002518 8.5000000000 0.4045000076 2.1503000259 4.1012997627 67.330055237 135.57759094 1.0786207914 1.0618227720
 1288.2858887  -999.250000 8.5360002518 8.5000000000 0.4140000045 2.1403000355 4.1617999077 63.214004517 135.49255371 1.0670093298 1.0494098663
 1288.4383545  -999.250000 8.5132999420 8.5000000000 0.4205999970 2.1356000900 4.2579998970 63.347389221 134.65226746 1.0983748436 1.0730810165
 1288.5906982  -999.250000 8.5057001114 8.5000000000 0.4481999874 2.1391000748 4.2870998383 62.487091064 135.22164917 1.1358699799 1.1126682758
 1288.7431641  -999.250000 8.5132999420 8.5000000000 0.4456999898 2.1403999329 4.2302999496 65.800941467 134.45033264 1.1700725555 1.1464729309
 1288.8955078  -999.250000 8.4905996323 8.5000000000 0.4546000063 2.1317999363 4.1504001617 65.434295654 136.65733337 1.2006754875 1.1778748035
 1289.0479736  -999.250000 8.4982004166 8.5000000000 0.4210000038 2.1219000816 4.1213998795 63.686901093 133.52311707 1.2437655926 1.2204658985
 1289.2003174  -999.250000 8.4905996323 8.5000000000 0.4000000060 2.1212000847 4.1463999748 56.698303223 133.52330017 1.3018534184 1.2715591192
 1289.3526611  -999.250000 8.4905996323 8.5000000000 0.3666999936 2.1261000633 4.1575999260 55.134300232 133.35087585 1.3194718361 1.2885727882
 1289.5051270  -999.250000 8.4905996323 8.5000000000 0.3767000139 2.1254000664 4.1420001984 53.430564880 133.68234253 1.2939205170 1.2630205154
 1289.6574707  -999.250000 8.5019998550 8.5000000000 0.3817999959 2.1259999275 4.1171998978 54.959842682 133.95286560 1.2705373764 1.2416342497
 1289.8099365  -999.250000 8.5132999420 8.5000000000 0.3919999897 2.1294999123 4.1058001518 55.610179901 134.19410706 1.2486175299 1.2180190086
 1289.9622803  -999.250000 8.5019998550 8.5000000000 0.3745000064 2.1322999001 4.1536002159 54.214439392 134.27168274 1.2265354395 1.1971335411
 1290.1147461  -999.250000 8.4982004166 8.5000000000 0.4038000107 2.1317000389 4.2368998528 57.850482941 134.32705688 1.2184064388 1.1892063618
 1290.2670898  -999.250000 8.4905996323 8.5000000000 0.4226999879 2.1277000904 4.4131999016 58.299739838 134.39355469 1.2229963541 1.1940960884
 1290.4195557  -999.250000 8.4905996323 8.5000000000 0.4241000116 2.1306002140 4.6050000191 61.094959259 134.11172485 1.2371886969 1.2076891661
 1290.5718994  -999.250000 8.4680004120 8.5000000000 0.4086000025 2.1310999393 4.7902998924 60.597999573 134.04704285 1.2475916147 1.2204897404
 1290.7243652  -999.250000 8.4680004120 8.5000000000 0.3783999979 2.1321001053 4.9010000229 60.267765045 134.07337952 1.2516967058 1.2236975431
 1290.8767090  -999.250000 8.4680004120 8.5000000000 0.3788000047 2.1291999817 4.9812998772 61.082649231 134.73426819 1.2401093245 1.2125089169
 1291.0291748  -999.250000 8.4680004120 8.5000000000 0.3928999901 2.1257998943 4.9848999977 56.965000153 134.25497437 1.2230137587 1.1955136061
 1291.1815186  -999.250000 8.4453001022 8.5000000000 0.4174999893 2.1250998974 4.8470997810 56.360881805 134.31304932 1.1997187138 1.1719189882
 1291.3338623  -999.250000 8.4453001022 8.5000000000 0.4338000119 2.1254999638 4.5977001190 56.348201752 134.43519592 1.2159738541 1.1872752905
 1291.4863281  -999.250000 8.4338998795 8.5000000000 0.4101000130 2.1221001148 4.3376998901 59.174900055 133.66313171 1.2536698580 1.2215725183
 1291.6386719  -999.250000 8.4566001892 8.5000000000 0.4045999944 2.1147999763 4.1514000893 60.009399414 134.42687988 1.2623860836 1.2311846018
 1291.7911377  -999.250000 8.4566001892 8.5000000000 0.3996999860 2.1119999886 4.0029001236 58.989101410 135.07728577 1.2495104074 1.2178107500
 1291.9434814  -999.250000 8.4680004120 8.5000000000 0.4210999906 2.1117000580 3.9051001072 61.203498840 135.55683899 1.2286335230 1.1981315613
 1292.0959473  -999.250000 8.4680004120 8.5000000000 0.4320999980 2.1103000641 3.8684999943 61.952098846 136.05430603 1.2073169947 1.1767171621
 1292.2482910  -999.250000 8.4680004120 8.5000000000 0.4271999896 2.1031000614 3.8919999599 64.266601563 135.68908691 1.1957093477 1.1641101837
 1292.4007568  -999.250000 8.4792995453 8.5000000000 0.4219000041 2.1059999466 3.9454998970 63.971500397 136.44519043 1.1895049810 1.1575052738
 1292.5531006  -999.250000 8.4755001068 8.5000000000 0.4246999919 2.1085999012 4.0227999687 67.278602600 136.46218872 1.1817061901 1.1495064497
 1292.7055664  -999.250000 8.4792995453 8.5000000000 0.4368999898 2.1127998829 4.0823001862 63.082901001 136.36367798 1.1732068062 1.1442042589
 1292.8579102  -999.250000 8.4792995453 8.5000000000 0.4422999918 2.1105000973 4.1023001671 62.583301544 135.80953979 1.1798946857 1.1505948305
 1293.0103760  -999.250000 8.4905996323 8.5000000000 0.4278999865 2.1149001122 4.0496997833 57.478698730 137.77513123 1.1953876019 1.1658877134
 1293.1627197  -999.250000 8.4680004120 8.5000000000 0.4007000029 2.1242001057 3.9612998962 58.411098480 136.59794617 1.2165830135 1.1873826981
 1293.3150635  -999.250000 8.4905996323 8.5000000000 0.4023999870 2.1315000057 3.9126000404 57.786598206 134.27532959 1.2367676497 1.2073678970
 1293.4675293  -999.250000 8.4905996323 8.5000000000 0.4056000113 2.1345999241 3.9177999496 57.651798248 134.19175720 1.2358008623 1.2075998783
 1293.6198730  -999.250000 8.4905996323 8.5000000000 0.4092000127 2.1382999420 3.9423999786 57.872299194 136.27705383 1.2186275721 1.1917254925
 1293.7723389  -999.250000 8.4905996323 8.5000000000 0.3901000023 2.1452999115 3.9282999039 54.862701416 136.56356812 1.1976168156 1.1728150845
 1293.9246826  -999.250000 8.5019998550 8.5000000000 0.4041000009 2.1493999958 3.9103000164 54.647800446 136.72384644 1.1875162125 1.1631155014
 1294.0771484  -999.250000 8.5019998550 8.5000000000 0.4101000130 2.1451001167 3.9173998833 54.752300262 136.79524231 1.1782075167 1.1592030525
 1294.2294922  -999.250000 8.4905996323 8.5000000000 0.4235999882 2.1296999454 3.9611001015 56.267398834 136.74264526 1.1703063250 1.1536045074
 1294.3819580  -999.250000 8.4905996323 8.5000000000 0.4162999988 2.1154999733 3.9756000042 58.714900970 136.54057312 1.1754958630 1.1611939669
 1294.5343018  -999.250000 8.4905996323 8.5000000000 0.4277999997 2.1024000645 3.9755001068 59.214000702 136.46276855 1.2113713026 1.2042654753
 1294.6867676  -999.250000 8.4905996323 8.5000000000 0.4426999986 2.0966000557 4.0360999107 58.834999084 133.91345215 1.2655565739 1.2483646870
 1294.8391113  -999.250000 8.5057001114 8.5000000000 0.4348999858 2.0982000828 4.2153000832 58.601898193 134.81697083 1.2529101372 1.2354103327
 1294.9915771  -999.250000 8.5019998550 8.5000000000 0.4481999874 2.1080000401 4.4520001411 59.971401215 135.89263916 1.2043389082 1.1850402355
 1295.1439209  -999.250000 8.5132999420 8.5000000000 0.4336999953 2.1275999546 4.5701999664 61.095401764 136.90528870 1.1435487270 1.1236492395
 1295.2963867  -999.250000 8.5360002518 8.5000000000 0.4677999914 2.1386001110 4.5313000679 62.843601227 137.74263000 1.0980365276 1.0796352625
