# LAS format log file from PETREL
# Project units are specified as depth units
#==================================================================
~Version information
VERS.   2.0:
WRAP.   NO:
#==================================================================
~Well
STRT .m      2645.2697754 :
STOP .m      2924.0100098 :
STEP .m     0.00000000 :
NULL .        -999.250000 :
COMP.           : COMPANY
WELL.  16/1-2  Ivar Aasen Appr   : WELL
FLD.            : FIELD
LOC.            : LOCATION
SRVC.           : SERVICE COMPANY
DATE.  2018-09-11 14:48:05   : Log Export Date {yyyy-MM-dd HH:mm:ss}
PROV.           : PROVINCE
UWI.   16/1-2   : UNIQUE WELL ID
API.            : API NUMBER
#==================================================================
~Curve
DEPT .m                   : DEPTH
Lithology_geolink ._      : Lithology_geolink
CALI .in                  : CALI
BS .in                    : BS
MUDWEIGHT ._              : MUDWEIGHT
ROP .m/h                  : ROP
DRHO .g/cm3               : DRHO
NPHI .m3/m3               : NPHI
RHOB .g/cm3               : RHOB
GR .gAPI                  : GR
DTC .us/ft                : DTC
DTE .us/ft                : DTE
RDEP .ohm.m               : RDEP
SP .mV                    : SP
RSHA .ohm.m               : RSHA
RHOM .g/cm3               : RHOM
RMED .ohm.m               : RMED
~Parameter
#==================================================================
~Ascii
# ...
 2662.1862793 5.0000000000 11.392999649 8.5000000000 9.8000001907 461190.28125 0.1580000073 0.6008000374 2.2737863064 52.268001556 99.759208679 95.558662415 1.0560384989 97.573753357 1.0060000420 2.6500000954 1.0060000420
 2662.3386230 5.0000000000 12.630999565 8.5000000000 9.8000001907 427911.12500 0.1509999931 0.5811299682 2.2901885509 52.335998535 97.197708130 92.919052124 1.0480383635 97.697799683 1.0540000200 2.6500000954 1.0540000200
 2662.4909668 5.0000000000 12.992999077 8.5000000000 9.8000001907 425716.56250 0.1280000061 0.5583199859 2.3036859035 53.256000519 94.903205872 90.803382874 1.0450143814 97.859481812 1.1330000162 2.6500000954 1.1330000162
 2662.6435547 5.0000000000 13.050000191 8.5000000000 9.8000001907 426005.87500 0.1010000035 0.5354899764 2.3079667091 55.098999023 94.204727173 90.142379761 1.0489871502 97.986793518 1.2159999609 2.6500000954 1.2159999609
 2662.7958984 5.0000000000 13.248000145 8.5000000000 9.8000001907 426679.78125 0.0659999996 0.5157400370 2.3016579151 56.022998810 95.161071777 91.120193481 1.0599646568 97.911125183 1.2050000429 2.6500000954 1.2050000429
 2662.9482422 5.0000000000 13.442998886 8.5000000000 9.8000001907 432572.28125 0.0579999983 0.5008000135 2.2886590958 55.346000671 97.158195496 93.156761169 1.0729376078 97.755249023 1.1150000095 2.6500000954 1.1150000095
 2663.1005859 5.0000000000 13.645000458 8.5000000000 9.8000001907 444168.09375 0.0689999983 0.4906000197 2.2787833214 53.526000977 98.710769653 94.731628418 1.0879279375 97.952369690 1.0549999475 2.6500000954 1.0549999475
 2663.2531738 5.0000000000 14.605000496 8.5000000000 9.8000001907 485955.34375 0.0759999976 0.4838499725 2.2774829865 52.215000153 98.941146851 94.944213867 1.0979679823 98.376319885 1.0420000553 2.6500000954 1.0420000553
 2663.4055176 5.0000000000 15.954001427 8.5000000000 9.8000001907 593951.93750 0.0879999995 0.4788399935 2.2801587582 52.679000854 98.652641296 94.509819031 1.1029840708 99.025955200 1.0559999943 2.6500000954 1.0559999943
 2663.5578613 5.0000000000 17.329000473 8.5000000000 9.8000001907 695376.12500 0.0909999982 0.4742699862 2.2812638283 54.744998932 98.503196716 94.328681946 1.1030000448 99.248641968 1.0770000219 2.6500000954 1.0770000219
 2663.7102051 5.0000000000 18.716999054 8.5000000000 9.8000001907 706235.81250 0.0890000015 0.4696699977 2.2802898884 57.242000580 98.533203125 94.485763550 1.0990191698 99.190093994 1.0870000124 2.6500000954 1.0870000124
 2663.8627930 5.0000000000 20.204999924 8.5000000000 9.8000001907 706061.81250 0.0890000015 0.4654299915 2.2823631763 59.112998962 98.197418213 94.153823853 1.1019903421 99.393669128 1.0900000334 2.6500000954 1.0900000334
 2664.0151367 5.0000000000 20.965000153 8.5000000000 9.8000001907 696581.75000 0.1120000035 0.4623000026 2.2932357788 60.345001221 96.569557190 92.439201355 1.1109710932 99.788368225 1.1009999514 2.6500000954 1.1009999514
 2664.1674805 5.0000000000 21.274000168 8.5000000000 9.8000001907 543048.18750 0.1340000033 0.4609299898 2.3094129562 60.174999237 94.035049438 89.935668945 1.1269487143 100.00165558 1.1219999790 2.6500000954 1.1219999790
 2664.3198242 5.0000000000 20.841999054 8.5000000000 9.8000001907 387474.00000 0.1250000000 0.4614199698 2.3215723038 59.005001068 92.184913635 88.093772888 1.1528751850 100.26657104 1.1549999714 2.6500000954 1.1549999714
 2664.4721680 5.0000000000 19.320999146 8.5000000000 9.8000001907 387320.96875 0.1000000015 0.4632599950 2.3256025314 58.407001495 91.620559692 87.493896484 1.1798701286 100.40853882 1.1940000057 2.6500000954 1.1940000057
 2664.6247559 5.0000000000 18.732000351 8.5000000000 9.8000001907 386839.53125 0.0740000010 0.4655899704 2.3231208324 59.349998474 91.911064148 87.862831116 1.1879743338 100.36207581 1.2300000191 2.6500000954 1.2300000191
 2664.7770996 5.0000000000 19.188999176 8.5000000000 9.8000001907 381448.34375 0.0529999994 0.4671599865 2.3165886402 60.293998718 92.925430298 88.841438293 1.1860064268 100.21823120 1.2669999599 2.6500000954 1.2669999599
 2664.9294434 5.0000000000 20.256000519 8.5000000000 9.8000001907 373970.84375 0.0700000003 0.4665700197 2.3056364059 59.929000854 94.773101807 90.509170532 1.1899808645 99.826622009 1.2790000439 2.6500000954 1.2790000439
 2665.0817871 5.0000000000 21.392999649 8.5000000000 9.8000001907 370525.81250 0.0570000000 0.4630099833 2.2898876667 60.312999725 97.126075745 92.968231201 1.2049279213 99.637603760 1.2120000124 2.6500000954 1.2120000124
 2665.2343750 5.0000000000 21.408000946 8.5000000000 9.8000001907 357247.90625 0.0960000008 0.4569100142 2.2786145210 60.452999115 98.881011963 94.760040283 1.2279263735 99.447303772 1.1160000563 2.6500000954 1.1160000563
 2665.3867188 5.0000000000 21.396999359 8.5000000000 9.8000001907 355154.31250 0.1110000014 0.4501399994 2.2835876942 58.965999603 98.000595093 93.964614868 1.2329840660 99.600753784 1.0709999800 2.6500000954 1.0709999800
 2665.5390625 5.0000000000 20.260002136 8.5000000000 9.8000001907 352754.00000 0.0790000036 0.4454399943 2.2978179455 58.521999359 95.733276367 91.714958191 1.2130641937 100.01034546 1.0670000315 2.6500000954 1.0670000315
 2665.6914063 5.0000000000 19.302000046 8.5000000000 9.8000001907 352607.50000 0.0439999998 0.4453600049 2.3058474064 59.662998199 94.541862488 90.465194702 1.1811535358 100.10768890 1.0779999495 2.6500000954 1.0779999495
 2665.8439941 5.0000000000 19.799999237 8.5000000000 9.8000001907 352445.87500 0.0240000002 0.4509299994 2.3060772419 61.539001465 94.442977905 90.423461914 1.1481057405 100.20584106 1.0850000381 2.6500000954 1.0850000381
 2665.9963379 5.0000000000 20.531999588 8.5000000000 9.8000001907 352301.21875 0.0790000036 0.4608500004 2.3066563606 63.081001282 94.508995056 90.334503174 1.1270673275 100.46858215 1.0939999819 2.6500000954 1.0939999819
 2666.1486816 5.0000000000 21.274000168 8.5000000000 9.8000001907 354183.40625 0.1340000033 0.4717599750 2.3119003773 62.187999725 93.675765991 89.543434143 1.1180288792 100.35218811 1.1139999628 2.6500000954 1.1139999628
 2666.3010254 5.0000000000 21.766998291 8.5000000000 9.8000001907 368961.62500 0.1140000001 0.4796699882 2.3186504841 60.261001587 92.512351990 88.529914856 1.1150144339 100.06046295 1.1169999838 2.6500000954 1.1169999838
 2666.4533691 5.0000000000 21.885999680 8.5000000000 9.8000001907 499248.71875 0.1000000015 0.4817100167 2.3208730221 60.469001770 92.274406433 88.197471619 1.1199759245 99.926429749 1.1019999981 2.6500000954 1.1019999981
 2666.6059570 5.0000000000 21.750000000 8.5000000000 9.8000001907 524755.00000 0.0850000009 0.4773799777 2.3144311905 62.222999573 93.220382690 89.167839050 1.1150159836 99.818176270 1.1059999466 2.6500000954 1.1059999466
 2666.7583008 5.0000000000 21.756000519 8.5000000000 9.8000001907 521314.81250 0.0740000010 0.4685200155 2.3059425354 63.306999207 94.388214111 90.449005127 1.1000480652 99.688209534 1.1239999533 2.6500000954 1.1239999533
 2666.9106445 5.0000000000 21.434999466 8.5000000000 9.8000001907 497840.06250 0.0710000023 0.4583100080 2.3058638573 63.862998962 94.420372009 90.460563660 1.0830816031 99.691993713 1.1339999437 2.6500000954 1.1339999437
 2667.0629883 5.0000000000 20.412000656 8.5000000000 9.8000001907 434341.78125 0.0619999990 0.4499999881 2.3094832897 63.870998383 93.915679932 89.900939941 1.0621010065 99.760780334 1.1150000095 2.6500000954 1.1150000095
 2667.2155762 5.0000000000 21.024999619 8.5000000000 9.8000001907 391406.40625 0.0619999990 0.4458499849 2.3095905781 63.039001465 93.966415405 89.885765076 1.0390737057 99.556327820 1.0729999542 2.6500000954 1.0729999542
 2667.3679199 5.0000000000 20.281999588 8.5000000000 9.8000001907 388591.87500 0.0729999989 0.4465999901 2.3042178154 62.444000244 94.922538757 90.720458984 1.0270384550 99.360313416 1.0319999456 2.6500000954 1.0319999456
 2667.5202637 5.0000000000 19.406999588 8.5000000000 9.8000001907 388444.84375 0.0860000029 0.4516099989 2.2906281948 62.803001404 97.097740173 92.854171753 1.0260047913 99.076454163 0.9990000129 2.6500000954 0.9990000129
 2667.6726074 6.0000000000 20.261999130 8.5000000000 9.8000001907 388282.40625 0.1010000035 0.4596099854 2.2731504440 64.060997009 99.748069763 95.673988342 1.0309759378 98.737091064 0.9800000191 2.6500000954 0.9800000191
