# LAS format log file from PETREL
# Project units are specified as depth units
#==================================================================
~Version information
VERS.   2.0:
WRAP.   NO:
#==================================================================
~Well
STRT .m      2645.2697754 :
STOP .m      2924.0100098 :
STEP .m     0.00000000 :
NULL .        -999.250000 :
COMP.           : COMPANY
WELL.  16/1-2  Ivar Aasen Appr   : WELL
FLD.            : FIELD
LOC.            : LOCATION
SRVC.           : SERVICE COMPANY
DATE.  2018-09-11 14:48:05   : Log Export Date {yyyy-MM-dd HH:mm:ss}
PROV.           : PROVINCE
UWI.   16/1-2   : UNIQUE WELL ID
API.            : API NUMBER
#==================================================================
~Curve
DEPT .m                   : DEPTH
Lithology_geolink ._      : Lithology_geolink
CALI .in                  : CALI
BS .in                    : BS
MUDWEIGHT ._              : MUDWEIGHT
ROP .m/h                  : ROP
DRHO .g/cm3               : DRHO
NPHI .m3/m3               : NPHI
RHOB .g/cm3               : RHOB
GR .gAPI                  : GR
DTC .us/ft                : DTC
DTE .us/ft                : DTE
RDEP .ohm.m               : RDEP
SP .mV                    : SP
RSHA .ohm.m               : RSHA
RHOM .g/cm3               : RHOM
RMED .ohm.m               : RMED
~Parameter
#==================================================================
~Ascii
# ...
 2752.4072266 6.0000000000 9.0830001831 8.5000000000 9.0000000000 255545.09375 0.0020000001 0.2173609436 2.5733749866 88.964996338 66.771263123 66.769508362 6.4056925774 90.315002441 7.3418107033 2.7999999523 7.3418107033
 2752.5595703 6.0000000000 9.0729999542 8.5000000000 9.0000000000 253947.75000 0.0010000000 0.2179504931 2.5631375313 92.345001221 67.459899902 67.443969727 6.5973858833 90.561996460 7.2244696617 2.7999999523 7.2244696617
 2752.7121582 6.0000000000 9.0629997253 8.5000000000 9.0000000000 250972.46875 0.0000000000 0.2182551473 2.5549702644 94.617996216 67.884727478 67.846054077 6.7886939049 90.709999084 7.5185456276 2.7999999523 7.5185456276
 2752.8645020 6.0000000000 9.0530004501 8.5000000000 9.0000000000 243704.68750 0.0000000000 0.2167326361 2.5546875000 94.792999268 67.199241638 67.198364258 6.9806923866 90.942001343 8.0004100800 2.7999999523 8.0004100800
 2753.0168457 6.0000000000 9.0439996719 8.5000000000 9.0000000000 237480.84375 0.0040000002 0.2121375352 2.5665750504 92.988998413 65.461349487 65.472259521 7.2325959206 91.111000061 8.2558135986 2.7999999523 8.2558135986
 2753.1691895 6.0000000000 9.0419998169 8.5000000000 9.0000000000 207086.26563 0.0070000002 0.2043544650 2.5863626003 92.835998535 63.289138794 63.295276642 7.5774474144 91.219001770 8.1403532028 2.7999999523 8.1403532028
 2753.3215332 6.0000000000 9.0450000763 8.5000000000 9.0000000000 167831.59375 0.0109999999 0.1946547329 2.6029424667 93.388999939 61.743816376 61.672439575 7.9577808380 91.495002747 8.3621149063 2.7999999523 8.3621149063
 2753.4741211 6.0000000000 9.0480003357 8.5000000000 9.0000000000 167740.50000 0.0189999994 0.1851260364 2.6146373749 94.452003479 61.385635376 61.293262482 8.3373928070 92.106002808 9.6862211227 2.7999999523 9.6862211227
 2753.6264648 6.0000000000 9.0520000458 8.5000000000 9.0000000000 167638.93750 0.0240000002 0.1776523590 2.6196625233 96.876998901 61.445259094 61.417289734 8.7173910141 92.544998169 11.627103806 2.7999999523 11.627103806
 2753.7788086 6.0000000000 9.0539999008 8.5000000000 9.0000000000 167538.23438 0.0140000004 0.1728860289 2.6121125221 100.87699890 60.991512299 61.038177490 9.0963926315 92.822998047 13.564076424 2.7999999523 13.564076424
 2753.9311523 6.0000000000 9.0399999619 8.5000000000 9.0000000000 164501.57813 0.0209999997 0.1704183817 2.6033132076 102.85800171 59.984214783 60.004505157 9.4279375076 93.280998230 15.483298302 2.7999999523 15.483298302
 2754.0837402 6.0000000000 9.0200004578 8.5000000000 9.0000000000 166665.35938 0.0030000000 0.1694197655 2.6059124470 104.42900085 58.702411652 58.634349823 9.6945734024 93.975997925 16.914524078 2.7999999523 16.914524078
 2754.2360840 6.0000000000 9.0000000000 8.5000000000 9.0000000000 193788.60938 0.0160000008 0.1693513244 2.6141874790 104.15299988 57.778224945 57.749275208 9.8737125397 95.037002563 16.762538910 2.7999999523 16.762538910
 2754.3884277 6.0000000000 8.9960002899 8.5000000000 9.0000000000 256219.31250 0.0080000004 0.1701830924 2.6181249619 101.83599854 57.624214172 57.658374786 9.8200864792 95.950996399 14.602542877 2.7999999523 14.602542877
 2754.5407715 6.0000000000 8.9980001450 8.5000000000 9.0000000000 269263.31250 -0.004000000 0.1721151322 2.6135249138 99.500000000 58.256912231 58.260276794 9.4581613541 96.623001099 12.448239326 2.7999999523 12.448239326
 2754.6933594 6.0000000000 9.0000000000 8.5000000000 9.0000000000 270618.34375 -0.015000000 0.1753242761 2.6002447605 99.044998169 59.359516144 59.378246307 8.9428253174 97.415000916 11.973686218 2.7999999523 11.973686218
 2754.8457031 6.0000000000 9.0030002594 8.5000000000 9.0000000000 271712.65625 -0.014000000 0.1797786802 2.5852625370 103.82599640 60.550888062 60.619327545 8.4298219681 98.307998657 11.874629021 2.7999999523 11.874629021
 2754.9980469 6.0000000000 9.0050001144 8.5000000000 9.0000000000 274537.06250 -0.005000000 0.1851994991 2.5744624138 113.10800171 62.063076019 62.148662567 7.9377884865 99.273002625 11.018132210 2.7999999523 11.018132210
 2755.1503906 6.0000000000 9.0069999695 8.5000000000 9.0000000000 270742.00000 -0.004000000 0.1911294907 2.5608000755 122.84600067 64.094802856 64.161750793 7.5036954880 100.10900116 9.8522834778 2.7999999523 9.8522834778
 2755.3027344 6.0000000000 9.0100002289 8.5000000000 9.0000000000 253233.60938 -0.003000000 0.1970486343 2.5463929176 133.71499634 65.975898743 66.084724426 7.1042799950 100.81700134 8.7821378708 2.7999999523 8.7821378708
 2755.4553223 7.0000000000 9.0120000839 8.5000000000 9.0000000000 237442.23438 0.0020000001 0.2024368793 2.5386376381 142.87399292 67.557022095 67.642211914 6.7166204453 101.62899780 8.2438573837 2.7999999523 8.2438573837
 2755.6076660 7.0000000000 9.0150003433 8.5000000000 9.0000000000 232673.10938 0.0030000000 0.2067344487 2.5333626270 148.20700073 68.630271912 68.669654846 6.4514250755 102.34200287 8.1548328400 2.7999999523 8.1548328400
 2755.7600098 7.0000000000 9.0170001984 8.5000000000 9.0000000000 232583.25000 -0.001000000 0.2095018476 2.5313124657 154.00399780 68.797752380 68.803115845 6.3002419472 102.69699860 8.0507946014 2.7999999523 8.0507946014
 2755.9123535 7.0000000000 9.0190000534 8.5000000000 9.0000000000 232481.82813 -0.005000000 0.2106398195 2.5340857506 161.98699951 68.353263855 68.267105103 6.1494832039 102.54900360 7.9228157997 2.7999999523 7.9228157997
 2756.0649414 7.0000000000 9.0220003128 8.5000000000 9.0000000000 228904.82813 -0.005000000 0.2105279118 2.5368001461 168.01899719 67.795524597 67.761528015 6.0431699753 102.11399841 7.8078527451 2.7999999523 7.8078527451
 2756.2172852 7.0000000000 9.0080003738 8.5000000000 9.0000000000 221221.42188 0.0040000002 0.2098793983 2.5405125618 172.52799988 67.497398376 67.551528931 6.0120496750 101.51100159 7.7621474266 2.7999999523 7.7621474266
 2756.3696289 7.0000000000 8.9729995728 8.5000000000 9.0000000000 316310.03125 0.0109999999 0.2095007300 2.5450625420 176.61999512 67.456893921 67.486946106 6.0090045929 100.68599701 7.8542852402 2.7999999523 7.8542852402
 2756.5219727 7.0000000000 8.9479999542 8.5000000000 9.0000000000 367366.59375 0.0070000002 0.2099524885 2.5438375473 173.96099854 67.429901123 67.502784729 6.0070061684 99.633003235 8.0321903229 2.7999999523 8.0321903229
 2756.6745605 7.0000000000 8.9409999847 8.5000000000 9.0000000000 368842.59375 0.0000000000 0.2114979476 2.5370311737 169.19299316 67.587074280 67.612106323 5.9101552963 98.588996887 8.1512308121 2.7999999523 8.1512308121
 2756.8269043 7.0000000000 8.9409999847 8.5000000000 9.0000000000 368741.65625 -0.006000000 0.2139747590 2.5340750217 164.43899536 67.646461487 67.591979980 5.7153124809 97.635002136 8.2232532501 2.7999999523 8.2232532501
 2756.9792480 7.0000000000 8.9399995804 8.5000000000 9.0000000000 354994.71875 -0.002000000 0.2169547528 2.5399374962 159.96099854 67.189002991 67.111000061 5.5193142891 96.723999023 8.3812732697 2.7999999523 8.3812732697
 2757.1315918 7.0000000000 8.9390001297 8.5000000000 9.0000000000 305804.81250 0.0099999998 0.2199240178 2.5557749271 158.15199280 66.357299805 66.344604492 5.3263096809 96.097000122 8.5521039963 2.7999999523 8.5521039963
 2757.2841797 7.0000000000 8.9370002747 8.5000000000 9.0000000000 251084.96875 0.0270000007 0.2224253118 2.5792360306 156.89399719 65.469093323 65.477279663 5.1333088875 95.549003601 8.6164464951 2.7999999523 8.6164464951
 2757.4365234 7.0000000000 8.9230003357 8.5000000000 9.0000000000 248060.34375 0.0209999997 0.2240808606 2.5967874527 159.76100159 64.784362793 64.783363342 4.9423060417 95.222999573 8.4427900314 2.7999999523 8.4427900314
 2757.5888672 7.0000000000 8.8999996185 8.5000000000 9.0000000000 251645.68750 0.0140000004 0.2246085703 2.6024999619 171.16400146 64.635299683 64.554763794 4.7503075600 95.117996216 7.6876621246 2.7999999523 7.6876621246
 2757.7412109 7.0000000000 8.8760004044 8.5000000000 9.0000000000 252005.75000 0.0260000005 0.2237160206 2.6043000221 190.25500488 64.685813904 64.611495972 4.5583076477 95.012001038 6.8532662392 2.7999999523 6.8532662392
 2757.8935547 7.0000000000 8.8520002365 8.5000000000 9.0000000000 251894.39063 0.0299999993 0.2212335318 2.6022164822 221.26400757 64.808860779 64.734504700 4.3975148201 95.004997253 6.3955559731 2.7999999523 6.3955559731
