# LAS format log file from PETREL
# Project units are specified as depth units
#==================================================================
~Version information
VERS.   2.0:
WRAP.   NO:
#==================================================================
~Well
STRT .m      410.00479126 :
STOP .m      2954.3227539 :
STEP .m     0.00000000 :
NULL .        -999.250000 :
COMP.           : COMPANY
WELL.  16/11-1 S   : WELL
FLD.            : FIELD
LOC.            : LOCATION
SRVC.           : SERVICE COMPANY
DATE.  2018-09-11 14:48:06   : Log Export Date {yyyy-MM-dd HH:mm:ss}
PROV.           : PROVINCE
UWI.   16/11-1 S   : UNIQUE WELL ID
API.            : API NUMBER
#==================================================================
~Curve
DEPT .m                   : DEPTH
Lithology_geolink ._      : Lithology_geolink
CALI .in                  : CALI
DRHO .g/cm3               : DRHO
NPHI .m3/m3               : NPHI
RHOB .g/cm3               : RHOB
GR .gAPI                  : GR
DTC .us/ft                : DTC
RDEP .ohm.m               : RDEP
RSHA .ohm.m               : RSHA
RMED .ohm.m               : RMED
~Parameter
#==================================================================
~Ascii
# ...
 452.67678833  -999.250000 15.216799736  -999.250000  -999.250000  -999.250000 25.623500824 188.25540161 1.0655000210  -999.250000 1.1360987425
 452.82919312  -999.250000 15.216500282  -999.250000  -999.250000  -999.250000 24.061599731 188.30439758 1.0096000433  -999.250000 1.1424987316
 452.98159790  -999.250000 15.216199875  -999.250000  -999.250000  -999.250000 23.568399429 188.35339355 1.0033999681  -999.250000 1.1492986679
 453.13400269  -999.250000 15.215900421  -999.250000  -999.250000  -999.250000 23.186000824 188.40242004 1.0436999798  -999.250000 1.1717954874
 453.28637695  -999.250000 15.215600014  -999.250000  -999.250000  -999.250000 22.450799942 188.45140076 1.0683000088  -999.250000 1.1943908930
 453.43878174  -999.250000 15.215299606  -999.250000  -999.250000  -999.250000 21.596200943 188.50039673 1.1176999807  -999.250000 1.2168909311
 453.59118652  -999.250000 15.214999199  -999.250000  -999.250000  -999.250000 21.158800125 188.54939270 1.1922999620  -999.250000 1.2359961271
 453.74359131  -999.250000 15.214698792  -999.250000  -999.250000  -999.250000 21.718999863 188.59840393 1.2101000547  -999.250000 1.2520967722
 453.89599609  -999.250000 15.214400291  -999.250000  -999.250000  -999.250000 21.660200119 188.64741516 1.1955000162  -999.250000 1.2680968046
 454.04840088  -999.250000 15.214099884  -999.250000  -999.250000  -999.250000 20.659500122 188.69639587 1.1996999979  -999.250000 1.2841967344
 454.20080566  -999.250000 15.213999748  -999.250000  -999.250000  -999.250000 19.624200821 188.74549866 1.2259999514  -999.250000 1.3002967834
 454.35317993  -999.250000 15.215399742  -999.250000  -999.250000  -999.250000 18.738399506 188.79447937 1.2954000235  -999.250000 1.3160936832
 454.50558472  -999.250000 15.216699600  -999.250000  -999.250000  -999.250000 17.444200516 188.84339905 1.2770999670  -999.250000 1.3243966103
 454.65798950  -999.250000 15.218099594  -999.250000  -999.250000  -999.250000 16.760000229 188.89251709 1.3157999516  -999.250000 1.3326983452
 454.81039429  -999.250000 15.219400406  -999.250000  -999.250000  -999.250000 16.719200134 188.94149780 1.3545999527  -999.250000 1.3410983086
 454.96279907  -999.250000 15.220701218  -999.250000  -999.250000  -999.250000 17.087699890 188.99049377 1.3933999538  -999.250000 1.3493983746
 455.11520386  -999.250000 15.222100258  -999.250000  -999.250000  -999.250000 16.835599899 189.03950500 1.4153000116  -999.250000 1.3576983213
 455.26760864  -999.250000 15.223400116  -999.250000  -999.250000  -999.250000 17.397199631 189.08850098 1.4292999506  -999.250000 1.3659983873
 455.41998291  -999.250000 15.224800110  -999.250000  -999.250000  -999.250000 18.235000610 189.13749695 1.4430999756  -999.250000 1.3742966652
 455.57238770  -999.250000 15.226099968  -999.250000  -999.250000  -999.250000 18.693500519 189.18649292 1.4421000481  -999.250000 1.3793979883
 455.72479248  -999.250000 15.227499962  -999.250000  -999.250000  -999.250000 17.856000900 189.23550415 1.4411000013  -999.250000 1.3844989538
 455.87719727  -999.250000 15.228799820  -999.250000  -999.250000  -999.250000 17.951700211 189.28450012 1.4401999712  -999.250000 1.3895989656
 456.02960205  -999.250000 15.230199814  -999.250000  -999.250000  -999.250000 18.112600327 189.33349609 1.4392000437  -999.250000 1.3946989775
 456.18200684  -999.250000 15.231499672  -999.250000  -999.250000  -999.250000 16.717100143 189.38249207 1.4381999969  -999.250000 1.3997988701
 456.33441162  -999.250000 15.232899666  -999.250000  -999.250000  -999.250000 15.820500374 189.43150330 1.4371999502  -999.250000 1.4048988819
 456.48678589  -999.250000 15.234100342  -999.250000  -999.250000  -999.250000 15.136699677 189.48049927 1.4270999432  -999.250000 1.4100979567
 456.63919067  -999.250000 15.232999802  -999.250000  -999.250000  -999.250000 14.640800476 189.52949524 1.3997000456  -999.250000 1.4109997749
 456.79159546  -999.250000 15.231800079  -999.250000  -999.250000  -999.250000 14.775899887 189.57850647 1.4157999754  -999.250000 1.4084005356
 456.94400024  -999.250000 15.230600357  -999.250000  -999.250000  -999.250000 15.153900146 189.62748718 1.4399000406  -999.250000 1.4057999849
 457.09640503  -999.250000 15.229499817  -999.250000  -999.250000  -999.250000 16.830200195 189.67649841 1.4641000032  -999.250000 1.4033000469
 457.24880981  -999.250000 15.228300095  -999.250000  -999.250000  -999.250000 17.793500900 189.72560120 1.5041999817  -999.250000 1.4017000198
 457.40121460  -999.250000 15.227199554  -999.250000  -999.250000  -999.250000 15.818799973 189.77459717 1.5518000126  -999.250000 1.4018000364
 457.55358887  -999.250000 15.225999832  -999.250000  -999.250000  -999.250000 14.597900391 189.82359314 1.5904999971  -999.250000 1.4018000364
 457.70599365  -999.250000 15.224800110  -999.250000  -999.250000  -999.250000 14.396300316 189.87258911 1.5504000187  -999.250000 1.4020999670
 457.85839844  -999.250000 15.223699570  -999.250000  -999.250000  -999.250000 15.096400261 189.92160034 1.4823999405  -999.250000 1.4046000242
 458.01080322  -999.250000 15.222499847  -999.250000  -999.250000  -999.250000 15.408599854 189.97059631 1.4599000216  -999.250000 1.4070999622
 458.16320801  -999.250000 15.221300125  -999.250000  -999.250000  -999.250000 15.129500389 190.01960754 1.3918999434  -999.250000 1.4096000195
 458.31561279  -999.250000 15.220199585  -999.250000  -999.250000  -999.250000 15.542099953 190.06860352 1.3240000010  -999.250000 1.4120999575
 458.46801758  -999.250000 15.218999863  -999.250000  -999.250000  -999.250000 15.578599930 190.11758423 1.3645000458  -999.250000 1.4165999889
 458.62039185  -999.250000 15.220600128  -999.250000  -999.250000  -999.250000 16.233100891 190.16659546 1.3022999763  -999.250000 1.4213000536
 458.77279663  -999.250000 15.222900391  -999.250000  -999.250000  -999.250000 17.923400879 190.21560669 1.2743999958  -999.250000 1.4259999990
 458.92520142  -999.250000 15.225199699  -999.250000  -999.250000  -999.250000 20.239200592 190.26460266 1.2822999954  -999.250000 1.4307999611
 459.07760620  -999.250000 15.227600098  -999.250000  -999.250000  -999.250000 22.111499786 190.31359863 1.3220000267  -999.250000 1.4357000589
 459.23001099  -999.250000 15.229900360  -999.250000  -999.250000  -999.250000 24.300500870 190.36257935 1.3655999899  -999.250000 1.4407999516
 459.38241577  -999.250000 15.232199669  -999.250000  -999.250000  -999.250000 27.220399857 190.41169739 1.3959000111  -999.250000 1.4458999634
 459.53479004  -999.250000 15.132900238  -999.250000  -999.250000  -999.250000 30.775999069 190.46060181 1.4198999405  -999.250000 1.4509999752
 459.68719482  -999.250000 15.011299133  -999.250000  -999.250000  -999.250000 35.593101501 190.50959778 1.4445999861  -999.250000 1.4634000063
 459.83959961  -999.250000 14.906000137  -999.250000  -999.250000  -999.250000 38.604099274 190.55870056 1.4823999405  -999.250000 1.4807000160
 459.99200439  -999.250000 13.938600540  -999.250000  -999.250000  -999.250000 42.533699036 190.60768127 1.5427000523  -999.250000 1.4983999729
 460.14440918  -999.250000 12.946100235  -999.250000  -999.250000  -999.250000 46.353000641 190.65669250 1.6030000448  -999.250000 1.5174000263
 460.29681396  -999.250000 12.829899788  -999.250000  -999.250000  -999.250000 49.887001038 190.70570374 1.6714999676  -999.250000 1.5364999771
 460.44921875  -999.250000 12.735199928  -999.250000  -999.250000  -999.250000 53.386299133 190.75469971 1.7517999411  -999.250000 1.5536999702
 460.60159302  -999.250000 12.023100853  -999.250000  -999.250000  -999.250000 56.242298126 190.80369568 1.6761000156  -999.250000 1.5584000349
 460.75399780  -999.250000 10.842700005  -999.250000  -999.250000  -999.250000 57.086601257 190.85270691 1.5745999813  -999.250000 1.5630999804
 460.90640259  -999.250000 10.209500313  -999.250000  -999.250000  -999.250000 56.213199615 190.90170288 1.4645999670  -999.250000 1.5713000298
 461.05880737  -999.250000 9.9081993103  -999.250000  -999.250000  -999.250000 56.759601593 190.95069885 1.4200999737  -999.250000 1.5795999765
