# LAS format log file from PETREL
# Project units are specified as depth units
#==================================================================
~Version information
VERS.   2.0:
WRAP.   NO:
#==================================================================
~Well
STRT .m      2645.2697754 :
STOP .m      2924.0100098 :
STEP .m     0.00000000 :
NULL .        -999.250000 :
COMP.           : COMPANY
WELL.  16/1-2  Ivar Aasen Appr   : WELL
FLD.            : FIELD
LOC.            : LOCATION
SRVC.           : SERVICE COMPANY
DATE.  2018-09-11 14:48:05   : Log Export Date {yyyy-MM-dd HH:mm:ss}
PROV.           : PROVINCE
UWI.   16/1-2   : UNIQUE WELL ID
API.            : API NUMBER
#==================================================================
~Curve
DEPT .m                   : DEPTH
Lithology_geolink ._      : Lithology_geolink
CALI .in                  : CALI
BS .in                    : BS
MUDWEIGHT ._              : MUDWEIGHT
ROP .m/h                  : ROP
DRHO .g/cm3               : DRHO
NPHI .m3/m3               : NPHI
RHOB .g/cm3               : RHOB
GR .gAPI                  : GR
DTC .us/ft                : DTC
DTE .us/ft                : DTE
RDEP .ohm.m               : RDEP
SP .mV                    : SP
RSHA .ohm.m               : RSHA
RHOM .g/cm3               : RHOM
RMED .ohm.m               : RMED
~Parameter
#==================================================================
~Ascii
# ...
 2882.0998535 13.000000000 8.0389995575 8.5000000000 9.0000000000 449670.59375 0.0769999996 0.1113756076 2.4227550030 142.17674255 65.608764648 65.618690491 3.6489999294 87.527999878 7.6681246758 2.6558001041 7.6681246758
 2882.2521973 13.000000000 8.0710000992 8.5000000000 9.0000000000 671203.25000 0.0540000014 0.1100016385 2.4105517864 138.89855957 64.926315308 64.956008911 3.6549999714 87.213996887 8.3706798553 2.6555917263 8.3706798553
 2882.4047852 13.000000000 8.0959997177 8.5000000000 9.0000000000 765135.06250 0.0529999994 0.1073839441 2.4163599014 138.01094055 63.946472168 63.948398590 3.6070001125 87.014999390 9.4218864441 2.6550908089 9.4218864441
 2882.5571289 13.000000000 8.0860004425 8.5000000000 9.0000000000 765254.68750 0.0710000023 0.1040445492 2.4303114414 140.18534851 62.665279388 62.673824310 3.5050001144 86.583999634 10.945116043 2.6546328068 10.945116043
 2882.7094727 13.000000000 8.0659999847 8.5000000000 9.0000000000 764996.37500 0.0900000036 0.1008325890 2.4426505566 146.64212036 61.377277374 61.333457947 3.3900001049 86.009002686 11.637279510 2.6544001102 11.637279510
 2882.8618164 13.000000000 8.0690002441 8.5000000000 9.0000000000 759113.81250 0.1059999987 0.0985271111 2.4476623535 151.08673096 60.668724060 60.614719391 3.2980000973 85.559997559 9.9380617142 2.6544001102 9.9380617142
 2883.0144043 13.000000000 8.1149997711 8.5000000000 9.0000000000 749024.43750 0.1019999981 0.0976326838 2.4473354816 152.78320313 60.850872040 60.792533875 3.2119998932 85.224998474 7.4793763161 2.6544837952 7.4793763161
 2883.1667480 13.000000000 8.1289997101 8.5000000000 9.0000000000 698852.25000 0.0909999982 0.0981983542 2.4453182220 151.59480286 61.924938202 61.896858215 3.0920000076 85.032997131 6.0380578041 2.6546835899 6.0380578041
 2883.3190918 13.000000000 8.1099996567 8.5000000000 9.0000000000 521971.81250 0.0680000037 0.0999378860 2.4404404163 149.59628296 63.645202637 63.631233215 2.9920001030 85.040000916 5.4513750076 2.6547999382 5.4513750076
 2883.4714355 13.000000000 8.0850000381 8.5000000000 9.0000000000 505909.62500 0.0509999990 0.1023990139 2.4372649193 149.78749084 64.809089661 64.797111511 2.9289999008 85.222000122 5.6858925819 2.6546747684 5.6858925819
 2883.6240234 13.000000000 8.0869998932 8.5000000000 9.0000000000 504850.68750 0.0350000001 0.1052144319 2.4413013458 153.83891296 64.783599854 64.829048157 2.8929998875 85.426002502 6.2428288460 2.6541235447 6.2428288460
 2883.7763672 13.000000000 8.1289997101 8.5000000000 9.0000000000 513431.31250 0.0379999988 0.1082154065 2.4534988403 156.92543030 64.455184937 64.427978516 2.8800001144 85.579002380 6.5004806519 2.6524288654 6.5004806519
 2883.9287109 13.000000000 8.1330003738 8.5000000000 9.0000000000 563520.87500 0.0540000014 0.1114209294 2.4764604568 155.32852173 64.068481445 64.119735718 2.8880000114 85.579002380 6.1760177612 2.6464080811 6.1760177612
 2884.0810547 13.000000000 8.0900001526 8.5000000000 9.0000000000 645394.18750 0.0869999975 0.1148310900 2.5040631294 153.15679932 64.239982605 64.345558167 2.9279999733 85.530998230 5.5633845329 2.6403417587 5.5633845329
 2884.2333984 13.000000000 8.0349998474 8.5000000000 9.0000000000 667110.87500 0.1140000001 0.1182901934 2.5158493519 149.28839111 65.348007202 65.393272400 2.9619998932 85.564002991 5.1800413132 2.6450250149 5.1800413132
 2884.3859863 13.000000000 8.0050001144 8.5000000000 9.0000000000 663659.68750 0.1070000008 0.1214718744 2.4972817898 144.54492188 66.484916687 66.435752869 2.9839999676 85.665000916 5.2066268921 2.6525037289 5.2066268921
 2884.5383301 13.000000000 7.9970002174 8.5000000000 9.0000000000 656941.50000 0.1080000028 0.1239367202 2.4669406414 143.27806091 66.691978455 66.722236633 2.9960000515 85.844001770 5.4025769234 2.6538162231 5.4025769234
 2884.6906738 13.000000000 7.9930000305 8.5000000000 9.0000000000 651011.62500 0.1099999994 0.1253306419 2.4566504955 145.18661499 66.413520813 66.526092529 2.9869999886 85.980003357 5.7629184723 2.6529471874 5.7629184723
 2884.8430176 13.000000000 7.9889998436 8.5000000000 9.0000000000 654364.37500 0.0829999968 0.1255271584 2.4685165882 145.56106567 66.059013367 66.088882446 2.9690001011 85.869003296 6.3357467651 2.6511483192 6.3357467651
 2884.9956055 13.000000000 7.9850001335 8.5000000000 9.0000000000 679251.31250 0.0680000037 0.1246323064 2.4831228256 142.48963928 65.467567444 65.402153015 2.9539999962 85.436996460 6.8005809784 2.6504344940 6.8005809784
 2885.1479492 13.000000000 7.9809999466 8.5000000000 9.0000000000 728774.06250 0.0839999989 0.1230315045 2.4864156246 141.75004578 64.514518738 64.526451111 2.9110000134 84.819999695 6.6688799858 2.6516110897 6.6688799858
 2885.3002930 13.000000000 7.9789996147 8.5000000000 9.0000000000 738506.68750 0.0949999988 0.1212657094 2.4778666496 141.15446472 63.881275177 63.892055511 2.8599998951 84.125999451 5.9699568748 2.6530601978 5.9699568748
 2885.4526367 13.000000000 7.9770007133 8.5000000000 9.0000000000 738624.18750 0.1059999987 0.1199288145 2.4646911621 140.81828308 63.945846558 63.942371368 2.8010001183 83.620002747 5.3195657730 2.6540341377 5.3195657730
 2885.6052246 13.000000000 7.9770007133 8.5000000000 9.0000000000 738550.31250 0.1190000027 0.1195644289 2.4508025646 141.00883484 64.428909302 64.524497986 2.7000000477 83.507003784 5.0491600037 2.6548345089 5.0491600037
 2885.7575684 13.000000000 7.9710001945 8.5000000000 9.0000000000 734727.12500 0.1280000061 0.1204904169 2.4333684444 142.82464600 65.234031677 65.267257690 2.5999999046 83.530998230 5.0991010666 2.6556346416 5.0991010666
 2885.9099121 13.000000000 7.9609999657 8.5000000000 9.0000000000 734855.87500 0.1120000035 0.1226595268 2.4101214409 143.22134399 66.187080383 66.111511230 2.5280001163 83.488998413 5.1615052223 2.6561837196 5.1615052223
 2886.0622559 13.000000000 7.9679999352 8.5000000000 9.0000000000 732392.31250 0.0860000029 0.1256299168 2.3900327682 140.94287109 66.920913696 66.869247437 2.4969999790 83.783996582 4.8524456024 2.6563835144 4.8524456024
 2886.2145996 13.000000000 7.9869999886 8.5000000000 9.0000000000 730962.00000 0.0649999976 0.1287178546 2.3862752914 142.11285400 67.191757202 67.241897583 2.4909999371 84.325996399 4.5072369576 2.6563334465 4.5072369576
 2886.3671875 13.000000000 8.0080003738 8.5000000000 9.0000000000 731088.87500 0.0659999996 0.1311658174 2.3963353634 143.28073120 67.258903503 67.328636169 2.4930000305 84.879997253 4.6557297707 2.6559326649 4.6557297707
 2886.5195313 13.000000000 8.0290002823 8.5000000000 9.0000000000 731216.00000 0.0839999989 0.1323689818 2.4096958637 144.44587708 66.989402771 67.042884827 2.5320000648 85.486999512 4.8829789162 2.6555325985 4.8829789162
 2886.6718750 13.000000000 8.0439996719 8.5000000000 9.0000000000 731916.87500 0.1019999981 0.1320444793 2.4221308231 145.61289978 66.323852539 66.385284424 2.6040000916 85.964996338 4.8701424599 2.6550910473 4.8701424599
 2886.8242188 13.000000000 8.0369997025 8.5000000000 9.0000000000 759118.43750 0.1199999973 0.1303213090 2.4331037998 146.79994202 65.910583496 65.875770569 2.6830000877 86.367996216 4.9596090317 2.6546332836 4.9596090317
 2886.9768066 13.000000000 8.0200004578 8.5000000000 9.0000000000 817357.56250 0.1230000034 0.1276043653 2.4424962997 148.00402832 65.827796936 65.735908508 2.7690000534 86.763000488 5.3409104347 2.6542744637 5.3409104347
 2887.1291504 13.000000000 8.0019998550 8.5000000000 9.0000000000 840314.81250 0.1169999987 0.1243535876 2.4495205879 147.07472229 65.827796936 65.769409180 2.8629999161 87.199996948 5.9370079041 2.6540999413 5.9370079041
 2887.2814941 13.000000000 7.9970002174 8.5000000000 9.0000000000 848148.56250 0.1209999993 0.1209391728 2.4523985386 146.90594482 65.698471069 65.700088501 2.9300000668 87.630996704 6.5656442642 2.6542255878 6.5656442642
 2887.4338379 13.000000000 8.0019998550 8.5000000000 9.0000000000 852249.37500 0.1280000061 0.1175596491 2.4491131306 148.11790466 65.344261169 65.393310547 2.9579999447 87.886001587 6.9672484398 2.6545670033 6.9672484398
 2887.5864258 13.000000000 8.0240001678 8.5000000000 9.0000000000 852377.06250 0.1120000035 0.1143259630 2.4404532909 150.56674194 64.931892395 64.948898315 2.9600000381 87.983001709 7.1212000847 2.6549255848 7.1212000847
