# LAS format log file from PETREL
# Project units are specified as depth units
#==================================================================
~Version information
VERS.   2.0:
WRAP.   NO:
#==================================================================
~Well
STRT .m      2645.2697754 :
STOP .m      2924.0100098 :
STEP .m     0.00000000 :
NULL .        -999.250000 :
COMP.           : COMPANY
WELL.  16/1-2  Ivar Aasen Appr   : WELL
FLD.            : FIELD
LOC.            : LOCATION
SRVC.           : SERVICE COMPANY
DATE.  2018-09-11 14:48:05   : Log Export Date {yyyy-MM-dd HH:mm:ss}
PROV.           : PROVINCE
UWI.   16/1-2   : UNIQUE WELL ID
API.            : API NUMBER
#==================================================================
~Curve
DEPT .m                   : DEPTH
Lithology_geolink ._      : Lithology_geolink
CALI .in                  : CALI
BS .in                    : BS
MUDWEIGHT ._              : MUDWEIGHT
ROP .m/h                  : ROP
DRHO .g/cm3               : DRHO
NPHI .m3/m3               : NPHI
RHOB .g/cm3               : RHOB
GR .gAPI                  : GR
DTC .us/ft                : DTC
DTE .us/ft                : DTE
RDEP .ohm.m               : RDEP
SP .mV                    : SP
RSHA .ohm.m               : RSHA
RHOM .g/cm3               : RHOM
RMED .ohm.m               : RMED
~Parameter
#==================================================================
~Ascii
# ...
 2808.7954102 13.000000000 8.1520004272 8.5000000000 9.0000000000 489412.53125 0.0799999982 0.0951931775 2.4865624905 226.40199280 67.519332886 67.528511047 3.0120193958 85.447998047 7.8902897835 2.6527726650 7.8902897835
 2808.9477539 13.000000000 8.1709995270 8.5000000000 9.0000000000 373700.46875 0.0579999983 0.0971739292 2.4781875610 225.14532471 67.825340271 67.771591187 2.9990208149 85.031997681 8.0713720322 2.6520671844 8.0713720322
 2809.1000977 13.000000000 8.1899995804 8.5000000000 9.0000000000 338582.46875 0.0460000001 0.0996246785 2.4518125057 223.47053528 67.884963989 67.799552917 2.9940080643 84.655998230 8.3034715652 2.6530098915 8.3034715652
 2809.2526855 13.000000000 8.2080001831 8.5000000000 9.0000000000 338557.18750 0.0610000007 0.1025503278 2.4345073700 215.06001282 67.605613708 67.570495605 3.0079774857 84.425003052 8.5972404480 2.6543765068 8.5972404480
 2809.4050293 13.000000000 8.2130002975 8.5000000000 9.0000000000 338532.00000 0.0680000037 0.1057752222 2.4318001270 206.02012634 67.251022339 67.198165894 3.0339581966 84.299003601 8.6715211868 2.6549837589 8.6715211868
 2809.5573730 13.000000000 8.2130002975 8.5000000000 9.0000000000 338506.56250 0.0659999996 0.1090345383 2.4320125580 199.86387634 66.841484070 66.793731689 3.0609569550 84.174003601 8.3722982407 2.6551001072 8.3722982407
 2809.7097168 13.000000000 8.2119998932 8.5000000000 9.0000000000 338480.84375 0.0689999983 0.1118631214 2.4303250313 197.91227722 66.543296814 66.501724243 3.0899534225 84.148002625 7.9345574379 2.6550583839 7.9345574379
 2809.8620605 13.000000000 8.2060003281 8.5000000000 9.0000000000 332668.18750 0.0780000016 0.1138111353 2.4308230877 194.34053040 66.632591248 66.592094421 3.1298720837 84.227996826 7.6590127945 2.6549999714 7.6590127945
 2810.0146484 13.000000000 8.1840000153 8.5000000000 9.0000000000 259020.67188 0.0900000036 0.1145179197 2.4317624569 190.92921448 66.920326233 66.955909729 3.1789214611 84.314002991 7.6672110558 2.6549999714 7.6672110558
 2810.1669922 13.000000000 8.1569995880 8.5000000000 9.0000000000 255456.06250 0.0790000036 0.1138668954 2.4282126427 189.43267822 67.191589355 67.183464050 3.2089519501 84.400001526 7.7328653336 2.6550836563 7.7328653336
 2810.3193359 13.000000000 8.1309995651 8.5000000000 9.0000000000 255428.82813 0.0529999994 0.1119252667 2.4267749786 187.99252319 67.258903503 67.224891663 3.2189841270 84.458000183 7.6489057541 2.6552417278 7.6489057541
 2810.4716797 13.000000000 8.1140003204 8.5000000000 9.0000000000 256569.51563 0.0450000018 0.1089742780 2.4349999428 188.31744385 67.169464111 67.149375916 3.2269744873 84.455001831 7.5902757645 2.6552164555 7.5902757645
 2810.6242676 13.000000000 8.1099996567 8.5000000000 9.0000000000 259527.90625 0.0529999994 0.1053979397 2.4454176426 192.34474182 66.801002502 66.848594666 3.2289969921 84.296997070 7.7632894516 2.6548490524 7.7632894516
 2810.7766113 13.000000000 8.1099996567 8.5000000000 9.0000000000 259502.40625 0.0619999990 0.1016342714 2.4470250607 196.00531006 66.297920227 66.384925842 3.2190160751 84.017997742 8.1655158997 2.6544582844 8.1655158997
 2810.9289551 13.000000000 8.1090002060 8.5000000000 9.0000000000 336884.09375 0.0710000023 0.0980649367 2.4445874691 196.19276428 66.066299438 66.068984985 3.2070193291 83.738998413 8.4872827530 2.6544837952 8.4872827530
 2811.0812988 13.000000000 8.1090002060 8.5000000000 9.0000000000 519195.34375 0.0829999968 0.0949058831 2.4447126389 192.92466736 66.066299438 66.047561646 3.1960353851 83.460998535 8.6632871628 2.6545581818 8.6632871628
 2811.2338867 13.000000000 8.1079998016 8.5000000000 9.0000000000 524863.56250 0.0820000023 0.0923340172 2.4413545132 188.33758545 66.205642700 66.215850830 3.1860160828 83.181999207 8.8427867889 2.6545000076 8.8427867889
 2811.3862305 13.000000000 8.1079998016 8.5000000000 9.0000000000 524838.75000 0.0750000030 0.0904681757 2.4350626469 183.53111267 66.476799011 66.413726807 3.1770143509 82.888000488 9.0885467529 2.6537053585 9.0885467529
 2811.5385742 13.000000000 8.1070003510 8.5000000000 9.0000000000 521595.81250 0.0769999996 0.0893292725 2.4349126816 180.48957825 66.453857422 66.448402405 3.1670160294 82.539001465 9.4292564392 2.6513452530 9.4292564392
 2811.6909180 13.000000000 8.1070003510 8.5000000000 9.0000000000 496425.90625 0.0729999989 0.0888801068 2.4437999725 179.60873413 66.036491394 66.045379639 3.1570160389 82.150001526 9.5884704590 2.6506440639 9.5884704590
 2811.8432617 13.000000000 8.1400003433 8.5000000000 9.0000000000 330165.78125 0.0829999968 0.0889505371 2.4618363380 178.81326294 65.410713196 65.414199829 3.1480288506 81.763000488 9.2581167221 2.6529333591 9.2581167221
 2811.9958496 13.000000000 8.1820001602 8.5000000000 9.0000000000 325659.21875 0.0879999995 0.0892811194 2.4781999588 177.72404480 65.073226929 65.051788330 3.1380159855 81.388000488 8.7071142197 2.6536400318 8.7071142197
 2812.1481934 13.000000000 8.2030000687 8.5000000000 9.0000000000 325634.31250 0.0680000037 0.0896303058 2.4770874977 175.55513000 65.226051331 65.248001099 3.1290142536 81.130996704 8.4310379028 2.6528327465 8.4310379028
 2812.3005371 13.000000000 8.2239999771 8.5000000000 9.0000000000 325587.43750 0.0630000010 0.0898199901 2.4663999081 175.00776672 65.857612610 65.905349731 3.1190159321 80.974998474 8.4553699493 2.6528928280 8.4553699493
 2812.4528809 13.000000000 8.2139997482 8.5000000000 9.0000000000 321436.28125 0.0540000014 0.0898098871 2.4632346630 173.62471008 66.394096375 66.415245056 3.1090319157 80.819999695 8.6865158081 2.6535089016 8.6865158081
 2812.6054688 13.000000000 8.1579999924 8.5000000000 9.0000000000 321408.68750 0.0640000030 0.0897399709 2.4705750942 174.68255615 66.503395081 66.524574280 3.0980176926 80.656997681 9.0087776184 2.6537163258 9.0087776184
 2812.7578125 13.000000000 8.0959997177 8.5000000000 9.0000000000 321385.81250 0.0659999996 0.0897300243 2.4809625149 173.91691589 66.297920227 66.315101624 3.0870175362 80.428001404 9.2511577606 2.6532654762 9.2511577606
 2812.9101563 13.000000000 8.0920000076 8.5000000000 9.0000000000 351727.53125 0.0719999969 0.0897498652 2.4842624664 170.75111389 65.976860046 65.966835022 3.0800111294 80.140998840 9.3483552933 2.6525490284 9.3483552933
 2813.0625000 13.000000000 8.1230001450 8.5000000000 9.0000000000 420663.68750 0.0500000007 0.0896596760 2.4748499393 168.95411682 65.827796936 65.814666748 3.0700318813 79.852996826 8.9462203979 2.6524088383 8.9462203979
 2813.2150879 13.000000000 8.1429996490 8.5000000000 9.0000000000 436778.56250 0.0340000018 0.0894599333 2.4625432491 167.15763855 65.877731323 65.898757935 3.0699999332 79.566001892 8.4611225128 2.6530764103 8.4611225128
 2813.3674316 13.000000000 8.1549997330 8.5000000000 9.0000000000 441561.00000 0.0390000008 0.0894412175 2.4595375061 166.42370605 66.000236511 65.992904663 3.0759904385 79.278999329 8.4997138977 2.6537256241 8.4997138977
 2813.5197754 13.000000000 8.1599998474 8.5000000000 9.0000000000 441535.59375 0.0359999985 0.0902034864 2.4636626244 166.86199951 66.066299438 66.005081177 3.0460481644 79.044998169 8.9457464218 2.6538581848 8.9457464218
 2813.6721191 13.000000000 8.1590003967 8.5000000000 9.0000000000 437046.46875 0.0399999991 0.0923763514 2.4683749676 166.23097229 66.066299438 66.003211975 2.9771106243 78.927001953 9.4111976624 2.6536748409 9.4111976624
 2813.8244629 13.000000000 8.1420001984 8.5000000000 9.0000000000 393040.84375 0.0549999997 0.0963389799 2.4690024853 164.96769714 66.066299438 65.980049133 2.9092175961 78.871002197 9.5333127975 2.6534166336 9.5333127975
 2813.9770508 13.000000000 8.0989999771 8.5000000000 9.0000000000 325330.43750 0.0689999983 0.1019506082 2.4614748955 162.90657043 66.115951538 66.059410095 2.8101584911 78.815002441 9.1022701263 2.6533837318 9.1022701263
 2814.1293945 13.000000000 8.0900001526 8.5000000000 9.0000000000 325305.75000 0.0780000016 0.1083797887 2.4448873997 161.52513123 66.417358398 66.392013550 2.6492578983 78.624000549 8.2505064011 2.6537508965 8.2505064011
 2814.2817383 13.000000000 8.1049995422 8.5000000000 9.0000000000 325280.31250 0.0520000011 0.1144873202 2.4234375954 159.10740662 66.960716248 66.855247498 2.5212049484 78.138999939 7.3188834190 2.6544764042 7.3188834190
