# LAS format log file from PETREL
# Project units are specified as depth units
#==================================================================
~Version information
VERS.   2.0:
WRAP.   NO:
#==================================================================
~Well
STRT .m      410.00479126 :
STOP .m      2954.3227539 :
STEP .m     0.00000000 :
NULL .        -999.250000 :
COMP.           : COMPANY
WELL.  16/11-1 S   : WELL
FLD.            : FIELD
LOC.            : LOCATION
SRVC.           : SERVICE COMPANY
DATE.  2018-09-11 14:48:06   : Log Export Date {yyyy-MM-dd HH:mm:ss}
PROV.           : PROVINCE
UWI.   16/11-1 S   : UNIQUE WELL ID
API.            : API NUMBER
#==================================================================
~Curve
DEPT .m                   : DEPTH
Lithology_geolink ._      : Lithology_geolink
CALI .in                  : CALI
DRHO .g/cm3               : DRHO
NPHI .m3/m3               : NPHI
RHOB .g/cm3               : RHOB
GR .gAPI                  : GR
DTC .us/ft                : DTC
RDEP .ohm.m               : RDEP
RSHA .ohm.m               : RSHA
RMED .ohm.m               : RMED
~Parameter
#==================================================================
~Ascii
# ...
 580.69281006  -999.250000 12.711500168  -999.250000  -999.250000  -999.250000 69.770401001 181.87660217 1.1346999407  -999.250000 1.2831000090
 580.84521484  -999.250000 12.613900185  -999.250000  -999.250000  -999.250000 71.099899292 181.19769287 1.1411000490  -999.250000 1.2867000103
 580.99755859  -999.250000 12.583399773  -999.250000  -999.250000  -999.250000 70.375488281 180.15631104 1.1486968994  -999.250000 1.2901985645
 581.14996338  -999.250000 12.550700188  -999.250000  -999.250000  -999.250000 70.430175781 178.81379700 1.1611950397  -999.250000 1.2937985659
 581.30236816  -999.250000 12.212499619  -999.250000  -999.250000  -999.250000 70.550651550 177.38519287 1.1705962420  -999.250000 1.2973985672
 581.45477295  -999.250000 12.300600052  -999.250000  -999.250000  -999.250000 70.562690735 176.12759399 1.1757979393  -999.250000 1.3009985685
 581.60717773  -999.250000 12.414500237  -999.250000  -999.250000  -999.250000 69.925949097 175.53439331 1.1822973490  -999.250000 1.3048985004
 581.75958252  -999.250000 12.464699745  -999.250000  -999.250000  -999.250000 67.422096252 175.62440491 1.1914962530  -999.250000 1.3091983795
 581.91198730  -999.250000 12.561699867  -999.250000  -999.250000  -999.250000 65.114524841 176.12600708 1.2009961605  -999.250000 1.3134983778
 582.06439209  -999.250000 12.605099678  -999.250000  -999.250000  -999.250000 62.675575256 176.51660156 1.2080971003  -999.250000 1.3177983761
 582.21679688  -999.250000 12.637299538  -999.250000  -999.250000  -999.250000 61.011901855 176.49600220 1.2084000111  -999.250000 1.3221999407
 582.36920166  -999.250000 12.783800125  -999.250000  -999.250000  -999.250000 60.919101715 176.12579346 1.2029000521  -999.250000 1.3230999708
 582.52160645  -999.250000 12.788299561  -999.250000  -999.250000  -999.250000 63.261100769 175.89282227 1.1827000380  -999.250000 1.3231999874
 582.67401123  -999.250000 12.753999710  -999.250000  -999.250000  -999.250000 65.143402100 175.87060547 1.1691000462  -999.250000 1.3231999874
 582.82641602  -999.250000 12.792200089  -999.250000  -999.250000  -999.250000 64.568801880 176.13830566 1.1655000448  -999.250000 1.3236999512
 582.97882080  -999.250000 13.031399727  -999.250000  -999.250000  -999.250000 64.845497131 176.57290649 1.1686999798  -999.250000 1.3265999556
 583.13116455  -999.250000 12.992501259  -999.250000  -999.250000  -999.250000 64.814201355 176.79428101 1.1699994802  -999.250000 1.3294987679
 583.28356934  -999.250000 12.668999672  -999.250000  -999.250000  -999.250000 63.981601715 176.61900330 1.1659016609  -999.250000 1.3323987722
 583.43597412  -999.250000 12.621198654  -999.250000  -999.250000  -999.250000 63.242198944 176.23330688 1.1606020927  -999.250000 1.3230037689
 583.58837891  -999.250000 12.762499809  -999.250000  -999.250000  -999.250000 62.659999847 175.84370422 1.1572012901  -999.250000 1.3071063757
 583.74078369  -999.250000 12.770099640  -999.250000  -999.250000  -999.250000 62.361400604 175.67689514 1.1629977226  -999.250000 1.3081995249
 583.89318848  -999.250000 12.565299988  -999.250000  -999.250000  -999.250000 61.809898376 175.62049866 1.1706968546  -999.250000 1.3342895508
 584.04559326  -999.250000 12.517999649  -999.250000  -999.250000  -999.250000 60.425998688 175.44869995 1.1853941679  -999.250000 1.3470948935
 584.19799805  -999.250000 12.808300018  -999.250000  -999.250000  -999.250000 60.951000214 175.10830688 1.1994943619  -999.250000 1.3518980742
 584.35040283  -999.250000 12.774100304  -999.250000  -999.250000  -999.250000 61.205898285 174.58891296 1.2059999704  -999.250000 1.3487999439
 584.50280762  -999.250000 12.702899933  -999.250000  -999.250000  -999.250000 60.571998596 174.02259827 1.2069000006  -999.250000 1.3457000256
 584.65521240  -999.250000 12.774600029  -999.250000  -999.250000  -999.250000 60.192401886 173.74748230 1.2069000006  -999.250000 1.3464000225
 584.80761719  -999.250000 12.818499565  -999.250000  -999.250000  -999.250000 61.728000641 173.82121277 1.2091000080  -999.250000 1.3538999557
 584.96002197  -999.250000 12.675399780  -999.250000  -999.250000  -999.250000 63.444099426 174.08569336 1.2180000544  -999.250000 1.3614000082
 585.11236572  -999.250000 12.657199860  -999.250000  -999.250000  -999.250000 64.801902771 174.19940186 1.2300000191  -999.250000 1.3689968586
 585.26477051  -999.250000 12.722299576  -999.250000  -999.250000  -999.250000 65.777198792 173.99967957 1.2374000549  -999.250000 1.3715989590
 585.41717529  -999.250000 12.648300171  -999.250000  -999.250000  -999.250000 65.907402039 173.59359741 1.2315000296  -999.250000 1.3656023741
 585.56958008  -999.250000 12.777600288  -999.250000  -999.250000  -999.250000 65.203598022 173.32890320 1.2285000086  -999.250000 1.3597023487
 585.72198486  -999.250000 12.747799873  -999.250000  -999.250000  -999.250000 63.030399323 173.46151733 1.2318999767  -999.250000 1.3537024260
 585.87438965  -999.250000 12.813500404  -999.250000  -999.250000  -999.250000 61.558700562 174.13258362 1.2374000549  -999.250000 1.3478024006
 586.02679443  -999.250000 12.736201286  -999.250000  -999.250000  -999.250000 60.658199310 175.12629700 1.2389999628  -999.250000 1.3426020145
 586.17919922  -999.250000 12.773399353  -999.250000  -999.250000  -999.250000 61.268501282 176.14379883 1.2329000235  -999.250000 1.3385016918
 586.33160400  -999.250000 12.937800407  -999.250000  -999.250000  -999.250000 65.493896484 176.88529968 1.2182999849  -999.250000 1.3344017267
 586.48400879  -999.250000 12.749898911  -999.250000  -999.250000  -999.250000 66.081596375 177.13890076 1.2022999525  -999.250000 1.3302999735
 586.63641357  -999.250000 12.666899681  -999.250000  -999.250000  -999.250000 63.941699982 177.17539978 1.1929999590  -999.250000 1.3263000250
 586.78881836  -999.250000 12.899999619  -999.250000  -999.250000  -999.250000 63.088298798 177.35539246 1.1844999790  -999.250000 1.3159999847
 586.94122314  -999.250000 12.951499939  -999.250000  -999.250000  -999.250000 63.760200500 177.55290222 1.1816999912  -999.250000 1.3011000156
 587.09362793  -999.250000 12.658900261  -999.250000  -999.250000  -999.250000 63.663200378 177.74459839 1.1814999580  -999.250000 1.2862000465
 587.24597168  -999.250000 12.726900101  -999.250000  -999.250000  -999.250000 63.681301117 178.01330566 1.1785000563  -999.250000 1.2964957952
 587.39837646  -999.250000 12.817799568  -999.250000  -999.250000  -999.250000 63.337398529 178.09739685 1.1722999811  -999.250000 1.3090950251
 587.55078125  -999.250000 12.969000816  -999.250000  -999.250000  -999.250000 61.993099213 177.83610535 1.1678999662  -999.250000 1.3217948675
 587.70318604  -999.250000 13.014699936  -999.250000  -999.250000  -999.250000 59.844001770 177.56550598 1.1721999645  -999.250000 1.3191010952
 587.85559082  -999.250000 13.047800064  -999.250000  -999.250000  -999.250000 57.088298798 177.51159668 1.1799999475  -999.250000 1.3117029667
 588.00799561  -999.250000 12.990099907  -999.250000  -999.250000  -999.250000 56.377899170 177.76480103 1.1813999414  -999.250000 1.3040031195
 588.16040039  -999.250000 12.756500244  -999.250000  -999.250000  -999.250000 56.209400177 178.23660278 1.1766999960  -999.250000 1.2936041355
 588.31280518  -999.250000 12.610400200  -999.250000  -999.250000  -999.250000 57.222198486 178.88529968 1.1671999693  -999.250000 1.2832041979
 588.46520996  -999.250000 12.579500198  -999.250000  -999.250000  -999.250000 58.769599915 179.49929810 1.1469999552  -999.250000 1.2728999853
 588.61761475  -999.250000 12.616200447  -999.250000  -999.250000  -999.250000 60.887401581 179.87289429 1.1286000013  -999.250000 1.2661999464
 588.77001953  -999.250000 12.668299675  -999.250000  -999.250000  -999.250000 62.479999542 180.00489807 1.1174000502  -999.250000 1.2688000202
 588.92242432  -999.250000 12.525698662  -999.250000  -999.250000  -999.250000 63.455600739 180.03280640 1.1119999886  -999.250000 1.2712999582
 589.07482910  -999.250000 12.419300079  -999.250000  -999.250000  -999.250000 64.104797363 180.00999451 1.1159000397  -999.250000 1.2739000320
