# LAS format log file from PETREL
# Project units are specified as depth units
#==================================================================
~Version information
VERS.   2.0:
WRAP.   NO:
#==================================================================
~Well
STRT .m      1175.9671631 :
STOP .m      1726.7407227 :
STEP .m     0.00000000 :
NULL .        -999.250000 :
COMP.           : COMPANY
WELL.  16/1-6 A Verdandi Appr   : WELL
FLD.            : FIELD
LOC.            : LOCATION
SRVC.           : SERVICE COMPANY
DATE.  2018-09-11 14:48:05   : Log Export Date {yyyy-MM-dd HH:mm:ss}
PROV.           : PROVINCE
UWI.   16/1-6 A   : UNIQUE WELL ID
API.            : API NUMBER
#==================================================================
~Curve
DEPT .m                   : DEPTH
Lithology_geolink ._      : Lithology_geolink
CALI .in                  : CALI
BS .in                    : BS
NPHI .m3/m3               : NPHI
RHOB .g/cm3               : RHOB
PEF .b/e                  : PEF
GR .gAPI                  : GR
DTC .us/ft                : DTC
RDEP .ohm.m               : RDEP
RMED .ohm.m               : RMED
~Parameter
#==================================================================
~Ascii
# ...
 1542.9464111  -999.250000 8.3318996429 8.5000000000 0.3587000072 1.9608999491 1.9292000532 21.440799713 119.89768219 0.3067985773 0.3094983399
 1543.0987549  -999.250000 8.3470001221 8.5000000000 0.3684000075 1.9589999914 1.9300999641 22.485700607 119.80687714 0.3063004017 0.3097997606
 1543.2512207  -999.250000 8.3318996429 8.5000000000 0.3434999883 1.9614000320 1.9428000450 23.654899597 120.07189178 0.3075989485 0.3144962490
 1543.4035645  -999.250000 8.3432998657 8.5000000000 0.3328999877 1.9595999718 1.9513000250 24.470699310 119.91281891 0.3090988100 0.3187965453
 1543.5560303  -999.250000 8.3318996429 8.5000000000 0.3323999941 1.9611999989 1.9536000490 24.820199966 119.85834503 0.3095996082 0.3245953619
 1543.7083740  -999.250000 8.3318996429 8.5000000000 0.3521000147 1.9564000368 1.9788999557 22.565599442 120.00917053 0.3119980693 0.3312946260
 1543.8607178  -999.250000 8.3318996429 8.5000000000 0.3522000015 1.9516999722 2.0048000813 24.192499161 120.73813629 0.3160934448 0.3362919688
 1544.0131836  -999.250000 8.3168001175 8.5000000000 0.3503000140 1.9487999678 2.0016000271 22.681600571 119.98920441 0.3148010373 0.3339019418
 1544.1655273  -999.250000 8.3545999527 8.5000000000 0.3300000131 1.9515999556 1.9212000370 24.000000000 119.64025879 0.3066131473 0.3250142336
 1544.3179932  -999.250000 8.3545999527 8.5000000000 0.3249999881 1.9543999434 1.7476999760 22.955799103 120.77378845 0.2994057834 0.3142086565
 1544.4703369  -999.250000 8.3545999527 8.5000000000 0.3210000098 1.9562000036 1.5025999546 23.422000885 118.61066437 0.2973033786 0.3090083003
 1544.6228027  -999.250000 8.3773002625 8.5000000000 0.3397000134 1.9565999508 1.3379000425 22.723100662 118.53835297 0.2940026522 0.3069016635
 1544.7751465  -999.250000 8.3318996429 8.5000000000 0.3431000113 1.9589999914 1.3221999407 21.907199860 118.39432526 0.2947993577 0.3070998490
 1544.9276123  -999.250000 8.2714996338 8.5000000000 0.3476000130 1.9615000486 1.4232000113 21.430500031 118.88480377 0.3004954457 0.3162926435
 1545.0799561  -999.250000 8.2412004471 8.5000000000 0.3452000022 1.9627000093 1.5099999905 21.900199890 120.78627777 0.3115911186 0.3324870169
 1545.2324219  -999.250000 8.2714996338 8.5000000000 0.3441999853 1.9579999447 1.5513000488 22.129400253 124.12283325 0.3201931119 0.3404935896
 1545.3847656  -999.250000 8.3168001175 8.5000000000 0.3504999876 1.9464000463 1.5848000050 24.820499420 125.57283783 0.3089090586 0.3280100226
 1545.5372314  -999.250000 8.3432998657 8.5000000000 0.3537999988 1.9443000555 1.6281000376 26.102500916 124.78273010 0.2999072075 0.3140112162
 1545.6895752  -999.250000 8.3092002869 8.5000000000 0.3689999878 1.9479999542 1.6608999968 25.054100037 124.90820313 0.2976018488 0.3100032210
 1545.8420410  -999.250000 8.2751998901 8.5000000000 0.3659999967 1.9600000381 1.6680999994 26.113599777 125.29159546 0.2982994318 0.3087010384
 1545.9943848  -999.250000 8.2751998901 8.5000000000 0.3666000068 1.9632999897 1.6358000040 26.109300613 123.33736420 0.2955022454 0.3038039207
 1546.1467285  -999.250000 8.2866001129 8.5000000000 0.3544999957 1.9674999714 1.5857000351 27.744300842 122.46749878 0.2905080020 0.2979094386
 1546.2991943  -999.250000 8.2866001129 8.5000000000 0.3533999920 1.9714000225 1.5475000143 23.534799576 123.00526428 0.2880019844 0.2957017720
 1546.4515381  -999.250000 8.2866001129 8.5000000000 0.3467999995 1.9742000103 1.5326000452 23.422599792 122.01300049 0.2914943993 0.3002926409
 1546.6040039  -999.250000 8.2866001129 8.5000000000 0.3555000126 1.9766000509 1.5460000038 22.257200241 125.37281036 0.2989939749 0.3111912608
 1546.7563477  -999.250000 8.2751998901 8.5000000000 0.3562999964 1.9754999876 1.5880000591 22.839599609 125.30670929 0.3053897619 0.3204850852
 1546.9088135  -999.250000 8.2866001129 8.5000000000 0.3567000031 1.9754999876 1.6634999514 21.324499130 125.23397064 0.3015031219 0.3182018399
 1547.0611572  -999.250000 8.2979001999 8.5000000000 0.3626999855 1.9726999998 1.7545000315 22.711999893 125.34471130 0.2948053777 0.3116052747
 1547.2136230  -999.250000 8.2866001129 8.5000000000 0.3745000064 1.9651000500 1.8087999821 23.647800446 124.87727356 0.2925018370 0.3056047857
 1547.3659668  -999.250000 8.2866001129 8.5000000000 0.3598999977 1.9601000547 1.8043999672 23.178300858 125.93984222 0.2876039445 0.2985056937
 1547.5184326  -999.250000 8.2866001129 8.5000000000 0.3391000032 1.9567999840 1.7705999613 20.975000381 126.08479309 0.2841027975 0.2930044234
 1547.6707764  -999.250000 8.2979001999 8.5000000000 0.3357999921 1.9571000338 1.7754000425 20.042699814 125.23567963 0.2849992812 0.2907018363
 1547.8232422  -999.250000 8.2979001999 8.5000000000 0.3492000103 1.9566999674 1.8370000124 21.091100693 125.02286530 0.2862989604 0.2907999158
 1547.9755859  -999.250000 8.2979001999 8.5000000000 0.3571000099 1.9544999599 1.9392999411 22.924299240 124.50571442 0.2863000035 0.2916992903
 1548.1279297  -999.250000 8.2940998077 8.5000000000 0.3652999997 1.9550000429 2.0357999802 23.386699677 124.20967102 0.2876977623 0.2922990322
 1548.2803955  -999.250000 8.2866001129 8.5000000000 0.3768000007 1.9550000429 2.1024999619 22.108600616 126.76055908 0.2867008150 0.2910010517
 1548.4327393  -999.250000 8.2940998077 8.5000000000 0.3752999902 1.9562000036 2.1312000751 21.087600708 126.53915405 0.2844036818 0.2888035178
 1548.5852051  -999.250000 8.3092002869 8.5000000000 0.3594999909 1.9588999748 2.1426000595 20.042400360 124.97035980 0.2855990529 0.2909982502
 1548.7375488  -999.250000 8.3092002869 8.5000000000 0.3555999994 1.9618999958 2.1621000767 19.692699432 125.34639740 0.2863987088 0.2928969562
 1548.8900146  -999.250000 8.3092002869 8.5000000000 0.3711999953 1.9629000425 2.1877000332 20.042200089 125.85339355 0.2867996693 0.2941989601
 1549.0423584  -999.250000 8.2979001999 8.5000000000 0.3865000010 1.9586000443 2.2204000950 22.375000000 125.25798035 0.2865002453 0.2945996821
 1549.1948242  -999.250000 8.3092002869 8.5000000000 0.3797999918 1.9571000338 2.2539999485 24.818199158 125.34912109 0.2859004736 0.2948997617
 1549.3471680  -999.250000 8.3168001175 8.5000000000 0.3899999857 1.9621000290 2.2976999283 24.705499649 124.64326477 0.2852005661 0.2933012843
 1549.4996338  -999.250000 8.3243999481 8.5000000000 0.3612999916 1.9649000168 2.3424000740 24.349800110 124.72023773 0.2842008173 0.2892032862
 1549.6519775  -999.250000 8.3205995560 8.5000000000 0.3617999852 1.9611999989 2.3831000328 24.120899200 124.96221161 0.2824014425 0.2852032185
 1549.8044434  -999.250000 8.3545999527 8.5000000000 0.3341999948 1.9558000565 2.4230000973 22.605800629 125.51305389 0.2818004787 0.2823023200
 1549.9567871  -999.250000 8.3659000397 8.5000000000 0.3567999899 1.9532999992 2.4523000717 21.708499908 125.21533966 0.2827991843 0.2831992805
 1550.1091309  -999.250000 8.3318996429 8.5000000000 0.3650000095 1.9553999901 2.4449999332 19.377599716 124.90409851 0.2827001512 0.2827008069
 1550.2615967  -999.250000 8.2714996338 8.5000000000 0.3664000034 1.9585000277 2.3789000511 19.374599457 124.75062561 0.2819006443 0.2810013592
 1550.4139404  -999.250000 8.2488002777 8.5000000000 0.3537999988 1.9614000320 2.2908000946 20.159599304 124.93410492 0.2836970985 0.2851932645
 1550.5664063  -999.250000 8.2638998032 8.5000000000 0.3488999903 1.9606000185 2.2388999462 21.554500580 124.97996521 0.2874969542 0.2894965410
 1550.7187500  -999.250000 8.2714996338 8.5000000000 0.3486000001 1.9562000036 2.2414000034 22.955999374 126.78050995 0.2856030464 0.2890008092
 1550.8712158  -999.250000 8.2714996338 8.5000000000 0.3657999933 1.9519000053 2.2697000504 21.440900803 126.80867767 0.2831020057 0.2874012887
 1551.0235596  -999.250000 8.2412004471 8.5000000000 0.3630000055 1.9471999407 2.2953000069 22.372800827 126.08217621 0.2801024020 0.2848020792
 1551.1760254  -999.250000 8.2412004471 8.5000000000 0.3558999896 1.9458998442 2.3333001137 21.022199631 128.50886536 0.2829976678 0.2886968851
 1551.3283691  -999.250000 8.2714996338 8.5000000000 0.3364000022 1.9491000175 2.4138000011 20.556100845 127.40478516 0.2855979204 0.2908982337
