# LAS format log file from PETREL
# Project units are specified as depth units
#==================================================================
~Version information
VERS.   2.0:
WRAP.   NO:
#==================================================================
~Well
STRT .m      2645.2697754 :
STOP .m      2924.0100098 :
STEP .m     0.00000000 :
NULL .        -999.250000 :
COMP.           : COMPANY
WELL.  16/1-2  Ivar Aasen Appr   : WELL
FLD.            : FIELD
LOC.            : LOCATION
SRVC.           : SERVICE COMPANY
DATE.  2018-09-11 14:48:05   : Log Export Date {yyyy-MM-dd HH:mm:ss}
PROV.           : PROVINCE
UWI.   16/1-2   : UNIQUE WELL ID
API.            : API NUMBER
#==================================================================
~Curve
DEPT .m                   : DEPTH
Lithology_geolink ._      : Lithology_geolink
CALI .in                  : CALI
BS .in                    : BS
MUDWEIGHT ._              : MUDWEIGHT
ROP .m/h                  : ROP
DRHO .g/cm3               : DRHO
NPHI .m3/m3               : NPHI
RHOB .g/cm3               : RHOB
GR .gAPI                  : GR
DTC .us/ft                : DTC
DTE .us/ft                : DTE
RDEP .ohm.m               : RDEP
SP .mV                    : SP
RSHA .ohm.m               : RSHA
RHOM .g/cm3               : RHOM
RMED .ohm.m               : RMED
~Parameter
#==================================================================
~Ascii
 2645.2697754 6.0000000000 8.0209999084 8.5000000000 9.8000001907 199116.96875 -0.003000000 0.3559400141 2.3524014950 69.291999817 87.690086365 83.666854858 1.3426831961 100.04313660 1.4340000153 2.6500000954 1.4340000153
 2645.4221191 6.0000000000 8.0220003128 8.5000000000 9.8000001907 192825.93750 -0.003000000 0.4581100047 2.3544104099 72.063003540 87.382987976 83.385177612 1.4703845978 99.938339233 1.5859999657 2.6500000954 1.5859999657
 2645.5747070 6.0000000000 8.0229997635 8.5000000000 9.8000001907 186922.26563 -0.003000000 0.5340399742 2.3506450653 73.549003601 88.126663208 83.915306091 1.6095545292 100.03584290 1.6809999943 2.6500000954 1.6809999943
 2645.7270508 6.0000000000 8.0240001678 8.5000000000 9.8000001907 186332.43750 -0.003000000 0.5781499743 2.3466172218 73.622001648 88.724502563 84.480293274 1.6807724237 100.28559875 1.7430000305 2.6500000954 1.7430000305
 2645.8793945 5.0000000000 8.0249996185 8.5000000000 9.8000001907 182922.42188 -0.003000000 0.5960599780 2.3444271088 72.402999878 88.760330200 84.784622192 1.6660720110 100.51762390 1.7680000067 2.6500000954 1.7680000067
 2646.0317383 5.0000000000 8.0270004272 8.5000000000 9.8000001907 181993.53125 -0.003000000 0.5996400118 2.3428335190 70.073997498 88.962219238 85.004142761 1.6112643480 100.18108368 1.6779999733 2.6500000954 1.6779999733
 2646.1843262 5.0000000000 8.0279998779 8.5000000000 9.8000001907 184417.00000 -0.003000000 0.5996900201 2.3383622169 68.097999573 89.646774292 85.644775391 1.5362403393 99.812583923 1.4830000401 2.6500000954 1.4830000401
 2646.3366699 5.0000000000 8.0290002823 8.5000000000 9.8000001907 196532.87500 -0.003000000 0.5997300148 2.3301646709 65.872001648 90.928329468 86.830467224 1.4512723684 99.856933594 1.2799999714 2.6500000954 1.2799999714
 2646.4890137 5.0000000000 8.0299997330 8.5000000000 9.8000001907 216768.87500 -0.003000000 0.5997800231 2.3222341537 61.965000153 92.092201233 87.995651245 1.3664081097 99.802093506 1.1779999733 2.6500000954 1.1779999733
 2646.6413574 5.0000000000 8.0310001373 8.5000000000 9.8000001907 219361.57813 -0.003000000 0.5998199582 2.3176307678 57.082000732 92.662918091 88.679809570 1.2774277925 99.748176575 1.1779999733 2.6500000954 1.1779999733
 2646.7939453 5.0000000000 8.0329999924 8.5000000000 9.8000001907 216937.12500 -0.003000000 0.5998600125 2.3147678375 52.526000977 93.191467285 89.105140686 1.1852948666 99.624198914 1.1619999409 2.6500000954 1.1619999409
 2646.9462891 5.0000000000 8.0340003967 8.5000000000 9.8000001907 176946.03125 -0.003000000 0.5998799801 2.3108704090 49.615001678 93.911209106 89.695037842 1.1162211895 99.407348633 1.1210000515 2.6500000954 1.1210000515
 2647.0986328 5.0000000000 8.0349998474 8.5000000000 9.8000001907 152154.96875 -0.003000000 0.5999000072 2.3057091236 49.171001434 94.566322327 90.486099243 1.0841025114 99.154403687 1.0900000334 2.6500000954 1.0900000334
 2647.2509766 5.0000000000 8.0360002518 8.5000000000 9.8000001907 152075.75000 -0.003000000 0.5998899937 2.3008952141 49.798999786 95.373649597 91.227844238 1.0640959740 98.938346863 1.0809999704 2.6500000954 1.0809999704
 2647.4033203 5.0000000000 8.0369997025 8.5000000000 9.8000001907 152001.56250 -0.003000000 0.5998799801 2.2994809151 50.488998413 95.605888367 91.445831299 1.0460865498 99.018737793 1.0759999752 2.6500000954 1.0759999752
 2647.5559082 5.0000000000 8.0389995575 8.5000000000 9.8000001907 151654.65625 -0.003000000 0.5998600125 2.3019948006 52.585998535 95.135437012 91.055740356 1.0370287895 99.021003723 1.0579999685 2.6500000954 1.0579999685
 2647.7082520 5.0000000000 8.1479997635 8.5000000000 9.8000001907 147661.96875 -0.003000000 0.5998300314 2.3054189682 55.674999237 94.508995056 90.522483826 1.0788654089 98.985061646 1.0299999714 2.6500000954 1.0299999714
 2647.8605957 5.0000000000 8.5520000458 8.5000000000 9.8000001907 147582.35938 -0.003000000 0.5997999907 2.3124973774 58.583999634 93.532501221 89.460166931 1.1775248051 98.986999512 1.0770000219 2.6500000954 1.0770000219
 2648.0129395 5.0000000000 8.8149995804 8.5000000000 9.8000001907 196539.07813 -0.003000000 0.5997700095 2.3270921707 61.625000000 91.472122192 87.301879883 1.2854807377 99.181373596 1.2330000401 2.6500000954 1.2330000401
 2648.1655273 6.0000000000 8.8680000305 8.5000000000 9.8000001907 269777.34375 -0.003000000 0.5997399688 2.3417603970 63.750999451 89.382629395 85.167549133 1.3946505785 99.431594849 1.4390000105 2.6500000954 1.4390000105
 2648.3178711 6.0000000000 8.8710002899 8.5000000000 9.8000001907 276617.25000 -0.003000000 0.5997099876 2.3466532230 65.599998474 88.574989319 84.465065002 1.5016570091 99.483917236 1.6260000467 2.6500000954 1.6260000467
 2648.4702148 6.0000000000 8.8710002899 8.5000000000 9.8000001907 284172.53125 -0.003000000 0.5996800065 2.3437945843 68.502998352 88.902610779 84.870635986 1.6094815731 99.507965088 1.7039999962 2.6500000954 1.7039999962
 2648.6225586 6.0000000000 8.8710002899 8.5000000000 9.8000001907 285343.09375 -0.003000000 0.5996500254 2.3410627842 69.620002747 89.237060547 85.257209778 1.6965817213 99.638580322 1.6890000105 2.6500000954 1.6890000105
 2648.7751465 6.0000000000 8.8710002899 8.5000000000 9.8000001907 285263.50000 -0.003000000 0.5996200442 2.3417468071 68.552001953 89.172218323 85.165321350 1.7398622036 99.949501038 1.6549999714 2.6500000954 1.6549999714
 2648.9274902 5.0000000000 8.8710002899 8.5000000000 9.8000001907 283999.43750 -0.003000000 0.5995900035 2.3432240486 67.904998779 88.962997437 84.956520081 1.7449840307 100.27049255 1.6219999790 2.6500000954 1.6219999790
 2649.0798340 5.0000000000 8.8710002899 8.5000000000 9.8000001907 227471.57813 -0.003000000 0.5995600224 2.3437120914 68.053001404 88.962997437 84.888114929 1.7390191555 100.55654144 1.5920000076 2.6500000954 1.5920000076
 2649.2321777 5.0000000000 8.8710002899 8.5000000000 9.8000001907 213874.21875 -0.003000000 0.5995299816 2.3450930119 67.584999084 88.732383728 84.689865112 1.7220816612 100.70675659 1.5659999847 2.6500000954 1.5659999847
 2649.3847656 5.0000000000 8.8710002899 8.5000000000 9.8000001907 213790.20313 -0.003000000 0.5995000005 2.3486309052 66.180000305 88.308181763 84.194435120 1.6920962334 100.74094391 1.5429999828 2.6500000954 1.5429999828
 2649.5371094 5.0000000000 8.8710002899 8.5000000000 9.8000001907 213720.89063 -0.003000000 0.5994699597 2.3512747288 65.464996338 88.069290161 83.827156067 1.6730608940 100.74399567 1.5379999876 2.6500000954 1.5379999876
 2649.6894531 5.0000000000 8.8710002899 8.5000000000 9.8000001907 213644.40625 -0.003000000 0.5994399786 2.3508770466 65.469001770 87.859458923 83.877845764 1.6620352268 100.80590057 1.5920000076 2.6500000954 1.5920000076
 2649.8417969 5.0000000000 8.8710002899 8.5000000000 9.8000001907 213567.71875 -0.003000000 0.5994099975 2.3497762680 66.272003174 88.045173645 84.028602600 1.6490623951 100.96674347 1.6890000105 2.6500000954 1.6890000105
 2649.9941406 5.0000000000 8.8710002899 8.5000000000 9.8000001907 213491.23438 -0.003000000 0.5993899703 2.3482103348 67.447998047 88.247367859 84.247962952 1.6320817471 100.91815948 1.7280000448 2.6500000954 1.7280000448
 2650.1467285 5.0000000000 8.8710002899 8.5000000000 9.8000001907 209228.17188 -0.003000000 0.5993700027 2.3442957401 67.010002136 88.753097534 84.798370361 1.6130609512 100.72131348 1.6579999924 2.6500000954 1.6579999924
 2650.2990723 5.0000000000 8.8710002899 8.5000000000 9.8000001907 211686.84375 -0.003000000 0.5993599892 2.3402786255 65.999000549 89.379608154 85.370185852 1.5900737047 100.62016296 1.5479999781 2.6500000954 1.5479999781
 2650.4514160 6.0000000000 8.8710002899 8.5000000000 9.8000001907 224426.87500 -0.003000000 0.5993500352 2.3393106461 66.249000549 89.589447021 85.511306763 1.5571584702 100.62399292 1.4670000076 2.6500000954 1.4670000076
 2650.6037598 6.0000000000 8.8730001450 8.5000000000 9.8000001907 234115.32813 -0.003000000 0.5993399620 2.3404474258 66.995002747 89.475418091 85.344825745 1.5201778412 100.72866058 1.4240000248 2.6500000954 1.4240000248
 2650.7563477 6.0000000000 8.8739995956 8.5000000000 9.8000001907 236398.92188 -0.003000000 0.5993399620 2.3400800228 68.504997253 89.588584900 85.398361206 1.4940832853 100.78191376 1.4119999409 2.6500000954 1.4119999409
