# LAS format log file from PETREL
# Project units are specified as depth units
#==================================================================
~Version information
VERS.   2.0:
WRAP.   NO:
#==================================================================
~Well
STRT .m      2645.2697754 :
STOP .m      2924.0100098 :
STEP .m     0.00000000 :
NULL .        -999.250000 :
COMP.           : COMPANY
WELL.  16/1-2  Ivar Aasen Appr   : WELL
FLD.            : FIELD
LOC.            : LOCATION
SRVC.           : SERVICE COMPANY
DATE.  2018-09-11 14:48:05   : Log Export Date {yyyy-MM-dd HH:mm:ss}
PROV.           : PROVINCE
UWI.   16/1-2   : UNIQUE WELL ID
API.            : API NUMBER
#==================================================================
~Curve
DEPT .m                   : DEPTH
Lithology_geolink ._      : Lithology_geolink
CALI .in                  : CALI
BS .in                    : BS
MUDWEIGHT ._              : MUDWEIGHT
ROP .m/h                  : ROP
DRHO .g/cm3               : DRHO
NPHI .m3/m3               : NPHI
RHOB .g/cm3               : RHOB
GR .gAPI                  : GR
DTC .us/ft                : DTC
DTE .us/ft                : DTE
RDEP .ohm.m               : RDEP
SP .mV                    : SP
RSHA .ohm.m               : RSHA
RHOM .g/cm3               : RHOM
RMED .ohm.m               : RMED
~Parameter
#==================================================================
~Ascii
# ...
 2899.0163574 13.000000000 8.1090002060 8.5000000000 9.0000000000 653750.81250 0.1000000015 0.1165808663 2.4559884071 147.64193726 66.187080383 66.213722229 2.0510001183 83.064262390 4.0433273315 2.6538093090 4.0433273315
 2899.1687012 13.000000000 8.0729999542 8.5000000000 9.0000000000 606419.68750 0.0920000002 0.1168491691 2.4515171051 142.61180115 67.141113281 67.048141479 2.0929999352 83.228759766 4.1453909874 2.6543509960 4.1453909874
 2899.3210449 13.000000000 8.0550003052 8.5000000000 9.0000000000 591267.25000 0.1000000015 0.1165866032 2.4419052601 137.50210571 67.695075989 67.673736572 2.1410000324 83.704017639 4.2676410675 2.6547417641 4.2676410675
 2899.4736328 13.000000000 8.0019998550 8.5000000000 9.0000000000 581921.62500 0.1150000021 0.1155209690 2.4391756058 134.44384766 67.488319397 67.530494690 2.1900000572 84.336242676 4.4686827660 2.6547999382 4.4686827660
 2899.6259766 13.000000000 8.0050001144 8.5000000000 9.0000000000 580334.75000 0.1180000007 0.1136392429 2.4366261959 132.52851868 67.258903503 67.290885925 2.2390000820 84.411186218 4.8187327385 2.6549255848 4.8187327385
 2899.7783203 13.000000000 8.0889997482 8.5000000000 9.0000000000 587426.62500 0.0790000036 0.1114043891 2.4295637608 132.23117065 67.258903503 67.330581665 2.2650001049 83.899948120 5.1781859398 2.6551837921 5.1781859398
 2899.9306641 13.000000000 8.1719999313 8.5000000000 9.0000000000 614759.18750 0.0489999987 0.1096591949 2.4264805317 134.20954895 67.218345642 67.247200012 2.2300000191 83.241958618 5.2349262238 2.6552164555 5.2349262238
 2900.0832520 13.000000000 8.2010002136 8.5000000000 9.0000000000 648197.68750 0.0379999988 0.1094198599 2.4306423664 137.67535400 67.101730347 67.053672791 2.1619999409 82.595085144 4.8982882500 2.6550164223 4.8982882500
 2900.2355957 13.000000000 8.2200002670 8.5000000000 9.0000000000 664562.12500 0.0379999988 0.1114820838 2.4333202839 138.72042847 67.110458374 67.131355286 2.0869998932 81.997314453 4.3338608742 2.6549837589 4.3338608742
 2900.3879395 13.000000000 8.2360000610 8.5000000000 9.0000000000 673558.18750 0.0399999991 0.1160813719 2.4306559563 137.11206055 67.438545227 67.449272156 2.0250000954 81.569549561 3.6814296246 2.6551418304 3.6814296246
 2900.5402832 13.000000000 8.2110004425 8.5000000000 9.0000000000 676489.68750 0.0500000007 0.1227540672 2.4284389019 137.77529907 68.143463135 68.151855469 1.9759999514 81.287712097 3.1925609112 2.6551582813 3.1925609112
 2900.6926270 13.000000000 8.1599998474 8.5000000000 9.0000000000 676611.37500 0.0670000017 0.1302617043 2.4311089516 139.21241760 69.398597717 69.389892578 1.9240000248 81.104827881 3.0566506386 2.6550166607 3.0566506386
 2900.8452148 13.000000000 8.0769996643 8.5000000000 9.0000000000 676525.18750 0.0850000009 0.1370319873 2.4354684353 138.84500122 70.449516296 70.407066345 1.9079999924 80.992568970 3.2621536255 2.6549000740 3.2621536255
 2900.9975586 13.000000000 7.9739995003 8.5000000000 9.0000000000 671079.37500 0.1080000028 0.1415948421 2.4346780777 135.72671509 70.418258667 70.447006226 1.9309999943 80.726226807 3.9191408157 2.6550672054 3.9191408157
 2901.1499023 13.000000000 7.9050002098 8.5000000000 9.0000000000 666620.62500 0.1340000033 0.1430949420 2.4269328117 135.54483032 69.671806335 69.645629883 1.9570000172 80.244003296 4.8991570473 2.6555087566 4.8991570473
 2901.3022461 13.000000000 7.9040002823 8.5000000000 9.0000000000 664613.87500 0.1439999938 0.1415077001 2.4146263599 137.29972839 68.438476563 68.491867065 1.9730000496 79.619926453 5.8831124306 2.6560084820 5.8831124306
 2901.4548340 13.000000000 7.9270000458 8.5000000000 9.0000000000 659006.31250 0.1159999967 0.1376574486 2.3992829323 137.14167786 67.218109131 67.253952026 1.9659999609 78.948547363 6.5385093689 2.6564254761 6.5385093689
 2901.6071777 13.000000000 7.9489998817 8.5000000000 9.0000000000 652485.00000 0.0979999974 0.1329708099 2.3894259930 140.47467041 66.094200134 66.052581787 1.9409999847 78.497650146 6.2229390144 2.6565163136 6.2229390144
 2901.7595215 13.000000000 7.9609999657 8.5000000000 9.0000000000 650147.12500 0.1049999967 0.1289832592 2.3938672543 144.00708008 65.171157837 65.185836792 1.9190000296 78.279228210 4.7539644241 2.6562325954 4.7539644241
 2901.9118652 13.000000000 7.9689993858 8.5000000000 9.0000000000 648590.37500 0.0810000002 0.1268909276 2.3978130817 144.04638672 64.924377441 64.926078796 1.9019999504 78.421875000 3.1856858730 2.6554152966 3.1856858730
 2902.0644531 13.000000000 7.9910001755 8.5000000000 9.0000000000 648723.93750 0.0460000001 0.1271907240 2.3879890442 140.53984070 65.587791443 65.630813599 1.8639999628 78.971336365 2.4663991928 2.6533033848 2.4663991928
 2902.2167969 13.000000000 8.0530004501 8.5000000000 9.0000000000 644997.50000 0.0309999995 0.1294246912 2.3803792000 137.06140137 66.992431641 66.972206116 1.8200000525 80.010787964 2.5516495705 2.6535913944 2.5516495705
 2902.3691406 13.000000000 8.1000003815 8.5000000000 9.0000000000 648275.37500 0.0489999987 0.1324782670 2.3879501820 133.57467651 67.915542603 67.949104309 1.8099999428 81.122261047 3.1031122208 2.6563327312 3.1031122208
 2902.5214844 13.000000000 8.1020002365 8.5000000000 9.0000000000 668601.12500 0.0740000010 0.1350536793 2.4060099125 132.12724304 68.440818787 68.460327148 1.8609999418 81.908912659 3.7616891861 2.6558494568 3.7616891861
 2902.6740723 13.000000000 8.0590000153 8.5000000000 9.0000000000 683173.93750 0.0960000008 0.1361971647 2.4254999161 132.90046692 68.589210510 68.551643372 1.9839999676 82.481132507 4.2889089584 2.6552491188 4.2889089584
 2902.8264160 13.000000000 8.0080003738 8.5000000000 9.0000000000 686676.62500 0.1089999974 0.1356000602 2.4362573624 134.91981506 67.942726135 68.028404236 2.1449999809 82.833854675 4.6851806641 2.6548581123 4.6851806641
 2902.9787598 13.000000000 7.9930000305 8.5000000000 9.0000000000 686802.68750 0.1159999967 0.1335302889 2.4378492832 138.54791260 67.497398376 67.515502930 2.2980000973 82.741279602 4.9301152229 2.6547999382 4.9301152229
 2903.1311035 13.000000000 7.9920001030 8.5000000000 9.0000000000 686932.68750 0.1250000000 0.1304983646 2.4385037422 142.85757446 67.587219238 67.538688660 2.4330000877 82.292373657 4.9661440849 2.6547582150 4.9661440849
 2903.2834473 13.000000000 7.9920001030 8.5000000000 9.0000000000 685179.12500 0.1199999973 0.1268665344 2.4389832020 142.58334351 67.784744263 67.761154175 2.5450000763 81.900321960 5.0120353699 2.6547417641 5.0120353699
 2903.4360352 13.000000000 7.9920001030 8.5000000000 9.0000000000 683034.56250 0.1000000015 0.1226565316 2.4352607727 140.29757690 67.816627502 67.749389648 2.6080000401 81.474533081 5.3362836838 2.6549255848 5.3362836838
 2903.5883789 13.000000000 8.0200004578 8.5000000000 9.0000000000 683161.06250 0.0970000029 0.1177739799 2.4329166412 139.23118591 67.466438293 67.368759155 2.6070001125 81.328857422 5.8092737198 2.6550164223 5.8092737198
 2903.7407227 13.000000000 8.0629997253 8.5000000000 9.0000000000 683295.75000 0.1040000021 0.1123632640 2.4375753403 139.34466553 66.661087036 66.602226257 2.5420000553 81.239936829 5.8645644188 2.6547327042 5.8645644188
 2903.8930664 13.000000000 8.1029996872 8.5000000000 9.0000000000 683413.62500 0.0860000029 0.1071476862 2.4449856281 139.76371765 65.578109741 65.556312561 2.4389998913 81.200897217 5.4165897369 2.6544165611 5.4165897369
 2904.0456543 13.000000000 8.1300001144 8.5000000000 9.0000000000 683540.25000 0.0619999990 0.1033132672 2.4508368969 140.84085083 64.448959351 64.485946655 2.3299999237 81.136795044 4.9767503738 2.6541745663 4.9767503738
 2904.1979980 13.000000000 8.1669998169 8.5000000000 9.0000000000 683666.50000 0.0350000001 0.1019269601 2.4580309391 142.66494751 64.099441528 64.109222412 2.2190001011 81.072013855 4.7171502113 2.6537909508 4.7171502113
 2904.3503418 13.000000000 8.1909999847 8.5000000000 9.0000000000 536584.81250 0.0619999990 0.1033825278 2.4686646461 143.88053894 64.756080627 64.751106262 2.1089999676 81.083374023 4.5404772758 2.6532490253 4.5404772758
 2904.5026855 13.000000000 8.1309995651 8.5000000000 9.0000000000 483707.62500 0.0820000023 0.1072970107 2.4708976746 144.21223450 65.759826660 65.833389282 2.0320000648 81.317665100 4.3773040771 2.6531088352 4.3773040771
