# LAS format log file from PETREL
# Project units are specified as depth units
#==================================================================
~Version information
VERS.   2.0:
WRAP.   NO:
#==================================================================
~Well
STRT .m      1175.9671631 :
STOP .m      1726.7407227 :
STEP .m     0.00000000 :
NULL .        -999.250000 :
COMP.           : COMPANY
WELL.  16/1-6 A Verdandi Appr   : WELL
FLD.            : FIELD
LOC.            : LOCATION
SRVC.           : SERVICE COMPANY
DATE.  2018-09-11 14:48:05   : Log Export Date {yyyy-MM-dd HH:mm:ss}
PROV.           : PROVINCE
UWI.   16/1-6 A   : UNIQUE WELL ID
API.            : API NUMBER
#==================================================================
~Curve
DEPT .m                   : DEPTH
Lithology_geolink ._      : Lithology_geolink
CALI .in                  : CALI
BS .in                    : BS
NPHI .m3/m3               : NPHI
RHOB .g/cm3               : RHOB
PEF .b/e                  : PEF
GR .gAPI                  : GR
DTC .us/ft                : DTC
RDEP .ohm.m               : RDEP
RMED .ohm.m               : RMED
~Parameter
#==================================================================
~Ascii
# ...
 1611.2215576  -999.250000 9.0271997452 8.5000000000 0.4758999944 2.1515998840 3.7425000668 61.642398834 143.49975586 0.6766930819 0.6606954336
 1611.3740234  -999.250000 9.0801000595 8.5000000000 0.4894999862 2.1461999416 3.8745000362 57.446701050 142.52217102 0.6809965372 0.6622987390
 1611.5263672  -999.250000 9.0801000595 8.5000000000 0.5051000118 2.1598999500 4.0048999786 55.582000732 141.01980591 0.6740056276 0.6523079872
 1611.6787109  -999.250000 9.0573997498 8.5000000000 0.4864000082 2.1844999790 4.0679998398 53.485198975 139.06982422 0.6928697228 0.6689732671
 1611.8311768  -999.250000 9.0914001465 8.5000000000 0.4645999968 2.1907000542 4.0409998894 56.650600433 140.15643311 0.7224763036 0.6907825470
 1611.9835205  -999.250000 9.0687999725 8.5000000000 0.4691999853 2.1800000668 3.9330999851 57.116798401 138.99446106 0.6836622953 0.6590508819
 1612.1359863  -999.250000 9.0801000595 8.5000000000 0.4528999925 2.1665999889 3.8041999340 59.107799530 143.43753052 0.6303427219 0.6120376587
 1612.2883301  -999.250000 9.0801000595 8.5000000000 0.4465999901 2.1673998833 3.7590999603 59.661800385 144.49240112 0.6273048520 0.6097037196
 1612.4407959  -999.250000 9.0687999725 8.5000000000 0.4386000037 2.1654999256 3.8396999836 62.808498383 144.46012878 0.6386908889 0.6219901443
 1612.5931396  -999.250000 9.0951995850 8.5000000000 0.4512999952 2.1635000706 4.0089001656 61.293399811 143.94140625 0.6406983733 0.6283949018
 1612.7456055  -999.250000 9.0801000595 8.5000000000 0.4562999904 2.1612999439 4.1936001778 60.364898682 143.34606934 0.6515913010 0.6412897110
 1612.8979492  -999.250000 9.0801000595 8.5000000000 0.4742999971 2.1593999863 4.3642997742 58.141101837 142.73889160 0.6667878628 0.6685781479
 1613.0504150  -999.250000 9.0687999725 8.5000000000 0.4715000093 2.1628000736 4.5378999710 55.110900879 142.42424011 0.6846857071 0.6824888587
 1613.2027588  -999.250000 9.0801000595 8.5000000000 0.4866000116 2.1772000790 4.6750001907 55.583198547 141.59626770 0.6724098325 0.6671123505
 1613.3552246  -999.250000 9.0234003067 8.5000000000 0.4679000080 2.2035000324 4.7389001846 54.068901062 141.24807739 0.6596102715 0.6556091905
 1613.5075684  -999.250000 9.0234003067 8.5000000000 0.4670999944 2.2227001190 4.7034997940 56.632900238 141.46612549 0.6717902422 0.6673905253
 1613.6599121  -999.250000 9.0347995758 8.5000000000 0.4559000134 2.2256000042 4.6354999542 55.910900116 141.71659851 0.6866761446 0.6838735938
 1613.8123779  -999.250000 9.0271997452 8.5000000000 0.4643000066 2.2165000439 4.5935997963 58.833301544 140.54823303 0.7047855258 0.6996873617
 1613.9647217  -999.250000 9.0008001328 8.5000000000 0.4758999944 2.2061998844 4.6305999756 62.784198761 140.08354187 0.7134860754 0.7164731026
 1614.1171875  -999.250000 8.9893999100 8.5000000000 0.4578000009 2.1914000511 4.7664999962 62.923400879 141.68812561 0.7105023861 0.7158005238
 1614.2695313  -999.250000 9.1367998123 8.5000000000 0.4453999996 2.1703000069 4.9633998871 62.107601166 140.03225708 0.6926286817 0.7028207779
 1614.4219971  -999.250000 9.0045003891 8.5000000000 0.4393000007 2.1631999016 5.1037001610 58.729499817 139.85583496 0.6715169549 0.6809175014
 1614.5743408  -999.250000 8.9138002396 8.5000000000 0.4485999942 2.1988000870 5.1360998154 59.724399567 137.97930908 0.6749972105 0.6837976575
 1614.7268066  -999.250000 8.8156003952 8.5000000000 0.4546999931 2.2283999920 5.1672000885 61.462001801 137.68353271 0.6866906285 0.6947911978
 1614.8791504  -999.250000 8.9554004669 8.5000000000 0.4532999992 2.2137000561 5.3815999031 63.220199585 136.07440186 0.6991899610 0.7057911754
 1615.0316162  -999.250000 9.2388000488 8.5000000000 0.4690000117 2.1389999390 5.6518998146 66.176300049 137.63215637 0.6832128167 0.6841173172
 1615.1839600  -999.250000 8.8760995865 8.5000000000 0.4772999883 2.1152000427 5.7123999596 63.739398956 136.57376099 0.6696109176 0.6698114276
 1615.3364258  -999.250000 8.9138002396 8.5000000000 0.4744000137 2.1703000069 5.3373999596 54.998500824 138.55761719 0.6594081521 0.6558111906
 1615.4887695  -999.250000 8.8382997513 8.5000000000 0.4679000080 2.2407999039 4.7336001396 48.941101074 140.55290222 0.6576014161 0.6598967314
 1615.6411133  -999.250000 9.6771001816 8.5000000000 0.4584999979 2.2462000847 4.2392997742 48.410701752 140.45297241 0.6515097618 0.6585022807
 1615.7935791  -999.250000 9.8811988831 8.5000000000 0.4544000030 2.2028000355 3.9971001148 55.986198425 138.53674316 0.6461043358 0.6506063342
 1615.9459229  -999.250000 8.7966995239 8.5000000000 0.5072000027 2.1705999374 3.8924000263 58.908401489 137.17758179 0.6346184015 0.6511990428
 1616.0983887  -999.250000 8.7060003281 8.5000000000 0.5135999918 2.1579000950 3.7367999554 56.866600037 135.92691040 0.6572818160 0.6772790551
 1616.2507324  -999.250000 8.6267004013 8.5000000000 0.4695999920 2.1375000477 3.5966999531 48.125598907 130.37431335 0.6669844389 0.7201312780
 1616.4031982  -999.250000 8.6114997864 8.5000000000 0.3840999901 2.1198999882 3.5899999142 40.554401398 132.50268555 0.6999735236 0.7348881960
 1616.5555420  -999.250000 8.6267004013 8.5000000000 0.3400000036 2.1098999977 3.7163999081 39.746700287 132.15797424 0.6845123768 0.7099200487
 1616.7080078  -999.250000 8.6342000961 8.5000000000 0.3689000010 2.1222000122 3.8724999428 47.545501709 132.89840698 0.6502274871 0.6569424272
 1616.8603516  -999.250000 8.5510997772 8.5000000000 0.4508999884 2.1363000870 3.9914999008 51.853401184 133.46994019 0.6030378342 0.6100375652
 1617.0128174  -999.250000 8.5246000290 8.5000000000 0.5163000226 2.1494998932 4.0956997871 54.766998291 134.22828674 0.6221846342 0.6145963073
 1617.1651611  -999.250000 8.5699996948 8.5000000000 0.4982999861 2.1549000740 4.2079000473 51.155899048 133.88237000 0.6494781375 0.6368821263
 1617.3176270  -999.250000 8.5927000046 8.5000000000 0.4530999959 2.1602001190 4.3379001617 56.167400360 133.13259888 0.6817741394 0.6666761637
 1617.4699707  -999.250000 8.5812997818 8.5000000000 0.4115999937 2.1781001091 4.4956002235 56.352901459 133.70204163 0.6731069684 0.6598055363
 1617.6224365  -999.250000 8.6114997864 8.5000000000 0.4361000061 2.1758000851 4.7179999352 56.360900879 133.74166870 0.6444230080 0.6310230494
 1617.7747803  -999.250000 8.6947002411 8.5000000000 0.4580000043 2.1626999378 4.9878001213 53.903900146 135.52906799 0.6199195981 0.6126147509
 1617.9271240  -999.250000 8.7399997711 8.5000000000 0.4817999899 2.1447000504 5.2392997742 55.000400543 133.57374573 0.6067211628 0.6085065603
 1618.0795898  -999.250000 8.7173995972 8.5000000000 0.4968999922 2.1995000839 5.3660001755 59.079498291 133.78402710 0.6155928373 0.6216894388
 1618.2319336  -999.250000 8.8647003174 8.5000000000 0.5131000280 2.3710999489 5.3867001534 56.835998535 132.69703674 0.6255839467 0.6392717957
 1618.3843994  -999.250000 8.8382997513 8.5000000000 0.5018000007 2.5610001087 5.4015002251 54.505001068 131.72247314 0.6488813162 0.6662783623
 1618.5367432  -999.250000 8.9062995911 8.5000000000 0.4611000121 2.6147999763 5.4148998260 53.330101013 130.96011353 0.6822465062 0.7105290890
 1618.6892090  -999.250000 9.0008001328 8.5000000000 0.4237999916 2.4876999855 5.3477001190 51.037899017 130.67453003 0.7104774117 0.7311834693
 1618.8415527  -999.250000 8.8420000076 8.5000000000 0.4296000004 2.3278000355 5.1704998016 47.884101868 133.21417236 0.6895167828 0.7055205703
 1618.9940186  -999.250000 8.8986997604 8.5000000000 0.4792000055 2.2376000881 5.0675997734 50.690700531 131.44761658 0.6523298025 0.6659317017
 1619.1463623  -999.250000 8.8873996735 8.5000000000 0.4957000017 2.1960000992 5.2536001205 56.634498596 130.88674927 0.6235230565 0.6301286817
 1619.2988281  -999.250000 8.9289999008 8.5000000000 0.4964999855 2.1487998962 5.6336998940 64.018798828 143.37469482 0.6297949553 0.6372942328
 1619.4511719  -999.250000 8.9554004669 8.5000000000 0.5195000172 2.1268000603 5.9363999367 60.638900757 143.22572327 0.6271021366 0.6351017952
 1619.6036377  -999.250000 9.0460996628 8.5000000000 0.5339000225 2.1898000240 5.8948998451 60.162700653 143.36509705 0.6548777819 0.6630775928
