# LAS format log file from PETREL
# Project units are specified as depth units
#==================================================================
~Version information
VERS.   2.0:
WRAP.   NO:
#==================================================================
~Well
STRT .m      1175.9671631 :
STOP .m      1726.7407227 :
STEP .m     0.00000000 :
NULL .        -999.250000 :
COMP.           : COMPANY
WELL.  16/1-6 A Verdandi Appr   : WELL
FLD.            : FIELD
LOC.            : LOCATION
SRVC.           : SERVICE COMPANY
DATE.  2018-09-11 14:48:05   : Log Export Date {yyyy-MM-dd HH:mm:ss}
PROV.           : PROVINCE
UWI.   16/1-6 A   : UNIQUE WELL ID
API.            : API NUMBER
#==================================================================
~Curve
DEPT .m                   : DEPTH
Lithology_geolink ._      : Lithology_geolink
CALI .in                  : CALI
BS .in                    : BS
NPHI .m3/m3               : NPHI
RHOB .g/cm3               : RHOB
PEF .b/e                  : PEF
GR .gAPI                  : GR
DTC .us/ft                : DTC
RDEP .ohm.m               : RDEP
RMED .ohm.m               : RMED
~Parameter
#==================================================================
~Ascii
# ...
 1500.2742920  -999.250000 10.361100197 8.5000000000 0.5040000081 2.2284998894 5.6673998833 55.818515778 139.85916138 0.7753192782 0.7821246982
 1500.4266357  -999.250000 10.357299805 8.5000000000 0.4616999924 2.2337999344 5.7098999023 56.631896973 137.70336914 0.7623312473 0.7699293494
 1500.5791016  -999.250000 10.357299805 8.5000000000 0.4406000078 2.2053999901 5.8281002045 60.939846039 137.70100403 0.7536139488 0.7601156831
 1500.7314453  -999.250000 10.395099640 8.5000000000 0.4388000071 2.1689999104 6.0187001228 60.132900238 138.68661499 0.7374389172 0.7491264343
 1500.8839111  -999.250000 10.349800110 8.5000000000 0.4760000110 2.1559000015 6.2164001465 60.587234497 138.47647095 0.7281149030 0.7384171486
 1501.0362549  -999.250000 10.236399651 8.5000000000 0.5070999861 2.1717000008 6.3186998367 59.434448242 141.11875916 0.7063523531 0.7199444771
 1501.1887207  -999.250000 10.077699661 8.5000000000 0.5307999849 2.1842000484 6.3491001129 59.535316467 142.48181152 0.7003095746 0.7180030346
 1501.3410645  -999.250000 10.168399811 8.5000000000 0.4925999939 2.1791999340 6.4137001038 56.284904480 144.75996399 0.7010980844 0.7216911316
 1501.4935303  -999.250000 10.225099564 8.5000000000 0.4851999879 2.1740000248 6.4608998299 55.467052460 143.50990295 0.6958084702 0.7204020619
 1501.6458740  -999.250000 10.183500290 8.5000000000 0.5037999749 2.1942000389 6.1171998978 57.677925110 144.17227173 0.6877194047 0.7165093422
 1501.7983398  -999.250000 10.349800110 8.5000000000 0.5205000043 2.1914999485 5.4938998222 57.658416748 143.96476746 0.7038739920 0.7332730293
 1501.9506836  -999.250000 10.327099800 8.5000000000 0.5023000240 2.1752998829 4.8413000107 58.580059052 142.12208557 0.7181656957 0.7437747717
 1502.1031494  -999.250000 9.8283004761 8.5000000000 0.4902999997 2.1593999863 4.5243000984 54.981582642 139.84881592 0.6975331903 0.7226339579
 1502.2554932  -999.250000 10.134400368 8.5000000000 0.4844000041 2.1617999077 4.4601998329 57.901256561 141.05632019 0.6948043704 0.7130153775
 1502.4078369  -999.250000 9.9643001556 8.5000000000 0.4862000048 2.1524999142 4.5376000404 58.495349884 141.07446289 0.6928048134 0.7067151666
 1502.5603027  -999.250000 9.9302988052 8.5000000000 0.4769000113 2.1470000744 4.7283000946 60.126689911 139.71578979 0.6982911825 0.7097950578
 1502.7126465  -999.250000 9.9076004028 8.5000000000 0.4873999953 2.1303999424 5.0373997688 59.815799713 140.30735779 0.6965043545 0.7077050805
 1502.8651123  -999.250000 9.9190006256 8.5000000000 0.4887000024 2.1038000584 5.3468999863 57.952095032 138.33198547 0.7005934715 0.7043054104
 1503.0174561  -999.250000 9.8887996674 8.5000000000 0.4526000023 2.1136999130 5.4482998848 56.428840637 135.82881165 0.6979064941 0.7030031085
 1503.1699219  -999.250000 9.9869995117 8.5000000000 0.4621999860 2.1956000328 5.2691001892 53.138835907 133.80241394 0.6977003217 0.7055958509
 1503.3222656  -999.250000 10.259099960 8.5000000000 0.4697999954 2.2548000813 4.9798002243 49.518600464 132.35006714 0.7039848566 0.7213620543
 1503.4747314  -999.250000 9.7602996826 8.5000000000 0.4781000018 2.2493000031 4.8042998314 50.689258575 133.63377380 0.7063961029 0.7268911600
 1503.6270752  -999.250000 9.6015996933 8.5000000000 0.4666999876 2.1912999153 4.7372999191 54.649627686 130.84083557 0.6759732366 0.7044540644
 1503.7795410  -999.250000 9.5789003372 8.5000000000 0.4566999972 2.1853001118 4.6772999763 57.911888123 126.76845551 0.6714072227 0.7046995163
 1503.9318848  -999.250000 10.070100784 8.5000000000 0.4855999947 2.2546000481 4.5707001686 55.119541168 123.48423004 0.6900550723 0.7343286276
 1504.0843506  -999.250000 9.5410995483 8.5000000000 0.4483000040 2.3703999519 4.4365000725 51.950935364 127.15405273 0.7073723078 0.7489765882
 1504.2366943  -999.250000 10.168399811 8.5000000000 0.4528999925 2.4560000896 4.3109002113 47.066513062 129.25201416 0.7322601080 0.8119988441
 1504.3890381  -999.250000 10.395099640 8.5000000000 0.4492000043 2.4093000889 4.2227997780 45.891376495 135.57276917 0.7605320215 0.8132971525
 1504.5415039  -999.250000 10.259099960 8.5000000000 0.5120999813 2.2808001041 4.1633000374 44.630710602 135.66064453 0.7356400490 0.7778568864
 1504.6938477  -999.250000 10.123000145 8.5000000000 0.4954000115 2.1744999886 4.1683001518 50.447669983 135.78410339 0.7157477736 0.7452782989
 1504.8463135  -999.250000 10.179699898 8.5000000000 0.4806999862 2.1305000782 4.2423000336 55.461986542 139.47213745 0.7158997059 0.7362143993
 1504.9986572  -999.250000 10.327099800 8.5000000000 0.4629999995 2.1231000423 4.3228998184 59.189525604 140.32144165 0.7017340660 0.7143526077
 1505.1511230  -999.250000 10.304400444 8.5000000000 0.4977000058 2.1552999020 4.3359999657 58.690402985 142.16592407 0.6904181242 0.6950309277
 1505.3034668  -999.250000 10.213700294 8.5000000000 0.4824999869 2.2016000748 4.2951002121 58.234264374 136.40522766 0.7096536160 0.7031803131
 1505.4559326  -999.250000 10.270400047 8.5000000000 0.4677000046 2.2033998966 4.3158998489 58.573329926 135.45396423 0.7176871896 0.7147814035
 1505.6082764  -999.250000 10.995900154 8.5000000000 0.4521999955 2.1472001076 4.3579998016 57.914131165 136.66073608 0.7067264318 0.6995368004
 1505.7607422  -999.250000 10.474500656 8.5000000000 0.4776999950 2.1094999313 4.2923002243 56.865539551 137.94638062 0.6986129880 0.6893163323
 1505.9130859  -999.250000 10.497099876 8.5000000000 0.4736999869 2.1356000900 4.0201997757 51.859714508 139.19230652 0.7034882307 0.6928913593
 1506.0655518  -999.250000 11.075300217 8.5000000000 0.4927999973 2.2478001118 3.6333000660 52.390373230 138.93281555 0.7129848003 0.7045812011
 1506.2178955  -999.250000 11.483400345 8.5000000000 0.4781000018 2.3650000095 3.3148999214 49.479434967 138.16590881 0.7222850919 0.7158818841
 1506.3703613  -999.250000 10.652099609 8.5000000000 0.4763999879 2.4054000378 3.1514999866 51.930133820 138.70417786 0.7224997282 0.7159998417
 1506.5227051  -999.250000 10.678500175 8.5000000000 0.4422000051 2.3362998962 3.1047000885 50.573589325 135.84738159 0.7222004533 0.7181965113
 1506.6750488  -999.250000 10.780500412 8.5000000000 0.4875999987 2.2251999378 3.0834999084 52.550624847 136.50833130 0.7247937322 0.7243850827
 1506.8275146  -999.250000 10.701199532 8.5000000000 0.4981000125 2.1858000755 3.0162999630 53.834873199 136.48641968 0.7097241879 0.7176108956
 1506.9798584  -999.250000 10.610501289 8.5000000000 0.4959000051 2.1640999317 3.0457000732 55.696716309 140.49755859 0.7060088515 0.7106168270
 1507.1323242  -999.250000 10.565099716 8.5000000000 0.4648000002 2.1535000801 3.3566000462 57.589885712 142.49201965 0.7029049397 0.7033116817
 1507.2846680  -999.250000 10.621800423 8.5000000000 0.4586000144 2.1182000637 3.9068999290 59.336799622 146.66091919 0.6947196722 0.6925259233
 1507.4371338  -999.250000 10.636898994 8.5000000000 0.4812999964 2.1287999153 4.3657999039 56.554233551 147.83407593 0.6837176681 0.6793211699
 1507.5894775  -999.250000 10.553800583 8.5000000000 0.4948000014 2.1659998894 4.4840002060 55.234855652 146.57870483 0.6818045974 0.6787014008
 1507.7419434  -999.250000 10.606700897 8.5000000000 0.5048999786 2.1921999454 4.3650999069 52.904766083 146.28094482 0.6939902306 0.6851947904
 1507.8942871  -999.250000 10.542499542 8.5000000000 0.4885999858 2.1881999969 4.2505002022 57.211643219 148.15290833 0.6799113154 0.6745085716
 1508.0467529  -999.250000 10.451800346 8.5000000000 0.4702999890 2.1638000011 4.2470998764 61.987277985 146.21035767 0.6650119424 0.6594120860
 1508.1990967  -999.250000 10.395099640 8.5000000000 0.4593999982 2.1575999260 4.3004999161 64.203720093 146.81890869 0.6635012031 0.6563025117
 1508.3515625  -999.250000 10.402700424 8.5000000000 0.5133000016 2.1633999348 4.3530001640 64.428024292 142.69740295 0.6590035558 0.6561001539
 1508.5039063  -999.250000 10.417799950 8.5000000000 0.5601999760 2.1912000179 4.3797001839 63.857559204 143.86744690 0.6336203218 0.6452087760
 1508.6562500  -999.250000 10.395099640 8.5000000000 0.5719000101 2.2341001034 4.4345002174 63.808975220 141.80790710 0.6591590047 0.6794450879
