# LAS format log file from PETREL
# Project units are specified as depth units
#==================================================================
~Version information
VERS.   2.0:
WRAP.   NO:
#==================================================================
~Well
STRT .m      1175.9671631 :
STOP .m      1726.7407227 :
STEP .m     0.00000000 :
NULL .        -999.250000 :
COMP.           : COMPANY
WELL.  16/1-6 A Verdandi Appr   : WELL
FLD.            : FIELD
LOC.            : LOCATION
SRVC.           : SERVICE COMPANY
DATE.  2018-09-11 14:48:05   : Log Export Date {yyyy-MM-dd HH:mm:ss}
PROV.           : PROVINCE
UWI.   16/1-6 A   : UNIQUE WELL ID
API.            : API NUMBER
#==================================================================
~Curve
DEPT .m                   : DEPTH
Lithology_geolink ._      : Lithology_geolink
CALI .in                  : CALI
BS .in                    : BS
NPHI .m3/m3               : NPHI
RHOB .g/cm3               : RHOB
PEF .b/e                  : PEF
GR .gAPI                  : GR
DTC .us/ft                : DTC
RDEP .ohm.m               : RDEP
RMED .ohm.m               : RMED
~Parameter
#==================================================================
~Ascii
# ...
 1466.1367188  -999.250000 9.8395996094 8.5000000000 0.4720000029 2.1391999722 3.8680999279 65.243499756 146.95707703 0.6564953327 0.6506021023
 1466.2891846  -999.250000 9.8849992752 8.5000000000 0.4821000099 2.1368999481 3.9279999733 64.322196960 146.79911804 0.6572993398 0.6506000161
 1466.4415283  -999.250000 9.8170003891 8.5000000000 0.4745999873 2.1382999420 3.9697999954 69.250701904 146.30639648 0.6573998332 0.6515983939
 1466.5939941  -999.250000 9.8359003067 8.5000000000 0.4584000111 2.1373999119 3.9920001030 71.593101501 146.80130005 0.6576997638 0.6504009366
 1466.7463379  -999.250000 9.7678003311 8.5000000000 0.4311000109 2.1421000957 3.9881000519 74.856399536 146.48680115 0.6587982178 0.6519974470
 1466.8988037  -999.250000 9.7828998566 8.5000000000 0.4264000058 2.1424002647 3.9686000347 76.674102783 144.52517700 0.6602988243 0.6544979811
 1467.0511475  -999.250000 9.7526998520 8.5000000000 0.4501999915 2.1486999989 3.9593999386 77.140296936 144.13360596 0.6611992717 0.6559988260
 1467.2036133  -999.250000 9.7376003265 8.5000000000 0.4711000025 2.1487998962 3.9698998928 75.963203430 143.72442627 0.6607004404 0.6556003094
 1467.3559570  -999.250000 9.7489004135 8.5000000000 0.4914999902 2.1519000530 3.9867000580 72.785003662 142.95072937 0.6608998179 0.6573985815
 1467.5084229  -999.250000 9.7602996826 8.5000000000 0.5116000175 2.1468999386 3.9941000938 64.850997925 142.55052185 0.6612997055 0.6589987278
 1467.6607666  -999.250000 9.7754001617 8.5000000000 0.5218999982 2.1496000290 3.9776999950 65.095703125 143.21026611 0.6639978290 0.6622973680
 1467.8132324  -999.250000 9.7678003311 8.5000000000 0.5407000184 2.1612000465 3.9535999298 65.140602112 141.77554321 0.6633005142 0.6622000337
 1467.9655762  -999.250000 9.7376003265 8.5000000000 0.5110999942 2.1782000065 3.9414999485 71.547401428 144.28707886 0.6632999778 0.6631992459
 1468.1179199  -999.250000 9.7074003220 8.5000000000 0.5155000091 2.1844000816 3.9658000469 69.226303101 144.75845337 0.6590068936 0.6605043411
 1468.2703857  -999.250000 9.7489004135 8.5000000000 0.4724000096 2.1738998890 4.0117001534 68.060897827 144.23362732 0.6632965207 0.6632977128
 1468.4227295  -999.250000 9.7489004135 8.5000000000 0.4670000076 2.1596000195 4.0514001846 69.121902466 143.58793640 0.6674932837 0.6679924726
 1468.5751953  -999.250000 9.7489004135 8.5000000000 0.4666000009 2.1503000259 4.0755000114 74.809402466 142.57620239 0.6732953787 0.6752941608
 1468.7275391  -999.250000 9.7376003265 8.5000000000 0.4900000095 2.1503000259 4.0843000412 74.459701538 142.14938354 0.6779924631 0.6793934703
 1468.8800049  -999.250000 9.7224998474 8.5000000000 0.5087000132 2.1517000198 4.0763998032 73.527397156 142.72923279 0.6795986891 0.6795998216
 1469.0323486  -999.250000 9.6847000122 8.5000000000 0.5052000284 2.1584999561 4.0553002357 70.731597900 142.65266418 0.6817982197 0.6823977232
 1469.1848145  -999.250000 9.7149000168 8.5000000000 0.4955999851 2.1547000408 4.0363001823 71.440200806 141.86952209 0.6962884068 0.6963887811
 1469.3371582  -999.250000 9.7263002396 8.5000000000 0.4395000041 2.1514000893 4.0261998177 72.722198486 141.89637756 0.7123871446 0.7085902095
 1469.4896240  -999.250000 9.7149000168 8.5000000000 0.4456999898 2.1477999687 4.0362000465 73.783203125 141.37361145 0.7184951305 0.7111979127
 1469.6419678  -999.250000 9.7263002396 8.5000000000 0.4632000029 2.1549000740 4.0720000267 75.626296997 141.13310242 0.7173009515 0.7063039541
 1469.7944336  -999.250000 9.7263002396 8.5000000000 0.5065000057 2.1552000046 4.1360001564 74.227699280 141.16636658 0.7151017785 0.7010042071
 1469.9467773  -999.250000 9.7602996826 8.5000000000 0.5005999804 2.1559000015 4.1785998344 73.178802490 140.18858337 0.7222942114 0.7051966786
 1470.0991211  -999.250000 9.7489004135 8.5000000000 0.4747000039 2.1577999592 4.1845002174 77.255897522 140.81959534 0.7280907035 0.7134867311
 1470.2515869  -999.250000 9.7149000168 8.5000000000 0.4519999921 2.1717998981 4.1732001305 78.188201904 140.43659973 0.7308977246 0.7173969150
 1470.4039307  -999.250000 9.6922998428 8.5000000000 0.4322000146 2.1779000759 4.2066001892 80.402496338 139.97204590 0.7287034988 0.7172002792
 1470.5563965  -999.250000 9.7602996826 8.5000000000 0.4557000101 2.1793000698 4.2915000916 77.386703491 138.77726746 0.7302986979 0.7209969759
 1470.7087402  -999.250000 9.7376003265 8.5000000000 0.4963000119 2.1754000187 4.4159002304 75.743301392 135.59809875 0.7420811057 0.7342787385
 1470.8612061  -999.250000 9.6922998428 8.5000000000 0.5236999989 2.1912999153 4.5447998047 72.829803467 136.02455139 0.7608849406 0.7540841699
 1471.0135498  -999.250000 9.6771001816 8.5000000000 0.4902000129 2.2399001122 4.6633000374 69.216796875 136.02589417 0.7690934539 0.7738841176
 1471.1660156  -999.250000 9.6619997025 8.5000000000 0.4449000061 2.2746999264 4.7795000076 67.935501099 136.83683777 0.8199592233 0.8121693730
 1471.3183594  -999.250000 9.7035999298 8.5000000000 0.4447999895 2.2609000206 4.8547000885 67.003097534 138.56741333 0.8031135201 0.7943143845
 1471.4708252  -999.250000 9.7149000168 8.5000000000 0.4661999941 2.2135999203 4.8731999397 67.807403564 139.48326111 0.7831160426 0.7731170058
 1471.6231689  -999.250000 9.7376003265 8.5000000000 0.5076000094 2.1775999069 4.8210000992 66.915702820 138.82812500 0.7555221319 0.7457219362
 1471.7756348  -999.250000 9.6922998428 8.5000000000 0.4882999957 2.1745998859 4.7309999466 67.719902039 137.00515747 0.7452082038 0.7333099246
 1471.9279785  -999.250000 9.6469001770 8.5000000000 0.4959999919 2.1763999462 4.6529998779 67.731399536 132.90159607 0.7336093187 0.7269051075
 1472.0803223  -999.250000 9.5865001678 8.5000000000 0.4648999870 2.1900000572 4.6118001938 73.179496765 131.74235535 0.7238156796 0.7328904271
 1472.2327881  -999.250000 9.6167001724 8.5000000000 0.4808999896 2.1986000538 4.6479997635 76.091796875 134.21652222 0.7249990702 0.7476881146
 1472.3851318  -999.250000 9.5448999405 8.5000000000 0.4587999880 2.2109999657 4.7156000137 77.723396301 134.76751709 0.7330870032 0.7620769143
 1472.5375977  -999.250000 9.5335998535 8.5000000000 0.4587000012 2.2544000149 4.7786998749 73.632896423 137.31335449 0.7384956479 0.7922757864
 1472.6899414  -999.250000 9.4882001877 8.5000000000 0.4555999935 2.2980999947 4.8611998558 69.280197144 140.50468445 0.7496820688 0.7994884849
 1472.8424072  -999.250000 9.4202003479 8.5000000000 0.4648000002 2.2936000824 4.9654002190 68.685401917 142.07574463 0.7443043590 0.7897078395
 1472.9947510  -999.250000 9.4202003479 8.5000000000 0.4740999937 2.2402000427 5.0682001114 68.113998413 139.42872620 0.7541920543 0.7908990383
 1473.1472168  -999.250000 9.3975000381 8.5000000000 0.4771000147 2.1905999184 5.1224999428 72.945999146 138.99554443 0.7788802385 0.8107841015
 1473.2995605  -999.250000 9.3975000381 8.5000000000 0.4902999997 2.1782999039 5.1350998878 72.945999146 139.53747559 0.7787001729 0.7880182862
 1473.4520264  -999.250000 9.4202003479 8.5000000000 0.4772000015 2.1765000820 5.1307001114 74.111503601 139.49583435 0.7515217662 0.7482318878
 1473.6043701  -999.250000 9.4541997910 8.5000000000 0.4636999965 2.1782999039 5.0408000946 73.387199402 140.95912170 0.7472034693 0.7254182696
 1473.7568359  -999.250000 9.4995002747 8.5000000000 0.4329999983 2.1775000095 4.8478999138 75.147499084 141.52844238 0.7511968017 0.7213032842
 1473.9091797  -999.250000 9.5184001923 8.5000000000 0.4641000032 2.1763999462 4.6448001862 78.630500793 138.39172363 0.7440057993 0.7200010419
 1474.0616455  -999.250000 9.5562000275 8.5000000000 0.4505000114 2.1719000340 4.6029000282 76.790702820 138.64140320 0.7340080142 0.7221981883
 1474.2139893  -999.250000 9.5335998535 8.5000000000 0.4718999863 2.1763000488 4.7350001335 74.576301575 138.36073303 0.7282046676 0.7253974080
 1474.3663330  -999.250000 9.5221996307 8.5000000000 0.4803999960 2.1830999851 4.9292998314 75.741203308 135.39904785 0.7265027165 0.7320892811
 1474.5187988  -999.250000 9.4769001007 8.5000000000 0.4905000031 2.1995000839 5.0514998436 78.538299561 130.67977905 0.7330946922 0.7557809949
