# LAS format log file from PETREL
# Project units are specified as depth units
#==================================================================
~Version information
VERS.   2.0:
WRAP.   NO:
#==================================================================
~Well
STRT .m      410.00479126 :
STOP .m      2954.3227539 :
STEP .m     0.00000000 :
NULL .        -999.250000 :
COMP.           : COMPANY
WELL.  16/11-1 S   : WELL
FLD.            : FIELD
LOC.            : LOCATION
SRVC.           : SERVICE COMPANY
DATE.  2018-09-11 14:48:06   : Log Export Date {yyyy-MM-dd HH:mm:ss}
PROV.           : PROVINCE
UWI.   16/11-1 S   : UNIQUE WELL ID
API.            : API NUMBER
#==================================================================
~Curve
DEPT .m                   : DEPTH
Lithology_geolink ._      : Lithology_geolink
CALI .in                  : CALI
DRHO .g/cm3               : DRHO
NPHI .m3/m3               : NPHI
RHOB .g/cm3               : RHOB
GR .gAPI                  : GR
DTC .us/ft                : DTC
RDEP .ohm.m               : RDEP
RSHA .ohm.m               : RSHA
RMED .ohm.m               : RMED
~Parameter
#==================================================================
~Ascii
# ...
 1587.7519531 4.0000000000 15.444100380  -999.250000  -999.250000  -999.250000 25.625038147 167.98899841 0.4700959027  -999.250000 0.6853973866
 1587.9042969 4.0000000000 15.045499802  -999.250000  -999.250000  -999.250000 26.015087128 167.92324829 0.4718985558  -999.250000 0.6813032627
 1588.0567627 4.0000000000 14.979800224  -999.250000  -999.250000  -999.250000 27.220834732 168.08128357 0.4716002345  -999.250000 0.6808004379
 1588.2091064 4.0000000000 15.029600143  -999.250000  -999.250000  -999.250000 27.117984772 168.18171692 0.4723993540  -999.250000 0.6804003119
 1588.3615723 4.0000000000 15.451599121  -999.250000  -999.250000  -999.250000 26.755889893 168.32389832 0.4756973386  -999.250000 0.6997844577
 1588.5139160 4.0000000000 15.419899940  -999.250000  -999.250000  -999.250000 26.313955307 168.44360352 0.4802963138  -999.250000 0.6994003057
 1588.6662598 4.0000000000 15.468099594  -999.250000  -999.250000  -999.250000 26.527057648 168.26489258 0.4849924743  -999.250000 0.6890166402
 1588.8187256 5.0000000000 15.064199448  -999.250000  -999.250000  -999.250000 27.081254959 168.01991272 0.4866986275  -999.250000 0.6886003017
 1588.9710693 5.0000000000 15.135398865  -999.250000  -999.250000  -999.250000 27.377325058 167.80853271 0.4840043187  -999.250000 0.6882006526
 1589.1235352 5.0000000000 14.326000214  -999.250000  -999.250000  -999.250000 27.138193130 167.52522278 0.4788041711  -999.250000 0.6877003908
 1589.2758789 5.0000000000 14.616700172  -999.250000  -999.250000  -999.250000 26.979654312 167.34199524 0.4749062657  -999.250000 0.6873006821
 1589.4283447 5.0000000000 14.563501358  -999.250000  -999.250000  -999.250000 27.143669128 167.49748230 0.4746002257  -999.250000 0.6967923641
 1589.5806885 5.0000000000 14.476900101  -999.250000  -999.250000  -999.250000 27.308069229 167.76368713 0.4753993452  -999.250000 0.7002971768
 1589.7331543 5.0000000000 14.339099884  -999.250000  -999.250000  -999.250000 27.720670700 168.28009033 0.4738012850  -999.250000 0.6959035397
 1589.8854980 5.0000000000 14.703000069  -999.250000  -999.250000  -999.250000 28.977392197 168.76002502 0.4697032869  -999.250000 0.6955003142
 1590.0379639 5.0000000000 14.528099060  -999.250000  -999.250000  -999.250000 29.901960373 168.51609802 0.4653035104  -999.250000 0.6950004101
 1590.1903076 5.0000000000 13.910900116  -999.250000  -999.250000  -999.250000 30.734231949 167.25321960 0.4610034525  -999.250000 0.6946002841
 1590.3427734 5.0000000000 13.520899773  -999.250000  -999.250000  -999.250000 30.501987457 165.89138794 0.4567034543  -999.250000 0.6843082309
 1590.4951172 5.0000000000 13.807299614  -999.250000  -999.250000  -999.250000 29.761093140 164.68548584 0.4534026384  -999.250000 0.6838003993
 1590.6475830 5.0000000000 14.783901215  -999.250000  -999.250000  -999.250000 29.018894196 164.12590027 0.4523009062  -999.250000 0.6834002733
 1590.7999268 5.0000000000 15.010198593  -999.250000  -999.250000  -999.250000 28.672576904 164.25619507 0.4525997639  -999.250000 0.6920930147
 1590.9522705 5.0000000000 15.055600166  -999.250000  -999.250000  -999.250000 29.604104996 164.99710083 0.4533987045  -999.250000 0.6832142472
 1591.1047363 5.0000000000 14.836600304  -999.250000  -999.250000  -999.250000 29.465312958 165.69950867 0.4534999132  -999.250000 0.6821008921
 1591.2570801 5.0000000000 15.072199821  -999.250000  -999.250000  -999.250000 29.005237579 166.31050110 0.4530008137  -999.250000 0.6817006469
 1591.4095459 4.0000000000 15.402001381  -999.250000  -999.250000  -999.250000 28.276983261 167.03698730 0.4517010450  -999.250000 0.6812004447
 1591.5618896 4.0000000000 14.720299721  -999.250000  -999.250000  -999.250000 27.148708344 167.66259766 0.4490043223  -999.250000 0.6808006763
 1591.7143555 5.0000000000 14.492400169  -999.250000  -999.250000  -999.250000 26.649599075 168.49499512 0.4449032843  -999.250000 0.6902923584
 1591.8666992 5.0000000000 13.902899742  -999.250000  -999.250000  -999.250000 28.567461014 169.18260193 0.4423020780  -999.250000 0.6899002790
 1592.0191650 5.0000000000 14.010999680  -999.250000  -999.250000  -999.250000 29.524335861 169.81489563 0.4429994226  -999.250000 0.6795083284
 1592.1715088 5.0000000000 14.745100021  -999.250000  -999.250000  -999.250000 30.412689209 170.20919800 0.4457977712  -999.250000 0.6791002750
 1592.3239746 5.0000000000 14.704300880  -999.250000  -999.250000  -999.250000 30.396112442 170.37339783 0.4503962994  -999.250000 0.6786004305
 1592.4763184 5.0000000000 14.367799759  -999.250000  -999.250000  -999.250000 30.293882370 169.62080383 0.4558956027  -999.250000 0.6789997220
 1592.6287842 5.0000000000 13.888500214  -999.250000  -999.250000  -999.250000 29.964763641 168.25529480 0.4630942345  -999.250000 0.6876929998
 1592.7811279 5.0000000000 13.798899651  -999.250000  -999.250000  -999.250000 29.635562897 166.40089417 0.4727922082  -999.250000 0.6982915401
 1592.9334717 4.0000000000 13.857899666  -999.250000  -999.250000  -999.250000 28.022089005 164.72648621 0.4835827053  -999.250000 0.7066865563
 1593.0859375 4.0000000000 14.477800369  -999.250000  -999.250000  -999.250000 26.921680450 163.54280090 0.4928925633  -999.250000 0.7062004209
 1593.2382813 4.0000000000 14.017600060  -999.250000  -999.250000  -999.250000 26.219125748 162.71890259 0.4984910190  -999.250000 0.7058006525
 1593.3907471 4.0000000000 14.002699852  -999.250000  -999.250000  -999.250000 26.038244247 163.02239990 0.4996990561  -999.250000 0.7152923942
 1593.5430908 4.0000000000 13.993099213  -999.250000  -999.250000  -999.250000 26.598701477 164.36509705 0.4996001422  -999.250000 0.7149006724
 1593.6955566 4.0000000000 13.853199959  -999.250000  -999.250000  -999.250000 27.105993271 166.22320557 0.4993002415  -999.250000 0.7144004107
 1593.8479004 4.0000000000 14.604399681  -999.250000  -999.250000  -999.250000 27.349605560 168.14050293 0.4993000031  -999.250000 0.7140002847
 1594.0003662 4.0000000000 14.987798691  -999.250000  -999.250000  -999.250000 27.140367508 169.68908691 0.4983007908  -999.250000 0.7136002779
 1594.1527100 4.0000000000 14.779500008  -999.250000  -999.250000  -999.250000 26.905488968 169.99060059 0.4934039414  -999.250000 0.7132002711
 1594.3051758 4.0000000000 14.773799896  -999.250000  -999.250000  -999.250000 26.670389175 169.44740295 0.4877045453  -999.250000 0.7102023959
 1594.4575195 4.0000000000 15.122900009  -999.250000  -999.250000  -999.250000 26.305093765 168.45219421 0.4832036197  -999.250000 0.6924142241
 1594.6099854 4.0000000000 15.309800148  -999.250000  -999.250000  -999.250000 26.537412643 167.81219482 0.4789034426  -999.250000 0.6920002699
 1594.7623291 4.0000000000 15.237701416  -999.250000  -999.250000  -999.250000 27.430185318 167.64039612 0.4737041593  -999.250000 0.6916003227
 1594.9146729 4.0000000000 14.936400414  -999.250000  -999.250000  -999.250000 27.511369705 167.59140015 0.4676097631  -999.250000 0.6911007762
 1595.0671387 4.0000000000 14.816801071  -999.250000  -999.250000  -999.250000 26.861619949 167.70320129 0.4626039863  -999.250000 0.6708162427
 1595.2194824 4.0000000000 15.326199532  -999.250000  -999.250000  -999.250000 26.305891037 168.51969910 0.4621008039  -999.250000 0.6704006791
 1595.3719482 4.0000000000 14.988499641  -999.250000  -999.250000  -999.250000 25.961574554 169.92170715 0.4656971097  -999.250000 0.6735974550
 1595.5242920 4.0000000000 15.033300400  -999.250000  -999.250000  -999.250000 25.794168472 171.21250916 0.4698932767  -999.250000 0.6794905066
 1595.6767578 4.0000000000 15.230600357  -999.250000  -999.250000  -999.250000 25.342662811 172.62080383 0.4724979103  -999.250000 0.6790004373
 1595.8291016 4.0000000000 15.306300163  -999.250000  -999.250000  -999.250000 24.703012466 173.84768677 0.4721003175  -999.250000 0.6786003113
 1595.9815674 2.0000000000 15.500800133  -999.250000  -999.250000  -999.250000 23.925821304 174.17160034 0.4690024853  -999.250000 0.6782003045
 1596.1339111 2.0000000000 15.517699242  -999.250000  -999.250000  -999.250000 23.223361969 173.56480408 0.4629049003  -999.250000 0.6777004004
