# LAS format log file from PETREL
# Project units are specified as depth units
#==================================================================
~Version information
VERS.   2.0:
WRAP.   NO:
#==================================================================
~Well
STRT .m      410.00479126 :
STOP .m      2954.3227539 :
STEP .m     0.00000000 :
NULL .        -999.250000 :
COMP.           : COMPANY
WELL.  16/11-1 S   : WELL
FLD.            : FIELD
LOC.            : LOCATION
SRVC.           : SERVICE COMPANY
DATE.  2018-09-11 14:48:06   : Log Export Date {yyyy-MM-dd HH:mm:ss}
PROV.           : PROVINCE
UWI.   16/11-1 S   : UNIQUE WELL ID
API.            : API NUMBER
#==================================================================
~Curve
DEPT .m                   : DEPTH
Lithology_geolink ._      : Lithology_geolink
CALI .in                  : CALI
DRHO .g/cm3               : DRHO
NPHI .m3/m3               : NPHI
RHOB .g/cm3               : RHOB
GR .gAPI                  : GR
DTC .us/ft                : DTC
RDEP .ohm.m               : RDEP
RSHA .ohm.m               : RSHA
RMED .ohm.m               : RMED
~Parameter
#==================================================================
~Ascii
# ...
 1707.2336426 10.000000000 12.796799660  -999.250000  -999.250000  -999.250000 11.937700272 83.546798706 0.8499000072  -999.250000 1.2685999870
 1707.3859863 10.000000000 12.787199974  -999.250000  -999.250000  -999.250000 11.446800232 83.384803772 0.8406999707  -999.250000 1.2582999468
 1707.5384521 10.000000000 12.775699615  -999.250000  -999.250000  -999.250000 10.449600220 83.413101196 0.8303999901  -999.250000 1.2481000423
 1707.6907959 10.000000000 12.732999802  -999.250000  -999.250000  -999.250000 10.108900070 83.611701965 0.8253999949  -999.250000 1.2427999973
 1707.8432617 10.000000000 12.704400063  -999.250000  -999.250000  -999.250000 10.417799950 83.903999329 0.8259000182  -999.250000 1.2407000065
 1707.9956055 10.000000000 12.741299629  -999.250000  -999.250000  -999.250000 11.078599930 84.124496460 0.8303999901  -999.250000 1.2386000156
 1708.1479492 10.000000000 12.765700340  -999.250000  -999.250000  -999.250000 11.703499794 84.083999634 0.8373000026  -999.250000 1.2365000248
 1708.3004150 10.000000000 12.776399612  -999.250000  -999.250000  -999.250000 12.149700165 83.758903503 0.8464999795  -999.250000 1.2344000340
 1708.4527588 10.000000000 12.776899338  -999.250000  -999.250000  -999.250000 11.842900276 83.348800659 0.8557000160  -999.250000 1.2369999886
 1708.6052246 10.000000000 12.777400017  -999.250000  -999.250000  -999.250000 11.697099686 82.971496582 0.8623999953  -999.250000 1.2510000467
 1708.7575684 10.000000000 12.777799606  -999.250000  -999.250000  -999.250000 11.527700424 82.758300781 0.8686000109  -999.250000 1.2651000023
 1708.9100342 10.000000000 12.778300285  -999.250000  -999.250000  -999.250000 11.469200134 82.763702393 0.8766999841  -999.250000 1.2790999413
 1709.0623779 10.000000000 12.778800964  -999.250000  -999.250000  -999.250000 11.715200424 82.836509705 0.8870999813  -999.250000 1.2839000225
 1709.2148438 10.000000000 12.779199600  -999.250000  -999.250000  -999.250000 12.182700157 82.926406860 0.8974000216  -999.250000 1.2863999605
 1709.3671875 10.000000000 12.779700279  -999.250000  -999.250000  -999.250000 11.659399986 83.162300110 0.8974000216  -999.250000 1.2889000177
 1709.5196533 10.000000000 12.782400131  -999.250000  -999.250000  -999.250000 10.866900444 83.687400818 0.8845000267  -999.250000 1.2904000282
 1709.6719971 10.000000000 12.787500381  -999.250000  -999.250000  -999.250000 10.129199982 84.435699463 0.8629999757  -999.250000 1.2857999802
 1709.8244629 10.000000000 12.792699814  -999.250000  -999.250000  -999.250000 10.075699806 85.214302063 0.8389000297  -999.250000 1.2812999487
 1709.9768066 10.000000000 12.797900200  -999.250000  -999.250000  -999.250000 10.721500397 85.832801819 0.8202000260  -999.250000 1.2661999464
 1710.1292725 10.000000000 12.803000450  -999.250000  -999.250000  -999.250000 11.223500252 86.087600708 0.8108999729  -999.250000 1.2488000393
 1710.2816162 10.000000000 12.808200836  -999.250000  -999.250000  -999.250000 11.512800217 85.815704346 0.8094999790  -999.250000 1.2289999723
 1710.4339600 10.000000000 12.813300133  -999.250000  -999.250000  -999.250000 11.183300018 85.186088562 0.8129000068  -999.250000 1.2070000172
 1710.5864258 10.000000000 12.818499565  -999.250000  -999.250000  -999.250000 10.661800385 84.417999268 0.8192999959  -999.250000 1.2093000412
 1710.7387695 10.000000000 12.822799683  -999.250000  -999.250000  -999.250000 11.577699661 83.735397339 0.8288000226  -999.250000 1.2229000330
 1710.8912354 10.000000000 12.807700157  -999.250000  -999.250000  -999.250000 12.063300133 83.498397827 0.8501999974  -999.250000 1.2508000135
 1711.0435791 10.000000000 12.792498589  -999.250000  -999.250000  -999.250000 12.442099571 83.942100525 0.8715000153  -999.250000 1.2917000055
 1711.1960449 10.000000000 12.777400017  -999.250000  -999.250000  -999.250000 12.088399887 84.893096924 0.8888000250  -999.250000 1.3325999975
 1711.3483887 10.000000000 12.765899658  -999.250000  -999.250000  -999.250000 11.216300011 85.937896729 0.8945000172  -999.250000 1.3380999565
 1711.5008545 10.000000000 12.766401291  -999.250000  -999.250000  -999.250000 10.329199791 86.605697632 0.8895999789  -999.250000 1.3367999792
 1711.6531982 10.000000000 12.747300148  -999.250000  -999.250000  -999.250000 10.204600334 86.566299438 0.8810999990  -999.250000 1.3088999987
 1711.8056641 10.000000000 12.701000214  -999.250000  -999.250000  -999.250000 10.610600471 85.791488647 0.8711000085  -999.250000 1.2809000015
 1711.9580078 10.000000000 12.654600143  -999.250000  -999.250000  -999.250000 11.492699623 84.762603760 0.8603000045  -999.250000 1.2716000080
 1712.1104736 10.000000000 12.608301163  -999.250000  -999.250000  -999.250000 11.893500328 83.737396240 0.8529000282  -999.250000 1.2647000551
 1712.2628174 10.000000000 12.583800316  -999.250000  -999.250000  -999.250000 11.982299805 82.939598083 0.8507999778  -999.250000 1.2577999830
 1712.4151611 10.000000000 12.573399544  -999.250000  -999.250000  -999.250000 11.795399666 82.571998596 0.8539999723  -999.250000 1.2812000513
 1712.5676270 10.000000000 12.562999725  -999.250000  -999.250000  -999.250000 11.608599663 82.585800171 0.8640000224  -999.250000 1.3082000017
 1712.7199707 10.000000000 12.552499771  -999.250000  -999.250000  -999.250000 11.590900421 82.795700073 0.8805000186  -999.250000 1.3351999521
 1712.8724365 10.000000000 12.542999268  -999.250000  -999.250000  -999.250000 11.617600441 83.116897583 0.9003999829  -999.250000 1.3609000444
 1713.0247803 10.000000000 12.533499718  -999.250000  -999.250000  -999.250000 11.954799652 83.265098572 0.9179999828  -999.250000 1.3825000525
 1713.1772461 10.000000000 12.523900032  -999.250000  -999.250000  -999.250000 12.291999817 83.128402710 0.9312999845  -999.250000 1.3919999599
 1713.3295898 10.000000000 12.514399529  -999.250000  -999.250000  -999.250000 12.987600327 82.819198608 0.9426000118  -999.250000 1.3842999935
 1713.4820557 10.000000000 12.494099617  -999.250000  -999.250000  -999.250000 13.041600227 82.417396545 0.9441999793  -999.250000 1.3766000271
 1713.6343994 10.000000000 12.473699570  -999.250000  -999.250000  -999.250000 12.983300209 82.063400269 0.9402999878  -999.250000 1.3795000315
 1713.7868652 10.000000000 12.453400612  -999.250000  -999.250000  -999.250000 12.435600281 81.761802673 0.9379000068  -999.250000 1.3860000372
 1713.9392090 10.000000000 12.436300278  -999.250000  -999.250000  -999.250000 11.887499809 81.409301758 0.9393000007  -999.250000 1.3924000263
 1714.0916748 10.000000000 12.433099747  -999.250000  -999.250000  -999.250000 11.411000252 81.092498779 0.9463000298  -999.250000 1.4057999849
 1714.2440186 10.000000000 12.430000305  -999.250000  -999.250000  -999.250000 10.937100410 80.823608398 0.9560999870  -999.250000 1.4213000536
 1714.3963623 10.000000000 12.426799774  -999.250000  -999.250000  -999.250000 10.876799583 80.552803040 0.9678000212  -999.250000 1.4369000196
 1714.5488281 10.000000000 12.423600197  -999.250000  -999.250000  -999.250000 11.410200119 80.446701050 0.9803000093  -999.250000 1.4527000189
 1714.7011719 10.000000000 12.420399666  -999.250000  -999.250000  -999.250000 11.798899651 80.432800293 0.9926999807  -999.250000 1.4688999653
 1714.8536377 10.000000000 12.419899940  -999.250000  -999.250000  -999.250000 11.642100334 80.305000305 1.0042999983  -999.250000 1.4850000143
 1715.0059814 10.000000000 12.420399666  -999.250000  -999.250000  -999.250000 10.622900009 80.214599609 1.0154999495  -999.250000 1.5010999441
 1715.1584473 10.000000000 12.420900345  -999.250000  -999.250000  -999.250000 10.480099678 80.075202942 1.0255999565  -999.250000 1.5171999931
 1715.3107910 10.000000000 12.421298981  -999.250000  -999.250000  -999.250000 10.613300323 79.836196899 1.0335999727  -999.250000 1.5319000483
 1715.4632568 9.0000000000 12.421799660  -999.250000  -999.250000  -999.250000 11.532199860 79.696899414 1.0396000147  -999.250000 1.5370999575
 1715.6156006 9.0000000000 12.420500755  -999.250000  -999.250000  -999.250000 11.921199799 79.583602905 1.0427999496  -999.250000 1.5422999859
