# LAS format log file from PETREL
# Project units are specified as depth units
#==================================================================
~Version information
VERS.   2.0:
WRAP.   NO:
#==================================================================
~Well
STRT .m      2645.2697754 :
STOP .m      2924.0100098 :
STEP .m     0.00000000 :
NULL .        -999.250000 :
COMP.           : COMPANY
WELL.  16/1-2  Ivar Aasen Appr   : WELL
FLD.            : FIELD
LOC.            : LOCATION
SRVC.           : SERVICE COMPANY
DATE.  2018-09-11 14:48:05   : Log Export Date {yyyy-MM-dd HH:mm:ss}
PROV.           : PROVINCE
UWI.   16/1-2   : UNIQUE WELL ID
API.            : API NUMBER
#==================================================================
~Curve
DEPT .m                   : DEPTH
Lithology_geolink ._      : Lithology_geolink
CALI .in                  : CALI
BS .in                    : BS
MUDWEIGHT ._              : MUDWEIGHT
ROP .m/h                  : ROP
DRHO .g/cm3               : DRHO
NPHI .m3/m3               : NPHI
RHOB .g/cm3               : RHOB
GR .gAPI                  : GR
DTC .us/ft                : DTC
DTE .us/ft                : DTE
RDEP .ohm.m               : RDEP
SP .mV                    : SP
RSHA .ohm.m               : RSHA
RHOM .g/cm3               : RHOM
RMED .ohm.m               : RMED
~Parameter
#==================================================================
~Ascii
# ...
 2769.3237305 13.000000000 8.3819999695 8.5000000000 9.0000000000 277497.96875 0.0140000004 0.2409669310 2.5302624702 40.655998230 62.965698242 62.989650726 3.4127020836 84.474998474 8.1872863770 2.7999999523 8.1872863770
 2769.4760742 13.000000000 8.3809995651 8.5000000000 9.0000000000 274240.93750 0.0120000001 0.2390429378 2.5165874958 38.959999084 62.697387695 62.686122894 3.6586055756 86.464996338 8.9915161133 2.7999999523 8.9915161133
 2769.6284180 13.000000000 8.3859996796 8.5000000000 9.0000000000 273147.15625 0.0230000000 0.2346272916 2.5169749260 42.811000824 61.944950104 62.001110077 3.9505319595 88.870002747 10.561404228 2.7999999523 10.561404228
 2769.7810059 13.000000000 8.3929996490 8.5000000000 9.0000000000 269273.43750 0.0179999992 0.2266733497 2.5257847309 47.977001190 61.024856567 60.974880219 4.2894577980 91.582000732 12.060350418 2.7999999523 12.060350418
 2769.9333496 13.000000000 8.3999996185 8.5000000000 9.0000000000 262080.78125 0.0109999999 0.2152383178 2.5457749367 55.665000916 59.894977570 59.809303284 4.6264595985 94.290000916 12.478651047 2.7999999523 12.478651047
 2770.0856934 13.000000000 8.4069995880 8.5000000000 9.0000000000 267658.96875 0.0140000004 0.2017189115 2.5861501694 70.084999084 58.702411652 58.672264099 4.9644584656 96.928001404 11.011203766 2.7999999523 11.011203766
 2770.2380371 13.000000000 8.4289999008 8.5000000000 9.0000000000 500300.84375 0.0120000001 0.1885634065 2.6229250431 79.744003296 58.011623383 58.112586975 5.2804937363 98.805000305 8.6431283951 2.7999999523 8.6431283951
 2770.3903809 13.000000000 8.4650001526 8.5000000000 9.0000000000 520420.53125 0.0080000004 0.1782204211 2.6402313709 88.866996765 58.583824158 58.591442108 5.5620980263 99.799003601 6.8531908989 2.7999999523 6.8531908989
 2770.5429688 13.000000000 8.5050001144 8.5000000000 9.0000000000 529944.00000 -0.003000000 0.1722454578 2.6481876373 89.084999084 59.924758911 59.858474731 5.8405547142 100.29599762 6.3511662483 2.7999999523 6.3511662483
 2770.6953125 13.000000000 8.5319995880 8.5000000000 9.0000000000 537711.50000 -0.001000000 0.1708336771 2.6512875557 75.928001404 61.176948547 61.200901031 6.0456714630 100.06099701 7.0284309387 2.7999999523 7.0284309387
 2770.8476563 13.000000000 8.5480003357 8.5000000000 9.0000000000 533524.93750 0.0060000001 0.1731378138 2.6540625095 62.773998260 61.773200989 61.812099457 6.1088991165 99.366996765 8.5449075699 2.7999999523 8.5449075699
 2771.0000000 13.000000000 8.5620002747 8.5000000000 9.0000000000 508634.25000 0.0060000001 0.1780206263 2.6556015015 57.530998230 61.379592896 61.360614777 5.9834032059 98.558998108 9.7329177856 2.7999999523 9.7329177856
 2771.1525879 13.000000000 8.5760002136 8.5000000000 9.0000000000 479076.84375 0.0030000000 0.1846650988 2.6503875256 55.770999908 60.311161041 60.288013458 5.7174263000 97.667999268 9.6804733276 2.7999999523 9.6804733276
 2771.3049316 13.000000000 8.5790004730 8.5000000000 9.0000000000 428890.06250 0.0000000000 0.1924937367 2.6412749290 58.201000214 59.716072083 59.716072083 5.4354519844 96.711997986 9.2046537399 2.7999999523 9.2046537399
 2771.4572754 13.000000000 8.5729999542 8.5000000000 9.0000000000 354885.37500 0.0030000000 0.2010640055 2.6351625919 59.453998566 59.954635620 59.943012238 5.1963829994 95.264999390 8.9875726700 2.7999999523 8.9875726700
 2771.6096191 13.000000000 8.5640001297 8.5000000000 9.0000000000 357501.12500 0.0120000001 0.2098031789 2.6289751530 62.192001343 60.246200562 60.337799072 5.0335216522 93.392997742 8.0949783325 2.7999999523 8.0949783325
 2771.7622070 13.000000000 8.5550003052 8.5000000000 9.0000000000 358237.21875 0.0149999997 0.2180323452 2.6154825687 68.242996216 60.609848022 60.636409760 4.9002132416 91.518997192 6.2088909149 2.7999999523 6.2088909149
 2771.9145508 13.000000000 8.5459995270 8.5000000000 9.0000000000 354580.81250 0.0130000003 0.2249984443 2.6019501686 73.401000977 60.998073578 60.989364624 4.7781953812 89.646003723 4.9292769432 2.7999999523 4.9292769432
 2772.0668945 13.000000000 8.5450000763 8.5000000000 9.0000000000 341745.12500 0.0160000008 0.2302552611 2.5990126133 76.746002197 61.475074768 61.458614349 4.7520413399 87.766998291 5.1040949821 2.7999999523 5.1040949821
 2772.2192383 13.000000000 8.5489997864 8.5000000000 9.0000000000 316576.25000 0.0209999997 0.2335317433 2.6018750668 74.182998657 61.825439453 61.814529419 4.8129024506 85.872001648 6.4129614830 2.7999999523 6.4129614830
 2772.3715820 13.000000000 8.5550003052 8.5000000000 9.0000000000 312800.59375 0.0260000005 0.2346178442 2.6007535458 69.285003662 61.860343933 61.869178772 4.9106860161 83.964996338 8.8851890564 2.7999999523 8.8851890564
 2772.5241699 13.000000000 8.5439996719 8.5000000000 9.0000000000 312702.93750 0.0230000000 0.2332572490 2.5951623917 61.101001740 61.326011658 61.341186523 5.1406311989 82.055999756 11.496734619 2.7999999523 11.496734619
 2772.6765137 11.000000000 8.5030002594 8.5000000000 9.0000000000 312600.93750 0.0179999992 0.2292795330 2.5930750370 52.929000854 60.133472443 60.178550720 5.4654793739 80.151000977 12.034811020 2.7999999523 12.034811020
 2772.8288574 11.000000000 8.4270000458 8.5000000000 9.0000000000 317270.62500 0.0140000004 0.2227360308 2.5992376804 44.757999420 59.119785309 59.051361084 5.7904791832 78.347999573 10.669084549 2.7999999523 10.669084549
 2772.9812012 11.000000000 8.3450002670 8.5000000000 9.0000000000 313036.84375 0.0189999994 0.2140236199 2.6152989864 38.338001251 58.637443542 58.621612549 6.2415537834 77.029998779 9.4772758484 2.7999999523 9.4772758484
 2773.1337891 11.000000000 8.3020000458 8.5000000000 9.0000000000 310351.18750 0.0260000005 0.2037845850 2.6372623444 34.590000153 58.703350067 58.815700531 6.8560156822 76.092002869 10.281203270 2.7999999523 10.281203270
 2773.2861328 11.000000000 8.2779998779 8.5000000000 9.0000000000 308041.37500 0.0109999999 0.1927320063 2.6573624611 31.042999268 58.911098480 58.942474365 7.4999680519 75.154998779 13.154566765 2.7999999523 13.154566765
 2773.4384766 11.000000000 8.2629995346 8.5000000000 9.0000000000 307948.62500 -0.006000000 0.1815130860 2.6783750057 29.770999908 58.463912964 58.353588104 8.2438077927 74.218002319 17.257482529 2.7999999523 17.257482529
 2773.5908203 11.000000000 8.2690000534 8.5000000000 9.0000000000 305112.65625 -0.013000000 0.1709656417 2.7025749683 28.597999573 56.880287170 56.859489441 9.1411228180 73.306999207 24.427757263 2.7999999523 24.427757263
 2773.7434082 11.000000000 8.2840003967 8.5000000000 9.0000000000 303598.78125 0.0500000007 0.1620088816 2.7257840633 27.555000305 54.799118042 54.850578308 10.101462364 72.710998535 34.896572113 2.7999999523 34.896572113
 2773.8957520 11.000000000 8.3290004730 8.5000000000 9.0000000000 1089839.2500 0.0920000002 0.1554237604 2.7412624359 26.638000488 53.037902832 52.982162476 11.161301613 72.403999329 43.799961090 2.7999999523 43.799961090
 2774.0480957 11.000000000 8.4090003967 8.5000000000 9.0000000000 1183912.8750 0.0640000030 0.1515276581 2.7361125946 26.725999832 51.547210693 51.474685669 12.442945480 72.097000122 45.637107849 2.7999999523 45.637107849
 2774.2004395 11.000000000 8.4040002823 8.5000000000 9.0000000000 1183912.8750 0.0359999985 0.1500702798 2.7138876915 26.812999725 50.682125092 50.589050293 13.395474434 71.789001465 41.340751648 2.7999999523 41.340751648
 2774.3527832 11.000000000 8.3109998703 8.5000000000 9.0000000000 1183912.8750 0.0109999999 0.1502513438 2.7011117935 27.018999100 50.602081299 50.563003540 13.693049431 71.482002258 39.948490143 2.7999999523 39.948490143
 2774.5053711 11.000000000 8.2390003204 8.5000000000 9.0000000000 1183912.8750 0.0260000005 0.1510923654 2.7054376602 27.474000931 50.980773926 50.973773956 13.574193001 71.322998047 44.634292603 2.7999999523 44.634292603
 2774.6577148 11.000000000 8.1979999542 8.5000000000 9.0000000000 1183912.8750 0.0439999998 0.1518305540 2.7153625488 27.295000076 51.368335724 51.338840485 13.247523308 71.356002808 50.962646484 2.7999999523 50.962646484
 2774.8100586 11.000000000 8.1770000458 8.5000000000 9.0000000000 1183912.8750 0.0619999990 0.1521700472 2.7277250290 27.719999313 51.338523865 51.329963684 12.919525146 71.431999207 55.104915619 2.7999999523 55.104915619
