# LAS format log file from PETREL
# Project units are specified as depth units
#==================================================================
~Version information
VERS.   2.0:
WRAP.   NO:
#==================================================================
~Well
STRT .m      2645.2697754 :
STOP .m      2924.0100098 :
STEP .m     0.00000000 :
NULL .        -999.250000 :
COMP.           : COMPANY
WELL.  16/1-2  Ivar Aasen Appr   : WELL
FLD.            : FIELD
LOC.            : LOCATION
SRVC.           : SERVICE COMPANY
DATE.  2018-09-11 14:48:05   : Log Export Date {yyyy-MM-dd HH:mm:ss}
PROV.           : PROVINCE
UWI.   16/1-2   : UNIQUE WELL ID
API.            : API NUMBER
#==================================================================
~Curve
DEPT .m                   : DEPTH
Lithology_geolink ._      : Lithology_geolink
CALI .in                  : CALI
BS .in                    : BS
MUDWEIGHT ._              : MUDWEIGHT
ROP .m/h                  : ROP
DRHO .g/cm3               : DRHO
NPHI .m3/m3               : NPHI
RHOB .g/cm3               : RHOB
GR .gAPI                  : GR
DTC .us/ft                : DTC
DTE .us/ft                : DTE
RDEP .ohm.m               : RDEP
SP .mV                    : SP
RSHA .ohm.m               : RSHA
RHOM .g/cm3               : RHOM
RMED .ohm.m               : RMED
~Parameter
#==================================================================
~Ascii
# ...
 2791.8789063 13.000000000 8.1949996948 8.5000000000 9.0000000000 479885.18750 0.0939999968 0.2408010960 2.6128873825 43.359851837 61.832824707 61.855400085 2.6131007671 70.777999878 5.0447902679 2.7999999523 5.0447902679
 2792.0312500 13.000000000 8.1890001297 8.5000000000 9.0000000000 512837.25000 0.0939999968 0.2414931506 2.6162500381 42.645381927 61.140571594 61.135124207 2.5322592258 70.668998718 5.5374393463 2.7999999523 5.5374393463
 2792.1838379 13.000000000 8.1979999542 8.5000000000 9.0000000000 527679.56250 0.0759999976 0.2434577644 2.5994272232 43.504959106 60.161430359 60.202953339 2.4331586361 70.490997314 5.8107309341 2.7999999523 5.8107309341
 2792.3361816 13.000000000 8.1979999542 8.5000000000 9.0000000000 535259.00000 0.0560000017 0.2458838224 2.5754873753 43.178581238 59.537158966 59.596866608 2.3091986179 70.286003113 5.7259440422 2.7999999523 5.7259440422
 2792.4885254 13.000000000 8.1899995804 8.5000000000 9.0000000000 537924.50000 0.0359999985 0.2482741475 2.5518000126 42.292304993 59.298660278 59.305850983 2.1302869320 70.082000732 5.0665817261 2.7999999523 5.0665817261
 2792.6408691 13.000000000 8.1809997559 8.5000000000 9.0000000000 534681.25000 0.0410000011 0.2508658469 2.5355875492 40.612308502 58.970726013 58.880699158 1.9223333597 69.877998352 4.1819872856 2.7999999523 4.1819872856
 2792.7932129 13.000000000 8.1920003891 8.5000000000 9.0000000000 517284.34375 0.0289999992 0.2545186579 2.5260305405 38.934509277 58.637443542 58.533035278 1.7136688232 69.732002258 3.5500080585 2.7999999523 3.5500080585
 2792.9458008 13.000000000 8.2279996872 8.5000000000 9.0000000000 488032.06250 0.0270000007 0.2599315941 2.5142874718 38.633884430 58.792789459 58.750598907 1.5043349266 69.684997559 2.9299488068 2.7999999523 2.9299488068
 2793.0981445 13.000000000 8.2620000839 8.5000000000 9.0000000000 479323.31250 0.0199999996 0.2666699588 2.4954750538 40.159603119 60.491199493 60.519611359 1.3502467871 69.678001404 2.2901778221 2.7999999523 2.2901778221
 2793.2504883 13.000000000 8.2510004044 8.5000000000 9.0000000000 475840.15625 0.0390000008 0.2728844583 2.4730751514 43.033515930 64.784339905 64.829200745 1.2621409893 69.671997070 1.7773702145 2.7999999523 1.7773702145
 2793.4028320 13.000000000 8.2089996338 8.5000000000 9.0000000000 471715.40625 0.0630000010 0.2756650150 2.4562556744 45.850559235 69.687660217 69.699424744 1.1892336607 69.828002930 1.3848974705 2.7999999523 1.3848974705
 2793.5554199 13.000000000 8.1969995499 8.5000000000 9.0000000000 471741.87500 0.0670000017 0.2725403309 2.4548125267 48.075119019 72.463562012 72.360198975 1.1251025200 70.371002197 1.3225808144 2.7999999523 1.3225808144
 2793.7077637 13.000000000 8.2329998016 8.5000000000 9.0000000000 472554.90625 0.0769999996 0.2632691562 2.4723875523 50.294464111 71.820274353 71.751327515 1.0740817785 71.140998840 1.8167612553 2.7999999523 1.8167612553
 2793.8601074 13.000000000 8.3030004501 8.5000000000 9.0000000000 503629.15625 0.0579999983 0.2502499521 2.5039875507 51.828151703 67.825302124 67.804397583 1.0630176067 71.908996582 2.9160754681 2.7999999523 2.9160754681
 2794.0124512 13.000000000 8.3229999542 8.5000000000 9.0000000000 572905.31250 0.0350000001 0.2377468497 2.5473375320 51.296653748 62.572196960 62.519500732 1.0849295855 72.516998291 4.2084646225 2.7999999523 4.2084646225
 2794.1650391 13.000000000 8.3210000992 8.5000000000 9.0000000000 583824.56250 0.0439999998 0.2295515686 2.5960681438 49.206321716 58.580635071 58.552413940 1.1089614630 72.844001770 3.8706703186 2.7999999523 3.8706703186
 2794.3173828 13.000000000 8.3479995728 8.5000000000 9.0000000000 582299.50000 0.0460000001 0.2269319743 2.6289374828 47.123481750 57.003097534 56.973026276 1.1369551420 72.936996460 2.5209503174 2.7999999523 2.5209503174
 2794.4697266 13.000000000 8.4049997330 8.5000000000 9.0000000000 572487.68750 0.0320000015 0.2281628400 2.6403875351 45.554698944 57.808036804 57.848049164 1.1399952173 72.872001648 1.8667403460 2.7999999523 1.8667403460
 2794.6220703 13.000000000 8.4469995499 8.5000000000 9.0000000000 570537.18750 0.0179999992 0.2299392074 2.6425876617 44.743698120 60.044010162 60.078563690 1.1070529222 72.614997864 1.7055385113 2.7999999523 1.7055385113
 2794.7744141 13.000000000 8.4569997787 8.5000000000 9.0000000000 575233.93750 0.0099999998 0.2294445187 2.6372334957 43.931961060 62.032760620 62.019290924 1.0681247711 72.152999878 2.0417919159 2.7999999523 2.0417919159
 2794.9270020 13.000000000 8.4350004196 8.5000000000 9.0000000000 666764.18750 0.0140000004 0.2260123044 2.6182124615 43.286357880 62.813323975 62.847946167 1.0130881071 71.620002747 2.5366795063 2.7999999523 2.5366795063
 2795.0793457 13.000000000 8.4060001373 8.5000000000 9.0000000000 706424.93750 0.0109999999 0.2212142795 2.5903999805 44.758567810 62.101139069 62.135688782 0.9431121945 71.045997620 2.9601635933 2.7999999523 2.9601635933
 2795.2316895 13.000000000 8.3970003128 8.5000000000 9.0000000000 716720.87500 0.0049999999 0.2176491171 2.5613501072 46.362300873 60.431598663 60.429412842 0.8731122017 70.444999695 3.0614135265 2.7999999523 3.0614135265
 2795.3840332 13.000000000 8.4200000763 8.5000000000 9.0000000000 716746.00000 0.0010000000 0.2171039134 2.5254392624 49.670303345 58.995910645 58.971729279 0.8032239676 69.977996826 2.6950531006 2.7999999523 2.6950531006
 2795.5366211 13.000000000 8.4469995499 8.5000000000 9.0000000000 700412.75000 0.0060000001 0.2195631117 2.4816625118 52.976490021 58.822845459 58.813575745 0.7391026020 69.850997925 2.1032912731 2.7999999523 2.1032912731
 2795.6889648 13.000000000 8.3559999466 8.5000000000 9.0000000000 651905.87500 0.0350000001 0.2236567289 2.4461374283 54.060508728 61.504859924 61.407398224 0.6940721273 69.929000854 1.5705144405 2.7999999523 1.5705144405
 2795.8413086 13.000000000 8.2740001678 8.5000000000 9.0000000000 536955.12500 0.0439999998 0.2278555483 2.4285750389 51.880073547 67.139625549 67.057060242 0.6620512605 70.008003235 1.2677884102 2.7999999523 1.2677884102
 2795.9936523 13.000000000 8.3090000153 8.5000000000 9.0000000000 493149.15625 0.0359999985 0.2313145399 2.4240500927 48.807075500 72.788749695 72.713752747 0.6310991645 70.085998535 1.1360241175 2.7999999523 1.1360241175
 2796.1462402 13.000000000 8.3400001526 8.5000000000 9.0000000000 488761.65625 0.0170000009 0.2341492027 2.4244391918 45.731594086 75.561874390 75.533004761 0.6319984198 70.343002319 1.1519440413 2.7999999523 1.1519440413
 2796.2985840 13.000000000 8.3509998322 8.5000000000 9.0000000000 484700.34375 0.0020000001 0.2370257825 2.4243373871 43.423015594 75.636413574 75.577804565 0.6799230576 70.846000671 1.4467419386 2.7999999523 1.4467419386
 2796.4509277 13.000000000 8.3549995422 8.5000000000 9.0000000000 482130.87500 -0.008000000 0.2406373024 2.4185750484 42.190940857 73.907249451 73.813240051 0.7508862019 71.417999268 1.9096651077 2.7999999523 1.9096651077
 2796.6032715 13.000000000 8.3529996872 8.5000000000 9.0000000000 476451.31250 -0.003000000 0.2451982200 2.4099500179 44.649848938 71.820312500 71.764526367 0.8288750052 71.989997864 2.3242259026 2.7999999523 2.3242259026
 2796.7558594 13.000000000 8.3520002365 8.5000000000 9.0000000000 483032.53125 0.0080000004 0.2503360808 2.4057111740 46.429008484 71.479911804 71.417633057 0.9078735709 72.561996460 2.4646062851 2.7999999523 2.4646062851
 2796.9082031 13.000000000 8.3640003204 8.5000000000 9.0000000000 516135.96875 0.0199999996 0.2553571463 2.4051251411 47.990966797 72.731872559 72.633224487 0.9609150887 73.135002136 2.3418350220 2.7999999523 2.3418350220
 2797.0605469 13.000000000 8.3699998856 8.5000000000 9.0000000000 698027.93750 0.0189999994 0.2598263621 2.4099624157 49.220905304 73.966850281 73.949203491 0.9320464730 73.759002686 2.2390706539 2.7999999523 2.2390706539
 2797.2128906 13.000000000 8.3699998856 8.5000000000 9.0000000000 721794.43750 0.0320000015 0.2637960017 2.4294373989 51.039333344 74.235183716 74.275238037 0.8331586719 74.475997925 2.2825241089 2.7999999523 2.2825241089
 2797.3652344 13.000000000 8.3669996262 8.5000000000 9.0000000000 730945.06250 0.0540000014 0.2675355077 2.4629786015 54.990329742 73.446945190 73.380584717 0.7353135943 75.203002930 1.9850431681 2.7999999523 1.9850431681
