# LAS format log file from PETREL
# Project units are specified as depth units
#==================================================================
~Version information
VERS.   2.0:
WRAP.   NO:
#==================================================================
~Well
STRT .m      410.00479126 :
STOP .m      2954.3227539 :
STEP .m     0.00000000 :
NULL .        -999.250000 :
COMP.           : COMPANY
WELL.  16/11-1 S   : WELL
FLD.            : FIELD
LOC.            : LOCATION
SRVC.           : SERVICE COMPANY
DATE.  2018-09-11 14:48:06   : Log Export Date {yyyy-MM-dd HH:mm:ss}
PROV.           : PROVINCE
UWI.   16/11-1 S   : UNIQUE WELL ID
API.            : API NUMBER
#==================================================================
~Curve
DEPT .m                   : DEPTH
Lithology_geolink ._      : Lithology_geolink
CALI .in                  : CALI
DRHO .g/cm3               : DRHO
NPHI .m3/m3               : NPHI
RHOB .g/cm3               : RHOB
GR .gAPI                  : GR
DTC .us/ft                : DTC
RDEP .ohm.m               : RDEP
RSHA .ohm.m               : RSHA
RMED .ohm.m               : RMED
~Parameter
#==================================================================
~Ascii
# ...
 1084.2224121  -999.250000 12.434100151  -999.250000  -999.250000  -999.250000 65.982299805 178.61900330 0.9330000281  -999.250000 1.1273000240
 1084.3747559  -999.250000 12.518400192  -999.250000  -999.250000  -999.250000 65.452926636 178.31983948 0.9422925711  -999.250000 1.1290985346
 1084.5270996  -999.250000 12.692399979  -999.250000  -999.250000  -999.250000 65.661132813 178.24566650 0.9479954243  -999.250000 1.1308985949
 1084.6795654  -999.250000 12.616499901  -999.250000  -999.250000  -999.250000 67.809173584 178.28247070 0.9522965550  -999.250000 1.1326985359
 1084.8319092  -999.250000 12.515399933  -999.250000  -999.250000  -999.250000 70.370750427 178.39160156 0.9550977349  -999.250000 1.1344985962
 1084.9843750  -999.250000 12.548800468  -999.250000  -999.250000  -999.250000 72.987899780 178.68588257 0.9509000182  -999.250000 1.1354000568
 1085.1367188  -999.250000 12.578600883  -999.250000  -999.250000  -999.250000 72.637985229 179.13342285 0.9387097955  -999.250000 1.1323025227
 1085.2891846  -999.250000 12.589699745  -999.250000  -999.250000  -999.250000 69.291496277 179.78860474 0.9207999706  -999.250000 1.1291999817
 1085.4415283  -999.250000 12.604700089  -999.250000  -999.250000  -999.250000 66.851150513 180.77320862 0.9005162716  -999.250000 1.1255029440
 1085.5939941  -999.250000 12.560199738  -999.250000  -999.250000  -999.250000 66.096199036 181.91279602 0.8798000216  -999.250000 1.1065000296
 1085.7463379  -999.250000 12.539099693  -999.250000  -999.250000  -999.250000 65.584014893 183.02760315 0.8604155779  -999.250000 1.0875152349
 1085.8988037  -999.250000 12.550900459  -999.250000  -999.250000  -999.250000 63.216999054 184.28210449 0.8417000175  -999.250000 1.0685000420
 1086.0511475  -999.250000 12.585200310  -999.250000  -999.250000  -999.250000 60.376476288 185.71185303 0.8222156167  -999.250000 1.0515135527
 1086.2036133  -999.250000 12.498199463  -999.250000  -999.250000  -999.250000 59.041698456 186.66052246 0.8051000237  -999.250000 1.0375000238
 1086.3559570  -999.250000 12.573300362  -999.250000  -999.250000  -999.250000 58.704071045 187.26791382 0.7929098010  -999.250000 1.0235111713
 1086.5083008  -999.250000 12.902299881  -999.250000  -999.250000  -999.250000 58.797325134 187.76029968 0.7858056426  -999.250000 1.0155063868
 1086.6607666  -999.250000 13.091899872  -999.250000  -999.250000  -999.250000 60.657608032 188.09144592 0.7830022573  -999.250000 1.0121027231
 1086.8131104  -999.250000 13.235600471  -999.250000  -999.250000  -999.250000 63.350040436 188.49377441 0.7833997011  -999.250000 1.0086028576
 1086.9655762  -999.250000 13.275200844  -999.250000  -999.250000  -999.250000 63.675701141 190.38029480 0.7843000293  -999.250000 1.0053999424
 1087.1179199  -999.250000 13.006198883  -999.250000  -999.250000  -999.250000 62.250041962 192.98780823 0.7825014591  -999.250000 1.0021026134
 1087.2703857  -999.250000 12.948100090  -999.250000  -999.250000  -999.250000 61.978698730 195.44219971 0.7792000175  -999.250000 0.9988999963
 1087.4227295  -999.250000 13.028100014  -999.250000  -999.250000  -999.250000 61.463012695 197.60047913 0.7759026289  -999.250000 0.9982005358
 1087.5751953  -999.250000 13.146300316  -999.250000  -999.250000  -999.250000 59.323799133 199.29389954 0.7725999951  -999.250000 0.9981999993
 1087.7275391  -999.250000 13.147700310  -999.250000  -999.250000  -999.250000 58.029739380 199.85466003 0.7702019215  -999.250000 0.9982999563
 1087.8800049  -999.250000 13.152199745  -999.250000  -999.250000  -999.250000 59.020099640 199.93408203 0.7691000104  -999.250000 0.9983999729
 1088.0323486  -999.250000 13.231399536  -999.250000  -999.250000  -999.250000 61.423973083 199.95576477 0.7689001560  -999.250000 0.9984999299
 1088.1848145  -999.250000 13.528900146  -999.250000  -999.250000  -999.250000 63.128501892 199.80220032 0.7731000185  -999.250000 1.0013999939
 1088.3371582  -999.250000 13.622200012  -999.250000  -999.250000  -999.250000 63.931953430 199.31648254 0.7811934948  -999.250000 1.0060962439
 1088.4895020  -999.250000 13.365799904  -999.250000  -999.250000  -999.250000 63.137237549 197.04521179 0.7901927829  -999.250000 1.0107961893
 1088.6419678  -999.250000 13.002099991  -999.250000  -999.250000  -999.250000 61.437961578 194.33219910 0.7991927862  -999.250000 1.0154961348
 1088.7943115  -999.250000 13.154000282  -999.250000  -999.250000  -999.250000 61.043716431 191.63369751 0.8115900755  -999.250000 1.0212953091
 1088.9467773  -999.250000 13.531998634  -999.250000  -999.250000  -999.250000 61.033298492 188.95390320 0.8249999881  -999.250000 1.0296000242
 1089.0991211  -999.250000 13.430500031  -999.250000  -999.250000  -999.250000 61.023208618 187.07600403 0.8338928223  -999.250000 1.0377933979
 1089.2515869  -999.250000 13.052899361  -999.250000  -999.250000  -999.250000 62.047500610 187.16999817 0.8410999775  -999.250000 1.0461000204
 1089.4039307  -999.250000 12.911700249  -999.250000  -999.250000  -999.250000 61.836566925 188.92790222 0.8447970152  -999.250000 1.0510959625
 1089.5563965  -999.250000 12.996198654  -999.250000  -999.250000  -999.250000 60.069000244 191.40490723 0.8453999758  -999.250000 1.0542999506
 1089.7087402  -999.250000 13.412699699  -999.250000  -999.250000  -999.250000 57.040027618 193.79580688 0.8453000784  -999.250000 1.0575973988
 1089.8612061  -999.250000 13.404800415  -999.250000  -999.250000  -999.250000 55.472801208 194.67129517 0.8468999863  -999.250000 1.0569000244
 1090.0135498  -999.250000 13.204700470  -999.250000  -999.250000  -999.250000 55.914943695 193.98840332 0.8496977091  -999.250000 1.0521037579
 1090.1660156  -999.250000 13.093000412  -999.250000  -999.250000  -999.250000 57.310798645 191.62789917 0.8525999784  -999.250000 1.0472999811
 1090.3183594  -999.250000 12.992099762  -999.250000  -999.250000  -999.250000 59.082981110 189.12010193 0.8552978635  -999.250000 1.0426038504
 1090.4707031  -999.250000 13.070099831  -999.250000  -999.250000  -999.250000 60.643249512 186.61639404 0.8554998040  -999.250000 1.0378037691
 1090.6231689  -999.250000 13.378799438  -999.250000  -999.250000  -999.250000 59.936069489 185.56449890 0.8554000854  -999.250000 1.0330038071
 1090.7755127  -999.250000 13.901300430  -999.250000  -999.250000  -999.250000 59.375450134 184.18469238 0.8566989899  -999.250000 1.0327001810
 1090.9279785  -999.250000 13.780599594  -999.250000  -999.250000  -999.250000 58.767101288 181.28752136 0.8640000224  -999.250000 1.0405000448
 1091.0803223  -999.250000 13.205300331  -999.250000  -999.250000  -999.250000 57.258010864 178.68150330 0.8749911785  -999.250000 1.0482938290
 1091.2327881  -999.250000 12.682000160  -999.250000  -999.250000  -999.250000 56.278800964 179.31460571 0.8797000051  -999.250000 1.0562000275
 1091.3851318  -999.250000 12.727999687  -999.250000  -999.250000  -999.250000 55.443668365 180.65150452 0.8799997568  -999.250000 1.0639938116
 1091.5375977  -999.250000 13.063199997  -999.250000  -999.250000  -999.250000 55.902698517 182.78549194 0.8754000068  -999.250000 1.0710999966
 1091.6899414  -999.250000 12.973699570  -999.250000  -999.250000  -999.250000 58.607032776 184.40469360 0.8660075068  -999.250000 1.0754964352
 1091.8424072  -999.250000 12.535799980  -999.250000  -999.250000  -999.250000 61.225498199 182.49328613 0.8540999889  -999.250000 1.0798000097
 1091.9947510  -999.250000 12.290199280  -999.250000  -999.250000  -999.250000 62.036952972 179.76130676 0.8424093723  -999.250000 1.0689086914
 1092.1472168  -999.250000 12.672300339  -999.250000  -999.250000  -999.250000 62.110599518 179.38470459 0.8252000213  -999.250000 1.0558999777
 1092.2995605  -999.250000 12.816599846  -999.250000  -999.250000  -999.250000 61.209320068 179.74600220 0.8079138398  -999.250000 1.0430103540
 1092.4520264  -999.250000 12.673100471  -999.250000  -999.250000  -999.250000 59.168598175 181.91020203 0.7928000093  -999.250000 1.0309000015
 1092.6043701  -999.250000 12.720100403  -999.250000  -999.250000  -999.250000 56.693283081 184.89830017 0.7827081084  -999.250000 1.0309998989
