# LAS format log file from PETREL
# Project units are specified as depth units
#==================================================================
~Version information
VERS.   2.0:
WRAP.   NO:
#==================================================================
~Well
STRT .m      410.00479126 :
STOP .m      2954.3227539 :
STEP .m     0.00000000 :
NULL .        -999.250000 :
COMP.           : COMPANY
WELL.  16/11-1 S   : WELL
FLD.            : FIELD
LOC.            : LOCATION
SRVC.           : SERVICE COMPANY
DATE.  2018-09-11 14:48:06   : Log Export Date {yyyy-MM-dd HH:mm:ss}
PROV.           : PROVINCE
UWI.   16/11-1 S   : UNIQUE WELL ID
API.            : API NUMBER
#==================================================================
~Curve
DEPT .m                   : DEPTH
Lithology_geolink ._      : Lithology_geolink
CALI .in                  : CALI
DRHO .g/cm3               : DRHO
NPHI .m3/m3               : NPHI
RHOB .g/cm3               : RHOB
GR .gAPI                  : GR
DTC .us/ft                : DTC
RDEP .ohm.m               : RDEP
RSHA .ohm.m               : RSHA
RMED .ohm.m               : RMED
~Parameter
#==================================================================
~Ascii
# ...
 2338.7790527  -999.250000 12.737899780 -0.004900000 0.0347020812 2.0833001137 3.9844961166 67.493698120  -999.250000  -999.250000  -999.250000
 2338.9316406  -999.250000 12.722701073 -0.007000000 0.0315000005 2.0887000561 3.9509000778 67.314903259  -999.250000  -999.250000  -999.250000
 2339.0839844  -999.250000 12.719900131 -0.010600000 0.0329000019 2.0947999954 4.1535000801 67.129997253  -999.250000  -999.250000  -999.250000
 2339.2363281  -999.250000 12.736900330 -0.009100000 0.0389902405 2.0896999836 4.8278193474 66.977203369  -999.250000  -999.250000  -999.250000
 2339.3886719  -999.250000 12.753800392 0.0006000000 0.0403977558 2.0950999260 4.7956533432 66.835296631  -999.250000  -999.250000  -999.250000
 2339.5410156  -999.250000 12.750999451 -0.004800000 0.0374048091 2.0869998932 4.5246348381 66.745697021  -999.250000  -999.250000  -999.250000
 2339.6936035  -999.250000 12.748200417 -0.010300000 0.0329999998 2.0757000446 4.4899001122 66.760902405  -999.250000  -999.250000  -999.250000
 2339.8459473  -999.250000 12.745400429 -0.002800000 0.0355958380 2.0836999416 4.4556546211 66.875602722  -999.250000  -999.250000  -999.250000
 2339.9982910  -999.250000 12.742600441 -0.005600000 0.0325049683 2.0806000233 4.2324581146 67.021896362  -999.250000  -999.250000  -999.250000
 2340.1506348  -999.250000 12.740199089 0.0003000000 0.0331988782 2.0815999508 4.1503310204 67.137100220  -999.250000  -999.250000  -999.250000
 2340.3032227  -999.250000 12.717399597 0.0046000001 0.0315999985 2.0810999870 4.1159000397 67.221496582  -999.250000  -999.250000  -999.250000
 2340.4555664  -999.250000 12.714500427 0.0020999999 0.0326000005 2.0824999809 4.3183999062 67.242599487  -999.250000  -999.250000  -999.250000
 2340.6079102  -999.250000 12.711700439 -0.001400000 0.0348963179 2.0882000923 4.4961152077 67.224601746  -999.250000  -999.250000  -999.250000
 2340.7602539  -999.250000 12.709600449 -0.004900000 0.0344008021 2.0783998966 4.7231359482 67.246398926  -999.250000  -999.250000  -999.250000
 2340.9128418  -999.250000 12.725900650 -0.009000000 0.0348000005 2.0685000420 4.6891999245 67.327499390  -999.250000  -999.250000  -999.250000
 2341.0651855  -999.250000 12.704500198 -0.004700000 0.0348999985 2.0764999390 4.4180998802 67.418502808  -999.250000  -999.250000  -999.250000
 2341.2175293  -999.250000 12.703498840 -0.004100000 0.0318049602 2.0722999573 4.1481323242 67.538597107  -999.250000  -999.250000  -999.250000
 2341.3698730  -999.250000 12.717499733 -0.004900000 0.0291043278 2.0715000629 4.5923862457 67.653602600  -999.250000  -999.250000  -999.250000
 2341.5222168  -999.250000 12.714699745 -0.004900000 0.0302980784 2.0704998970 4.5520658493 67.731399536  -999.250000  -999.250000  -999.250000
 2341.6748047  -999.250000 12.711899757 -0.006700000 0.0293000005 2.0643000603 4.5177001953 67.792503357  -999.250000  -999.250000  -999.250000
 2341.8271484  -999.250000 12.718999863 -0.006600000 0.0320955180 2.0620000362 4.4834547043 67.825798035  -999.250000  -999.250000  -999.250000
 2341.9794922  -999.250000 12.706299782 0.0017000000 0.0318004824 2.0655999184 4.6848769188 67.833602905  -999.250000  -999.250000  -999.250000
 2342.1318359  -999.250000 12.709199905 -0.000400000 0.0300028846 2.0789999962 4.8881745338 67.867401123  -999.250000  -999.250000  -999.250000
 2342.2844238  -999.250000 12.720399857 -0.007000000 0.0294000003 2.0748000145 5.0910000801 67.912597656  -999.250000  -999.250000  -999.250000
 2342.4367676  -999.250000 12.737400055 0.0006000000 0.0303000007 2.0836000443 5.0567998886 67.947998047  -999.250000  -999.250000  -999.250000
 2342.5891113  -999.250000 12.744500160 0.0031000001 0.0316977613 2.0961000919 4.4892096519 68.016700745  -999.250000  -999.250000  -999.250000
 2342.7414551  -999.250000 12.751500130 -0.005800000 0.0343956724 2.0929000378 4.1944713593 68.012702942  -999.250000  -999.250000  -999.250000
 2342.8940430  -999.250000 12.748700142 -0.006000000 0.0339000002 2.0841999054 4.3172998428 67.919799805  -999.250000  -999.250000  -999.250000
 2343.0463867  -999.250000 12.765700340 -0.005300000 0.0342999995 2.0769000053 4.9924998283 67.877700806  -999.250000  -999.250000  -999.250000
 2343.1987305  -999.250000 12.782601357 0.0009000000 0.0353982411 2.0806000233 5.4335932732 67.665901184  -999.250000  -999.250000  -999.250000
 2343.3510742  -999.250000 12.741200447 0.0038999999 0.0347011201 2.0945000648 4.9290108681 67.322402954  -999.250000  -999.250000  -999.250000
 2343.5036621  -999.250000 12.698099136 -0.004800000 0.0373000018 2.0815999508 4.1223001480 67.076499939  -999.250000  -999.250000  -999.250000
 2343.6560059  -999.250000 12.710399628 -0.009100000 0.0390999988 2.0773000717 3.8348999023 66.772003174  -999.250000  -999.250000  -999.250000
 2343.8083496  -999.250000 12.712200165 -0.012600000 0.0385009609 2.0766000748 3.8006548882 66.510398865  -999.250000  -999.250000  -999.250000
 2343.9606934  -999.250000 12.709400177 -0.013100000 0.0386996791 2.0729000568 4.2448868752 66.643600464  -999.250000  -999.250000  -999.250000
 2344.1130371  -999.250000 12.716501236 -0.012900000 0.0372024029 2.0692999363 5.0335354805 66.864402771  -999.250000  -999.250000  -999.250000
 2344.2656250  -999.250000 12.703801155 -0.008700000 0.0386999995 2.0741000175 5.5927000046 67.024597168  -999.250000  -999.250000  -999.250000
 2344.4179688  -999.250000 12.717301369 -0.002100000 0.0357000008 2.0851998329 5.5584001541 67.137802124  -999.250000  -999.250000  -999.250000
 2344.5703125  -999.250000 12.718000412 0.0055000000 0.0354004800 2.0991001129 5.1021308899 65.805702209  -999.250000  -999.250000  -999.250000
 2344.7226563  -999.250000 12.748300552 0.0120000001 0.0333033651 2.1245999336 5.4891777039 65.870697021  -999.250000  -999.250000  -999.250000
 2344.8752441  -999.250000 12.768500328 0.0006000000 0.0322999991 2.1357998848 5.6923999786 66.115898132  -999.250000  -999.250000  -999.250000
 2345.0275879  -999.250000 12.749100685 -0.017100001 0.0329999998 2.1588997841 5.6581001282 66.198600769  -999.250000  -999.250000  -999.250000
 2345.1799316  -999.250000 12.731299400 -0.034800000 0.0364944004 2.1921000481 4.8207416534 66.650802612  -999.250000  -999.250000  -999.250000
 2345.3322754  -999.250000 12.723799706 -0.035500001 0.0400942303 2.2306001186 4.1692438126 67.770301819  -999.250000  -999.250000  -999.250000
 2345.4848633  -999.250000 12.720999718 0.0178999994 0.0419000015 2.2726998329 3.8968999386 67.055000305  -999.250000  -999.250000  -999.250000
 2345.6372070  -999.250000 12.789199829 0.0239000004 0.0333999991 2.2692999840 4.0777997971 66.933502197  -999.250000  -999.250000  -999.250000
 2345.7895508  -999.250000 12.766401291 0.0010000000 0.0310038403 2.1405999660 3.8286991119 67.086196899  -999.250000  -999.250000  -999.250000
 2345.9418945  -999.250000 12.753398895 -0.009400000 0.0344943888 2.0804998875 4.0154995918 67.348197937  -999.250000  -999.250000  -999.250000
 2346.0942383  -999.250000 12.719599724 -0.015900001 0.0380942300 2.0655000210 4.2331509590 67.653099060  -999.250000  -999.250000  -999.250000
 2346.2468262  -999.250000 12.706998825 -0.014500000 0.0355000012 2.0567998886 4.4361000061 67.987701416  -999.250000  -999.250000  -999.250000
 2346.3991699  -999.250000 12.723899841 -0.006700000 0.0358993597 2.0574998856 4.4018549919 68.182296753  -999.250000  -999.250000  -999.250000
 2346.5515137  -999.250000 12.730799675 0.0062000002 0.0376971178 2.0773999691 4.6040754318 68.312698364  -999.250000  -999.250000  -999.250000
 2346.7038574  -999.250000 12.738100052 -0.001500000 0.0358030424 2.0650000572 4.5701546669 68.403602600  -999.250000  -999.250000  -999.250000
 2346.8564453  -999.250000 12.735300064 -0.014100000 0.0333000012 2.0492000580 4.7726998329 68.446601868  -999.250000  -999.250000  -999.250000
 2347.0087891  -999.250000 12.731599808 -0.007200000 0.0362000018 2.0545001030 4.7383999825 68.449501038  -999.250000  -999.250000  -999.250000
 2347.1611328  -999.250000 12.709099770 -0.004200000 0.0366991982 2.0673000813 4.4679336548 68.414596558  -999.250000  -999.250000  -999.250000
