# LAS format log file from PETREL
# Project units are specified as depth units
#==================================================================
~Version information
VERS.   2.0:
WRAP.   NO:
#==================================================================
~Well
STRT .m      1175.9671631 :
STOP .m      1726.7407227 :
STEP .m     0.00000000 :
NULL .        -999.250000 :
COMP.           : COMPANY
WELL.  16/1-6 A Verdandi Appr   : WELL
FLD.            : FIELD
LOC.            : LOCATION
SRVC.           : SERVICE COMPANY
DATE.  2018-09-11 14:48:05   : Log Export Date {yyyy-MM-dd HH:mm:ss}
PROV.           : PROVINCE
UWI.   16/1-6 A   : UNIQUE WELL ID
API.            : API NUMBER
#==================================================================
~Curve
DEPT .m                   : DEPTH
Lithology_geolink ._      : Lithology_geolink
CALI .in                  : CALI
BS .in                    : BS
NPHI .m3/m3               : NPHI
RHOB .g/cm3               : RHOB
PEF .b/e                  : PEF
GR .gAPI                  : GR
DTC .us/ft                : DTC
RDEP .ohm.m               : RDEP
RMED .ohm.m               : RMED
~Parameter
#==================================================================
~Ascii
 1175.9671631  -999.250000 12.178700447 17.000000000 0.5769000053  -999.250000  -999.250000 65.693000793  -999.250000 1.2270023823 1.1690024137
 1176.1196289  -999.250000 12.163499832 17.000000000 0.5769000053  -999.250000  -999.250000 74.049003601  -999.250000 1.2070000172 1.1499999762
 1176.2719727  -999.250000 12.163499832 17.000000000 0.5769000053  -999.250000  -999.250000 77.560997009  -999.250000 1.1950097084 1.1220223904
 1176.4244385  -999.250000 12.152199745 17.000000000 0.5375999808  -999.250000  -999.250000 74.291999817  -999.250000 1.1859999895 1.0870000124
 1176.5767822  -999.250000 12.156000137 17.000000000 0.5457000136  -999.250000  -999.250000 61.234001160  -999.250000 1.1420352459 1.1459528208
 1176.7292480  -999.250000 12.148400307 17.000000000 0.5465999842  -999.250000  -999.250000 57.229000092  -999.250000 1.1039999723 1.1360000372
 1176.8815918  -999.250000 12.152199745 17.000000000 0.5454000235  -999.250000  -999.250000 60.365001678  -999.250000 1.0280607939 1.0790456533
 1177.0339355  -999.250000 12.148400307 17.000000000 0.5473999977  -999.250000  -999.250000 66.181999207  -999.250000 1.0299984217 1.1229647398
 1177.1864014  -999.250000 12.140899658 17.000000000 0.5146999955  -999.250000  -999.250000 79.213996887  -999.250000 1.0879535675 1.1289951801
 1177.3387451  -999.250000 12.140899658 17.000000000 0.5386999846  -999.250000  -999.250000 82.533996582  -999.250000 1.0710135698 0.9901114106
 1177.4912109  -999.250000 12.148400307 17.000000000 0.5351999998  -999.250000  -999.250000 79.379997253  -999.250000 1.1000000238 1.0030000210
 1177.6435547  -999.250000 12.163499832 17.000000000 0.5576999784  -999.250000  -999.250000 74.875999451  -999.250000 1.0630296469 0.9660296440
 1177.7960205  -999.250000 12.152199745 17.000000000 0.5864999890  -999.250000  -999.250000 69.787002563  -999.250000 1.1089999676 1.0290000439
 1177.9483643  -999.250000 12.140899658 17.000000000 0.6711000204  -999.250000  -999.250000 69.295997620  -999.250000 1.1199911833 1.0639719963
 1178.1008301  -999.250000 12.163499832 17.000000000 0.6719999909  -999.250000  -999.250000 71.240997314  -999.250000 1.1430000067 1.0909999609
 1178.2531738  -999.250000 12.174900055 17.000000000 0.6437000036  -999.250000  -999.250000 75.209999084  -999.250000 1.1549903154 1.1009919643
 1178.4056396  -999.250000 12.171099663 17.000000000 0.5593000054  -999.250000  -999.250000 80.268997192  -999.250000 1.1929999590 1.1339999437
 1178.5579834  -999.250000 12.178700447 17.000000000 0.5260000229  -999.250000  -999.250000 79.915000916  -999.250000 1.1880040169 1.1320015192
 1178.7104492  -999.250000 12.174900055 17.000000000 0.5310000181  -999.250000  -999.250000 78.031997681  -999.250000 1.1870000362 1.1499999762
 1178.8627930  -999.250000 12.171099663 17.000000000 0.5260000229  -999.250000  -999.250000 77.866996765  -999.250000 1.2119799852 1.1809751987
 1179.0151367  -999.250000 12.163499832 17.000000000 0.5440000296  -999.250000  -999.250000 77.305999756  -999.250000 1.2679551840 1.2259639502
 1179.1676025  -999.250000 12.171099663 17.000000000 0.5267000198  -999.250000  -999.250000 75.608001709  -999.250000 1.2919808626 1.2859519720
 1179.3199463  -999.250000 12.186200142 17.000000000 0.5174999833  -999.250000  -999.250000 73.171997070  -999.250000 1.2490344048 1.1740897894
 1179.4724121  -999.250000 12.163499832 17.000000000 0.5606999993  -999.250000  -999.250000 74.616996765  -999.250000 1.2500000000 1.1729999781
 1179.6247559  -999.250000 12.174900055 17.000000000 0.5709000230  -999.250000  -999.250000 78.998001099  -999.250000 1.2739808559 1.2129679918
 1179.7772217  -999.250000 12.186200142 17.000000000 0.5817000270  -999.250000  -999.250000 80.571998596  -999.250000 1.2760000229 1.2840000391
 1179.9295654  -999.250000 12.178700447 17.000000000 0.5561000109  -999.250000  -999.250000 81.410003662  -999.250000 1.2750008106 1.2889959812
 1180.0820313  -999.250000 12.174900055 17.000000000 0.6062999964  -999.250000  -999.250000 80.519996643  -999.250000 1.2949999571 1.2740000486
 1180.2343750  -999.250000 12.178700447 17.000000000 0.6180999875  -999.250000  -999.250000 76.449996948  -999.250000 1.3069903851 1.2620096207
 1180.3868408  -999.250000 12.186200142 17.000000000 0.5985999703  -999.250000  -999.250000 67.827003479  -999.250000 1.2840000391 1.2330000401
 1180.5391846  -999.250000 12.186200142 17.000000000 0.5680000186  -999.250000  -999.250000 67.884002686  -999.250000 1.2710103989 1.2180120945
 1180.6916504  -999.250000 12.186200142 17.000000000 0.5588999987  -999.250000  -999.250000 72.428001404  -999.250000 1.2819999456 1.2389999628
 1180.8439941  -999.250000 12.174900055 17.000000000 0.5436000228  -999.250000  -999.250000 74.433998108  -999.250000 1.3059808016 1.2759703398
 1180.9963379  -999.250000 12.174900055 17.000000000 0.5730999708  -999.250000  -999.250000 71.440002441  -999.250000 1.2850167751 1.2410280704
 1181.1488037  -999.250000 12.174900055 17.000000000 0.5774999857  -999.250000  -999.250000 67.836997986  -999.250000 1.3019864559 1.2340055704
 1181.3011475  -999.250000 12.186200142 17.000000000 0.6219000220  -999.250000  -999.250000 63.271999359  -999.250000 1.2800176144 1.2280048132
 1181.4536133  -999.250000 12.174900055 17.000000000 0.5982999802  -999.250000  -999.250000 64.332000732  -999.250000 1.2469999790 1.1679999828
 1181.6059570  -999.250000 12.186200142 17.000000000 0.6269999743  -999.250000  -999.250000 70.000999451  -999.250000 1.2679831982 1.1949784756
 1181.7584229  -999.250000 12.178700447 17.000000000 0.6128000021  -999.250000  -999.250000 71.179000854  -999.250000 1.2580000162 1.1950000525
 1181.9107666  -999.250000 12.174900055 17.000000000 0.6118000150  -999.250000  -999.250000 71.178001404  -999.250000 1.2659935951 1.2139847279
 1182.0632324  -999.250000 12.178700447 17.000000000 0.5855000019  -999.250000  -999.250000 71.162002563  -999.250000 1.2699999809 1.2319999933
 1182.2155762  -999.250000 12.186200142 17.000000000 0.5906999707  -999.250000  -999.250000 69.428001404  -999.250000 1.2500159740 1.2200096846
 1182.3680420  -999.250000 12.163499832 17.000000000 0.5606999993  -999.250000  -999.250000 67.136001587  -999.250000 1.2250000238 1.1890000105
 1182.5203857  -999.250000 12.171099663 17.000000000 0.5587999821  -999.250000  -999.250000 64.885002136  -999.250000 1.2120103836 1.1690160036
 1182.6728516  -999.250000 12.174900055 17.000000000 0.5601999760  -999.250000  -999.250000 67.976997375  -999.250000 1.2259999514 1.1759999990
 1182.8250732  -999.250000 12.186200142 17.000000000 0.5479999781  -999.250000  -999.250000 67.018768311  -999.250000 1.2000416517 1.1260801554
 1182.9775391  -999.250000 12.186200142 17.000000000 0.5080999732  -999.250000  -999.250000 61.478439331  -999.250000 1.2329735756 1.1709640026
 1183.1298828  -999.250000 12.186200142 17.000000000 0.4463000000  -999.250000  -999.250000 61.167243958  -999.250000 1.2060432434 1.1620143652
 1183.2823486  -999.250000 12.186200142 17.000000000 0.4830000103  -999.250000  -999.250000 65.501998901  -999.250000 1.1890136003 1.1410168409
 1183.4346924  -999.250000 12.186200142 17.000000000 0.4968999922  -999.250000  -999.250000 66.773979187  -999.250000 1.1800143719 1.1300176382
 1183.5871582  -999.250000 12.193799973 17.000000000 0.5375000238  -999.250000  -999.250000 66.010002136  -999.250000 1.1250441074 1.0770424604
 1183.7395020  -999.250000 12.186200142 17.000000000 0.5300999880  -999.250000  -999.250000 64.595138550  -999.250000 1.1100120544 1.0510208607
 1183.8919678  -999.250000 12.186200142 17.000000000 0.5446000099  -999.250000  -999.250000 60.236000061  -999.250000 1.1189928055 0.9121112823
 1184.0443115  -999.250000 12.186200142 17.000000000 0.5195999742  -999.250000  -999.250000 59.147872925  -999.250000 1.0910223722 1.0378990173
 1184.1967773  -999.250000 12.197500229 17.000000000 0.4808999896  -999.250000  -999.250000 66.861999512  -999.250000 1.0909999609 1.0379999876
 1184.3491211  -999.250000 12.197500229 17.000000000 0.4711999893  -999.250000  -999.250000 72.422546387  -999.250000 1.0840055943 1.0409976244
