# LAS format log file from PETREL
# Project units are specified as depth units
#==================================================================
~Version information
VERS.   2.0:
WRAP.   NO:
#==================================================================
~Well
STRT .m      684.17242432 :
STOP .m      2208.3249512 :
STEP .m     0.00000000 :
NULL .        -999.250000 :
COMP.           : COMPANY
WELL.  16/2-16   : WELL
FLD.            : FIELD
LOC.            : LOCATION
SRVC.           : SERVICE COMPANY
DATE.  2018-09-11 14:48:07   : Log Export Date {yyyy-MM-dd HH:mm:ss}
PROV.           : PROVINCE
UWI.   16/2-16   : UNIQUE WELL ID
API.            : API NUMBER
#==================================================================
~Curve
DEPT .m                   : DEPTH
Lithology_geolink ._      : Lithology_geolink
CALI .in                  : CALI
BS .in                    : BS
ROP .m/h                  : ROP
DRHO .g/cm3               : DRHO
THOR .ppm                 : THOR
NPHI .m3/m3               : NPHI
RHOB .g/cm3               : RHOB
PEF .b/e                  : PEF
GR .gAPI                  : GR
URAN .ppm                 : URAN
DTC .us/ft                : DTC
DTS .us/ft                : DTS
RDEP .ohm.m               : RDEP
RMED .ohm.m               : RMED
~Parameter
#==================================================================
~Ascii
# ...
 2098.7495117  -999.250000 8.1969995499 8.5000000000 47.357509613 -0.005890705 1.9916641712 0.2317000031 2.5658981800 3.9919290543 47.498313904 1.7609024048 66.384429932 120.37102509 2.1405634880 2.1027495861
 2098.9018555  -999.250000 8.2084999084 8.5000000000 50.973541260 -0.000093109 2.1052770615 0.2347999960 2.5646955967 3.9476974010 49.442848206 1.8549616337 66.903678894 122.44367981 2.1177592278 2.0713312626
 2099.0541992  -999.250000 8.1682996750 8.5000000000 51.462837219 0.0042006397 2.2153520584 0.2413000017 2.5619857311 3.9461584091 52.591644287 1.7685748339 67.267318726 123.05051422 2.0921792984 2.0284504890
 2099.2065430  -999.250000 8.2182998657 8.5000000000 56.936023712 0.0046000001 1.9987235069 0.2485000044 2.5531001091 3.9825999737 55.052200317 1.6906050444 68.151199341 123.43830109 2.0169000626 1.9350999594
 2099.3588867  -999.250000 8.2714996338 8.5000000000 58.713253021 0.0016000000 2.0131280422 0.2504999936 2.5425000191 4.0412998199 54.695201874 1.6936739683 68.445701599 123.06699371 2.0676000118 1.9743000269
 2099.5114746  -999.250000 8.2378997803 8.5000000000 66.182426453 -0.003003686 1.9061243534 0.2583000064 2.5308871269 4.0874176025 53.870567322 1.6779057980 67.944175720 122.81993103 2.1427402496 2.0151853561
 2099.6638184  -999.250000 8.1920995712 8.5000000000 66.382041931 -0.005299840 1.9134416580 0.2581000030 2.5228874683 4.0984854698 54.164070129 1.8043400049 67.870697021 123.01877594 2.1052432060 1.9434987307
 2099.8161621  -999.250000 8.1920995712 8.5000000000 61.770011902 -0.005200000 1.7522507906 0.2657999992 2.5150001049 4.0897002220 54.832099915 1.8294281960 68.619400024 123.75119781 2.0074000359 1.8178999424
 2099.9685059  -999.250000 8.1625995636 8.5000000000 61.145347595 -0.003500000 1.6595377922 0.2657000124 2.5164999962 4.0911998749 55.657199860 1.9092670679 69.584800720 125.03469849 1.9594000578 1.7421000004
 2100.1210938  -999.250000 8.1511001587 8.5000000000 59.531623840 -0.003303846 1.8071656227 0.2763000131 2.5193114281 4.1111335754 55.942905426 1.8888055086 69.918380737 125.92890167 2.1627206802 1.8896429539
 2100.2734375  -999.250000 8.1454000473 8.5000000000 61.048374176 -0.005704487 1.6410285234 0.2666999996 2.5264067650 4.1320033073 57.750995636 1.8904002905 68.848167419 126.11786652 2.3625199795 2.0409891605
 2100.4257813  -999.250000 8.1494998932 8.5000000000 65.431976318 -0.008501921 1.8460310698 0.2617999911 2.5305089951 4.1340579987 56.691501617 1.8282934427 67.709335327 125.84690094 2.3749759197 2.0342469215
 2100.5781250  -999.250000 8.1527996063 8.5000000000 64.956695557 -0.009700001 2.0528547764 0.2513999939 2.5360999107 4.1078000069 57.941799164 1.8242195845 68.788101196 126.03160095 2.3599998951 2.0009999275
 2100.7307129  -999.250000 8.1527996063 8.5000000000 67.707252502 -0.009199039 2.4001069069 0.2585000098 2.5413041115 4.0698189735 59.674789429 1.8364733458 70.940170288 127.12517548 2.4423365593 2.0639452934
 2100.8830566  -999.250000 8.1281995773 8.5000000000 63.558547974 -0.008599680 2.9008824825 0.2558000088 2.5437963009 4.0193161964 66.026260376 1.8594954014 71.917335510 128.35543823 2.3403365612 1.9674328566
 2101.0354004  -999.250000 8.1266002655 8.5000000000 63.400238037 -0.008400640 3.0150167942 0.2581000030 2.5413832664 3.9668011665 69.058601379 1.9813597202 71.751991272 128.32342529 2.3004772663 1.9253163338
 2101.1877441  -999.250000 8.0937995911 8.5000000000 33.083335876 -0.008800000 3.3370907307 0.2599999905 2.5309000015 3.9051001072 70.680297852 2.0807015896 71.185798645 130.39790344 2.0991001129 1.7482999563
 2101.3400879  -999.250000 8.1298999786 8.5000000000 32.208988190 -0.009200000 3.3939366341 0.2689999938 2.5185000896 3.8477001190 70.670898438 2.0195505619 72.553596497 132.69309998 1.9134000540 1.5880000591
 2101.4926758  -999.250000 8.1920995712 8.5000000000 32.766899109 -0.010300641 3.5415215492 0.2750999928 2.5049896240 3.8015322685 70.959266663 2.1135530472 75.516517639 134.91972351 1.6769376993 1.3888916969
 2101.6450195  -999.250000 8.1625995636 8.5000000000 32.254852295 -0.010700321 3.5794694424 0.2757999897 2.4983973503 3.7592134476 70.811470032 2.1615321636 76.834495544 136.23593140 1.8249739408 1.5082786083
 2101.7973633  -999.250000 8.1887998581 8.5000000000 32.212272644 -0.010900000 3.6228737831 0.2736999989 2.4967000484 3.7051999569 70.481399536 2.3684544563 75.835197449 134.19869995 1.8086999655 1.4950000048
 2101.9497070  -999.250000 8.1757001877 8.5000000000 31.658136368 -0.011300000 3.7299909592 0.2800999880 2.4925999641 3.6182999611 69.497299194 2.4021995068 73.044197083 132.10690308 1.5618000031 1.3027000427
 2102.1022949  -999.250000 8.1789999008 8.5000000000 31.680212021 -0.008896314 2.9749360085 0.2849999964 2.4887816906 3.5134568214 66.072357178 2.3389034271 70.869926453 131.05740356 1.4664267302 1.2316725254
 2102.2546387  -999.250000 8.1822996140 8.5000000000 32.351982117 -0.006598237 2.3935160637 0.2818000019 2.4772822857 3.4241268635 59.246589661 2.1218452454 70.390823364 131.68899536 1.3583986759 1.1522272825
 2102.4069824  -999.250000 8.1757001877 8.5000000000 32.525192261 -0.005505760 1.9044972658 0.2815000117 2.4661755562 3.3784742355 54.065677643 2.0879137516 70.282325745 132.99833679 1.2953213453 1.1069359779
 2102.5593262  -999.250000 8.1757001877 8.5000000000 34.528541565 -0.009100000 1.5288794041 0.2926000059 2.4509000778 3.3624000549 53.054500580 2.2214007378 69.988601685 134.39939880 1.3085999489 1.1294000149
 2102.7119141  -999.250000 8.1789999008 8.5000000000 36.586044312 -0.013104007 1.4530404806 0.3019999862 2.4436900616 3.3427488804 54.104362488 2.3470113277 69.631576538 134.45960999 1.2805685997 1.1133040190
 2102.8642578  -999.250000 8.1740999222 8.5000000000 68.128234863 -0.015597916 1.2475836277 0.3122000098 2.4372856617 3.3109672070 56.198131561 2.5377616882 70.242858887 135.40028381 1.1985321045 1.0533635616
 2103.0166016  -999.250000 8.1855001450 8.5000000000 73.823120117 -0.014296800 1.2370734215 0.3167000115 2.4283802509 3.2905290127 56.650238037 2.7629728317 71.965026855 137.07466125 1.0938161612 0.9681439996
 2103.1689453  -999.250000 8.1941003799 8.5000000000 73.591865540 -0.012300000 1.0336925983 0.3395000100 2.4159998894 3.3087000847 53.865501404 2.6837332249 73.664199829 138.30499268 0.9790999889 0.8708000183
 2103.3212891  -999.250000 8.1887998581 8.5000000000 79.216537476 -0.011500000 1.0914987326 0.3531000018 2.4038999081 3.3682999611 51.949699402 2.6418788433 74.444801331 138.91850281 0.9768999815 0.8690999746
 2103.4738770  -999.250000 8.1789999008 8.5000000000 82.338256836 -0.014406090 1.1534534693 0.3522000015 2.3884706497 3.4426910877 48.718425751 2.5034706593 74.242713928 139.18397522 1.0133032799 0.9001101255
 2103.6262207  -999.250000 8.1954002380 8.5000000000 88.882369995 -0.018199360 1.2950156927 0.3573000133 2.3701901436 3.4994559288 48.235916138 2.3382956982 74.252197266 139.35902405 0.9529664516 0.8439798355
 2103.7785645  -999.250000 8.2228002548 8.5000000000 91.227035522 -0.017800000 1.4917377234 0.3677999973 2.3640999794 3.5343999863 48.182800293 2.1488914490 74.876701355 139.99780273 0.8695999980 0.7689999938
 2103.9309082  -999.250000 8.2412004471 8.5000000000 98.340225220 -0.010900000 1.5157092810 0.3714999855 2.3896000385 3.5655999184 48.527801514 2.2058913708 75.392799377 143.13409424 0.8985999823 0.7924000025
 2104.0834961  -999.250000 8.2412004471 8.5000000000 101.20098114 -0.003594872 1.8335746527 0.3537999988 2.4280524254 3.6211469173 50.644142151 2.2003479004 75.644912720 146.07363892 1.0260671377 0.9066214561
 2104.2358398  -999.250000 8.2973003387 8.5000000000 99.888641357 -0.000405609 2.0135118961 0.3280999959 2.4608147144 3.7128651142 55.727809906 2.1532950401 75.780113220 146.34814453 1.2552839518 1.1073297262
 2104.3881836  -999.250000 8.3133001328 8.5000000000 98.577751160 -0.003905920 2.5820698738 0.3059000075 2.4699959755 3.8159136772 62.785972595 2.3371918201 75.916358948 146.61869812 1.5566835403 1.3750035763
 2104.5405273  -999.250000 8.3164997101 8.5000000000 98.162071228 -0.007600000 2.8128540516 0.2888999879 2.4674000740 3.8868999481 69.569099426 2.4568026066 76.639007568 144.37530518 1.4839999676 1.3148000240
