# LAS format log file from PETREL
# Project units are specified as depth units
#==================================================================
~Version information
VERS.   2.0:
WRAP.   NO:
#==================================================================
~Well
STRT .m      703.83190918 :
STOP .m      2487.0642090 :
STEP .m     0.00000000 :
NULL .        -999.250000 :
COMP.           : COMPANY
WELL.  16/2-7 Johan Sverdrup Appr   : WELL
FLD.            : FIELD
LOC.            : LOCATION
SRVC.           : SERVICE COMPANY
DATE.  2018-09-11 14:48:07   : Log Export Date {yyyy-MM-dd HH:mm:ss}
PROV.           : PROVINCE
UWI.   16/2-7   : UNIQUE WELL ID
API.            : API NUMBER
#==================================================================
~Curve
DEPT .m                   : DEPTH
Lithology_geolink ._      : Lithology_geolink
CALI .in                  : CALI
BS .in                    : BS
ROP .m/h                  : ROP
DRHO .g/cm3               : DRHO
THOR .ppm                 : THOR
NPHI .m3/m3               : NPHI
RHOB .g/cm3               : RHOB
PEF .b/e                  : PEF
GR .gAPI                  : GR
URAN .ppm                 : URAN
DTC .us/ft                : DTC
DTS .us/ft                : DTS
RDEP .ohm.m               : RDEP
RMIC .ohm.m               : RMIC
RMED .ohm.m               : RMED
~Parameter
#==================================================================
~Ascii
# ...
 1887.9799805 13.000000000 8.9397001266 8.5000000000 52.010169983 0.0560000017 11.077596664 0.4126999974 2.2330412865 5.2065000534 105.57749939 2.0546061993 119.75319672 315.39608765 1.2000029087 1.1129000187 1.2211949825
 1888.1323242 13.000000000 9.0614995956 8.5000000000 49.301181793 0.0654999986 11.013249397 0.4205000103 2.1963913441 5.6343002319 109.43029785 2.1206636429 120.25193024 325.38336182 1.1394804716 0.7215999961 1.1556798220
 1888.2846680 13.000000000 9.3703002930 8.5000000000 46.889106750 0.0781000033 11.074752808 0.4305999875 2.1857166290 5.8808999062 110.23380280 2.0752642155 122.54180908 322.03149414 1.1151165962 0.6542999744 1.1305171251
 1888.4371338 13.000000000 8.7135000229 8.5000000000 46.920932770 0.0800999999 10.641747475 0.4327999949 2.2065162659 5.7459001541 101.90219879 1.9052551985 124.42218781 320.81399536 1.1357631683 0.5604000092 1.1518657207
 1888.5894775 13.000000000 8.9744997025 8.5000000000 50.386810303 0.0649000034 11.324533463 0.4471000135 2.2266111374 5.4109001160 99.019699097 1.4750945568 122.42633057 320.88406372 1.0900133848 0.7375000119 1.1091163158
 1888.7419434 13.000000000 8.7439002991 8.5000000000 51.522312164 0.0408999994 11.241165161 0.4399000108 2.2406985760 5.0651998520 95.278198242 1.2187181711 121.21381378 314.58581543 1.2314627171 0.7967000008 1.2542606592
 1888.8942871 13.000000000 8.7482995987 8.5000000000 48.919620514 0.0271000005 11.322428703 0.4244999886 2.2389805317 4.8466000557 95.717002869 1.2411074638 120.99355316 318.89718628 1.1848876476 0.7166000009 1.2050855160
 1889.0467529 13.000000000 9.0918998718 8.5000000000 47.414043427 0.0209999997 11.608222008 0.4257000089 2.2144799232 4.8257999420 98.444702148 1.0008270741 119.31005096 319.49160767 1.0449656248 0.7653999925 1.0624672174
 1889.1990967 13.000000000 8.7525997162 8.5000000000 47.748359680 0.0331999995 12.010406494 0.4183000028 2.1894900799 5.1371002197 102.81580353 1.0347418785 119.74446869 321.05883789 1.2512791157 0.7924000025 1.2708781958
 1889.3515625 13.000000000 8.7831001282 8.5000000000 47.686679840 0.0489000008 11.893518448 0.4384000003 2.1771218777 5.6728000641 104.31439972 1.2117285728 120.95613098 323.91738892 1.1005042791 0.7912999988 1.1189032793
 1889.5039063 13.000000000 8.9309997559 8.5000000000 49.935367584 0.0619000010 11.780848503 0.4280999899 2.1908292770 5.9907999039 101.54180145 1.2917584181 124.53174591 323.21929932 1.0407761335 0.6062999964 1.0585759878
 1889.6563721 13.000000000 8.8613996506 8.5000000000 55.751312256 0.0658999979 12.215485573 0.4431000054 2.2273442745 5.7567000389 100.76689911 1.1153447628 127.57812500 325.92800903 1.0111429691 0.7584000230 1.0287383795
 1889.8087158 13.000000000 9.2180995941 8.5000000000 62.013778687 0.0496999994 12.393261909 0.4368000031 2.2548213005 5.0892000198 108.92839813 1.2059226036 126.28202057 327.56417847 1.0380451679 0.7229999900 1.0528481007
 1889.9611816 13.000000000 8.6916999817 8.5000000000 61.663711548 0.0296999998 12.472146988 0.4550999999 2.2812995911 4.3446002007 114.36380005 1.6079026461 121.93534851 324.05410767 1.2192803621 1.0078999996 1.2376871109
 1890.1135254 13.000000000 8.7482995987 8.5000000000 52.437007904 0.0093999999 13.310937881 0.4350000024 2.2809858322 3.9049999714 116.69110107 1.4226813316 116.72596741 311.20779419 1.3317757845 1.0332000256 1.3544763327
 1890.2658691 13.000000000 8.7406997681 8.5000000000 36.606300354 -0.003100000 12.609295845 0.4153999984 2.2634856701 3.8566000462 113.92919922 1.6488834620 116.80037689 304.49380493 1.4260675907 1.1902999878 1.4493654966
 1890.4183350 13.000000000 8.7264995575 8.5000000000 14.686679840 0.0027999999 11.480210304 0.4005999863 2.2457070351 4.1472001076 110.39070129 1.7528676987 118.14099884 305.03079224 1.1360762119 1.2381999493 1.1567710638
 1890.5706787 13.000000000 8.8874998093 8.5000000000 11.007874489 0.0170000009 10.495141029 0.3878000081 2.2546257973 4.3905000687 106.30660248 1.5878884792 121.00830078 315.07611084 1.2309622765 0.8173999786 1.2451591492
 1890.7231445 13.000000000 8.6961002350 8.5000000000 17.401575089 0.0318999998 10.296436310 0.4036999941 2.2869284153 4.3797001839 101.94789886 1.5734182596 120.13084412 317.90710449 1.0594922304 0.9732000232 1.0695917606
 1890.8754883 13.000000000 8.6787004471 8.5000000000 19.987861633 0.0272000004 10.341792107 0.3883000016 2.3223030567 4.1258001328 103.66819763 1.4713879824 116.31340027 297.05661011 1.4240436554 1.0262999535 1.4335426092
 1891.0279541 13.000000000 8.6873998642 8.5000000000 21.726049423 0.0115999999 10.955748558 0.3716000021 2.3261911869 4.1416001320 105.15769958 1.3315129280 115.19546509 282.09051514 1.6031055450 1.6368000507 1.6113026142
 1891.1802979 13.000000000 8.6873998642 8.5000000000 23.351051331 -0.002400000 10.766794205 0.3652999997 2.3152019978 4.5473999977 100.01219940 1.2230417728 117.39202881 283.56619263 1.3604959249 1.1579999924 1.3649941683
 1891.3327637 13.000000000 8.7135000229 8.5000000000 23.295274734 0.0013000000 10.509939194 0.3932000101 2.3176367283 4.9513998032 99.021896362 1.2748193741 119.28983307 292.52709961 1.2305413485 0.8827000260 1.2328394651
 1891.4851074 13.000000000 9.1136999130 8.5000000000 23.536417007 0.0038000001 10.596940041 0.4147999883 2.3404946327 4.7806000710 94.603698730 1.1620838642 114.75471497 297.58428955 1.1319154501 0.8737000227 1.1330137253
 1891.6375732 13.000000000 8.7135000229 8.5000000000 24.669290543 0.0093999999 11.144934654 0.4237000048 2.3336470127 4.3035001755 94.372901917 1.0176658630 111.53169250 297.61380005 1.5252997875 1.2853000164 1.5243951082
 1891.7899170 13.000000000 8.7222003937 8.5000000000 24.595472336 0.0285000000 10.667653084 0.4158999920 2.3005421162 4.1880002022 89.645698547 1.2457852364 111.96637726 293.31988525 1.5873038769 1.3431999683 1.5834962130
 1891.9423828 13.000000000 8.7351999283 8.5000000000 23.121063232 0.0608999990 10.609123230 0.4056000113 2.2283141613 4.7098999023 90.903999329 1.2270001173 116.68650055 295.47109985 1.3426172733 1.0289000273 1.3293035030
 1892.0947266 13.000000000 9.0048999786 8.5000000000 21.480316162 0.0872000009 10.810930252 0.3953000009 2.1748065948 5.3182997704 93.907501221 0.9775112271 121.04496765 291.30621338 1.2286914587 0.6022999883 1.2067911625
 1892.2470703 13.000000000 8.8004999161 8.5000000000 20.855972290 0.0927999988 11.097167969 0.3828000128 2.1830568314 5.5121998787 92.197700500 0.7420960665 121.36811066 287.02420044 1.2180103064 0.5214999914 1.1958118677
 1892.3995361 13.000000000 8.7831001282 8.5000000000 22.979330063 0.0766000003 10.933787346 0.3995000124 2.2540659904 5.1557002068 94.111000061 0.7370573878 119.99640656 285.50601196 1.2310864925 0.5792999864 1.2109844685
 1892.5518799 13.000000000 8.7207002640 8.5000000000 25.637138367 0.0465999991 11.541592598 0.3882000148 2.3363263607 4.4415001869 93.096397400 0.5593333244 117.75453949 286.54818726 1.5882250071 0.9302999973 1.5655286312
 1892.7043457 13.000000000 8.7090997696 8.5000000000 25.796915054 0.0161000006 11.781997681 0.4050999880 2.3692989349 3.7897999287 92.961898804 0.7256784439 113.30798340 284.22399902 1.4945780039 1.5621999502 1.4762806892
 1892.8566895 13.000000000 8.7264995575 8.5000000000 23.598096848 -0.001200000 11.404249191 0.3910999894 2.3680922985 3.5211000443 94.011199951 0.6988982558 108.90837097 276.74249268 1.3426874876 1.7021000385 1.3277037144
 1893.0091553 13.000000000 8.7025995255 8.5000000000 20.849409103 -0.002600000 10.592578888 0.3894999921 2.3587002754 3.8303999901 92.764503479 0.8216006160 105.13511658 266.51739502 1.5768504143 1.7640999556 1.5821570158
 1893.1614990 13.000000000 8.6971998215 8.5000000000 19.695209503 0.0010000000 10.441634178 0.3492000103 2.3590946198 4.4352998734 90.025199890 0.9472035766 104.15846252 267.77828979 1.7642728090 1.6979000568 1.7777768373
 1893.3139648 13.000000000 8.7004003525 8.5000000000 19.472442627 0.0060999999 10.360152245 0.3686000109 2.3522036076 4.8895998001 85.014198303 1.0765286684 109.60978699 279.75610352 1.6055263281 1.5274000168 1.6240243912
 1893.4663086 13.000000000 8.7569999695 8.5000000000 19.250000000 0.0318999998 10.923924446 0.3808999956 2.3566641808 4.8199000359 88.429603577 1.1123213768 117.21343994 305.30441284 1.5133234262 1.2300000191 1.5294240713
