# LAS format log file from PETREL
# Project units are specified as depth units
#==================================================================
~Version information
VERS.   2.0:
WRAP.   NO:
#==================================================================
~Well
STRT .m      684.17242432 :
STOP .m      2208.3249512 :
STEP .m     0.00000000 :
NULL .        -999.250000 :
COMP.           : COMPANY
WELL.  16/2-16   : WELL
FLD.            : FIELD
LOC.            : LOCATION
SRVC.           : SERVICE COMPANY
DATE.  2018-09-11 14:48:07   : Log Export Date {yyyy-MM-dd HH:mm:ss}
PROV.           : PROVINCE
UWI.   16/2-16   : UNIQUE WELL ID
API.            : API NUMBER
#==================================================================
~Curve
DEPT .m                   : DEPTH
Lithology_geolink ._      : Lithology_geolink
CALI .in                  : CALI
BS .in                    : BS
ROP .m/h                  : ROP
DRHO .g/cm3               : DRHO
THOR .ppm                 : THOR
NPHI .m3/m3               : NPHI
RHOB .g/cm3               : RHOB
PEF .b/e                  : PEF
GR .gAPI                  : GR
URAN .ppm                 : URAN
DTC .us/ft                : DTC
DTS .us/ft                : DTS
RDEP .ohm.m               : RDEP
RMED .ohm.m               : RMED
~Parameter
#==================================================================
~Ascii
# ...
 1290.4196777  -999.250000 12.541500092 12.250000954 68.246391296 -0.000500000  -999.250000 0.4336999953 2.1294999123 3.1175999641 85.714500427  -999.250000 135.85389709  -999.250000 0.9401978850 0.9484999776
 1290.5720215  -999.250000 12.549799919 12.250000954 62.279205322 -0.003700000  -999.250000 0.4754999876 2.1034998894 3.1298999786 86.709999084  -999.250000 136.08599854  -999.250000 0.9376255274 0.9419000149
 1290.7244873  -999.250000 12.493101120 12.250000954 62.020992279 -0.001800000  -999.250000 0.4650000036 2.0933001041 3.0859999657 87.528602600  -999.250000 135.99060059  -999.250000 0.9695125818 0.9718999863
 1290.8768311  -999.250000 12.438199997 12.250000954 60.841861725 0.0010000000  -999.250000 0.4582000077 2.0843999386 3.2716000080 88.007896423  -999.250000 135.66949463  -999.250000 0.9851962924 0.9904000163
 1291.0292969  -999.250000 12.486700058 12.250000954 57.949474335 0.0015000000  -999.250000 0.4463000000 2.1070001125 3.5330998898 86.982902527  -999.250000 135.55929565  -999.250000 0.9805974960 0.9860000014
 1291.1816406  -999.250000 12.516900063 12.250000954 57.413715363 -0.000200000  -999.250000 0.4568000138 2.1245000362 3.0978999138 88.726898193  -999.250000 135.88569641  -999.250000 0.9775050879 0.9817000031
 1291.3341064  -999.250000 12.459300041 12.250000954 57.722118378 -0.007100000  -999.250000 0.4402999878 2.0966000557 3.1345999241 93.140502930  -999.250000 135.77349854  -999.250000 0.9837782383 0.9817000031
 1291.4864502  -999.250000 12.567199707 12.250000954 65.884841919 -0.008100000  -999.250000 0.4429000020 2.0845999718 3.0894999504 97.026901245  -999.250000 135.89340210  -999.250000 0.9701967239 0.9761000276
 1291.6389160  -999.250000 12.490899086 12.250000954 64.752952576 -0.006000000  -999.250000 0.4485999942 2.0803000927 3.0460999012 94.932502747  -999.250000 135.40710449  -999.250000 0.9660596251 0.9649999738
 1291.7912598  -999.250000 12.432700157 12.250000954 64.709640503 -0.003700000  -999.250000 0.4648999870 2.0711998940 3.3057999611 90.028503418  -999.250000 136.09170532  -999.250000 0.9408956766 0.9459000230
 1291.9437256  -999.250000 12.458399773 12.250000954 67.568572998 -0.000700000  -999.250000 0.4264999926 2.0441999435 4.2863001823 93.435501099  -999.250000 136.23939514  -999.250000 0.9355009794 0.9361000061
 1292.0960693  -999.250000 12.463800430 12.250000954 70.158462524 -0.001900000  -999.250000 0.4214000106 2.0752999783 3.0817999840 98.225196838  -999.250000 136.17820740  -999.250000 0.9361030459 0.9445999861
 1292.2484131  -999.250000 12.430899620 12.250000954 68.994094849 0.0011000000  -999.250000 0.4255000055 2.0734000206 3.0146999359 92.871398926  -999.250000 135.39390564  -999.250000 0.9399037361 0.9412999749
 1292.4008789  -999.250000 12.441900253 12.250000954 71.931762695 -0.000200000  -999.250000 0.4178000093 2.0590999126 3.2374000549 83.557502747  -999.250000 135.58900452  -999.250000 0.9446018934 0.9441999793
 1292.5532227  -999.250000 12.450999260 12.250000954 76.911415100 0.0020000001  -999.250000 0.4499000013 2.0892999172 3.0787999630 80.747802734  -999.250000 135.86999512  -999.250000 0.9469850659 0.9453999996
 1292.7056885  -999.250000 12.507699966 12.250000954 80.831367493 0.0026000000  -999.250000 0.4180999994 2.0996999741 3.3552999496 83.314102173  -999.250000 136.40480042  -999.250000 0.9283105731 0.9372000098
 1292.8580322  -999.250000 12.364199638 12.250000954 73.742126465 0.0031000001  -999.250000 0.4447999895 2.0987000465 3.4741001129 87.650299072  -999.250000 135.60220337  -999.250000 0.9415149689 0.9470000267
 1293.0104980  -999.250000 12.459300041 12.250000954 71.344161987 -0.002100000  -999.250000 0.4214000106 2.1157999039 3.4217998981 89.619201660  -999.250000 134.87530518  -999.250000 0.9602357745 0.9631999731
 1293.1628418  -999.250000 12.550700188 12.250000954 70.630249023 -0.000300000  -999.250000 0.4397000074 2.1247000694 3.5603001118 83.081802368  -999.250000 133.76750183  -999.250000 1.0048257113 1.0012999773
 1293.3153076  -999.250000 12.483899117 12.250000954 68.103675842 0.0020000001  -999.250000 0.4174000025 2.1331000328 3.4897000790 76.205101013  -999.250000 133.36419678  -999.250000 1.0369408131 1.0349999666
 1293.4676514  -999.250000 12.477800369 12.250000954 66.188323975 -0.003700000  -999.250000 0.4126000106 2.1124000549 3.1991999149 78.343696594  -999.250000 133.89970398  -999.250000 1.0000712872 1.0042999983
 1293.6201172  -999.250000 12.468400002 12.250000954 69.385826111 -0.005200000  -999.250000 0.4129999876 2.1036999226 3.1161999702 84.228500366  -999.250000 134.43080139  -999.250000 0.9642753005 0.9761999846
 1293.7724609  -999.250000 12.496700287 12.250000954 72.468177795 -0.004100000  -999.250000 0.4162000120 2.1157000065 3.1445000172 89.792503357  -999.250000 135.09190369  -999.250000 0.9488830566 0.9569000006
 1293.9249268  -999.250000 12.507300377 12.250000954 73.762138367 0.0008000000  -999.250000 0.4523000121 2.1271998882 3.2792000771 93.697303772  -999.250000 135.30169678  -999.250000 0.9277692437 0.9332000017
 1294.0772705  -999.250000 12.516000748 12.250000954 75.632873535 0.0001000000  -999.250000 0.4751999974 2.1338999271 3.3427000046 94.442100525  -999.250000 135.28390503  -999.250000 0.9085880518 0.9125000238
 1294.2296143  -999.250000 12.494000435 12.250000954 77.626640320 -0.006900000  -999.250000 0.5052999854 2.1198000908 3.3403999805 90.039596558  -999.250000 135.99229431  -999.250000 0.8936918974 0.8944000006
 1294.3820801  -999.250000 12.713500977 12.250000954 86.329719543 -0.002600000  -999.250000 0.4819000065 2.1264998913 3.3773999214 82.510299683  -999.250000 135.89639282  -999.250000 0.8836032152 0.8865000010
 1294.5344238  -999.250000 12.440999031 12.250000954 91.597114563 0.0044000000  -999.250000 0.4447999895 2.1259999275 3.4260001183 80.814201355  -999.250000 135.95739746  -999.250000 0.8876053095 0.8841999769
 1294.6868896  -999.250000 12.427300453 12.250000954 94.564964294 0.0057999999  -999.250000 0.4221000075 2.1168999672 3.4152998924 84.088401794  -999.250000 135.77070618  -999.250000 0.8942082524 0.8928999901
 1294.8392334  -999.250000 12.464799881 12.250000954 98.181106567 0.0059000002  -999.250000 0.3977000117 2.1119999886 3.2604000568 87.701896667  -999.250000 135.50799561  -999.250000 0.9045196176 0.9128999710
 1294.9916992  -999.250000 12.492199898 12.250000954 101.50459290 -0.001700000  -999.250000 0.4097999930 2.0903999805 3.0985999107 90.950302124  -999.250000 135.14320374  -999.250000 0.9290449619 0.9361000061
 1295.1440430  -999.250000 12.425399780 12.250000954 95.945541382 -0.000500000  -999.250000 0.4140999913 2.0732998848 3.0966000557 90.013801575  -999.250000 134.83509827  -999.250000 0.9851108789 0.9818000197
 1295.2965088  -999.250000 12.408101082 12.250000954 91.846458435 0.0083999997  -999.250000 0.4305999875 2.0671999454 3.7458000183 87.218902588  -999.250000 134.47630310  -999.250000 0.9986960292 0.9955000281
 1295.4488525  -999.250000 12.569899559 12.250000954 93.818901062 -0.003900000  -999.250000 0.4293999970 2.0713000298 2.7841999531 88.037399292  -999.250000 134.88690186  -999.250000 0.9936704040 0.9925000072
 1295.6013184  -999.250000 12.522200584 12.250000954 95.803153992 -0.005100000  -999.250000 0.4453999996 2.0822000504 2.8687999249 91.086799622  -999.250000 136.49659729  -999.250000 0.9566492438 0.9639000297
 1295.7536621  -999.250000 12.478500366 12.250000954 97.646980286 0.0031999999  -999.250000 0.4526000023 2.1045000553 3.1421999931 91.027801514  -999.250000 137.74580383  -999.250000 0.9249743819 0.9316999912
 1295.9061279  -999.250000 12.649499893 12.250000954 98.862205505 0.0014000000  -999.250000 0.4587000012 2.1094999313 3.2927000523 89.449600220  -999.250000 140.04029846  -999.250000 0.8929734230 0.9017999768
 1296.0584717  -999.250000 12.405300140 12.250000954 100.56856537 0.0068999999  -999.250000 0.4885999858 2.0980000496 4.2940998077 92.484199524  -999.250000 140.86169434  -999.250000 0.8763877153 0.8809000254
 1296.2109375  -999.250000 12.496700287 12.250000954 103.70571136 0.0057000001  -999.250000 0.4862000048 2.0998001099 4.1396999359 94.464202881  -999.250000 140.56700134  -999.250000 0.8611097932 0.8659999967
