# LAS format log file from PETREL
# Project units are specified as depth units
#==================================================================
~Version information
VERS.   2.0:
WRAP.   NO:
#==================================================================
~Well
STRT .m      735.07409668 :
STOP .m      2124.0476074 :
STEP .m     0.00000000 :
NULL .        -999.250000 :
COMP.           : COMPANY
WELL.  16/2-6   : WELL
FLD.            : FIELD
LOC.            : LOCATION
SRVC.           : SERVICE COMPANY
DATE.  2018-09-11 14:48:07   : Log Export Date {yyyy-MM-dd HH:mm:ss}
PROV.           : PROVINCE
UWI.   16/2-6   : UNIQUE WELL ID
API.            : API NUMBER
#==================================================================
~Curve
DEPT .m                   : DEPTH
Lithology_geolink ._      : Lithology_geolink
CALI .in                  : CALI
BS .in                    : BS
ROP .m/h                  : ROP
DRHO .g/cm3               : DRHO
NPHI .m3/m3               : NPHI
RHOB .g/cm3               : RHOB
PEF .b/e                  : PEF
GR .gAPI                  : GR
DTC .us/ft                : DTC
DTS .us/ft                : DTS
RDEP .ohm.m               : RDEP
RMED .ohm.m               : RMED
~Parameter
#==================================================================
~Ascii
# ...
 1197.7603760  -999.250000 12.406700134 12.250000954 103.43995667 -0.017899999 0.5001999736 1.9405000210 3.1273000240 92.679496765 147.55160522  -999.250000 1.1995999813 0.9990000129
 1197.9128418  -999.250000 12.426300049 12.250000954 102.69849396 -0.013893675 0.5299000144 1.9549069405 3.1825671196 92.612701416 146.89299011  -999.250000 1.2025892735 1.0123000145
 1198.0651855  -999.250000 12.430700302 12.250000954 106.12664032 -0.006000000 0.5703999996 1.9635000229 3.3910000324 90.707702637 146.86770630  -999.250000 1.1892000437 1.0148999691
 1198.2176514  -999.250000 12.435099602 12.250000954 108.60662079 -0.001100160 0.6317999959 1.9756996632 3.4733748436 85.649902344 146.84841919  -999.250000 1.2470473051 1.0421999693
 1198.3699951  -999.250000 12.310699463 12.250000954 108.44488525 -0.001300000 0.6201000214 1.9752000570 3.4418001175 83.065299988 146.12690735  -999.250000 1.3061000109 1.0908999443
 1198.5224609  -999.250000 12.258600235 12.250000954 105.74475098 -0.005001201 0.5798000097 1.9649941921 3.3086512089 87.454696655 145.64747620  -999.250000 1.3084884882 1.0985000134
 1198.6748047  -999.250000 12.323300362 12.250000954 101.15157318 -0.006500000 0.5066999793 1.9577000141 3.2476000786 89.894401550 145.74989319  -999.250000 1.2940000296 1.0973999500
 1198.8272705  -999.250000 12.346299171 12.250000954 99.319877625 -0.009203363 0.5060999990 1.9512004852 3.2831499577 84.870101929 144.43670654  -999.250000 1.3133982420 1.1043000221
 1198.9796143  -999.250000 12.368398666 12.250000954 100.58694458 -0.013400000 0.5199000239 1.9518001080 3.2207999229 83.744903564 144.81939697  -999.250000 1.3111000061 1.1103999615
 1199.1320801  -999.250000 12.340000153 12.250000954 104.44225311 -0.016399039 0.5623000264 1.9452993870 3.2146008015 89.760696411 145.06526184  -999.250000 1.3015676737 1.1145999432
 1199.2844238  -999.250000 12.263501167 12.250000954 113.28379822 -0.015199360 0.5705999732 1.9444894791 3.2154152393 94.417396545 144.90382385  -999.250000 1.2612986565 1.0781999826
 1199.4368896  -999.250000 12.331200600 12.250000954 123.73720551 -0.014399840 0.5708000064 1.9313895702 3.2344479561 93.949600220 146.06120300  -999.250000 1.2596136332 1.0875999928
 1199.5892334  -999.250000 12.287099838 12.250000954 127.83137512 -0.014200080 0.5670999885 1.9184951782 3.2943861485 89.170303345 146.68542480  -999.250000 1.2764818668 1.0770000219
 1199.7415771  -999.250000 12.392000198 12.250000954 129.08103943 -0.014300000 0.5476999879 1.9126000404 3.5267999172 86.407402039 146.47360229  -999.250000 1.2539000511 1.0760999918
 1199.8940430  -999.250000 12.387999535 12.250000954 130.83628845 -0.013597919 0.5555999875 1.9007955790 3.6431558132 88.991996765 145.58024597  -999.250000 1.2318942547 1.0434999466
 1200.0463867  -999.250000 12.353699684 12.250000954 137.22409058 -0.011000000 0.5498999953 1.8953000307 3.7126998901 90.228599548 147.00639343  -999.250000 1.2247999907 1.0140999556
 1200.1988525  -999.250000 12.305700302 12.250000954 145.69914246 -0.006701761 0.5523999929 1.8955041170 3.5362391472 88.602096558 147.73004150  -999.250000 1.2094113827 1.0110000372
 1200.3511963  -999.250000 12.310199738 12.250000954 146.96424866 -0.008900000 0.5809999704 1.9006999731 3.4604001045 87.755401611 148.90200806  -999.250000 1.2236000299 1.0476000309
 1200.5036621  -999.250000 12.317500114 12.250000954 141.96752930 -0.009799680 0.6301000118 1.9122986794 3.3431227207 87.855697632 149.14137268  -999.250000 1.2208025455 1.0467000008
 1200.6560059  -999.250000 12.242899895 12.250000954 132.35827637 -0.009400000 0.6011000276 1.9105999470 3.3714001179 88.579803467 149.23730469  -999.250000 1.2239999771 1.0436999798
 1200.8084717  -999.250000 12.736100197 12.250000954 117.63451385 -0.006703202 0.5674999952 1.9135937691 3.3384108543 88.914100647 149.99668884  -999.250000 1.2226153612 1.0346000195
 1200.9608154  -999.250000 12.684598923 12.250000954 107.63647461 -0.010700000 0.5824999809 1.9059000015 3.2272000313 88.735801697 149.97430420  -999.250000 1.2417999506 1.0579999685
 1201.1132813  -999.250000 12.594900131 12.250000954 99.305122375 -0.013901041 0.6438000202 1.9040970802 3.0813851357 90.095001221 149.70916748  -999.250000 1.2168959379 1.0470000505
 1201.2656250  -999.250000 12.455699921 12.250000954 97.431106567 -0.015197358 0.6147000194 1.9005064964 3.0628881454 92.256202698 149.67810059  -999.250000 1.2119288445 1.0295000076
 1201.4180908  -999.250000 12.299799919 12.250000954 97.078414917 -0.011899840 0.5595999956 1.9084978104 3.0479850769 92.868896484 148.55191040  -999.250000 1.2480082512 1.0440000296
 1201.5704346  -999.250000 12.371400833 12.250000954 97.708663940 -0.011703363 0.5103999972 1.9057939053 3.0292379856 94.640296936 149.70123291  -999.250000 1.2581882477 1.0726000071
 1201.7227783  -999.250000 12.355699539 12.250000954 95.963912964 -0.015900001 0.5238000154 1.8982000351 2.9519000053 97.391998291 149.49259949  -999.250000 1.2433999777 1.0543999672
 1201.8752441  -999.250000 12.349799156 12.250000954 95.976379395 -0.018601041 0.5108000040 1.8918958902 2.9758727551 96.166496277 149.82621765  -999.250000 1.2465958595 1.0612000227
 1202.0275879  -999.250000 12.342301369 12.250000954 95.954727173 -0.019900000 0.5419999957 1.8868999481 3.0664999485 92.371299744 149.45989990  -999.250000 1.2414000034 1.0535000563
 1202.1800537  -999.250000 12.333099365 12.250000954 94.867126465 -0.022798479 0.5562999845 1.8835995197 2.9829804897 88.319900513 149.59631348  -999.250000 1.2399883270 1.0571000576
 1202.3323975  -999.250000 12.323300362 12.250000954 92.564964294 -0.020900000 0.5762000084 1.8830000162 2.9586999416 88.505599976 148.87089539  -999.250000 1.2253999710 1.0284999609
 1202.4848633  -999.250000 12.317299843 12.250000954 91.296264648 -0.018097999 0.5234000087 1.8905006647 2.9223263264 95.936302185 148.65652466  -999.250000 1.2364969254 1.0584000349
 1202.6372070  -999.250000 12.308600426 12.250000954 94.281166077 -0.015600000 0.4986999929 1.8913999796 2.9551999569 100.12879944 149.06250000  -999.250000 1.2325999737 1.0633000135
 1202.7896729  -999.250000 12.316499710 12.250000954 89.937988281 -0.013499920 0.5224999785 1.8917973042 2.9021561146 99.556900024 149.69090271  -999.250000 1.1965917349 1.0234999657
 1202.9420166  -999.250000 12.390300751 12.250000954 84.770996094 -0.013400000 0.6506999731 1.8883999586 2.8473000526 98.450302124 149.05670166  -999.250000 1.1863000393 1.0068000555
 1203.0944824  -999.250000 12.442000389 12.250000954 80.368438721 -0.011001921 0.6733999848 1.8888978958 2.8736200333 96.363296509 149.06683350  -999.250000 1.1864972115 1.0000000000
 1203.2468262  -999.250000 12.337100029 12.250000954 79.629264832 -0.013400000 0.6359999776 1.8861999512 2.8984999657 97.640800476 149.72200012  -999.250000 1.1830999851 1.0176999569
 1203.3992920  -999.250000 12.315500259 12.250000954 77.964241028 -0.011799520 0.5313000083 1.8909070492 2.9648737907 97.889602661 150.37173462  -999.250000 1.2024916410 1.0391000509
 1203.5516357  -999.250000 12.335100174 12.250000954 77.347442627 -0.011199439 0.5134000182 1.8997048140 2.9320859909 90.863601685 149.55918884  -999.250000 1.1921132803 1.0105999708
 1203.7041016  -999.250000 12.342000961 12.250000954 79.459320068 -0.010502564 0.5329999924 1.9056006670 2.9143962860 84.625000000 149.17202759  -999.250000 1.2085992098 1.0318000317
 1203.8564453  -999.250000 12.342000961 12.250000954 84.405517578 -0.013696877 0.5095999837 1.9065126181 2.9097020626 86.619102478 149.31944275  -999.250000 1.2075167894 1.0184999704
 1204.0087891  -999.250000 12.315500259 12.250000954 87.299545288 -0.009800000 0.5253000259 1.9222999811 3.0371999741 92.222801208 149.38150024  -999.250000 1.2285000086 1.0274000168
 1204.1612549  -999.250000 12.311599731 12.250000954 88.659118652 -0.005499519 0.5077000260 1.9486119747 3.1363472939 94.305389404 147.76686096  -999.250000 1.2558016777 1.0556000471
 1204.3135986  -999.250000 12.487999916 12.250000954 89.983268738 -0.004900000 0.5279999971 1.9635000229 3.0704998970 93.418502808 146.96359253  -999.250000 1.2578999996 1.0707999468
