# LAS format log file from PETREL
# Project units are specified as depth units
#==================================================================
~Version information
VERS.   2.0:
WRAP.   NO:
#==================================================================
~Well
STRT .m      684.17242432 :
STOP .m      2208.3249512 :
STEP .m     0.00000000 :
NULL .        -999.250000 :
COMP.           : COMPANY
WELL.  16/2-16   : WELL
FLD.            : FIELD
LOC.            : LOCATION
SRVC.           : SERVICE COMPANY
DATE.  2018-09-11 14:48:07   : Log Export Date {yyyy-MM-dd HH:mm:ss}
PROV.           : PROVINCE
UWI.   16/2-16   : UNIQUE WELL ID
API.            : API NUMBER
#==================================================================
~Curve
DEPT .m                   : DEPTH
Lithology_geolink ._      : Lithology_geolink
CALI .in                  : CALI
BS .in                    : BS
ROP .m/h                  : ROP
DRHO .g/cm3               : DRHO
THOR .ppm                 : THOR
NPHI .m3/m3               : NPHI
RHOB .g/cm3               : RHOB
PEF .b/e                  : PEF
GR .gAPI                  : GR
URAN .ppm                 : URAN
DTC .us/ft                : DTC
DTS .us/ft                : DTS
RDEP .ohm.m               : RDEP
RMED .ohm.m               : RMED
~Parameter
#==================================================================
~Ascii
# ...
 1593.5433350 6.0000000000 12.332200050 12.250000954 93.823822021 0.0138999997  -999.250000 0.4269999862 2.2095999718 4.7330999374 107.18509674  -999.250000 149.25570679  -999.250000 0.4828602672 0.4830999970
 1593.6956787 5.0000000000 12.313899994 12.250000954 92.667648315 0.0086000003  -999.250000 0.4345000088 2.1919999123 4.5686001778 99.442001343  -999.250000 153.21659851  -999.250000 0.4580963850 0.4578000009
 1593.8480225 5.0000000000 12.354999542 12.250000954 90.614173889 0.0057999999  -999.250000 0.4266000092 2.1995000839 4.1703000069 95.924400330  -999.250000 154.07420349  -999.250000 0.4536083937 0.4542999864
 1594.0004883 5.0000000000 12.327700615 12.250000954 87.754920959 0.0017000000  -999.250000 0.4187999964 2.1772999763 4.1751999855 95.846900940  -999.250000 152.85839844  -999.250000 0.4641091526 0.4708999991
 1594.1528320 5.0000000000 12.310199738 12.250000954 79.028541565 0.0038000001  -999.250000 0.4327000082 2.1733000278 4.1448001862 95.349197388  -999.250000 152.00639343  -999.250000 0.4755116701 0.4771000147
 1594.3052979 5.0000000000 12.359499931 12.250000954 80.273292542 0.0052000000  -999.250000 0.4605999887 2.1737000942 4.0398998260 95.736297607  -999.250000 151.58830261  -999.250000 0.4901143312 0.4885999858
 1594.4576416 5.0000000000 12.398899078 12.250000954 95.283790588 0.0092000002  -999.250000 0.4869999886 2.1756000519 4.0328001976 99.099098206  -999.250000 151.31359863  -999.250000 0.5080061555 0.5045999885
 1594.6101074 6.0000000000 12.449199677 12.250000954 96.299545288 0.0093999999  -999.250000 0.5138999820 2.1738998890 4.1112999916 101.89769745  -999.250000 151.62379456  -999.250000 0.5156981349 0.5180000067
 1594.7624512 6.0000000000 12.432900429 12.250000954 96.537406921 0.0074000000  -999.250000 0.5138999820 2.1816000938 4.2641000748 100.47070313  -999.250000 151.20970154  -999.250000 0.5133979321 0.5171999931
 1594.9149170 5.0000000000 12.478199959 12.250000954 88.536743164 0.0068999999  -999.250000 0.4921999872 2.1777999401 4.4542999268 97.495101929  -999.250000 150.33529663  -999.250000 0.5108408332 0.5174000263
 1595.0672607 5.0000000000 12.628499031 12.250000954 90.177169800 0.0057000001  -999.250000 0.4848999977 2.1854999065 4.3730001450 97.340301514  -999.250000 150.29469299  -999.250000 0.5363000035 0.5406000018
 1595.2197266 5.0000000000 12.604599953 12.250000954 85.772308350 0.0082000000  -999.250000 0.4762000144 2.1963000298 4.3115000725 98.888900757  -999.250000 150.14750671  -999.250000 0.5363009572 0.5406000018
 1595.3720703 5.0000000000 12.538800240 12.250000954 87.155838013 0.0052999998  -999.250000 0.4666000009 2.1912000179 4.6202998161 98.888900757  -999.250000 150.42199707  -999.250000 0.5368931890 0.5404999852
 1595.5245361 6.0000000000 12.501299858 12.250000954 90.484252930 0.0052000000  -999.250000 0.4713999927 2.1928999424 4.5631999969 98.667701721  -999.250000 150.49658203  -999.250000 0.5284004807 0.5347999930
 1595.6768799 6.0000000000 12.437299728 12.250000954 106.92356110 0.0055000000  -999.250000 0.4850000143 2.1951999664 4.4047999382 99.972999573  -999.250000 150.31800842  -999.250000 0.5286976695 0.5389999747
 1595.8292236 6.0000000000 12.497699738 12.250000954 107.75328064 0.0066000000  -999.250000 0.4896000028 2.1865000725 4.5864000320 104.59670258  -999.250000 149.80459595  -999.250000 0.5257983208 0.5332000256
 1595.9816895 6.0000000000 12.549799919 12.250000954 103.55183411 0.0046000001  -999.250000 0.4824999869 2.1828999519 4.8077001572 107.79350281  -999.250000 150.13479614  -999.250000 0.5237007737 0.5281999707
 1596.1340332 6.0000000000 12.585899353 12.250000954 96.092521667 0.0013000000  -999.250000 0.4776999950 2.1738998890 4.6939997673 103.03700256  -999.250000 150.23899841  -999.250000 0.5246946812 0.5268999934
 1596.2864990 5.0000000000 12.626600266 12.250000954 85.096786499 -0.007500000  -999.250000 0.4966999888 2.1594998837 4.3390002251 99.209701538  -999.250000 151.24049377  -999.250000 0.5181058645 0.5185999870
 1596.4388428 5.0000000000 12.628399849 12.250000954 92.873687744 -0.004400000  -999.250000 0.4884999990 2.1603000164 4.2432999611 101.07910156  -999.250000 151.53439331  -999.250000 0.5254065990 0.5243999958
 1596.5913086 5.0000000000 12.503101349 12.250000954 91.427169800 -0.007300000  -999.250000 0.4817999899 2.1542999744 3.9198000431 100.08360291  -999.250000 152.27609253  -999.250000 0.5337069631 0.5382999778
 1596.7436523 5.0000000000 12.354999542 12.250000954 98.526573181 0.0008000000  -999.250000 0.4639999866 2.1642999649 4.1483998299 96.665496826  -999.250000 152.88459778  -999.250000 0.5423966646 0.5447999835
 1596.8961182 5.0000000000 12.418101311 12.250000954 99.173233032 -0.002800000  -999.250000 0.4708999991 2.1421000957 4.0439000130 95.747398376  -999.250000 153.09790039  -999.250000 0.5381918550 0.5415999889
 1597.0484619 6.0000000000 12.468400002 12.250000954 101.88713837 0.0027999999  -999.250000 0.4675000012 2.1505999565 4.3916997910 98.911003113  -999.250000 153.31919861  -999.250000 0.5279999971 0.5335000157
 1597.2009277 6.0000000000 12.482999802 12.250000954 100.89829254 0.0126000000  -999.250000 0.4790000021 2.1668999195 4.4917001724 104.22059631  -999.250000 153.03909302  -999.250000 0.5280144215 0.5335000157
 1597.3532715 6.0000000000 12.495800972 12.250000954 96.053153992 0.0001000000  -999.250000 0.4657999873 2.1447999477 4.0239000320 107.40640259  -999.250000 153.61950684  -999.250000 0.5370101929 0.5455999970
 1597.5057373 6.0000000000 12.448299408 12.250000954 96.098098755 -0.002000000  -999.250000 0.4237000048 2.1461999416 3.7685000896 107.17410278  -999.250000 152.69830322  -999.250000 0.5496657491 0.5496000051
 1597.6580811 6.0000000000 12.452799797 12.250000954 100.61450195 0.0014000000  -999.250000 0.4277999997 2.1591999531 4.1346001625 101.76490021  -999.250000 152.62440491  -999.250000 0.5282992721 0.5317999721
 1597.8105469 5.0000000000 12.461099625 12.250000954 115.50853729 -0.004200000  -999.250000 0.4323000014 2.1624000072 3.8108000755 95.603599548  -999.250000 151.89419556  -999.250000 0.5274053216 0.5275999904
 1597.9628906 5.0000000000 12.430299759 12.250000954 105.36909485 0.0012000001  -999.250000 0.4709999859 2.1772999763 3.9990999699 93.918502808  -999.250000 151.19160461  -999.250000 0.5306992531 0.5317000151
 1598.1152344 5.0000000000 12.389800072 12.250000954 104.77493286 0.0016000000  -999.250000 0.4609000087 2.1830999851 4.1071000099 94.567497253  -999.250000 151.30509949  -999.250000 0.5296940804 0.5278999805
 1598.2677002 5.0000000000 12.553001404 12.250000954 98.832679749 0.0054000001  -999.250000 0.4934000075 2.1988000870 4.2062001228 95.677299500  -999.250000 151.08869934  -999.250000 0.5222925544 0.5159999728
 1598.4200439 5.0000000000 12.553400040 12.250000954 95.864830017 0.0109000001  -999.250000 0.5152999759 2.1717998981 4.9173998833 97.174301147  -999.250000 150.72099304  -999.250000 0.5129977465 0.5097000003
 1598.5725098 5.0000000000 13.081000328 12.250000954 95.559715271 -0.0000000000  -999.250000 0.4995000064 2.2044999599 4.0506000519 100.41539764  -999.250000 150.39750671  -999.250000 0.5101972222 0.5123000145
 1598.7248535 6.0000000000 12.590000153 12.250000954 95.816932678 0.0020999999  -999.250000 0.4681999981 2.2084999084 4.1066999435 102.83789825  -999.250000 150.30230713  -999.250000 0.5067090988 0.5128999949
 1598.8773193 6.0000000000 12.771500587 12.250000954 101.87861633 0.0057000001  -999.250000 0.4404999912 2.2121999264 4.4419999123 99.475196838  -999.250000 150.39959717  -999.250000 0.5181028247 0.5196999907
 1599.0296631 6.0000000000 12.727499008 12.250000954 104.16535187 0.0038999999  -999.250000 0.4508000016 2.2042000294 4.4847998619 95.830398560  -999.250000 150.35929871  -999.250000 0.5216019154 0.5235999823
 1599.1821289 6.0000000000 12.671199799 12.250000954 106.04888153 0.0038000001  -999.250000 0.4575000107 2.1482000351 5.2498998642 98.037101746  -999.250000 150.29840088  -999.250000 0.5239998102 0.5248000026
 1599.3344727 6.0000000000 12.650100708 12.250000954 106.19783020 0.0038000001  -999.250000 0.4555000067 2.1946001053 4.3460001945 100.92980194  -999.250000 150.07339478  -999.250000 0.5238965154 0.5236999989
