# LAS format log file from PETREL
# Project units are specified as depth units
#==================================================================
~Version information
VERS.   2.0:
WRAP.   NO:
#==================================================================
~Well
STRT .m      735.07409668 :
STOP .m      2124.0476074 :
STEP .m     0.00000000 :
NULL .        -999.250000 :
COMP.           : COMPANY
WELL.  16/2-6   : WELL
FLD.            : FIELD
LOC.            : LOCATION
SRVC.           : SERVICE COMPANY
DATE.  2018-09-11 14:48:07   : Log Export Date {yyyy-MM-dd HH:mm:ss}
PROV.           : PROVINCE
UWI.   16/2-6   : UNIQUE WELL ID
API.            : API NUMBER
#==================================================================
~Curve
DEPT .m                   : DEPTH
Lithology_geolink ._      : Lithology_geolink
CALI .in                  : CALI
BS .in                    : BS
ROP .m/h                  : ROP
DRHO .g/cm3               : DRHO
NPHI .m3/m3               : NPHI
RHOB .g/cm3               : RHOB
PEF .b/e                  : PEF
GR .gAPI                  : GR
DTC .us/ft                : DTC
DTS .us/ft                : DTS
RDEP .ohm.m               : RDEP
RMED .ohm.m               : RMED
~Parameter
#==================================================================
~Ascii
 735.07409668  -999.250000 13.379199982 9.8750000000 95.324089050  -999.250000 0.1106000021  -999.250000  -999.250000 94.322509766  -999.250000  -999.250000 1.1779899597 1.1798931360
 735.22650146  -999.250000 13.279899597 9.8750000000 94.033340454  -999.250000 0.1055999994  -999.250000  -999.250000 95.330757141  -999.250000  -999.250000 1.1655030251 1.1713019609
 735.37884521  -999.250000 13.418700218 9.8750000000 94.696762085  -999.250000 0.1096000001  -999.250000  -999.250000 93.285270691  -999.250000  -999.250000 1.1691954136 1.1736962795
 735.53125000  -999.250000 13.458600044 9.8750000000 95.294227600  -999.250000 0.1165999994  -999.250000  -999.250000 92.462402344  -999.250000  -999.250000 1.1579958200 1.1643968821
 735.68359375  -999.250000 13.254500389 9.8750000000 95.947509766  -999.250000 0.1216000021  -999.250000  -999.250000 93.973503113  -999.250000  -999.250000 1.1475000381 1.1567000151
 735.83599854  -999.250000 13.254899979 9.8750000000 95.986221313  -999.250000 0.1259000003  -999.250000  -999.250000 95.663597107  -999.250000  -999.250000 1.1461999416 1.1576000452
 735.98840332  -999.250000 13.234800339 9.8750000000 95.649604797  -999.250000 0.1213999987  -999.250000  -999.250000 97.081901550  -999.250000  -999.250000 1.1448999643 1.1536999941
 736.14080811  -999.250000 13.357299805 9.8750000000 95.491470337  -999.250000 0.1308999956  -999.250000  -999.250000 95.765502930  -999.250000  -999.250000 1.1348999739 1.1398999691
 736.29321289  -999.250000 13.322099686 9.8750000000 96.652557373  -999.250000 0.1208999977  -999.250000  -999.250000 94.083900452  -999.250000  -999.250000 1.1313999891 1.1360000372
 736.44561768  -999.250000 13.277600288 9.8750000000 97.471130371  -999.250000 0.1151999980  -999.250000  -999.250000 95.646598816  -999.250000  -999.250000 1.1233999729 1.1306999922
 736.59802246  -999.250000 13.345101357 9.8750000000 99.946197510  -999.250000 0.1112999991  -999.250000  -999.250000 96.266601563  -999.250000  -999.250000 1.1131999493 1.1188000441
 736.75042725  -999.250000 13.258000374 9.8750000000 104.23720551  -999.250000 0.1040000021  -999.250000  -999.250000 93.905601501  -999.250000  -999.250000 1.1045999527 1.1121000051
 736.90277100  -999.250000 13.300299644 9.8750000000 106.02198029  -999.250000 0.0608999990  -999.250000  -999.250000 91.493598938  -999.250000  -999.250000 1.0951999426 1.1039999723
 737.05517578  -999.250000 13.332200050 9.8750000000 107.52919769  -999.250000 0.0507999994  -999.250000  -999.250000 88.860801697  -999.250000  -999.250000 1.0880000591 1.0979000330
 737.20758057  -999.250000 13.305699348 9.8750000000 107.98753357  -999.250000 0.0390000008  -999.250000  -999.250000 87.051803589  -999.250000  -999.250000 1.0947999954 1.1022000313
 737.35998535  -999.250000 13.362799644 9.8750000000 110.15026093  -999.250000 0.0842000023  -999.250000  -999.250000 90.177200317  -999.250000  -999.250000 1.0959999561 1.1042000055
 737.51239014  -999.250000 13.372699738 9.8750000000 112.19586945  -999.250000 0.0913000032  -999.250000  -999.250000 95.442802429  -999.250000  -999.250000 1.0959999561 1.1071000099
 737.66479492  -999.250000 13.481399536 9.8750000000 114.74868011  -999.250000 0.1163000017  -999.250000  -999.250000 96.623298645  -999.250000  -999.250000 1.1015000343 1.1072000265
 737.81719971  -999.250000 13.331199646 9.8750000000 114.85499573  -999.250000 0.1037999988  -999.250000  -999.250000 95.323898315  -999.250000  -999.250000 1.0957000256 1.1024999619
 737.96960449  -999.250000 13.446399689 9.8750000000 115.71916199  -999.250000 0.0916000009  -999.250000  -999.250000 96.691200256  -999.250000  -999.250000 1.0996999741 1.1109999418
 738.12200928  -999.250000 13.409798622 9.8750000000 115.96884918  -999.250000 0.0970999971  -999.250000  -999.250000 99.315498352  -999.250000  -999.250000 1.1013000011 1.1082999706
 738.27441406  -999.250000 13.436498642 9.8750000000 65.550857544  -999.250000 0.1023000032  -999.250000  -999.250000 98.619102478  -999.250000  -999.250000 1.1004999876 1.1088999510
 738.42681885  -999.250000 13.663699150 9.8750000000 64.594818115  -999.250000 0.1094999984  -999.250000  -999.250000 94.848297119  -999.250000  -999.250000 1.1025999784 1.1124000549
 738.57922363  -999.250000 13.302201271 9.8750000000 63.962596893  -999.250000 0.1081999987  -999.250000  -999.250000 91.654998779  -999.250000  -999.250000 1.1131000519 1.1164000034
 738.73162842  -999.250000 13.187600136 9.8750000000 64.464569092  -999.250000 0.1116999984  -999.250000  -999.250000 91.722900391  -999.250000  -999.250000 1.1143000126 1.1203000546
 738.88403320  -999.250000 13.377999306 9.8750000000 64.471458435  -999.250000 0.1128999963  -999.250000  -999.250000 96.198600769  -999.250000  -999.250000 1.1071000099 1.1110999584
 739.03637695  -999.250000 13.234399796 9.8750000000 65.058395386  -999.250000 0.1099999994  -999.250000  -999.250000 100.04589844  -999.250000  -999.250000 1.0755000114 1.0838999748
 739.18878174  -999.250000 13.251799583 9.8750000000 65.130584717  -999.250000 0.1050999984  -999.250000  -999.250000 100.88249969  -999.250000  -999.250000 1.0536999702 1.0618000031
 739.34118652  -999.250000 13.224599838 9.8750000000 65.325790405  -999.250000 0.1033999994  -999.250000  -999.250000 105.15010071  -999.250000  -999.250000 1.0588999987 1.0658999681
 739.49359131  -999.250000 13.396901131 9.8750000000 65.498031616  -999.250000 0.1002999991  -999.250000  -999.250000 111.33149719  -999.250000  -999.250000 1.0687999725 1.0736999512
 739.64599609  -999.250000 13.526300430 9.8750000000 65.910102844  -999.250000 0.1042999998  -999.250000  -999.250000 113.92330170  -999.250000  -999.250000 1.0701999664 1.0721999407
 739.79840088  -999.250000 13.369700432 9.8750000000 116.28412628  -999.250000 0.1169999987  -999.250000  -999.250000 113.80439758  -999.250000  -999.250000 1.0960999727 1.0979000330
 739.95080566  -999.250000 13.588000298 9.8750000000 118.43406677  -999.250000 0.1308999956  -999.250000  -999.250000 112.41439819  -999.250000  -999.250000 1.1439000368 1.1426000595
 740.10321045  -999.250000 13.461799622 9.8750000000 120.13484192  -999.250000 0.1397999972  -999.250000  -999.250000 110.89980316  -999.250000  -999.250000 1.1663999557 1.1700999737
 740.25561523  -999.250000 13.381799698 9.8750000000 118.60006714  -999.250000 0.1225999966  -999.250000  -999.250000 111.11209869  -999.250000  -999.250000 1.1786999702 1.1834000349
 740.40802002  -999.250000 14.094599724 9.8750000000 117.62664032  -999.250000 0.1099999994  -999.250000  -999.250000 110.16089630  -999.250000  -999.250000 1.1894999743 1.1957000494
 740.56042480  -999.250000 13.332200050 9.8750000000 113.56037140  -999.250000 0.1110000014  -999.250000  -999.250000 108.06880188  -999.250000  -999.250000 1.2146999836 1.2193000317
 740.71282959  -999.250000 13.528599739 9.8750000000 111.05741882  -999.250000 0.1336999983  -999.250000  -999.250000 109.74759674  -999.250000  -999.250000 1.2354999781 1.2398999929
 740.86523438  -999.250000 13.363499641 9.8750000000 109.63681793  -999.250000 0.1177999973  -999.250000  -999.250000 110.71859741  -999.250000  -999.250000 1.2299000025 1.2344000340
 741.01763916  -999.250000 12.999200821 9.8750000000 108.25131226  -999.250000 0.0821999982  -999.250000  -999.250000 106.61940002  -999.250000  -999.250000 1.2127000093 1.2165000439
 741.16998291  -999.250000 12.816100121 9.8750000000 105.87139130  -999.250000 0.0697000027  -999.250000  -999.250000 102.93920135  -999.250000  -999.250000 1.2052999735 1.2087999582
 741.32238770  -999.250000 12.773699760 9.8750000000 102.45735168  -999.250000 0.0666999966  -999.250000  -999.250000 102.42680359  -999.250000  -999.250000 1.2165999413 1.2174999714
 741.47479248  -999.250000 12.722800255 9.8750000000 101.70865631 -0.207100004 0.1070000008  -999.250000  -999.250000 104.28949738  -999.250000  -999.250000 1.2357000113 1.2364000082
 741.62719727  -999.250000 12.636400223 9.8750000000 99.616470337 -0.061099999 0.1542000026  -999.250000  -999.250000 108.79070282  -999.250000  -999.250000 1.2384999990 1.2390999794
