# LAS format log file from PETREL
# Project units are specified as depth units
#==================================================================
~Version information
VERS.   2.0:
WRAP.   NO:
#==================================================================
~Well
STRT .m      703.83190918 :
STOP .m      2487.0642090 :
STEP .m     0.00000000 :
NULL .        -999.250000 :
COMP.           : COMPANY
WELL.  16/2-7 Johan Sverdrup Appr   : WELL
FLD.            : FIELD
LOC.            : LOCATION
SRVC.           : SERVICE COMPANY
DATE.  2018-09-11 14:48:07   : Log Export Date {yyyy-MM-dd HH:mm:ss}
PROV.           : PROVINCE
UWI.   16/2-7   : UNIQUE WELL ID
API.            : API NUMBER
#==================================================================
~Curve
DEPT .m                   : DEPTH
Lithology_geolink ._      : Lithology_geolink
CALI .in                  : CALI
BS .in                    : BS
ROP .m/h                  : ROP
DRHO .g/cm3               : DRHO
THOR .ppm                 : THOR
NPHI .m3/m3               : NPHI
RHOB .g/cm3               : RHOB
PEF .b/e                  : PEF
GR .gAPI                  : GR
URAN .ppm                 : URAN
DTC .us/ft                : DTC
DTS .us/ft                : DTS
RDEP .ohm.m               : RDEP
RMIC .ohm.m               : RMIC
RMED .ohm.m               : RMED
~Parameter
#==================================================================
~Ascii
# ...
 709.47076416  -999.250000 13.441800117 9.8750000000 156.11483765 0.0829999968  -999.250000 0.4596000016  -999.250000  -999.250000 115.25129700  -999.250000 154.74218750  -999.250000  -999.250000  -999.250000  -999.250000
 709.62316895  -999.250000 13.411099434 9.8750000000 148.80085754 0.0772999972  -999.250000 0.4762000144  -999.250000  -999.250000 114.88749695  -999.250000 153.00019836  -999.250000  -999.250000  -999.250000  -999.250000
 709.77557373  -999.250000 13.370899200 9.8750000000 147.73950195 0.0671999976  -999.250000 0.4963000119  -999.250000  -999.250000 110.48419952  -999.250000 152.05979919  -999.250000  -999.250000  -999.250000  -999.250000
 709.92791748  -999.250000 13.176899910 9.8750000000 25.702426910 0.0542000011  -999.250000 0.4758000076  -999.250000  -999.250000 111.67949677  -999.250000 153.84759521  -999.250000  -999.250000  -999.250000  -999.250000
 710.08032227  -999.250000 12.927201271 9.8750000000 25.952754974 0.0421999991  -999.250000 0.4717999995 2.1357998848 5.5485000610 105.37999725  -999.250000 156.75018311  -999.250000 1.3715000153  -999.250000 1.3904000521
 710.23272705  -999.250000 12.895199776 12.250000954 31.150917053 0.0346000008  -999.250000 0.4587999880 2.1328001022 4.7930998802 97.183700562  -999.250000 154.99859619  -999.250000 1.4160000086  -999.250000 1.4522000551
 710.38513184  -999.250000 12.894200325 12.250000954 35.785106659 0.0282000005  -999.250000 0.4474999905 2.1349999905 4.6168999672 110.85310364  -999.250000 152.94540405  -999.250000 1.4069000483  -999.250000 1.4305000305
 710.53753662  -999.250000 12.840500832 12.250000954 35.965553284 0.0274000000  -999.250000 0.4704000056 2.1314001083 4.4542999268 114.30470276  -999.250000 151.60838318  -999.250000 1.3513000011  -999.250000 1.3221999407
 710.68994141  -999.250000 12.838398933 12.250000954 35.636486053 0.0197000001  -999.250000 0.4736999869 2.1196000576 3.8796999454 111.07510376  -999.250000 153.67260742  -999.250000 1.4054000378  -999.250000 1.3595999479
 710.84234619  -999.250000 12.798398972 12.250000954 35.864830017 0.0313000008  -999.250000 0.4575999975 2.1275000572 4.2929000854 109.61260223  -999.250000 159.53591919  -999.250000 1.3825000525  -999.250000 1.3398000002
 710.99475098  -999.250000 12.755600929 12.250000954 39.994422913 0.0262000002  -999.250000 0.4733999968 2.1219999790 4.2301001549 103.79049683  -999.250000 160.99877930  -999.250000 1.3798999786  -999.250000 1.3517999649
 711.14715576  -999.250000 12.886700630 12.250000954 47.454067230 0.0297999997  -999.250000 0.4837999940 2.1168999672 4.3252000809 111.83889771  -999.250000 159.59352112  -999.250000 1.3687000275  -999.250000 1.3381999731
 711.29956055  -999.250000 12.858098984 12.250000954 58.658790588 0.0342000015  -999.250000 0.4733000100 2.1143000126 4.5738000870 104.58959961  -999.250000 158.76109314  -999.250000 1.3794000149  -999.250000 1.3557000160
 711.45196533  -999.250000 12.755300522 12.250000954 71.390419006 0.0229000002  -999.250000 0.4474999905 2.1089999676 4.2273001671 114.25569916  -999.250000 157.95150757  -999.250000 1.4032000303  -999.250000 1.3961999416
 711.60437012  -999.250000 12.740099907 12.250000954 76.818244934 0.0162000004  -999.250000 0.4440999925 2.1077001095 3.7011001110 110.60829926  -999.250000 158.68670654  -999.250000 1.3867000341  -999.250000 1.3574999571
 711.75677490  -999.250000 12.782500267 12.250000954 78.252952576 0.0131000001  -999.250000 0.4390000105 2.1045999527 3.6542000771 109.25150299  -999.250000 159.59429932  -999.250000 1.4149999619  -999.250000 1.3789999485
 711.90917969  -999.250000 12.762100220 12.250000954 75.432739258 0.0121999998  -999.250000 0.4776000082 2.1064000130 3.4196999073 106.24759674  -999.250000 161.20300293  -999.250000 1.4326000214  -999.250000 1.3975000381
 712.06152344  -999.250000 12.659399986 12.250000954 69.823493958 0.0219000001  -999.250000 0.4955999851 2.1047999859 3.8459999561 98.023498535  -999.250000 163.34959412  -999.250000 1.3480000496  -999.250000 1.3012000322
 712.21392822  -999.250000 12.780502319 12.250000954 65.008857727 0.0199999996  -999.250000 0.4474000037 2.1010000706 3.9765999317 98.377998352  -999.250000 165.31219482  -999.250000 1.3596999645  -999.250000 1.3193000555
 712.36633301  -999.250000 12.817500114 12.250000954 60.030834198 0.0219999999  -999.250000 0.4575000107 2.0992000103 4.2083001137 109.27570343  -999.250000 166.43049622  -999.250000 1.3526999950  -999.250000 1.3179999590
 712.51873779  -999.250000 12.818000793 12.250000954 54.397964478 0.0247000009  -999.250000 0.4736000001 2.0950999260 4.4215002060 112.87680054  -999.250000 165.36338806  -999.250000 1.3595999479  -999.250000 1.3214000463
 712.67114258  -999.250000 12.805898666 12.250000954 52.085300446 0.0236000009  -999.250000 0.4747000039 2.0917999744 4.2097001076 112.30449677  -999.250000 165.09121704  -999.250000 1.3724000454  -999.250000 1.3437000513
 712.82354736  -999.250000 12.814998627 12.250000954 51.421916962 0.0230000000  -999.250000 0.4424999952 2.0969998837 3.7922999859 115.99559784  -999.250000 164.70060730  -999.250000 1.3671000004  -999.250000 1.3451999426
 712.97595215  -999.250000 12.864800453 12.250000954 49.707347870 0.0193000007  -999.250000 0.4560999870 2.0912001133 3.7328000069 117.63739777  -999.250000 164.88119507  -999.250000 1.3095999956  -999.250000 1.2734999657
 713.12835693  -999.250000 12.935500145 12.250000954 45.089569092 0.0228000004  -999.250000 0.4420999885 2.0931999683 3.8991999626 107.59709930  -999.250000 164.74150085  -999.250000 1.2810000181  -999.250000 1.2375999689
 713.28076172  -999.250000 12.898200035 12.250000954 40.170276642 0.0285999998  -999.250000 0.4699000120 2.1001000404 4.3389000893 105.54759979  -999.250000 163.83850098  -999.250000 1.2980999947  -999.250000 1.2408000231
 713.43316650  -999.250000 12.866399765 12.250000954 41.072177887 0.0351999998  -999.250000 0.4814999998 2.1031999588 4.8372998238 113.78929901  -999.250000 162.97810364  -999.250000 1.3393000364  -999.250000 1.2802000046
 713.58557129  -999.250000 12.895700455 12.250000954 49.854988098 0.0340999998  -999.250000 0.4445999861 2.1024000645 4.8260002136 102.45449829  -999.250000 162.63461304  -999.250000 1.3617999554  -999.250000 1.3102999926
 713.73797607  -999.250000 12.846699715 12.250000954 55.332019806 0.0275999997  -999.250000 0.4259000123 2.0978999138 4.7930002213 106.52799988  -999.250000 163.50149536  -999.250000 1.3992999792  -999.250000 1.3504999876
 713.89038086  -999.250000 12.756900787 12.250000954 52.365158081 0.0263000000  -999.250000 0.4702999890 2.1013000011 4.6231999397 98.385200500  -999.250000 163.32339478  -999.250000 1.3876999617  -999.250000 1.3465000391
 714.04278564  -999.250000 12.790900230 12.250000954 49.365158081 0.0322999991  -999.250000 0.4876999855 2.1115000248 4.4038000107 96.954399109  -999.250000 162.23809814  -999.250000 1.3904000521  -999.250000 1.3551000357
 714.19512939  -999.250000 12.936201096 12.250000954 47.636154175 0.0326999985  -999.250000 0.4499999881 2.1092000008 4.1364002228 99.059898376  -999.250000 164.06069946  -999.250000 1.4097000360  -999.250000 1.3947000504
 714.34753418  -999.250000 12.933600426 12.250000954 45.878608704 0.0272999983  -999.250000 0.4517999887 2.0994000435 4.1034998894 90.555397034  -999.250000 165.18479919  -999.250000 1.4232000113  -999.250000 1.3942999840
 714.49993896  -999.250000 12.860899925 12.250000954 45.742126465 0.0346999988  -999.250000 0.4359000027 2.1034998894 4.2802000046 97.754501343  -999.250000 166.21968079  -999.250000 1.4104000330  -999.250000 1.3956999779
 714.65234375  -999.250000 12.786298752 12.250000954 45.371063232 0.0311999992  -999.250000 0.4320999980 2.1019001007 4.1114997864 99.196701050  -999.250000 166.79820251  -999.250000 1.4223999977  -999.250000 1.4356000423
 714.80474854  -999.250000 12.903700829 12.250000954 39.178806305 0.0261000004  -999.250000 0.4221000075 2.0915999413 4.0604000092 106.74420166  -999.250000 166.46118164  -999.250000 1.3473999500  -999.250000 1.2869000435
 714.95715332  -999.250000 12.920499802 12.250000954 21.018699646 0.0225000009  -999.250000 0.4438999891 2.0801000595 4.6785998344 105.39369965  -999.250000 164.70269775  -999.250000 1.3011000156  -999.250000 1.2354999781
