# LAS format log file from PETREL
# Project units are specified as depth units
#==================================================================
~Version information
VERS.   2.0:
WRAP.   NO:
#==================================================================
~Well
STRT .m      735.07409668 :
STOP .m      2124.0476074 :
STEP .m     0.00000000 :
NULL .        -999.250000 :
COMP.           : COMPANY
WELL.  16/2-6   : WELL
FLD.            : FIELD
LOC.            : LOCATION
SRVC.           : SERVICE COMPANY
DATE.  2018-09-11 14:48:07   : Log Export Date {yyyy-MM-dd HH:mm:ss}
PROV.           : PROVINCE
UWI.   16/2-6   : UNIQUE WELL ID
API.            : API NUMBER
#==================================================================
~Curve
DEPT .m                   : DEPTH
Lithology_geolink ._      : Lithology_geolink
CALI .in                  : CALI
BS .in                    : BS
ROP .m/h                  : ROP
DRHO .g/cm3               : DRHO
NPHI .m3/m3               : NPHI
RHOB .g/cm3               : RHOB
PEF .b/e                  : PEF
GR .gAPI                  : GR
DTC .us/ft                : DTC
DTS .us/ft                : DTS
RDEP .ohm.m               : RDEP
RMED .ohm.m               : RMED
~Parameter
#==================================================================
~Ascii
# ...
 1841.4979248 13.000000000 8.4729995728 8.5000000000 20.645998001 0.0944999978 0.2533000112 2.3977999687 5.6743001938 51.973300934 111.02320099  -999.250000 1.6952999830 1.8628480434
 1841.6503906 13.000000000 8.5281000137 8.5000000000 21.078739166 0.0847999975 0.2338999957 2.4116001129 5.5659999847 50.396999359 108.43920135  -999.250000 1.6994999647 1.8590031862
 1841.8027344 13.000000000 8.5206003189 8.5000000000 21.726049423 0.0842000023 0.2680999935 2.4212999344 5.6459999084 49.892299652 107.36879730  -999.250000 1.6211999655 1.7894115448
 1841.9552002 13.000000000 8.4568004608 8.5000000000 22.849081039 0.0711999983 0.2876000106 2.4100000858 5.6058001518 48.981098175 108.70659637  -999.250000 1.5724999905 1.7518299818
 1842.1075439 13.000000000 8.4036998749 8.5000000000 23.612205505 0.0718000010 0.2551000118 2.4091000557 5.6771998405 51.642501831 110.41429138  -999.250000 1.4457000494 1.6810134649
 1842.2600098 13.000000000 8.4425001144 8.5000000000 26.432743073 0.0702999979 0.2790000141 2.4077999592 5.6058998108 52.175899506 112.51609802  -999.250000 1.4198000431 1.6358361244
 1842.4123535 13.000000000 8.4558000565 8.5000000000 27.693899155 0.0794999972 0.2707999945 2.4135000706 5.6662001610 52.372200012 113.13990021  -999.250000 1.4471999407 1.6581820250
 1842.5648193 13.000000000 8.4821996689 8.5000000000 28.969486237 0.0865999982 0.2797999978 2.4075000286 5.6743001938 50.327201843 113.46150208  -999.250000 1.4458999634 1.6408139467
 1842.7171631 13.000000000 8.5094995499 8.5000000000 29.093502045 0.0874999985 0.2915000021 2.4010999203 5.6482000351 49.765300751 113.30200195  -999.250000 1.4155000448 1.5754524469
 1842.8696289 13.000000000 8.4682998657 8.5000000000 30.589567184 0.0865999982 0.2700000107 2.4003999233 5.6872000694 50.790599823 111.86679840  -999.250000 1.5491000414 1.7325741053
 1843.0219727 13.000000000 8.4944000244 8.5000000000 32.337924957 0.0794999972 0.2463999987 2.4017000198 5.7395000458 49.243301392 110.28119659  -999.250000 1.9248000383 2.1052012444
 1843.1744385 13.000000000 8.5054998398 8.5000000000 32.645996094 0.0741000026 0.2757999897 2.4075999260 5.7171001434 47.798400879 109.18720245  -999.250000 1.6998000145 1.8571989536
 1843.3267822 13.000000000 8.4287996292 8.5000000000 34.316600800 0.0666999966 0.2597999871 2.4021000862 5.5553998947 46.423198700 109.23539734  -999.250000 1.4322999716 1.5735273361
 1843.4791260 13.000000000 8.5065002441 8.5000000000 34.063976288 0.0627000034 0.2614000142 2.3961999416 5.4054999352 46.982398987 110.91870117  -999.250000 1.3529000282 1.5913710594
 1843.6315918 13.000000000 8.4952001572 8.5000000000 35.181102753 0.0691000000 0.2718000114 2.3910000324 5.4306998253 48.682300568 113.10710144  -999.250000 1.3832999468 1.5496335030
 1843.7839355 13.000000000 8.4975004196 8.5000000000 35.260169983 0.0803999975 0.2784999907 2.3866999149 5.5475997925 50.551799774 114.59890747  -999.250000 1.3294999599 1.4554510117
 1843.9364014 13.000000000 8.4879999161 8.5000000000 35.140090942 0.0825000033 0.3113000095 2.3791000843 5.5171999931 53.163299561 114.72609711  -999.250000 1.4513000250 1.5822981596
 1844.0887451 13.000000000 8.5270004272 8.5000000000 36.384185791 0.0803999975 0.3310999870 2.3770000935 5.4927000999 54.376899719 114.24690247  -999.250000 1.5097999573 1.5770087242
 1844.2412109 13.000000000 8.4679002762 8.5000000000 36.359580994 0.0744000003 0.2937999964 2.3847000599 5.5006999969 53.912601471 112.30530548  -999.250000 1.5929000378 1.6594338417
 1844.3935547 13.000000000 8.4432001114 8.5000000000 36.291339874 0.0798999965 0.2673000097 2.4035000801 5.6778001785 53.895900726 110.19670105  -999.250000 1.9823000431 2.0007262230
 1844.5460205 13.000000000 8.4562997818 8.5000000000 37.609909058 0.0754000023 0.2666000128 2.4008998871 5.9001002312 54.224700928 109.73220062  -999.250000 1.5018999577 1.6072155237
 1844.6983643 13.000000000 8.3937997818 8.5000000000 40.798885345 0.0806000009 0.2556999922 2.4003999233 5.9010000229 54.901699066 111.09939575  -999.250000 1.3334000111 1.4409329891
 1844.8508301 13.000000000 8.4105997086 8.5000000000 42.339897156 0.0807000026 0.3072000146 2.3817000389 5.8477001190 55.366901398 114.56539917  -999.250000 1.3141000271 1.4455962181
 1845.0031738 13.000000000 8.4404001236 8.5000000000 42.497703552 0.0914999992 0.2881000042 2.3808000088 5.6518998146 58.224800110 115.68289185  -999.250000 1.2583999634 1.3734577894
 1845.1556396 13.000000000 8.4209995270 8.5000000000 42.952754974 0.0895000026 0.2908999920 2.3664999008 5.6373000145 61.860599518 116.48799896  -999.250000 1.2414000034 1.3184440136
 1845.3079834 13.000000000 8.4652996063 8.5000000000 45.043308258 0.0829000026 0.2752999961 2.3619999886 5.4808001518 62.585700989 116.57649994  -999.250000 1.3272000551 1.4143230915
 1845.4603271 13.000000000 8.4860000610 8.5000000000 44.992126465 0.0803999975 0.3172000051 2.3654000759 5.5254998207 58.812099457 116.09149170  -999.250000 1.4586999416 1.5465880632
 1845.6127930 13.000000000 8.4112997055 8.5000000000 44.999671936 0.0834999979 0.3037999868 2.3829998970 5.5597000122 54.491100311 113.87579346  -999.250000 1.6332999468 1.6422234774
 1845.7651367 13.000000000 8.4976997375 8.5000000000 46.694225311 0.0905999988 0.2633000016 2.4010000229 5.8942999840 50.204601288 111.15499878  -999.250000 1.9427000284 1.9656813145
 1845.9176025 13.000000000 8.4377002716 8.5000000000 47.701114655 0.0898000002 0.2770000100 2.3973000050 5.9095001221 49.656501770 110.72399902  -999.250000 1.5601999760 1.6202774048
 1846.0699463 13.000000000 8.4870004654 8.5000000000 47.424213409 0.0913000032 0.2806999981 2.3891000748 5.8607001305 50.410499573 111.26450348  -999.250000 1.3962999582 1.4968974590
 1846.2224121 13.000000000 8.4224996567 8.5000000000 46.989173889 0.0833000019 0.2919000089 2.3622000217 5.5111999512 53.856800079 112.17249298  -999.250000 1.2635999918 1.3623077869
 1846.3747559 13.000000000 8.4732999802 8.5000000000 49.195213318 0.0807999969 0.3244000077 2.3559000492 5.3468999863 55.918998718 115.36598969  -999.250000 1.2500000000 1.3227317333
 1846.5272217 13.000000000 8.4821996689 8.5000000000 52.898948669 0.0746000037 0.3176999986 2.3443999290 5.2979001999 58.953098297 116.70600891  -999.250000 1.1680999994 1.2166849375
 1846.6795654 13.000000000 8.4923000336 8.5000000000 54.100391388 0.0835999995 0.3212000132 2.3536000252 5.4306001663 61.345901489 116.91339874  -999.250000 1.2653000355 1.3469954729
 1846.8320313 13.000000000 8.5071001053 8.5000000000 54.694881439 0.0873000026 0.3257000148 2.3566000462 5.5612998009 60.579399109 116.01899719  -999.250000 1.4543999434 1.5290541649
 1846.9843750 13.000000000 8.4931001663 8.5000000000 57.018699646 0.0830999985 0.3127000034 2.3517999649 5.4850001335 57.617000580 115.27749634  -999.250000 1.5190000534 1.6680886745
 1847.1368408 13.000000000 8.5096998215 8.5000000000 60.841541290 0.0812000036 0.3055999875 2.3606998920 5.3755998611 53.788799286 114.91049957  -999.250000 1.3796999454 1.5561897755
 1847.2891846 13.000000000 8.4709997177 8.5000000000 62.704067230 0.0816000029 0.3037000000 2.3657999039 5.2768998146 52.835399628 114.26689148  -999.250000 1.3797999620 1.5499050617
 1847.4416504 13.000000000 8.4419002533 8.5000000000 68.587928772 0.0882000029 0.3086000085 2.3740000725 5.3435001373 52.244400024 115.28420258  -999.250000 1.3609999418 1.5216226578
 1847.5939941 13.000000000 8.4083003998 8.5000000000 71.964897156 0.0812999979 0.3174999952 2.3608999252 5.3741998672 53.539398193 114.86350250  -999.250000 1.3286000490 1.4117881060
 1847.7463379 13.000000000 8.4308004379 8.5000000000 74.034118652 0.0788000003 0.3197999895 2.3585999012 5.3274002075 54.882099152 115.48870087  -999.250000 1.3026000261 1.4080059528
 1847.8988037 13.000000000 8.4751996994 8.5000000000 73.550201416 0.0825000033 0.3287000060 2.3598001003 5.3288998604 57.960700989 115.75330353  -999.250000 1.2881000042 1.4512653351
 1848.0511475 13.000000000 8.5012998581 8.5000000000 74.579719543 0.0877000019 0.3093999922 2.3552000523 5.3740000725 59.583499908 116.87010193  -999.250000 1.2013000250 1.3170154095
