# LAS format log file from PETREL
# Project units are specified as depth units
#==================================================================
~Version information
VERS.   2.0:
WRAP.   NO:
#==================================================================
~Well
STRT .m      703.83190918 :
STOP .m      2487.0642090 :
STEP .m     0.00000000 :
NULL .        -999.250000 :
COMP.           : COMPANY
WELL.  16/2-7 Johan Sverdrup Appr   : WELL
FLD.            : FIELD
LOC.            : LOCATION
SRVC.           : SERVICE COMPANY
DATE.  2018-09-11 14:48:07   : Log Export Date {yyyy-MM-dd HH:mm:ss}
PROV.           : PROVINCE
UWI.   16/2-7   : UNIQUE WELL ID
API.            : API NUMBER
#==================================================================
~Curve
DEPT .m                   : DEPTH
Lithology_geolink ._      : Lithology_geolink
CALI .in                  : CALI
BS .in                    : BS
ROP .m/h                  : ROP
DRHO .g/cm3               : DRHO
THOR .ppm                 : THOR
NPHI .m3/m3               : NPHI
RHOB .g/cm3               : RHOB
PEF .b/e                  : PEF
GR .gAPI                  : GR
URAN .ppm                 : URAN
DTC .us/ft                : DTC
DTS .us/ft                : DTS
RDEP .ohm.m               : RDEP
RMIC .ohm.m               : RMIC
RMED .ohm.m               : RMED
~Parameter
#==================================================================
~Ascii
# ...
 827.88555908  -999.250000 13.175200462 12.250000954 42.544620514 0.0566999987  -999.250000 0.3391999900 2.1693747044 5.4788379669 56.213600159  -999.250000 158.74940491  -999.250000 1.2941999435  -999.250000 1.3698999882
 828.03796387  -999.250000 13.119999886 12.250000954 53.375000000 0.0335000008  -999.250000 0.3499000072 2.1059875488 5.3246445656 59.183998108  -999.250000 159.17579651  -999.250000 1.0662000179  -999.250000 1.1067999601
 828.19036865  -999.250000 13.090299606 12.250000954 70.928153992 0.0209999997  -999.250000 0.3458000124 2.0749981403 5.1863479614 60.386299133  -999.250000 157.47479248  -999.250000 0.9136000276  -999.250000 0.9157000184
 828.34277344  -999.250000 13.078399658 12.250000954 73.971786499 0.0154999997  -999.250000 0.3271000087 2.0703001022 4.8073029518 55.841201782  -999.250000 160.92799377  -999.250000 0.8842999935  -999.250000 0.8826000094
 828.49517822  -999.250000 13.069700241 12.250000954 69.326118469 0.0131000001  -999.250000 0.3359999955 2.0701010227 5.0642457008 51.421001434  -999.250000 159.51040649  -999.250000 0.8781999946  -999.250000 0.8761000037
 828.64758301  -999.250000 13.078599930 12.250000954 68.793960571 0.0126000000  -999.250000 0.3522999883 2.0727035999 5.1782164574 54.109500885  -999.250000 160.99839783  -999.250000 0.8759999871  -999.250000 0.8644999862
 828.79998779  -999.250000 13.086600304 12.250000954 72.789367676 0.0193000007  -999.250000 0.3750000000 2.0773029327 5.3233962059 53.846599579  -999.250000 163.25459290  -999.250000 0.8808000088  -999.250000 0.8436999917
 828.95233154  -999.250000 13.060099602 12.250000954 69.385498047 0.0205000006  -999.250000 0.3370999992 2.0808012486 5.3183999062 57.985801697  -999.250000 162.14219666  -999.250000 0.8730999827  -999.250000 0.8366000056
 829.10473633  -999.250000 13.061600685 12.250000954 54.088253021 0.0165999997  -999.250000 0.3283999860 2.0835990906 5.0683422089 57.033599854  -999.250000 157.40829468  -999.250000 0.8460999727  -999.250000 0.8241999745
 829.25714111  -999.250000 13.066900253 12.250000954 28.994421005 0.0163000003  -999.250000 0.3386000097 2.0810995102 5.1744184494 56.384101868  -999.250000 156.44781494  -999.250000 0.8327000141  -999.250000 0.8162000179
 829.40954590  -999.250000 13.069899559 12.250000954 22.710302353 0.0143999998  -999.250000 0.3513999879 2.0800981522 5.4696936607 57.899700165  -999.250000 157.07949829  -999.250000 0.8414999843  -999.250000 0.8270000219
 829.56195068  -999.250000 13.069800377 12.250000954 33.381233215 0.0085000005  -999.250000 0.3495000005 2.0754005909 5.4540948868 55.056701660  -999.250000 150.40299988  -999.250000 0.8539999723  -999.250000 0.8445000052
 829.71435547  -999.250000 13.074399948 12.250000954 42.952754974 0.0116999997  -999.250000 0.3370000124 2.0767996311 5.4407043457 50.312500000  -999.250000 147.68589783  -999.250000 0.8619999886  -999.250000 0.8603000045
 829.86676025  -999.250000 13.083499908 12.250000954 55.497707367 0.0174000002  -999.250000 0.3486000001 2.0758011341 5.4509406090 54.883800507  -999.250000 150.35679626  -999.250000 0.8366000056  -999.250000 0.8364999890
 830.01916504  -999.250000 13.096200943 12.250000954 69.051506042 0.0174000002  -999.250000 0.3754999936 2.0786991119 5.5518393517 51.906799316  -999.250000 156.51171875  -999.250000 0.8113999963  -999.250000 0.8004999757
 830.17156982  -999.250000 13.118599892 12.250000954 72.271652222 0.0160000008  -999.250000 0.3788999915 2.0763895512 5.4005227089 54.607101440  -999.250000 154.98019409  -999.250000 0.8285999894  -999.250000 0.8163999915
 830.32397461  -999.250000 13.158800125 12.250000954 76.219490051 0.0142000001  -999.250000 0.3537000120 2.0503919125 5.7068653107 55.160800934  -999.250000 155.04469299  -999.250000 0.8478999734  -999.250000 0.8323000073
 830.47637939  -999.250000 13.177000999 12.250000954 76.639106750 0.0102000004  -999.250000 0.3747000098 2.0300889015 5.6191730499 56.292198181  -999.250000 155.00219727  -999.250000 0.8924000263  -999.250000 0.8847000003
 830.62878418  -999.250000 13.225999832 12.250000954 71.802497864 0.0002000000  -999.250000 0.3828000128 2.0018999577 5.0528373718 61.076099396  -999.250000 147.18490601  -999.250000 0.9021000266  -999.250000 0.9011999965
 830.78118896  -999.250000 13.238699913 12.250000954 70.074478149 0.0054000001  -999.250000 0.4000999928 2.0018053055 5.5991101265 60.582298279  -999.250000 142.18469238  -999.250000 0.8981000185  -999.250000 0.8899999857
 830.93359375  -999.250000 13.243700027 12.250000954 63.827426910 0.0172000006  -999.250000 0.4054000080 2.0081927776 6.2358593941 57.198799133  -999.250000 139.72050476  -999.250000 0.9178000093  -999.250000 0.9132000208
 831.08593750  -999.250000 13.209300995 12.250000954 58.213912964 0.0115000000  -999.250000 0.4054000080 1.9993947744 6.1847615242 60.350799561  -999.250000 137.64100647  -999.250000 0.8924000263  -999.250000 0.8925999999
 831.23834229  -999.250000 13.173600197 12.250000954 60.448490143 0.0044000000  -999.250000 0.3984999955 1.9863986969 5.5899248123 56.856201172  -999.250000 136.99549866  -999.250000 0.8766999841  -999.250000 0.8725000024
 831.39074707  -999.250000 13.172599792 12.250000954 66.363517761 0.0023000001  -999.250000 0.4160000086 1.9831020832 5.4012360573 55.346599579  -999.250000 137.02160645  -999.250000 0.8684999943  -999.250000 0.8623999953
 831.54315186  -999.250000 13.184299469 12.250000954 67.753280640 0.0022000000  -999.250000 0.4266000092 1.9882004261 5.2412395477 53.699199677  -999.250000 137.73429871  -999.250000 0.8651999831  -999.250000 0.8585000038
 831.69555664  -999.250000 13.143100739 12.250000954 68.948822021 0.0020999999  -999.250000 0.3914000094 1.9895019531 5.0903692245 60.513401031  -999.250000 139.03619385  -999.250000 0.8571000099  -999.250000 0.8489000201
 831.84796143  -999.250000 13.144000053 12.250000954 69.125656128 0.0046999999  -999.250000 0.3919000030 1.9943073988 5.0127100945 52.986198425  -999.250000 140.40229797  -999.250000 0.8385000229  -999.250000 0.8302000165
 832.00036621  -999.250000 13.116399765 12.250000954 65.550857544 0.0125000002  -999.250000 0.4140999913 2.0128982067 5.0375952721 51.866001129  -999.250000 140.59120178  -999.250000 0.8217999935  -999.250000 0.8108999729
 832.15277100  -999.250000 13.127401352 12.250000954 64.200126648 0.0096000005  -999.250000 0.4119000137 2.0083048344 5.0253076553 57.201198578  -999.250000 141.77490234  -999.250000 0.8147000074  -999.250000 0.8033999801
 832.30517578  -999.250000 13.141599655 12.250000954 61.366138458 0.0083999997  -999.250000 0.3705999851 2.0201036930 5.2949800491 61.046199799  -999.250000 142.88749695  -999.250000 0.8119999766  -999.250000 0.7978000045
 832.45758057  -999.250000 13.166000366 12.250000954 56.495079041 0.0153999999  -999.250000 0.3662000000 2.0291008949 5.7453279495 60.412998199  -999.250000 144.05479431  -999.250000 0.8127999902  -999.250000 0.8001999855
 832.60998535  -999.250000 13.160200119 12.250000954 52.612533569 0.0138999997  -999.250000 0.3659999967 2.0316038132 5.5660362244 54.604400635  -999.250000 145.44880676  -999.250000 0.8087999821  -999.250000 0.8012999892
 832.76239014  -999.250000 13.149200439 12.250000954 52.142387390 0.0177999996  -999.250000 0.3634000123 2.0411069393 5.4066476822 57.708801270  -999.250000 146.07009888  -999.250000 0.8043000102  -999.250000 0.7950000167
 832.91479492  -999.250000 13.220699310 12.250000954 55.684055328 0.0248000007  -999.250000 0.3736000061 2.0498018265 5.8400893211 57.403701782  -999.250000 147.04040527  -999.250000 0.7990999818  -999.250000 0.7876999974
 833.06719971  -999.250000 13.330400467 12.250000954 60.863849640 0.0251000002  -999.250000 0.3625000119 2.0523035526 5.8267960548 49.067901611  -999.250000 147.41020203  -999.250000 0.8026000261  -999.250000 0.7906000018
 833.21954346  -999.250000 13.447999954 12.250000954 61.356952667 0.0247000009  -999.250000 0.3702000082 2.0566954613 5.8218250275 51.414901733  -999.250000 148.04220581  -999.250000 0.8057990074  -999.250000 0.7949979901
 833.37194824  -999.250000 13.577800751 12.250000954 58.223426819 0.0192000009  -999.250000 0.3849999905 2.0453014374 5.8839468956 54.401298523  -999.250000 148.28990173  -999.250000 0.8032001853  -999.250000 0.7899009585
