# LAS format log file from PETREL
# Project units are specified as depth units
#==================================================================
~Version information
VERS.   2.0:
WRAP.   NO:
#==================================================================
~Well
STRT .m      703.83190918 :
STOP .m      2487.0642090 :
STEP .m     0.00000000 :
NULL .        -999.250000 :
COMP.           : COMPANY
WELL.  16/2-7 Johan Sverdrup Appr   : WELL
FLD.            : FIELD
LOC.            : LOCATION
SRVC.           : SERVICE COMPANY
DATE.  2018-09-11 14:48:07   : Log Export Date {yyyy-MM-dd HH:mm:ss}
PROV.           : PROVINCE
UWI.   16/2-7   : UNIQUE WELL ID
API.            : API NUMBER
#==================================================================
~Curve
DEPT .m                   : DEPTH
Lithology_geolink ._      : Lithology_geolink
CALI .in                  : CALI
BS .in                    : BS
ROP .m/h                  : ROP
DRHO .g/cm3               : DRHO
THOR .ppm                 : THOR
NPHI .m3/m3               : NPHI
RHOB .g/cm3               : RHOB
PEF .b/e                  : PEF
GR .gAPI                  : GR
URAN .ppm                 : URAN
DTC .us/ft                : DTC
DTS .us/ft                : DTS
RDEP .ohm.m               : RDEP
RMIC .ohm.m               : RMIC
RMED .ohm.m               : RMED
~Parameter
#==================================================================
~Ascii
# ...
 1183.1298828  -999.250000 14.905000687 12.250000954 43.377952576 0.0697014481  -999.250000 0.5759000182 1.8837001324 9.7693004608 88.590103149  -999.250000 152.67779541  -999.250000 0.9207000136  -999.250000 0.8719000220
 1183.2823486  -999.250000 14.753499985 12.250000954 47.219818115 0.0676999986  -999.250000 0.6635000110 1.8762947321 9.7487001419 94.041900635  -999.250000 152.93719482  -999.250000 0.8662999868  -999.250000 0.8087999821
 1183.4346924  -999.250000 14.713900566 12.250000954 55.729328156 0.0706000030  -999.250000 0.6187999845 1.8697999716 10.032999992 83.822097778  -999.250000 152.41848755  -999.250000 0.8396000266  -999.250000 0.7802000046
 1183.5871582  -999.250000 14.715498924 12.250000954 65.573165894 0.0631000027  -999.250000 0.5044000149 1.8404847383 11.255700111 93.064300537  -999.250000 152.37380981  -999.250000 0.9006999731  -999.250000 0.8479999900
 1183.7395020  -999.250000 14.756799698 12.250000954 63.460300446 0.0573999994  -999.250000 0.5206999779 1.8214000463 12.166600227 90.018898010  -999.250000 152.49859619  -999.250000 0.9296000004  -999.250000 0.8715000153
 1183.8919678  -999.250000 14.730500221 12.250000954 56.692264557 0.0590999983  -999.250000 0.5744000077 1.8236136436 12.438099861 89.799896240  -999.250000 152.65748596  -999.250000 0.8665000200  -999.250000 0.7964000106
 1184.0443115  -999.250000 14.495400429 12.250000954 53.568901062 0.0694999993  -999.250000 0.6007000208 1.8404999971 12.227399826 88.468902588  -999.250000 153.15829468  -999.250000 0.8435999751  -999.250000 0.7623999715
 1184.1967773  -999.250000 14.017200470 12.250000954 55.446849823 0.0727000013  -999.250000 0.5964999795 1.8541030884 12.027500153 83.904800415  -999.250000 153.53680420  -999.250000 0.8579999804  -999.250000 0.7936000228
 1184.3491211  -999.250000 13.917799950 12.250000954 60.368438721 0.0701000020  -999.250000 0.5167000294 1.8579082489 11.578300476 80.018898010  -999.250000 153.53109741  -999.250000 0.8607000113  -999.250000 0.7964000106
 1184.5015869  -999.250000 14.224801064 12.250000954 61.854656219 0.0747999996  -999.250000 0.5606999993 1.8681019545 11.966199875 74.101501465  -999.250000 153.13870239  -999.250000 0.8698999882  -999.250000 0.8033999801
 1184.6539307  -999.250000 14.290599823 12.250000954 62.854656219 0.0785999969  -999.250000 0.5778999925 1.8705263138 11.746399879 79.172096252  -999.250000 153.02220154  -999.250000 0.8859999776  -999.250000 0.8489999771
 1184.8062744  -999.250000 14.128600121 12.250000954 64.083335876 0.0766000003  -999.250000 0.5320000052 1.9033999443 11.327699661 88.041801453  -999.250000 153.07000732  -999.250000 0.7907999754  -999.250000 0.7391999960
 1184.9587402  -999.250000 13.908100128 12.250000954 65.482940674 0.0663999990  -999.250000 0.5823000073 1.9199793339 9.0291004181 89.885002136  -999.250000 153.61050415  -999.250000 0.8331999779  -999.250000 0.7832000256
 1185.1110840  -999.250000 14.076998711 12.250000954 64.679130554 0.0582000017  -999.250000 0.6287999749 1.8941999674 8.4849996567 83.770500183  -999.250000 153.78939819  -999.250000 0.8614000082  -999.250000 0.8116999865
 1185.2635498  -999.250000 14.614700317 12.250000954 63.485897064 0.0586999990  -999.250000 0.5641999841 1.8728140593 9.1349000931 84.158500671  -999.250000 154.25952148  -999.250000 0.9114000201  -999.250000 0.8542000055
 1185.4158936  -999.250000 14.682499886 12.250000954 64.902229309 0.0710999966  -999.250000 0.5408999920 1.8904000521 10.087200165 82.142601013  -999.250000 154.35749817  -999.250000 0.8907999992  -999.250000 0.8572999835
 1185.5683594  -999.250000 14.169500351 12.250000954 66.539039612 0.0720999986  -999.250000 0.5740000010 1.9181910753 9.4385995865 83.648399353  -999.250000 154.73258972  -999.250000 0.8356999755  -999.250000 0.7506999969
 1185.7207031  -999.250000 14.012801170 12.250000954 67.143707275 0.0504000001  -999.250000 0.6359999776 1.9070999622 7.3520002365 86.179901123  -999.250000 155.98030090  -999.250000 0.8345000148  -999.250000 0.7421000004
 1185.8731689  -999.250000 14.252799988 12.250000954 68.614173889 0.0513000004  -999.250000 0.5974000096 1.8843817711 7.8045001030 83.324699402  -999.250000 155.10787964  -999.250000 0.8302999735  -999.250000 0.7609999776
 1186.0255127  -999.250000 14.468299866 12.250000954 68.074478149 0.0557000004  -999.250000 0.5817000270 1.8616000414 9.7313995361 85.587501526  -999.250000 154.47219849  -999.250000 0.8414000273  -999.250000 0.7786999941
 1186.1779785  -999.250000 13.908799171 12.250000954 66.673889160 0.0680999979  -999.250000 0.5591999888 1.8809238672 11.701100349 84.420501709  -999.250000 154.77009583  -999.250000 0.8614000082  -999.250000 0.7947999835
 1186.3303223  -999.250000 14.080600739 12.250000954 63.006237030 0.0663999990  -999.250000 0.5277000070 1.9106988907 10.620200157 86.022201538  -999.250000 151.82020569  -999.250000 0.8744999766  -999.250000 0.8026000261
 1186.4827881  -999.250000 14.183299065 12.250000954 60.465225220 0.0614000000  -999.250000 0.5746999979 1.9092724323 9.4750003815 82.969200134  -999.250000 152.14414978  -999.250000 0.8834999800  -999.250000 0.8136000037
 1186.6351318  -999.250000 14.295399666 12.250000954 58.437339783 0.0533999987  -999.250000 0.5530999899 1.8750115633 9.9862003326 84.570503235  -999.250000 152.69857788  -999.250000 0.8851000071  -999.250000 0.8255000114
 1186.7874756  -999.250000 14.379599571 12.250000954 57.893375397 0.0631999969  -999.250000 0.6358000040 1.8895000219 10.510899544 86.058097839  -999.250000 153.79711914  -999.250000 0.8919000030  -999.250000 0.8234999776
 1186.9399414  -999.250000 14.235699654 12.250000954 56.126968384 0.0795999989  -999.250000 0.5931000113 1.9766411781 9.3006000519 81.074096680  -999.250000 155.42547607  -999.250000 0.9050999880  -999.250000 0.8346999884
 1187.0922852  -999.250000 14.290300369 12.250000954 56.362861633 0.0439999998  -999.250000 0.6183000207 1.9033000469 8.0827999115 85.038803101  -999.250000 156.38832092  -999.250000 0.9549999833  -999.250000 0.8912000060
 1187.2447510  -999.250000 14.521100998 12.250000954 59.656822205 0.0515000001  -999.250000 0.6090000272 1.9053053856 8.8098001480 86.322196960  -999.250000 154.86138916  -999.250000 0.9746000171  -999.250000 0.9829999804
 1187.3970947  -999.250000 14.637399673 12.250000954 60.267055511 0.0628999993  -999.250000 0.5587000251 1.9119999409 9.1731996536 84.320198059  -999.250000 154.10229492  -999.250000 0.8959000111  -999.250000 0.8312000036
 1187.5495605  -999.250000 14.630499840 12.250000954 58.055442810 0.0617999993  -999.250000 0.5745999813 1.9100118876 9.1525001526 87.758399963  -999.250000 153.70686340  -999.250000 0.9059000015  -999.250000 0.8277999759
 1187.7019043  -999.250000 15.479200363 12.250000954 60.398948669 0.0658000037  -999.250000 0.5472999811 1.9249000549 9.3821001053 89.511398315  -999.250000 153.67689514  -999.250000 0.9368000031  -999.250000 0.8701999784
 1187.8543701  -999.250000 16.145500183 12.250000954 62.882545471 0.0527999997  -999.250000 0.5658000112 1.9135599136 8.7132997513 85.423896790  -999.250000 153.68197632  -999.250000 1.0212999582  -999.250000 0.9635999799
 1188.0067139  -999.250000 14.512800217 12.250000954 68.203414917 0.0401000008  -999.250000 0.5649999976 1.8636000156 8.5951004028 85.914802551  -999.250000 153.77639771  -999.250000 0.8391000032  -999.250000 0.7734000087
 1188.1591797  -999.250000 13.932999611 12.250000954 67.521980286 0.0494999997  -999.250000 0.5892000198 1.8533238173 10.145500183 86.739799500  -999.250000 153.46408081  -999.250000 0.8719000220  -999.250000 0.7943000197
 1188.3115234  -999.250000 13.856798172 12.250000954 63.171588898 0.0357000008  -999.250000 0.5485000014 1.7583960295 12.150899887 83.655097961  -999.250000 152.95388794  -999.250000 0.9106000066  -999.250000 0.8399000168
 1188.4639893  -999.250000 13.555399895 12.250000954 59.577426910 0.0278999992  -999.250000 0.5960000157 1.7536454201 14.261899948 84.429000854  -999.250000 153.32144165  -999.250000 0.9236000180  -999.250000 0.8562999964
 1188.6163330  -999.250000 13.307100296 12.250000954 58.092521667 0.0383000001  -999.250000 0.6022999883 1.8103607893 12.838000298 82.558601379  -999.250000 153.48455811  -999.250000 0.9200908542  -999.250000 0.8579923511
