# LAS format log file from PETREL
# Project units are specified as depth units
#==================================================================
~Version information
VERS.   2.0:
WRAP.   NO:
#==================================================================
~Well
STRT .m      734.31201172 :
STOP .m      2361.9440918 :
STEP .m     0.00000000 :
NULL .        -999.250000 :
COMP.           : COMPANY
WELL.  16/2-11 A Johan Sverdrup Appr   : WELL
FLD.            : FIELD
LOC.            : LOCATION
SRVC.           : SERVICE COMPANY
DATE.  2018-09-11 14:48:07   : Log Export Date {yyyy-MM-dd HH:mm:ss}
PROV.           : PROVINCE
UWI.   16/2-11 A   : UNIQUE WELL ID
API.            : API NUMBER
#==================================================================
~Curve
DEPT .m                   : DEPTH
Lithology_geolink ._      : Lithology_geolink
CALI .in                  : CALI
BS .in                    : BS
ROP .m/h                  : ROP
DRHO .g/cm3               : DRHO
THOR .ppm                 : THOR
NPHI .m3/m3               : NPHI
RHOB .g/cm3               : RHOB
PEF .b/e                  : PEF
GR .gAPI                  : GR
URAN .ppm                 : URAN
DTC .us/ft                : DTC
DTS .us/ft                : DTS
RDEP .ohm.m               : RDEP
RMIC .ohm.m               : RMIC
RMED .ohm.m               : RMED
~Parameter
#==================================================================
~Ascii
# ...
 1281.2756348  -999.250000 12.344900131 12.250000954 231.49673462 -0.016600000  -999.250000 0.4997999966 2.0107998848 2.9268999100 103.17739868  -999.250000 143.69050598  -999.250000 0.8453000188  -999.250000 0.8493999839
 1281.4281006  -999.250000 12.298000336 12.250000954 169.50262451 -0.018600000  -999.250000 0.5019000173 1.9679000378 3.0460000038 107.32080078  -999.250000 143.18569946  -999.250000 0.8104000092  -999.250000 0.8191000223
 1281.5804443  -999.250000 12.252099991 12.250000954 142.31298828 -0.014500000  -999.250000 0.5381000042 1.9822000265 3.2367000580 109.90160370  -999.250000 142.13510132  -999.250000 0.8404999971  -999.250000 0.8395000100
 1281.7327881  -999.250000 12.246899605 12.250000954 122.81890106 -0.010100000  -999.250000 0.5271000266 2.0039999485 3.3304998875 111.13269806  -999.250000 142.39450073  -999.250000 0.8611000180  -999.250000 0.8632000089
 1281.8852539  -999.250000 12.240400314 12.250000954 110.86023712 -0.013300000  -999.250000 0.5407999754 2.0487000942 3.0455999374 112.71910095  -999.250000 140.22329712  -999.250000 0.8508999944  -999.250000 0.8583999872
 1282.0375977  -999.250000 12.288100243 12.250000954 105.80052948 -0.020000000  -999.250000 0.5074999928 2.0590000153 2.8633000851 113.50039673  -999.250000 142.22619629  -999.250000 0.8460999727  -999.250000 0.8475999832
 1282.1900635  -999.250000 12.271300316 12.250000954 99.659446716 -0.020400001  -999.250000 0.5396000147 2.0683999062 2.9688999653 114.11599731  -999.250000 142.35639954  -999.250000 0.8439999819  -999.250000 0.8460000157
 1282.3424072  -999.250000 12.257499695 12.250000954 91.937988281 -0.019200001  -999.250000 0.5073999763 2.0701999664 3.1979999542 112.79010010  -999.250000 142.46980286  -999.250000 0.8727999926  -999.250000 0.8759999871
 1282.4948730  -999.250000 12.252099991 12.250000954 89.357940674 -0.014200000  -999.250000 0.5083000064 2.0764999390 3.5260000229 108.61119843  -999.250000 144.22039795  -999.250000 0.9107999802  -999.250000 0.9083999991
 1282.6472168  -999.250000 12.284500122 12.250000954 87.181098938 -0.010200000  -999.250000 0.4986000061 2.0826001167 3.6370000839 104.10079956  -999.250000 147.13810730  -999.250000 0.9162999988  -999.250000 0.9167000055
 1282.7996826  -999.250000 12.290799141 12.250000954 83.570533752 -0.009900000  -999.250000 0.4708000124 2.0875999928 3.4396998882 103.78119659  -999.250000 148.02940369  -999.250000 0.9099000096  -999.250000 0.9124000072
 1282.9520264  -999.250000 12.246700287 12.250000954 82.297569275 -0.015699999  -999.250000 0.4316999912 2.0822000504 3.0441999435 102.68019867  -999.250000 144.51139832  -999.250000 0.9049999714  -999.250000 0.9067999721
 1283.1044922  -999.250000 12.209800720 12.250000954 88.380577087 -0.020700000  -999.250000 0.3966000080 2.0611999035 2.9149000645 96.855796814  -999.250000 144.01559448  -999.250000 0.9035999775  -999.250000 0.9192000031
 1283.2568359  -999.250000 12.233698845 12.250000954 95.168960571 -0.017300000  -999.250000 0.4347000122 2.0453999043 3.0239000320 95.032699585  -999.250000 144.06860352  -999.250000 0.8907999992  -999.250000 0.8924999833
 1283.4093018  -999.250000 12.263799667 12.250000954 100.96358490 -0.010800000  -999.250000 0.5102000237 2.0427000523 3.1533000469 101.48459625  -999.250000 145.12280273  -999.250000 0.8788999915  -999.250000 0.8786000013
 1283.5616455  -999.250000 12.256600380 12.250000954 100.37204742 -0.010200000  -999.250000 0.5332999825 2.0392999649 3.0910999775 110.96700287  -999.250000 146.92059326  -999.250000 0.8440999985  -999.250000 0.8475999832
 1283.7141113  -999.250000 12.276398659 12.250000954 102.99311066 -0.009400000  -999.250000 0.5241000056 2.0332000256 3.1029999256 112.23370361  -999.250000 148.28300476  -999.250000 0.8285999894  -999.250000 0.8281999826
 1283.8664551  -999.250000 12.250301361 12.250000954 110.57644653 -0.010600000  -999.250000 0.5159000158 2.0127999783 3.0078999996 104.75189972  -999.250000 152.29699707  -999.250000 0.8226000071  -999.250000 0.8263000250
 1284.0187988  -999.250000 12.245100021 12.250000954 115.21325684 -0.009400000  -999.250000 0.5497000217 1.9850000143 3.1570999622 101.16490173  -999.250000 151.80380249  -999.250000 0.8234999776  -999.250000 0.8274000287
 1284.1712646  -999.250000 12.239500999 12.250000954 116.80184937 -0.014000000  -999.250000 0.5418999791 1.9631999731 3.0339000225 104.96499634  -999.250000 154.80110168  -999.250000 0.8199999928  -999.250000 0.8209000230
 1284.3236084  -999.250000 12.230500221 12.250000954 123.47572327 -0.021800000  -999.250000 0.5210999846 1.9348000288 2.8996999264 107.08409882  -999.250000 153.38529968  -999.250000 0.8095999956  -999.250000 0.8047999740
 1284.4760742  -999.250000 12.163001060 12.250000954 148.93110657 -0.017999999  -999.250000 0.5127999783 1.9272999763 2.9184999466 102.80567169  -999.250000 154.93490601  -999.250000 0.7987999916  -999.250000 0.8026000261
 1284.6284180  -999.250000 12.243099213 12.250000954 144.33366394 -0.017500000  -999.250000 0.5076000094 1.9060000181 2.9605998993 96.901664734  -999.250000 150.06359863  -999.250000 0.8307999969  -999.250000 0.8307999969
 1284.7808838  -999.250000 12.242199898 12.250000954 139.32611084 -0.013800000  -999.250000 0.4905000031 1.9105000496 2.9948000908 95.118133545  -999.250000 143.25889587  -999.250000 0.8532000184  -999.250000 0.8567000031
 1284.9332275  -999.250000 12.256698608 12.250000954 135.15911865 -0.017600000  -999.250000 0.4767999947 1.9115999937 2.8141999245 98.279296875  -999.250000 150.49760437  -999.250000 0.8683000207  -999.250000 0.8705999851
 1285.0856934  -999.250000 12.281800270 12.250000954 135.58956909 -0.016100001  -999.250000 0.5088999867 1.9115999937 2.6798000336 101.90193939  -999.250000 150.93382263  -999.250000 0.8722000122  -999.250000 0.8709999919
 1285.2380371  -999.250000 12.280401230 12.250000954 136.70932007 -0.015300000  -999.250000 0.5292000175 1.9054000378 2.7033998966 103.79353333  -999.250000 148.21290588  -999.250000 0.8615999818  -999.250000 0.8641999960
 1285.3905029  -999.250000 12.279000282 12.250000954 135.06561279 -0.014500000  -999.250000 0.5494999886 1.8992999792 2.7269999981 104.45429230  -999.250000 149.17570496  -999.250000 0.8485999703  -999.250000 0.8517000079
 1285.5428467  -999.250000 12.277299881 12.250000954 129.01707458 -0.012300000  -999.250000 0.5860999823 1.8935999870 2.7708001137 103.38963318  -999.250000 146.82429504  -999.250000 0.8427000046  -999.250000 0.8489000201
 1285.6953125  -999.250000 12.279999733 12.250000954 132.33628845 -0.015100000  -999.250000 0.5360000134 1.8935999870 2.9103999138 102.29924011  -999.250000 143.28469849  -999.250000 0.8458999991  -999.250000 0.8464000225
 1285.8476563  -999.250000 12.320500374 12.250000954 140.00065613 -0.012600000  -999.250000 0.4876999855 1.9131000042 3.3006000519 100.94988251  -999.250000 140.25340271  -999.250000 0.8446000218  -999.250000 0.8424999714
 1286.0000000  -999.250000 12.364700317 12.250000954 145.58169556 -0.014700000  -999.250000 0.4686000049 1.9190000296 3.3873999119 98.558982849  -999.250000 139.03219604  -999.250000 0.8454999924  -999.250000 0.8428999782
 1286.1524658  -999.250000 12.271900177 12.250000954 154.44357300 -0.012900000  -999.250000 0.4991999865 1.9376000166 3.2483999729 96.666229248  -999.250000 136.36289978  -999.250000 0.8391000032  -999.250000 0.8398000002
 1286.3048096  -999.250000 12.238200188 12.250000954 161.51837158 -0.016500000  -999.250000 0.5141000152 1.9375000000 2.7769000530 96.455711365  -999.250000 137.36560059  -999.250000 0.8360000253  -999.250000 0.8363000154
 1286.4572754  -999.250000 12.207100868 12.250000954 163.89730835 -0.014800000  -999.250000 0.4923000038 1.9507000446 2.6724998951 99.463096619  -999.250000 139.85960388  -999.250000 0.8482000232  -999.250000 0.8472999930
 1286.6096191  -999.250000 12.273200989 12.250000954 148.56201172 -0.012900000  -999.250000 0.4591000080 1.9585000277 3.0427999496 103.08378601  -999.250000 135.53669739  -999.250000 0.8507000208  -999.250000 0.8515999913
 1286.7620850  -999.250000 12.307900429 12.250000954 136.86975098 -0.010600000  -999.250000 0.5022000074 1.9623999596 3.4149000645 104.43053436  -999.250000 140.28959656  -999.250000 0.8378000259  -999.250000 0.8417999744
