# LAS format log file from PETREL
# Project units are specified as depth units
#==================================================================
~Version information
VERS.   2.0:
WRAP.   NO:
#==================================================================
~Well
STRT .m      734.31201172 :
STOP .m      2361.9440918 :
STEP .m     0.00000000 :
NULL .        -999.250000 :
COMP.           : COMPANY
WELL.  16/2-11 A Johan Sverdrup Appr   : WELL
FLD.            : FIELD
LOC.            : LOCATION
SRVC.           : SERVICE COMPANY
DATE.  2018-09-11 14:48:07   : Log Export Date {yyyy-MM-dd HH:mm:ss}
PROV.           : PROVINCE
UWI.   16/2-11 A   : UNIQUE WELL ID
API.            : API NUMBER
#==================================================================
~Curve
DEPT .m                   : DEPTH
Lithology_geolink ._      : Lithology_geolink
CALI .in                  : CALI
BS .in                    : BS
ROP .m/h                  : ROP
DRHO .g/cm3               : DRHO
THOR .ppm                 : THOR
NPHI .m3/m3               : NPHI
RHOB .g/cm3               : RHOB
PEF .b/e                  : PEF
GR .gAPI                  : GR
URAN .ppm                 : URAN
DTC .us/ft                : DTC
DTS .us/ft                : DTS
RDEP .ohm.m               : RDEP
RMIC .ohm.m               : RMIC
RMED .ohm.m               : RMED
~Parameter
#==================================================================
~Ascii
# ...
 1608.3260498 19.000000000 12.234999657 12.250000954 121.69115448 -0.020298159  -999.250000 0.4519999921 2.1052916050 4.2240138054 51.118217468  -999.250000 121.94999695  -999.250000 0.9535999894  -999.250000 0.9337999821
 1608.4785156 19.000000000 12.236500740 12.250000954 124.82460785 -0.017998878  -999.250000 0.4183000028 2.0947923660 4.3660917282 53.019031525  -999.250000 120.37310028  -999.250000 0.9368000031  -999.250000 0.9064999819
 1608.6308594 19.000000000 12.238200188 12.250000954 127.85827637 -0.016594796  -999.250000 0.4122000039 2.0853154659 4.3556466103 58.300830841  -999.250000 119.64830017  -999.250000 0.9185000062  -999.250000 0.8878999949
 1608.7833252 19.000000000 12.240400314 12.250000954 130.32637024 -0.010100801  -999.250000 0.4526999891 2.1048057079 4.2886290550 66.080795288  -999.250000 120.73851013  -999.250000 0.9236999750  -999.250000 0.9013000131
 1608.9356689 19.000000000 12.237998962 12.250000954 128.59619141 -0.011102482  -999.250000 0.4287000000 2.1118044853 4.0754866600 71.690147400  -999.250000 121.57200623  -999.250000 0.9289000034  -999.250000 0.8899999857
 1609.0881348 19.000000000 12.234799385 12.250000954 131.94088745 -0.014199119  -999.250000 0.4417000115 2.1174001694 4.0585598946 74.742958069  -999.250000 128.59120178  -999.250000 0.9043999910  -999.250000 0.8797000051
 1609.2404785 19.000000000 12.231499672 12.250000954 133.92776489 -0.013098557  -999.250000 0.4176999927 2.1175978184 3.8838660717 76.068695068  -999.250000 130.42829895  -999.250000 0.9018999934  -999.250000 0.8658000231
 1609.3929443 19.000000000 12.229599953 12.250000954 138.76550293 -0.011294396  -999.250000 0.4311999977 2.1148076057 3.8414125443 77.188674927  -999.250000 131.18670654  -999.250000 0.8931000233  -999.250000 0.8583999872
 1609.5452881 6.0000000000 12.211001396 12.250000954 146.19488525 -0.007804968  -999.250000 0.4180999994 2.1194908619 3.7869520187 82.231040955  -999.250000 132.26510620  -999.250000 0.8762000203  -999.250000 0.8504999876
 1609.6977539 6.0000000000 12.196300507 12.250000954 151.52436829 -0.014004324  -999.250000 0.4126999974 2.1082990170 3.8521335125 91.397216797  -999.250000 133.72489929  -999.250000 0.8731999993  -999.250000 0.8460999727
 1609.8500977 6.0000000000 12.204799652 12.250000954 150.34843445 -0.016699279  -999.250000 0.4359999895 2.1077020168 3.9973061085 98.079452515  -999.250000 133.12739563  -999.250000 0.8644999862  -999.250000 0.8356000185
 1610.0025635 6.0000000000 12.217000008 12.250000954 146.66371155 -0.015796958  -999.250000 0.4345999956 2.1101984978 3.6303672791 98.519271851  -999.250000 133.62069702  -999.250000 0.8410999775  -999.250000 0.8198999763
 1610.1549072 6.0000000000 12.336799622 12.250000954 143.17857361 -0.013897436  -999.250000 0.4700999856 2.1093015671 3.3606114388 97.440444946  -999.250000 131.16499329  -999.250000 0.8306999803  -999.250000 0.8073999882
 1610.3072510 6.0000000000 12.294400215 12.250000954 144.53828430 -0.010697999  -999.250000 0.5162000060 2.1115050316 3.3752944469 98.255218506  -999.250000 131.72390747  -999.250000 0.8220000267  -999.250000 0.7965999842
 1610.4597168 6.0000000000 12.330399513 12.250000954 147.67576599 -0.008201763  -999.250000 0.5429999828 2.1176910400 3.7432019711 101.40283966  -999.250000 131.83970642  -999.250000 0.8065000176  -999.250000 0.7800999880
 1610.6120605 6.0000000000 12.386300087 12.250000954 146.32043457 -0.010399920  -999.250000 0.4896000028 2.1065084934 4.1196436882 102.82151031  -999.250000 131.98170471  -999.250000 0.8087000251  -999.250000 0.7748000026
 1610.7645264 6.0000000000 12.336000443 12.250000954 143.30490112 -0.010302244  -999.250000 0.4559000134 2.1170942783 3.7993977070 101.82873535  -999.250000 132.80369568  -999.250000 0.7885000110  -999.250000 0.7649000287
 1610.9168701 6.0000000000 12.266201019 12.250000954 140.97756958 -0.013097518  -999.250000 0.4124000072 2.1099140644 3.5471098423 102.86995697  -999.250000 134.03840637  -999.250000 0.7864000201  -999.250000 0.7548000216
 1611.0693359 6.0000000000 12.228699684 12.250000954 142.85911560 -0.010002003  -999.250000 0.4088999927 2.1274981499 3.3098683357 103.31842041  -999.250000 135.10929871  -999.250000 0.7853999734  -999.250000 0.7597000003
 1611.2216797 6.0000000000 12.220599174 12.250000954 142.69497681 -0.012500881  -999.250000 0.4004000127 2.1251013279 3.3952412605 101.96928406  -999.250000 135.85240173  -999.250000 0.8271999955  -999.250000 0.7954999804
 1611.3741455 6.0000000000 12.211099625 12.250000954 144.04243469 -0.013601363  -999.250000 0.4029000103 2.1269853115 3.4468848705 101.20175934  -999.250000 132.91140747  -999.250000 0.8661000133  -999.250000 0.8226000071
 1611.5264893 6.0000000000 12.201699257 12.250000954 147.86459351 -0.015298798  -999.250000 0.4287999868 2.1084949970 3.5528135300 102.89938354  -999.250000 129.66149902  -999.250000 0.8348000050  -999.250000 0.7871000171
 1611.6789551 6.0000000000 12.249400139 12.250000954 154.10238647 -0.013804003  -999.250000 0.4647000134 2.1023499966 3.5700621605 110.49216461  -999.250000 127.61420441  -999.250000 0.7624999881  -999.250000 0.7289000154
 1611.8312988 6.0000000000 12.180999756 12.250000954 154.53524780 -0.016301762  -999.250000 0.4952000082 2.0711684227 3.6712343693 117.07834625  -999.250000 129.96000671  -999.250000 0.6894000173  -999.250000 0.6690999866
 1611.9837646 6.0000000000 12.213399887 12.250000954 156.76918030 -0.018501122  -999.250000 0.4900999963 2.0318946838 3.7138576508 115.63195038  -999.250000 135.46310425  -999.250000 0.6205999851  -999.250000 0.5913000107
 1612.1361084 6.0000000000 12.228199959 12.250000954 163.20793152 -0.019198479  -999.250000 0.4623999894 1.9661842585 3.6872611046 111.11100769  -999.250000 141.00180054  -999.250000 0.5314000249  -999.250000 0.5108000040
 1612.2885742 6.0000000000 12.239700317 12.250000954 169.67012024 -0.017297119  -999.250000 0.4839999974 1.9465686083 3.5135216713 108.62692261  -999.250000 142.34320068  -999.250000 0.5314000249  -999.250000 0.5108000040
 1612.4409180 6.0000000000 12.251199722 12.250000954 176.12554932 -0.015498157  -999.250000 0.5055999756 1.9269921780 3.3400001526 106.14638519  -999.250000 143.68460083  -999.250000 0.5314000249  -999.250000 0.5108000040
 1612.5932617 6.0000000000 12.270600319 12.250000954 186.62510681 -0.013203043  -999.250000 0.5633999705 1.9172281027 3.2153689861 103.13352966  -999.250000 145.70669556  -999.250000 0.5048999786  -999.250000 0.4925000072
 1612.7457275 6.0000000000 12.288999557 12.250000954 187.99279785 -0.017003607  -999.250000 0.5992000103 1.9523520470 3.3017292023 107.42440033  -999.250000 144.64280701  -999.250000 0.4905000031  -999.250000 0.4763999879
 1612.8980713 6.0000000000 12.342200279 12.250000954 183.49635315 -0.021498719  -999.250000 0.5927000046 2.0173597336 3.7125234604 118.53897095  -999.250000 143.04209900  -999.250000 0.5464000106  -999.250000 0.5333999991
 1613.0505371 6.0000000000 12.309399605 12.250000954 177.71928406 -0.019891826  -999.250000 0.5310999751 2.0920264721 3.9914093018 127.61312866  -999.250000 139.92059326  -999.250000 0.6177999973  -999.250000 0.5913000107
 1613.2028809 6.0000000000 12.288999557 12.250000954 174.60726929 -0.009695998  -999.250000 0.4916999936 2.1250929832 4.1277289391 129.51744080  -999.250000 137.00700378  -999.250000 0.6338999867  -999.250000 0.6049000025
 1613.3553467 6.0000000000 12.299399376 12.250000954 175.01509094 -0.004695993  -999.250000 0.4790000021 2.1164929867 4.1641292572 129.43853760  -999.250000 136.59140015  -999.250000 0.6262999773  -999.250000 0.6003000140
 1613.5076904 6.0000000000 12.309700012 12.250000954 175.42448425 0.0003063302  -999.250000 0.4663000107 2.1077899933 4.2005248070 129.35839844  -999.250000 136.17570496  -999.250000 0.6187000275  -999.250000 0.5957000256
 1613.6601563 6.0000000000 12.343999863 12.250000954 177.80926514 0.0081884712  -999.250000 0.4781999886 2.0952749252 4.3566689491 127.73558807  -999.250000 137.07769775  -999.250000 0.5595999956  -999.250000 0.5443000197
 1613.8125000 6.0000000000 12.303000450 12.250000954 179.58221436 0.0009955930  -999.250000 0.4921000004 2.0795960426 4.5243701935 121.36366272  -999.250000 138.17529297  -999.250000 0.5164999962  -999.250000 0.5055000186
