# LAS format log file from PETREL
# Project units are specified as depth units
#==================================================================
~Version information
VERS.   2.0:
WRAP.   NO:
#==================================================================
~Well
STRT .m      684.17242432 :
STOP .m      2208.3249512 :
STEP .m     0.00000000 :
NULL .        -999.250000 :
COMP.           : COMPANY
WELL.  16/2-16   : WELL
FLD.            : FIELD
LOC.            : LOCATION
SRVC.           : SERVICE COMPANY
DATE.  2018-09-11 14:48:07   : Log Export Date {yyyy-MM-dd HH:mm:ss}
PROV.           : PROVINCE
UWI.   16/2-16   : UNIQUE WELL ID
API.            : API NUMBER
#==================================================================
~Curve
DEPT .m                   : DEPTH
Lithology_geolink ._      : Lithology_geolink
CALI .in                  : CALI
BS .in                    : BS
ROP .m/h                  : ROP
DRHO .g/cm3               : DRHO
THOR .ppm                 : THOR
NPHI .m3/m3               : NPHI
RHOB .g/cm3               : RHOB
PEF .b/e                  : PEF
GR .gAPI                  : GR
URAN .ppm                 : URAN
DTC .us/ft                : DTC
DTS .us/ft                : DTS
RDEP .ohm.m               : RDEP
RMED .ohm.m               : RMED
~Parameter
#==================================================================
~Ascii
# ...
 886.25488281  -999.250000 12.461099625 12.250000954 146.46449280 0.0231016427  -999.250000 0.3955999911 2.1484014988 4.4036841393 90.280593872  -999.250000 136.72094727  -999.250000 1.4224971533 1.4035000801
 886.40728760  -999.250000 12.618399620 12.250000954 141.37557983 0.0271952339  -999.250000 0.3828000128 2.1521019936 4.6134071350 88.503990173  -999.250000 137.60379028  -999.250000 1.4155102968 1.4039075375
 886.55969238  -999.250000 12.651300430 12.250000954 143.65890503 0.0152989188  -999.250000 0.3829999864 2.1570038795 4.1329612732 91.232643127  -999.250000 137.84585571  -999.250000 1.4410974979 1.4228044748
 886.71209717  -999.250000 12.925600052 12.250000954 146.39654541 0.0125958351  -999.250000 0.3838000000 2.1664986610 4.0364875793 96.579734802  -999.250000 136.96765137  -999.250000 1.4348231554 1.4340108633
 886.86450195  -999.250000 12.801199913 12.250000954 147.90391541 0.0074093714  -999.250000 0.3722000122 2.1647148132 4.0210142136 100.49335480  -999.250000 135.29739380  -999.250000 1.4637426138 1.4475404024
 887.01690674  -999.250000 12.754599571 12.250000954 147.53993225 0.0190965552  -999.250000 0.3628999889 2.1831963062 4.2880196571 100.30618286  -999.250000 133.91918945  -999.250000 1.5168151855 1.4980159998
 887.16918945  -999.250000 12.660699844 12.250000954 143.74015808 0.0148000000  -999.250000 0.3661000133 2.1788001060 4.3126001358 98.038597107  -999.250000 133.02119446  -999.250000 1.5356999636 1.5178999901
 887.32159424  -999.250000 12.579999924 12.250000954 141.77131653 0.0176999997  -999.250000 0.3941999972 2.1891999245 4.2604999542 98.016799927  -999.250000 132.75590515  -999.250000 1.5038000345 1.5005999804
 887.47399902  -999.250000 12.470199585 12.250000954 140.04855347 0.0174000002  -999.250000 0.4183999896 2.1937003136 4.1250000000 103.25379944  -999.250000 132.78210449  -999.250000 1.5399999619 1.5476000309
 887.62640381  -999.250000 12.442799568 12.250000954 135.75230408 0.0181000009  -999.250000 0.4208999872 2.2007000446 4.0967998505 105.82869720  -999.250000 132.03520203  -999.250000 1.4972000122 1.4729000330
 887.77880859  -999.250000 12.418999672 12.250000954 130.88780212 0.0094999997  -999.250000 0.4190999866 2.1886000633 4.1061000824 101.20259857  -999.250000 131.53469849  -999.250000 1.4925999641 1.5025999546
 887.93121338  -999.250000 12.389300346 12.250000954 128.22178650 0.0131000001  -999.250000 0.3894999921 2.1912000179 4.3880000114 96.511100769  -999.250000 131.75970459  -999.250000 1.5003000498 1.4975999594
 888.08361816  -999.250000 12.422699928 12.250000954 124.90025330 0.0151000004  -999.250000 0.3989000022 2.1779000759 4.4720001221 97.711303711  -999.250000 132.24279785  -999.250000 1.4743000269 1.4725999832
 888.23602295  -999.250000 12.465399742 12.250000954 124.41338348 0.0249000005  -999.250000 0.3986000121 2.1863999367 4.6936001778 104.37760162  -999.250000 133.50079346  -999.250000 1.4894000292 1.4651000500
 888.38842773  -999.250000 12.507699966 12.250000954 120.38189697 0.0185000002  -999.250000 0.4302000105 2.1695001125 4.6852002144 109.08000183  -999.250000 134.55470276  -999.250000 1.4861999750 1.4639999866
 888.54083252  -999.250000 12.436400414 12.250000954 112.53707123 0.0184000004  -999.250000 0.4327999949 2.1545000076 4.8866000175 106.55970001  -999.250000 135.18150330  -999.250000 1.4879000187 1.4648000002
 888.69323730  -999.250000 12.452899933 12.250000954 111.22507477 0.0222999994  -999.250000 0.4225000143 2.1494998932 4.8308000565 100.28620148  -999.250000 136.22920227  -999.250000 1.4809000492 1.4696999788
 888.84558105  -999.250000 12.504099846 12.250000954 108.22670746 0.0262000002  -999.250000 0.4160999954 2.1628000736 5.0781002045 97.078498840  -999.250000 136.05819702  -999.250000 1.4693000317 1.4585000277
 888.99798584  -999.250000 12.526799202 12.250000954 109.05512238 0.0236000009  -999.250000 0.3953999877 2.1647000313 4.9306998253 97.449401855  -999.250000 135.98190308  -999.250000 1.5003000498 1.4740999937
 889.15039063  -999.250000 12.596399307 12.250000954 115.41207123 0.0271000005  -999.250000 0.3923999965 2.1760001183 4.6909999847 98.278602600  -999.250000 135.92570496  -999.250000 1.4738999605 1.4668999910
 889.30279541  -999.250000 12.498600006 12.250000954 123.42617798 0.0240000002  -999.250000 0.4000999928 2.1561999321 4.7179999352 97.842201233  -999.250000 136.31759644  -999.250000 1.5053000450 1.4781999588
 889.45520020  -999.250000 12.505000114 12.250000954 127.45307159 0.0242999997  -999.250000 0.3894999921 2.1624999046 4.8035998344 95.638298035  -999.250000 136.30250549  -999.250000 1.4900000095 1.4869999886
 889.60760498  -999.250000 12.555600166 12.250000954 127.98589325 0.0118000004  -999.250000 0.3693999946 2.1538999081 4.3390998840 92.932502747  -999.250000 137.23390198  -999.250000 1.4776999950 1.4680000544
 889.76000977  -999.250000 12.611001015 12.250000954 128.61024475 0.0092000002  -999.250000 0.3614999950 2.1382999420 4.3681001663 92.866996765  -999.250000 137.33099365  -999.250000 1.4902000427 1.4694000483
 889.91241455  -999.250000 12.576299667 12.250000954 139.67355347 0.0126000000  -999.250000 0.3671999872 2.1507999897 4.4777002335 92.834297180  -999.250000 136.60319519  -999.250000 1.4821000099 1.4799000025
 890.06481934  -999.250000 12.455599785 12.250000954 147.43798828 0.0148000000  -999.250000 0.3686999977 2.1540999413 4.6750998497 89.593902588  -999.250000 136.90519714  -999.250000 1.4872000217 1.4746999741
 890.21722412  -999.250000 12.458399773 12.250000954 156.61941528 0.0183000006  -999.250000 0.3828999996 2.1507999897 4.6588997841 87.531799316  -999.250000 136.80050659  -999.250000 1.4487999678 1.4297000170
 890.36962891  -999.250000 12.474399567 12.250000954 157.26115417 0.0328000002  -999.250000 0.3788999915 2.1663000584 4.7873001099 90.270301819  -999.250000 136.91430664  -999.250000 1.4485000372 1.4371000528
 890.52203369  -999.250000 12.492199898 12.250000954 155.34744263 0.0329000019  -999.250000 0.3768999875 2.1840000153 4.7585000992 96.380203247  -999.250000 134.61509705  -999.250000 1.4692000151 1.4381999969
 890.67443848  -999.250000 12.442799568 12.250000954 155.23916626 0.0355999991  -999.250000 0.3612999916 2.1854000092 4.9502000809 102.52279663  -999.250000 133.57249451  -999.250000 1.5074000359 1.4795999527
 890.82678223  -999.250000 12.449900627 12.250000954 150.64369202 0.0171000008  -999.250000 0.3546999991 2.1598999500 4.4566998482 102.77380371  -999.250000 132.54490662  -999.250000 1.5075000525 1.4982999563
 890.97918701  -999.250000 12.456500053 12.250000954 147.14730835 0.0074000000  -999.250000 0.3702000082 2.1505999565 4.3067998886 97.569503784  -999.250000 132.33850098  -999.250000 1.5045000315 1.4788000584
 891.13159180  -999.250000 12.436400414 12.250000954 146.75918579 0.0089999996  -999.250000 0.3725000024 2.1630001068 4.2989997864 95.420097351  -999.250000 132.48739624  -999.250000 1.4923000336 1.4908000231
 891.28399658  -999.250000 12.425399780 12.250000954 149.57940674 0.0130000003  -999.250000 0.3752000034 2.1707003117 4.2571001053 97.602203369  -999.250000 132.66270447  -999.250000 1.4889999628 1.4845999479
 891.43640137  -999.250000 12.434200287 12.250000954 148.66339111 0.0109999999  -999.250000 0.3910000026 2.1763999462 4.1339998245 100.42800140  -999.250000 132.91290283  -999.250000 1.5066000223 1.4864000082
 891.58880615  -999.250000 12.448299408 12.250000954 144.77984619 0.0074000000  -999.250000 0.4147000015 2.1751999855 4.0276999474 102.01000214  -999.250000 132.67619324  -999.250000 1.4959000349 1.4644999504
 891.74121094  -999.250000 12.451999664 12.250000954 138.71162415 0.0182000007  -999.250000 0.4203999937 2.1640000343 4.6575999260 102.15190125  -999.250000 132.40089417  -999.250000 1.4685000181 1.4558999538
 891.89361572  -999.250000 12.482999802 12.250000954 137.97080994 0.0307000000  -999.250000 0.4128000140 2.1675000191 5.0774998665 100.13339996  -999.250000 132.78399658  -999.250000 1.4746999741 1.4471999407
 892.04602051  -999.250000 12.506999969 12.250000954 139.18208313 0.0287999995  -999.250000 0.4054000080 2.1935000420 4.9239997864 96.947601318  -999.250000 132.51019287  -999.250000 1.4749000072 1.4606000185
