# LAS format log file from PETREL
# Project units are specified as depth units
#==================================================================
~Version information
VERS.   2.0:
WRAP.   NO:
#==================================================================
~Well
STRT .m      703.83190918 :
STOP .m      2487.0642090 :
STEP .m     0.00000000 :
NULL .        -999.250000 :
COMP.           : COMPANY
WELL.  16/2-7 Johan Sverdrup Appr   : WELL
FLD.            : FIELD
LOC.            : LOCATION
SRVC.           : SERVICE COMPANY
DATE.  2018-09-11 14:48:07   : Log Export Date {yyyy-MM-dd HH:mm:ss}
PROV.           : PROVINCE
UWI.   16/2-7   : UNIQUE WELL ID
API.            : API NUMBER
#==================================================================
~Curve
DEPT .m                   : DEPTH
Lithology_geolink ._      : Lithology_geolink
CALI .in                  : CALI
BS .in                    : BS
ROP .m/h                  : ROP
DRHO .g/cm3               : DRHO
THOR .ppm                 : THOR
NPHI .m3/m3               : NPHI
RHOB .g/cm3               : RHOB
PEF .b/e                  : PEF
GR .gAPI                  : GR
URAN .ppm                 : URAN
DTC .us/ft                : DTC
DTS .us/ft                : DTS
RDEP .ohm.m               : RDEP
RMIC .ohm.m               : RMIC
RMED .ohm.m               : RMED
~Parameter
#==================================================================
~Ascii
# ...
 1301.5447998  -999.250000 12.797898293 12.250000954 89.368766785 -0.005900000  -999.250000 0.4916000068 2.0467197895 2.5055000782 89.343101501  -999.250000 160.51690674  -999.250000 0.6740000248  -999.250000 0.6570000052
 1301.6971436  -999.250000 12.692000389 12.250000954 92.878280640 -0.001300000  -999.250000 0.5048999786 2.0590057373 2.4597001076 84.615997314  -999.250000 162.19430542  -999.250000 0.6869000196  -999.250000 0.6626999974
 1301.8494873  -999.250000 12.558900833 12.250000954 100.14501190 0.0049999999  -999.250000 0.4758000076 2.0659983158 2.4331998825 77.943901062  -999.250000 162.74549866  -999.250000 0.7127000093  -999.250000 0.6859999895
 1302.0019531  -999.250000 12.517800331 12.250000954 93.826774597 0.0088000000  -999.250000 0.4814999998 2.0637865067 2.4535000324 88.695297241  -999.250000 161.43910217  -999.250000 0.7648000121  -999.250000 0.7408999801
 1302.1542969  -999.250000 12.502200127 12.250000954 80.176185608 0.0126999998  -999.250000 0.5173000097 2.0467839241 2.5285999775 86.132499695  -999.250000 157.18821716  -999.250000 0.7761999965  -999.250000 0.7598999739
 1302.3067627  -999.250000 12.486600876 12.250000954 74.270019531 0.0085000005  -999.250000 0.4751999974 2.0266957283 2.5343000889 93.691200256  -999.250000 156.24279785  -999.250000 0.7598000169  -999.250000 0.7419000268
 1302.4591064  -999.250000 12.470999718 12.250000954 72.379920959 -0.000600000  -999.250000 0.4327999949 2.0214192867 2.3176000118 80.095901489  -999.250000 158.76228333  -999.250000 0.7378000021  -999.250000 0.7188000083
 1302.6115723  -999.250000 12.455399513 12.250000954 82.622375488 0.0070000002  -999.250000 0.4526000023 2.0454998016 2.3420000076 81.162498474  -999.250000 160.75010681  -999.250000 0.7275999784  -999.250000 0.7085999846
 1302.7639160  -999.250000 12.439800262 12.250000954 93.342193604 0.0082999999  -999.250000 0.4465000033 2.0450949669 2.4386999607 85.416397095  -999.250000 162.07678223  -999.250000 0.7156999707  -999.250000 0.6981999874
 1302.9163818  -999.250000 12.439800262 12.250000954 95.449806213 0.0041000000  -999.250000 0.4232000113 2.0389080048 2.5223000050 73.474899292  -999.250000 161.83149719  -999.250000 0.7031999826  -999.250000 0.6765999794
 1303.0687256  -999.250000 12.153300285 12.250000954 92.110237122 0.0062000002  -999.250000 0.4210000038 2.0440058708 2.7434999943 84.249801636  -999.250000 162.78257751  -999.250000 0.6953999996  -999.250000 0.6664000154
 1303.2211914  -999.250000 12.306500435 12.250000954 96.717849731 0.0100999996  -999.250000 0.4442000091 2.0514061451 3.0083999634 86.181503296  -999.250000 162.70770264  -999.250000 0.6858999729  -999.250000 0.6520000100
 1303.3735352  -999.250000 12.686399460 12.250000954 110.66732025 0.0148000000  -999.250000 0.4530000091 2.0552036762 2.8840999603 79.724403381  -999.250000 160.90580750  -999.250000 0.6987000108  -999.250000 0.6639999747
 1303.5260010  -999.250000 12.602499008 12.250000954 127.22408295 0.0163000003  -999.250000 0.4934999943 2.0597035885 2.7699000835 89.500701904  -999.250000 161.14649963  -999.250000 0.7005000114  -999.250000 0.6685000062
 1303.6783447  -999.250000 12.750699997 12.250000954 132.84284973 0.0122999996  -999.250000 0.4634000063 2.0620102882 2.7253999710 84.088500977  -999.250000 160.41360474  -999.250000 0.6880999804  -999.250000 0.6644999981
 1303.8306885  -999.250000 13.149200439 12.250000954 125.00064850 0.0137999998  -999.250000 0.4733000100 2.0747909546 2.8055999279 89.535400391  -999.250000 157.07809448  -999.250000 0.6777999997  -999.250000 0.6478999853
 1303.9831543  -999.250000 13.146100044 12.250000954 113.04922485 0.0052999998  -999.250000 0.4735000134 2.0635828972 2.5771999359 89.068901062  -999.250000 155.47630310  -999.250000 0.6916000247  -999.250000 0.6607999802
 1304.1354980  -999.250000 13.071100235 12.250000954 104.17881012 -0.002400000  -999.250000 0.4693999887 2.0420832634 2.3986999989 78.277900696  -999.250000 155.08120728  -999.250000 0.7056000233  -999.250000 0.6758999825
 1304.2879639  -999.250000 13.486900330 12.250000954 97.623359680 -0.006800000  -999.250000 0.4007000029 2.0211994648 2.3831999302 76.058601379  -999.250000 154.99159241  -999.250000 0.7242000103  -999.250000 0.6977000237
 1304.4403076  -999.250000 13.516599655 12.250000954 94.003608704 0.0065000001  -999.250000 0.3932999969 2.0204885006 2.8199000359 85.471199036  -999.250000 154.92140198  -999.250000 0.7344999909  -999.250000 0.7060999870
 1304.5927734  -999.250000 13.216199875 12.250000954 95.122703552 0.0201999992  -999.250000 0.4000000060 2.0063195229 3.8793001175 92.132598877  -999.250000 155.25120544  -999.250000 0.7343000174  -999.250000 0.7078999877
 1304.7451172  -999.250000 13.043000221 12.250000954 95.120079041 0.0439999998  -999.250000 0.4156000018 2.0305948257 5.0012001991 84.487998962  -999.250000 155.58099365  -999.250000 0.7332999706  -999.250000 0.7095999718
 1304.8975830  -999.250000 13.019498825 12.250000954 92.994750977 0.0450999998  -999.250000 0.4334999919 2.0240135193 4.9576001167 85.290702820  -999.250000 156.69369507  -999.250000 0.7257999778  -999.250000 0.7032999992
 1305.0499268  -999.250000 12.992099762 12.250000954 90.312667847 0.0379000008  -999.250000 0.4532999992 1.9700700045 5.3506999016 82.409797668  -999.250000 155.27270508  -999.250000 0.7245000005  -999.250000 0.7049999833
 1305.2023926  -999.250000 12.986001015 12.250000954 90.848754883 0.1005000025  -999.250000 0.4679999948 2.0573143959 7.6394000053 87.234703064  -999.250000 157.08869934  -999.250000 0.7318999767  -999.250000 0.7067000270
 1305.3547363  -999.250000 12.987500191 12.250000954 77.955375671 0.0615999997  -999.250000 0.4742999971 2.0662007332 5.4644999504 86.722702026  -999.250000 153.93389893  -999.250000 0.7991999984  -999.250000 0.7559999824
 1305.5072021  -999.250000 12.965800285 12.250000954 64.901573181 0.0450999998  -999.250000 0.4248000085 2.0671141148 5.0225000381 74.929901123  -999.250000 153.30039978  -999.250000 0.8826000094  -999.250000 0.8553000093
 1305.6595459  -999.250000 12.856300354 12.250000954 52.221126556 0.0458000004  -999.250000 0.4079000056 2.0759024620 5.0494999886 84.633499146  -999.250000 153.44149780  -999.250000 0.8697000146  -999.250000 0.8425999880
 1305.8118896  -999.250000 12.826399803 12.250000954 46.928478241 0.0368000008  -999.250000 0.4129000008 2.0787830353 4.9218997955 75.231903076  -999.250000 149.23150635  -999.250000 0.8583999872  -999.250000 0.8450000286
 1305.9643555  -999.250000 12.778800964 12.250000954 49.097114563 0.0275999997  -999.250000 0.4086999893 2.0578002930 4.0307002068 77.650398254  -999.250000 151.53210449  -999.250000 0.7993999720  -999.250000 0.7957000136
 1306.1166992  -999.250000 12.944100380 12.250000954 65.034118652 0.0263000000  -999.250000 0.4151999950 2.0580046177 3.6619999409 78.091499329  -999.250000 158.37669373  -999.250000 0.7516999841  -999.250000 0.7283999920
 1306.2691650  -999.250000 13.626501083 12.250000954 79.521003723 0.0259000007  -999.250000 0.4253999889 2.0635867119 3.3771998882 78.589698792  -999.250000 162.42759705  -999.250000 0.7454000115  -999.250000 0.7221000195
 1306.4215088  -999.250000 13.851599693 12.250000954 81.601707458 0.0044999998  -999.250000 0.4467000067 2.0469026566 2.8736000061 82.225303650  -999.250000 163.40089417  -999.250000 0.7750999928  -999.250000 0.7486000061
 1306.5739746  -999.250000 13.853598595 12.250000954 77.839569092 0.0063000000  -999.250000 0.4528999925 2.0500977039 2.7846999168 75.234397888  -999.250000 159.99989319  -999.250000 0.7706000209  -999.250000 0.7462000251
 1306.7263184  -999.250000 13.843999863 12.250000954 76.404853821 0.0046999999  -999.250000 0.4512000084 2.0470745564 2.6572000980 81.468696594  -999.250000 156.31100464  -999.250000 0.7350000143  -999.250000 0.7096999884
 1306.8787842  -999.250000 13.864300728 12.250000954 80.168312073 0.0055999998  -999.250000 0.4483999908 2.0152821541 3.1438000202 90.214698792  -999.250000 156.19441223  -999.250000 0.7192000151  -999.250000 0.6840000153
 1307.0311279  -999.250000 13.867098808 12.250000954 88.092193604 0.0306000002  -999.250000 0.4406999946 1.9931215048 4.6616997719 86.384597778  -999.250000 158.34030151  -999.250000 0.7154999971  -999.250000 0.6798999906
