# LAS format log file from PETREL
# Project units are specified as depth units
#==================================================================
~Version information
VERS.   2.0:
WRAP.   NO:
#==================================================================
~Well
STRT .m      684.17242432 :
STOP .m      2208.3249512 :
STEP .m     0.00000000 :
NULL .        -999.250000 :
COMP.           : COMPANY
WELL.  16/2-16   : WELL
FLD.            : FIELD
LOC.            : LOCATION
SRVC.           : SERVICE COMPANY
DATE.  2018-09-11 14:48:07   : Log Export Date {yyyy-MM-dd HH:mm:ss}
PROV.           : PROVINCE
UWI.   16/2-16   : UNIQUE WELL ID
API.            : API NUMBER
#==================================================================
~Curve
DEPT .m                   : DEPTH
Lithology_geolink ._      : Lithology_geolink
CALI .in                  : CALI
BS .in                    : BS
ROP .m/h                  : ROP
DRHO .g/cm3               : DRHO
THOR .ppm                 : THOR
NPHI .m3/m3               : NPHI
RHOB .g/cm3               : RHOB
PEF .b/e                  : PEF
GR .gAPI                  : GR
URAN .ppm                 : URAN
DTC .us/ft                : DTC
DTS .us/ft                : DTS
RDEP .ohm.m               : RDEP
RMED .ohm.m               : RMED
~Parameter
#==================================================================
~Ascii
 684.17242432  -999.250000 12.876399994 9.8750000000 130.54232788  -999.250000  -999.250000 0.4699999988  -999.250000  -999.250000 89.409500122  -999.250000 160.08001709  -999.250000 1.4192999601 1.4148000479
 684.32482910  -999.250000 13.134899139 9.8750000000 128.14031982  -999.250000  -999.250000 0.4472999871  -999.250000  -999.250000 88.675201416  -999.250000 159.65283203  -999.250000 1.4192869663 1.4148000479
 684.47723389  -999.250000 13.445700645 9.8750000000 97.543212891  -999.250000  -999.250000 0.4526000023  -999.250000  -999.250000 87.309196472  -999.250000 158.47695923  -999.250000 1.3868396282 1.3792999983
 684.62963867  -999.250000 13.414899826 9.8750000000 90.733512878  -999.250000  -999.250000 0.4492000043  -999.250000  -999.250000 85.977203369  -999.250000 156.13336182  -999.250000 1.4855962992 1.4673999548
 684.78204346  -999.250000 13.266599655 9.8750000000 49.579090118  -999.250000  -999.250000 0.4681999981  -999.250000  -999.250000 85.482002258  -999.250000 154.78721619  -999.250000 1.4764535427 1.4541000128
 684.93444824  -999.250000 13.092900276 9.8750000000 49.632461548  -999.250000  -999.250000 0.4627000093  -999.250000  -999.250000 86.370002747  -999.250000 155.27490234  -999.250000 1.3603341579 1.3592000008
 685.08685303  -999.250000 13.119600296 9.8750000000 49.427204132  -999.250000  -999.250000 0.4745000005  -999.250000  -999.250000 87.462898254  -999.250000 153.80558777  -999.250000 1.1959999800 1.2000999451
 685.23925781  -999.250000 13.380800247 9.8750000000 49.519264221  -999.250000  -999.250000 0.4607999921  -999.250000  -999.250000 88.145896912  -999.250000 152.52258301  -999.250000 1.1960546970 1.2000999451
 685.39166260  -999.250000 13.514100075 9.8750000000 50.109550476  -999.250000  -999.250000 0.4559000134  -999.250000  -999.250000 89.682701111  -999.250000 150.46247864  -999.250000 1.3326783180 1.3183000088
 685.54406738  -999.250000 13.530700684 9.8750000000 50.034290314  -999.250000  -999.250000 0.4460999966  -999.250000  -999.250000 93.832199097  -999.250000 149.17855835  -999.250000 1.5282107592 1.4994000196
 685.69647217  -999.250000 13.518500328 9.8750000000 53.517066956  -999.250000  -999.250000 0.4566000104  -999.250000  -999.250000 97.691299438  -999.250000 148.12522888  -999.250000 1.5415999889 1.5152000189
 685.84887695  -999.250000 13.803799629 9.8750000000 52.303840637  -999.250000  -999.250000 0.4645999968  -999.250000  -999.250000 98.767097473  -999.250000 149.91882324  -999.250000 1.5416049957 1.5152000189
 686.00122070  -999.250000 14.159300804 9.8750000000 60.123790741  -999.250000  -999.250000 0.4878999889  -999.250000  -999.250000 98.767097473  -999.250000 151.20199585  -999.250000 1.5478867292 1.5367000103
 686.15362549  -999.250000 14.314299583 9.8750000000 60.402355194  -999.250000  -999.250000 0.4735000134  -999.250000  -999.250000 95.932502747  -999.250000 151.20182800  -999.250000 1.5149942636 1.5112999678
 686.30603027  -999.250000 13.862400055 9.8750000000 139.32020569  -999.250000  -999.250000 0.4575999975  -999.250000  -999.250000 90.263298035  -999.250000 150.79162598  -999.250000 1.5006999969 1.4894000292
 686.45843506  -999.250000 13.416399956 9.8750000000 108.15267944  -999.250000  -999.250000 0.4535999894  -999.250000  -999.250000 89.187500000  -999.250000 149.62307739  -999.250000 1.5006957054 1.4894000292
 686.61083984  -999.250000 13.284000397 9.8750000000 99.441169739 0.0213014018  -999.250000 0.4535999894  -999.250000  -999.250000 92.705200195  -999.250000 149.05168152  -999.250000 1.4900000095 1.4873000383
 686.76324463  -999.250000 13.649800301 9.8750000000 99.181579590 0.0247992799  -999.250000 0.4659999907  -999.250000  -999.250000 94.805496216  -999.250000 149.74496460  -999.250000 1.4900000095 1.4873000383
 686.91564941  -999.250000 13.546999931 9.8750000000 113.47711945 0.0229872242  -999.250000 0.4569000006  -999.250000  -999.250000 97.247398376  -999.250000 153.09983826  -999.250000 1.4899951220 1.4873000383
 687.06805420  -999.250000 13.029500008 9.8750000000 105.51729584 -0.008912174  -999.250000 0.4472999871  -999.250000  -999.250000 102.37010193  -999.250000 153.70283508  -999.250000 1.4777024984 1.4674999714
 687.22045898  -999.250000 12.892900467 9.8750000000 99.555877686 -0.039308328  -999.250000 0.4471000135  -999.250000  -999.250000 106.65619659  -999.250000 155.03759766  -999.250000 1.4838147163 1.4630000591
 687.37286377  -999.250000 14.166899681 9.8750000000 110.46747589 -0.060100958  -999.250000 0.4485000074  -999.250000  -999.250000 107.91979980  -999.250000 155.52363586  -999.250000 1.2711000443 1.2647000551
 687.52526855  -999.250000 13.970399857 9.8750000000 96.461486816 -0.062498238  -999.250000 0.4708999991  -999.250000  -999.250000 107.91979980  -999.250000 154.60438538  -999.250000 1.2709910870 1.2647000551
 687.67767334  -999.250000 13.732001305 9.8750000000 116.76351929 -0.060300961  -999.250000 0.4756000042  -999.250000  -999.250000 105.46089935  -999.250000 153.83790588  -999.250000 1.1350665092 1.1341999769
 687.83007813  -999.250000 13.886400223 9.8750000000 115.22362518 -0.061497197  -999.250000 0.4900000095  -999.250000  -999.250000 102.56649780  -999.250000 156.84925842  -999.250000 1.2180188894 1.1993000507
 687.98242188  -999.250000 14.542200089 9.8750000000 125.71617126 -0.057997074  -999.250000 0.4758999944  -999.250000  -999.250000 104.64119720  -999.250000 161.04069519  -999.250000 1.2415063381 1.2146999836
 688.13482666  -999.250000 14.910099983 9.8750000000 150.99092102 -0.050700482  -999.250000 0.4860999882  -999.250000  -999.250000 107.63809967  -999.250000 162.78613281  -999.250000 1.2574000359 1.2352000475
 688.28723145  -999.250000 14.829998970 9.8750000000 151.23876953 -0.051898837  -999.250000 0.4828000069  -999.250000  -999.250000 108.12470245  -999.250000 163.11228943  -999.250000 1.2574031353 1.2352000475
 688.43963623  -999.250000 14.599499702 9.8750000000 151.83792114 -0.049000081  -999.250000 0.4720999897  -999.250000  -999.250000 110.00309753  -999.250000 161.09350586  -999.250000 1.2650965452 1.2397999763
 688.59204102  -999.250000 14.507100105 9.8750000000 146.10580444 -0.049200278  -999.250000 0.4661000073  -999.250000  -999.250000 112.07779694  -999.250000 158.60717773  -999.250000 1.2566210032 1.2424999475
 688.74444580  -999.250000 14.249500275 9.8750000000 159.59660339 -0.049901601  -999.250000 0.4638999999  -999.250000  -999.250000 110.68609619  -999.250000 155.76908875  -999.250000 1.3091000319 1.2957999706
 688.89685059  -999.250000 14.044699669 9.8750000000 124.76184082 -0.053901281  -999.250000 0.4645000100  -999.250000  -999.250000 110.49829865  -999.250000 153.49206543  -999.250000 1.3090920448 1.2957999706
 689.04925537  -999.250000 14.140199661 9.8750000000 116.66571045 -0.057099480  -999.250000 0.4589999914  -999.250000  -999.250000 113.02549744  -999.250000  -999.250000  -999.250000 1.2892163992 1.2805000544
 689.20166016  -999.250000 14.097399712 9.8750000000 90.515243530 -0.055801239  -999.250000 0.4587999880  -999.250000  -999.250000 112.69249725  -999.250000  -999.250000  -999.250000 1.3302011490 1.3249000311
 689.35406494  -999.250000 14.199198723 9.8750000000 90.079490662 -0.058897994  -999.250000 0.4498000145  -999.250000  -999.250000 109.69570160  -999.250000  -999.250000  -999.250000 1.3333011866 1.3301000595
 689.50646973  -999.250000 14.098099709 9.8750000000 90.304946899 -0.053901482  -999.250000 0.4519000053  -999.250000  -999.250000 107.90270233  -999.250000  -999.250000  -999.250000 1.3364028931 1.3269000053
 689.65887451  -999.250000 14.151599884 9.8750000000 90.666954041 -0.057598315  -999.250000 0.4546000063  -999.250000  -999.250000 107.64659882  -999.250000  -999.250000  -999.250000 1.3435000181 1.3356000185
 689.81127930  -999.250000 14.217700005 9.8750000000 69.330421448 -0.055495676  -999.250000 0.4824000001  -999.250000  -999.250000 107.64659882  -999.250000  -999.250000  -999.250000 1.3434754610 1.3356000185
 689.96368408  -999.250000 14.099300385 9.8750000000 59.558845520 -0.050104003  -999.250000 0.4693999887  -999.250000  -999.250000 105.05960083  -999.250000  -999.250000  -999.250000 1.3127553463 1.3217999935
