# LAS format log file from PETREL
# Project units are specified as depth units
#==================================================================
~Version information
VERS.   2.0:
WRAP.   NO:
#==================================================================
~Well
STRT .m      684.17242432 :
STOP .m      2208.3249512 :
STEP .m     0.00000000 :
NULL .        -999.250000 :
COMP.           : COMPANY
WELL.  16/2-16   : WELL
FLD.            : FIELD
LOC.            : LOCATION
SRVC.           : SERVICE COMPANY
DATE.  2018-09-11 14:48:07   : Log Export Date {yyyy-MM-dd HH:mm:ss}
PROV.           : PROVINCE
UWI.   16/2-16   : UNIQUE WELL ID
API.            : API NUMBER
#==================================================================
~Curve
DEPT .m                   : DEPTH
Lithology_geolink ._      : Lithology_geolink
CALI .in                  : CALI
BS .in                    : BS
ROP .m/h                  : ROP
DRHO .g/cm3               : DRHO
THOR .ppm                 : THOR
NPHI .m3/m3               : NPHI
RHOB .g/cm3               : RHOB
PEF .b/e                  : PEF
GR .gAPI                  : GR
URAN .ppm                 : URAN
DTC .us/ft                : DTC
DTS .us/ft                : DTS
RDEP .ohm.m               : RDEP
RMED .ohm.m               : RMED
~Parameter
#==================================================================
~Ascii
# ...
 1391.4609375  -999.250000 12.625699997 12.250000954 101.40276337 -0.006196154  -999.250000 0.4616000056 2.0780999660 2.9965000153 99.261299133  -999.250000 146.22206116  -999.250000 0.6157064438 0.6197999716
 1391.6132813  -999.250000 12.561699867 12.250000954 103.28469849 -0.001401281  -999.250000 0.4830999970 2.0627000332 3.2565999031 99.030899048  -999.250000 145.67730713  -999.250000 0.6237171292 0.6316999793
 1391.7657471  -999.250000 12.515000343 12.250000954 104.41634369 -0.002998077  -999.250000 0.4930000007 2.0346000195 3.5766999722 94.648597717  -999.250000 144.81773376  -999.250000 0.6451109648 0.6474999785
 1391.9180908  -999.250000 12.467499733 12.250000954 104.81845093 -0.000596394  -999.250000 0.4787999988 2.0285000801 4.0478000641 91.615898132  -999.250000 145.23443604  -999.250000 0.6588013172 0.6633999944
 1392.0705566  -999.250000 12.740900040 12.250000954 98.934097290 0.0039123297  -999.250000 0.4771000147 2.0367000103 4.3979997635 93.026199341  -999.250000 145.52655029  -999.250000 0.6603922844 0.6604999900
 1392.2229004  -999.250000 12.995100021 12.250000954 95.890022278 0.0115942303  -999.250000 0.4641000032 2.0634999275 4.7221999168 97.528297424  -999.250000 145.93165588  -999.250000 0.6555814743 0.6539999843
 1392.3753662  -999.250000 12.925600052 12.250000954 98.261245728 0.0043932744  -999.250000 0.4587000012 2.0831000805 3.9588000774 105.22720337  -999.250000 145.61906433  -999.250000 0.6324463487 0.6327000260
 1392.5277100  -999.250000 12.954799652 12.250000954 100.16294098 0.0002125000  -999.250000 0.4499000013 2.0924000740 3.6496999264 106.40640259  -999.250000 143.91561890  -999.250000 0.5989852548 0.6085000038
 1392.6801758  -999.250000 12.912799835 12.250000954 105.74392700 0.0157911927  -999.250000 0.5011000037 2.1389000416 4.1598000526 94.754096985  -999.250000 137.55880737  -999.250000 0.5810089707 0.6007000208
 1392.8325195  -999.250000 12.885399818 12.250000954 105.02601624 0.0103157852  -999.250000 0.4783000052 2.3155000210 6.0788998604 76.663200378  -999.250000 122.51140594  -999.250000 0.8370071054 0.8280000091
 1392.9848633  -999.250000 12.851499557 12.250000954 102.28811646 0.0299887098  -999.250000 0.3508000076 2.5761001110 6.4808001518 61.603199005  -999.250000 96.200790405  -999.250000 2.0930612087 2.0227000713
 1393.1373291  -999.250000 12.602800369 12.250000954 100.29049683 0.0158880614  -999.250000 0.2270999998 2.6754999161 6.5117001534 52.508998871  -999.250000 85.091972351  -999.250000 2.4190115929 2.1754000187
 1393.2896729  -999.250000 12.407099724 12.250000954 84.082901001 0.0010052843  -999.250000 0.1921000034 2.5158998966 5.6795997620 49.775199890  -999.250000 100.65711212  -999.250000 2.0582890511 2.1022999287
 1393.4421387  -999.250000 12.753699303 12.250000954 70.435882568 0.0076094554  -999.250000 0.2101999968 2.2597000599 5.2681999207 55.372398376  -999.250000 117.02720642  -999.250000 0.9211944938 0.9997000098
 1393.5944824  -999.250000 12.805899620 12.250000954 67.815414429 0.0194041654  -999.250000 0.2928000093 2.0552000999 4.2926001549 67.484901428  -999.250000 125.88578796  -999.250000 0.6649284363 0.6998999715
 1393.7469482  -999.250000 12.858799934 12.250000954 69.603347778 0.0245902240  -999.250000 0.3919000030 1.9792000055 4.0232000351 78.181503296  -999.250000 131.11920166  -999.250000 0.7004299760 0.7300000191
 1393.8992920  -999.250000 13.033499718 12.250000954 69.601158142 0.0123945558  -999.250000 0.4600999951 1.9768999815 4.0346999168 79.719100952  -999.250000 137.60845947  -999.250000 0.7377926111 0.7462999821
 1394.0517578  -999.250000 12.923299789 12.250000954 68.911117554 0.0056004804  -999.250000 0.4627999961 2.0211999416 3.8828001022 79.940299988  -999.250000 141.16615295  -999.250000 0.7285786867 0.7184000015
 1394.2041016  -999.250000 12.720799446 12.250000954 67.719367981 0.0062016831  -999.250000 0.4729999900 2.0587999821 4.0689001083 89.973197937  -999.250000 145.09722900  -999.250000 0.7019913793 0.6805999875
 1394.3565674  -999.250000 12.487600327 12.250000954 67.975830078 0.0082988786  -999.250000 0.4632999897 2.0625998974 4.2638001442 101.43309784  -999.250000 146.37710571  -999.250000 0.6911684871 0.6743999720
 1394.5089111  -999.250000 12.567199707 12.250000954 69.275566101 0.0075987182  -999.250000 0.4758000076 2.0246999264 4.8010997772 102.63880157  -999.250000 147.12951660  -999.250000 0.6714897156 0.6690000296
 1394.6613770  -999.250000 12.633900642 12.250000954 69.666244507 0.0059964773  -999.250000 0.4810999930 2.0431001186 4.5991001129 98.103500366  -999.250000 148.02011108  -999.250000 0.6586542726 0.6636999846
 1394.8137207  -999.250000 12.494000435 12.250000954 80.463821411 0.0038010417  -999.250000 0.5289000273 2.0232000351 4.5769000053 98.900001526  -999.250000 147.59118652  -999.250000 0.6925153732 0.6891999841
 1394.9661865  -999.250000 12.438199997 12.250000954 97.964874268 0.0051014414  -999.250000 0.5588999987 2.0294001102 4.4531998634 105.59220123  -999.250000 146.19841003  -999.250000 0.7116822600 0.7134000063
 1395.1185303  -999.250000 12.371500015 12.250000954 108.58393097 0.0059982371  -999.250000 0.5248000026 2.0460999012 4.3614001274 109.97270203  -999.250000 143.76867676  -999.250000 0.7005851269 0.6983000040
 1395.2708740  -999.250000 12.503199577 12.250000954 104.40867615 0.0038015214  -999.250000 0.4853000045 2.0339999199 4.0433998108 106.38870239  -999.250000 142.35908508  -999.250000 0.6819949150 0.6823999882
 1395.4233398  -999.250000 12.524200439 12.250000954 99.344253540 0.0056998399  -999.250000 0.4936000109 2.0130999088 4.0349998474 98.601303101  -999.250000 144.44905090  -999.250000 0.6757046580 0.6766999960
 1395.5756836  -999.250000 12.579000473 12.250000954 95.772575378 0.0055011208  -999.250000 0.4894999862 2.0046000481 4.0391998291 95.127899170  -999.250000 145.76081848  -999.250000 0.6815018058 0.6861000061
 1395.7281494  -999.250000 12.644900322 12.250000954 96.520545959 0.0069056889  -999.250000 0.5106999874 2.0295000076 4.1094999313 96.599098206  -999.250000 147.15353394  -999.250000 0.6836856008 0.6890000105
 1395.8804932  -999.250000 12.393400192 12.250000954 99.229286194 0.0140032033  -999.250000 0.4955999851 2.0732998848 4.5542001724 97.406600952  -999.250000 147.43014526  -999.250000 0.6656650901 0.6676999927
 1396.0329590  -999.250000 12.357799530 12.250000954 97.537994385 0.0179983173  -999.250000 0.5311999917 2.0710999966 5.3468999863 94.010696411  -999.250000 147.49468994  -999.250000 0.6220953465 0.6298999786
 1396.1853027  -999.250000 12.599200249 12.250000954 97.446708679 0.0158948731  -999.250000 0.4844000041 2.0625000000 5.7012000084 88.114898682  -999.250000 147.47663879  -999.250000 0.6163036823 0.6225000024
 1396.3377686  -999.250000 12.647600174 12.250000954 86.216819763 0.0094907125  -999.250000 0.4918000102 2.0646998882 5.2109999657 87.207801819  -999.250000 148.03543091  -999.250000 0.6209049225 0.6247000098
 1396.4901123  -999.250000 12.588199615 12.250000954 85.372802734 0.0036993590  -999.250000 0.4803000093 2.0775001049 4.4191999435 93.700996399  -999.250000 148.30137634  -999.250000 0.6240037680 0.6233999729
 1396.6425781  -999.250000 12.539299965 12.250000954 88.769767761 0.0028931145  -999.250000 0.5008000135 2.1003000736 3.9530000687 96.499603271  -999.250000 148.02119446  -999.250000 0.6286634803 0.6184999943
 1396.7949219  -999.250000 12.583600044 12.250000954 89.436805725 -0.001396795  -999.250000 0.5234000087 2.0947000980 3.7137000561 91.488700867  -999.250000 148.14292908  -999.250000 0.6058853269 0.6119999886
 1396.9473877  -999.250000 12.614700317 12.250000954 92.867141724 0.0025977583  -999.250000 0.5385000110 2.1007492542 3.8857543468 89.619201660  -999.250000 147.55175781  -999.250000 0.5875894427 0.5993000269
 1397.0997314  -999.250000 12.775600433 12.250000954 97.990020752 0.0011985578  -999.250000 0.5669999719 2.0690982342 4.4805855751 93.911102295  -999.250000 147.71565247  -999.250000 0.5810134411 0.5900999904
 1397.2520752  -999.250000 12.554400444 12.250000954 97.407211304 -0.000601281  -999.250000 0.5437999964 2.0669879913 4.2131128311 97.638900757  -999.250000 149.02551270  -999.250000 0.5978135467 0.5954999924
