# LAS format log file from PETREL
# Project units are specified as depth units
#==================================================================
~Version information
VERS.   2.0:
WRAP.   NO:
#==================================================================
~Well
STRT .m      734.31201172 :
STOP .m      2361.9440918 :
STEP .m     0.00000000 :
NULL .        -999.250000 :
COMP.           : COMPANY
WELL.  16/2-11 A Johan Sverdrup Appr   : WELL
FLD.            : FIELD
LOC.            : LOCATION
SRVC.           : SERVICE COMPANY
DATE.  2018-09-11 14:48:07   : Log Export Date {yyyy-MM-dd HH:mm:ss}
PROV.           : PROVINCE
UWI.   16/2-11 A   : UNIQUE WELL ID
API.            : API NUMBER
#==================================================================
~Curve
DEPT .m                   : DEPTH
Lithology_geolink ._      : Lithology_geolink
CALI .in                  : CALI
BS .in                    : BS
ROP .m/h                  : ROP
DRHO .g/cm3               : DRHO
THOR .ppm                 : THOR
NPHI .m3/m3               : NPHI
RHOB .g/cm3               : RHOB
PEF .b/e                  : PEF
GR .gAPI                  : GR
URAN .ppm                 : URAN
DTC .us/ft                : DTC
DTS .us/ft                : DTS
RDEP .ohm.m               : RDEP
RMIC .ohm.m               : RMIC
RMED .ohm.m               : RMED
~Parameter
#==================================================================
~Ascii
# ...
 2036.8748779 12.000000000 12.436700821 12.250000954 23.769721985 -0.012594632  -999.250000 0.1420000046 2.5155949593 4.6020212173 35.482948303  -999.250000 86.330200195 182.14860535 2.7137000561  -999.250000 2.6540000439
 2037.0272217 12.000000000 12.493000031 12.250000954 23.405080795 -0.005898879  -999.250000 0.1482000053 2.5093021393 4.6284637451 34.298816681  -999.250000 87.736595154 183.67018127 2.5977001190  -999.250000 2.5574998856
 2037.1796875 12.000000000 12.492500305 12.250000954 23.686027527 -0.004503766  -999.250000 0.1532000005 2.5118956566 4.7085475922 35.692733765  -999.250000 87.044197083 185.70860291 2.4979999065  -999.250000 2.4504001141
 2037.3320313 12.000000000 12.503298759 12.250000954 22.870880127 -0.009205845  -999.250000 0.1562000066 2.5063943863 4.7681927681 36.357536316  -999.250000 86.846900940 191.68838501 2.5011000633  -999.250000 2.4418001175
 2037.4844971 12.000000000 12.430399895 12.250000954 21.412727356 -0.016497998  -999.250000 0.1541000009 2.4992933273 4.6341271400 34.908920288  -999.250000 86.832496643 193.84408569 2.4888000488  -999.250000 2.4024999142
 2037.6368408 12.000000000 12.452899933 12.250000954 20.590539932 -0.013998239  -999.250000 0.1544000059 2.4909052849 4.4179825783 36.808776855  -999.250000 86.061599731 195.50221252 2.3262999058  -999.250000 2.2630999088
 2037.7893066 12.000000000 12.393501282 12.250000954 20.986322403 -0.011803526  -999.250000 0.1607999951 2.4974987507 4.3961582184 40.025375366  -999.250000 91.133003235 197.50619507 2.0636000633  -999.250000 2.0376999378
 2037.9416504 12.000000000 12.401598930 12.250000954 21.931621552 -0.016204648  -999.250000 0.1688999981 2.4961035252 4.3436527252 38.997562408  -999.250000 93.685989380 198.93859863 2.1045000553  -999.250000 2.0741999149
 2038.0941162 12.000000000 12.401899338 12.250000954 21.759506226 -0.021998238  -999.250000 0.1678999960 2.5007166862 4.4099755287 37.581184387  -999.250000 92.233901978 198.68859863 2.1914999485  -999.250000 2.1212999821
 2038.2464600 12.000000000 12.420498848 12.250000954 21.550437927 -0.020892547  -999.250000 0.1621000022 2.5111186504 4.4571309090 39.255481720  -999.250000 89.608192444 197.42779541 2.2281000614  -999.250000 2.1651999950
 2038.3989258 12.000000000 12.423600197 12.250000954 21.849065781 -0.011598559  -999.250000 0.1534000039 2.5341844559 4.7450833321 39.602931976  -999.250000 86.585189819 194.50610352 2.3139998913  -999.250000 2.2397000790
 2038.5512695 12.000000000 12.398401260 12.250000954 21.635074615 -0.010697917  -999.250000 0.1473000050 2.5244905949 4.7970695496 38.187931061  -999.250000 85.452903748 194.67840576 2.3640000820  -999.250000 2.2725999355
 2038.7037354 12.000000000 12.387200356 12.250000954 21.106319427 -0.008108807  -999.250000 0.1431999952 2.5129435062 4.7589421272 38.481407166  -999.250000 85.493797302 196.13009644 2.2551999092  -999.250000 2.2040998936
 2038.8560791 12.000000000 12.414199829 12.250000954 21.528614044 -0.013600240  -999.250000 0.1464000046 2.4776775837 4.5979585648 39.359802246  -999.250000 87.573104858 198.63877869 2.0680000782  -999.250000 2.0344998837
 2039.0084229 12.000000000 12.417798996 12.250000954 22.845199585 -0.013898639  -999.250000 0.1545999944 2.4496879578 4.4213681221 41.357799530  -999.250000 92.459701538 204.30780029 1.8698999882  -999.250000 1.8393000364
 2039.1608887 12.000000000 12.413000107 12.250000954 24.960884094 -0.012199119  -999.250000 0.1685000062 2.4345197678 4.2568411827 44.230049133  -999.250000 95.875900269 207.82189941 1.6920000315  -999.250000 1.6756000519
 2039.3132324 12.000000000 12.401101112 12.250000954 25.277832031 -0.011101041  -999.250000 0.1840000004 2.4591217041 4.3082652092 45.783241272  -999.250000 97.148597717 212.40719604 1.6234999895  -999.250000 1.6081999540
 2039.4656982 12.000000000 12.404700279 12.250000954 26.028345108 -0.012402244  -999.250000 0.1904000044 2.4861047268 4.6391816139 45.337127686  -999.250000 95.081199646 216.91778564 1.8154000044  -999.250000 1.7503999472
 2039.6180420 12.000000000 12.408800125 12.250000954 27.419113159 -0.015201041  -999.250000 0.1777999997 2.4919657707 4.6159725189 44.627250671  -999.250000 92.601196289 216.16459656 1.9615999460  -999.250000 1.8394000530
 2039.7705078 12.000000000 12.436100960 12.250000954 28.831817627 -0.016496314  -999.250000 0.1705999970 2.4491939545 4.4565777779 46.938602448  -999.250000 94.623291016 216.72212219 1.7404999733  -999.250000 1.6868000031
 2039.9228516 12.000000000 12.423200607 12.250000954 28.172002792 -0.011899760  -999.250000 0.1796000004 2.4418013096 4.1794724464 47.933742523  -999.250000 99.066902161 209.87466431 1.6194000244  -999.250000 1.6155999899
 2040.0753174 12.000000000 12.399800301 12.250000954 29.506597519 -0.011596157  -999.250000 0.1940000057 2.4432594776 4.5192532539 44.987224579  -999.250000 101.30770111 204.07739258 1.6184999943  -999.250000 1.6799000502
 2040.2276611 12.000000000 12.414500237 12.250000954 29.732793808 -0.009200481  -999.250000 0.1905000061 2.4803125858 4.8022556305 41.758026123  -999.250000 96.668098450 210.04359436 1.9845000505  -999.250000 1.9565000534
 2040.3801270 12.000000000 12.428601265 12.250000954 29.137420654 -0.009797278  -999.250000 0.1703000069 2.4962041378 4.9956760406 38.668487549  -999.250000 89.465103149 208.82980347 2.2646999359  -999.250000 2.1647999287
 2040.5324707 12.000000000 12.444400787 12.250000954 27.265670776 -0.008097917  -999.250000 0.1623000056 2.4987998009 4.8557195663 37.290683746  -999.250000 88.919700623 208.93331909 2.1765000820  -999.250000 2.1268999577
 2040.6849365 12.000000000 12.479000092 12.250000954 25.943069458 -0.005498079  -999.250000 0.1632000059 2.4983911514 4.6311655045 39.892772675  -999.250000 90.386901855 201.33790588 2.0604000092  -999.250000 2.0343999863
 2040.8372803 12.000000000 12.418199539 12.250000954 26.448995590 -0.004304407  -999.250000 0.1713999957 2.4929075241 4.6097841263 44.241699219  -999.250000 94.049110413 191.91769409 1.9651000500  -999.250000 1.9905999899
 2040.9896240 12.000000000 12.419999123 12.250000954 25.439048767 -0.009803843  -999.250000 0.1756999940 2.5023987293 4.5904011726 44.983139038  -999.250000 97.428588867 190.88671875 2.0845999718  -999.250000 2.0685000420
 2041.1420898 12.000000000 12.378199577 12.250000954 24.710227966 -0.014603927  -999.250000 0.1704999954 2.5009100437 4.7164855003 40.538425446  -999.250000 94.342407227 188.75289917 2.3740000725  -999.250000 2.2648000717
 2041.2944336 12.000000000 12.374600410 12.250000954 23.798179626 -0.019497359  -999.250000 0.1554999948 2.5133094788 4.8232417107 36.579738617  -999.250000 86.891906738 188.31970215 2.6833999157  -999.250000 2.5336999893
 2041.4468994 12.000000000 12.341698647 12.250000954 22.915483475 -0.016197756  -999.250000 0.1383000016 2.5252039433 4.8753037453 35.376583099  -999.250000 86.127006531 187.80941772 2.8485999107  -999.250000 2.7214999199
 2041.5992432 12.000000000 12.366499901 12.250000954 21.848875046 -0.013395196  -999.250000 0.1317999959 2.5303156376 4.8800621033 33.111316681  -999.250000 82.677200317 188.55479431 2.8980000019  -999.250000 2.8039999008
 2041.7517090 12.000000000 12.416399956 12.250000954 21.592573166 -0.007400721  -999.250000 0.1316000074 2.5498950481 4.8330936432 32.136913300  -999.250000 83.604896545 190.13150024 2.8401999474  -999.250000 2.7653999329
 2041.9040527 12.000000000 12.400199890 12.250000954 22.478782654 -0.008299599  -999.250000 0.1353999972 2.5436031818 4.8252463341 34.400093079  -999.250000 85.574600220 191.21510315 2.7304999828  -999.250000 2.7012999058
 2042.0565186 12.000000000 12.398401260 12.250000954 24.252309799 -0.007806565  -999.250000 0.1392000020 2.5473704338 4.7577972412 36.387378693  -999.250000 91.704597473 188.64709473 2.6075000763  -999.250000 2.5829999447
 2042.2088623 12.000000000 12.353000641 12.250000954 25.079111099 -0.011899039  -999.250000 0.1437000036 2.5288996696 4.6934471130 37.122612000  -999.250000 87.807304382 187.36683655 2.4988000393  -999.250000 2.4665000439
 2042.3613281 12.000000000 12.411499977 12.250000954 24.725214005 -0.010706086  -999.250000 0.1462000012 2.5284914970 4.6275687218 37.136875153  -999.250000 89.581703186 189.96809387 2.4230999947  -999.250000 2.3775999546
