# LAS format log file from PETREL
# Project units are specified as depth units
#==================================================================
~Version information
VERS.   2.0:
WRAP.   NO:
#==================================================================
~Well
STRT .m      734.31201172 :
STOP .m      2361.9440918 :
STEP .m     0.00000000 :
NULL .        -999.250000 :
COMP.           : COMPANY
WELL.  16/2-11 A Johan Sverdrup Appr   : WELL
FLD.            : FIELD
LOC.            : LOCATION
SRVC.           : SERVICE COMPANY
DATE.  2018-09-11 14:48:07   : Log Export Date {yyyy-MM-dd HH:mm:ss}
PROV.           : PROVINCE
UWI.   16/2-11 A   : UNIQUE WELL ID
API.            : API NUMBER
#==================================================================
~Curve
DEPT .m                   : DEPTH
Lithology_geolink ._      : Lithology_geolink
CALI .in                  : CALI
BS .in                    : BS
ROP .m/h                  : ROP
DRHO .g/cm3               : DRHO
THOR .ppm                 : THOR
NPHI .m3/m3               : NPHI
RHOB .g/cm3               : RHOB
PEF .b/e                  : PEF
GR .gAPI                  : GR
URAN .ppm                 : URAN
DTC .us/ft                : DTC
DTS .us/ft                : DTS
RDEP .ohm.m               : RDEP
RMIC .ohm.m               : RMIC
RMED .ohm.m               : RMED
~Parameter
#==================================================================
~Ascii
# ...
 2358.2866211 5.0000000000 8.5426998138 8.5000000000 122.11141968 0.0026814104  -999.250000 0.2060000002 2.4379243851 3.2917411327 73.887443542  -999.250000  -999.250000  -999.250000 2.1184000969  -999.250000 2.1161000729
 2358.4389648 5.0000000000 8.5875997543 8.5000000000 102.57199097 -0.008903686  -999.250000 0.2187000066 2.4530129433 3.1927967072 77.780868530  -999.250000  -999.250000  -999.250000 2.6289999485  -999.250000 2.5648000240
 2358.5913086 5.0000000000 8.5216999054 8.5000000000 75.868957520 -0.011192960  -999.250000 0.2511000037 2.3987417221 3.1906974316 79.753837585  -999.250000  -999.250000  -999.250000 2.4428000450  -999.250000 2.4080998898
 2358.7436523 5.0000000000 8.5408000946 8.5000000000 68.416015625 -0.006800000  -999.250000 0.2246000022 2.3624999523 3.1891000271 80.152099609  -999.250000  -999.250000  -999.250000 1.9247000217  -999.250000 1.9264999628
 2358.8962402 5.0000000000 8.5914001465 8.5000000000 68.344345093 -0.004502083  -999.250000 0.2162999958 2.3653552532 3.2844986916 78.668670654  -999.250000  -999.250000  -999.250000 1.8602999449  -999.250000 1.8847999573
 2359.0485840 5.0000000000 8.5670995712 8.5000000000 67.227951050 -0.005791506  -999.250000 0.2157000005 2.3998301029 3.2837693691 77.282318115  -999.250000  -999.250000  -999.250000 2.0515999794  -999.250000 2.0662000179
 2359.2009277 5.0000000000 8.5663995743 8.5000000000 63.297370911 -0.000497280  -999.250000 0.2166000009 2.4185032845 3.3270168304 77.786743164  -999.250000  -999.250000  -999.250000 2.0940999985  -999.250000 2.0973000526
 2359.3532715 5.0000000000 8.5638999939 8.5000000000 60.916011810 0.0012000001  -999.250000 0.2017000020 2.4205999374 3.3375999928 76.567596436  -999.250000  -999.250000  -999.250000 2.0962998867  -999.250000 2.0924999714
 2359.5056152 5.0000000000 8.5516004562 8.5000000000 56.732936859 -0.000500000  -999.250000 0.2249999940 2.4117999077 3.3480000496 76.601303101  -999.250000  -999.250000  -999.250000 2.0866000652  -999.250000 2.0892999172
 2359.6582031 5.0000000000 8.5598001480 8.5000000000 53.431892395 -0.001000321  -999.250000 0.1988999993 2.3997850418 3.2054176331 74.086769104  -999.250000  -999.250000  -999.250000 2.0466001034  -999.250000 2.0559000969
 2359.8105469 5.0000000000 8.5614995956 8.5000000000 50.248996735 -0.001199680  -999.250000 0.2149000019 2.3905048370 3.1541929245 73.508949280  -999.250000  -999.250000  -999.250000 2.0337998867  -999.250000 2.0439000130
 2359.9628906 5.0000000000 8.5784997940 8.5000000000 52.694225311 -0.001000000  -999.250000 0.2208999991 2.3935000896 3.1498000622 73.912200928  -999.250000  -999.250000  -999.250000 2.0543000698  -999.250000 2.0697000027
 2360.1152344 5.0000000000 8.5797996521 8.5000000000 61.051837921 -0.004300000  -999.250000  -999.250000 2.3952999115 3.1795001030 74.915802002  -999.250000  -999.250000  -999.250000 2.0583000183  -999.250000 2.0673000813
 2360.2678223 5.0000000000 8.5832996368 8.5000000000 61.919281006 -0.002899359  -999.250000  -999.250000 2.4067022800 3.2628467083 76.454086304  -999.250000  -999.250000  -999.250000 2.0446999073  -999.250000 2.0541000366
 2360.4201660 5.0000000000 8.5679998398 8.5000000000 52.718074799 -0.002501763  -999.250000  -999.250000 2.4082086086 3.2296202183 75.322967529  -999.250000  -999.250000  -999.250000 2.0448999405  -999.250000 2.0487000942
 2360.5725098 5.0000000000 8.5415000916 8.5000000000 54.707839966 -0.003599360  -999.250000  -999.250000 2.4135999680 3.2422466278 74.992179871  -999.250000  -999.250000  -999.250000 2.0736000538  -999.250000 2.0755000114
 2360.7248535 5.0000000000 8.5433998108 8.5000000000 59.517387390 -0.003200000  -999.250000  -999.250000 2.4135999680 3.2088999748 75.476501465  -999.250000  -999.250000  -999.250000  -999.250000  -999.250000  -999.250000
 2360.8774414 5.0000000000 8.5569000244 8.5000000000 63.226737976 -0.004400320  -999.250000  -999.250000 2.4196119308 3.2906301022 75.187927246  -999.250000  -999.250000  -999.250000  -999.250000  -999.250000  -999.250000
 2361.0297852 5.0000000000 8.6023998260 8.5000000000 65.903472900 -0.004602404  -999.250000  -999.250000 2.4270055294 3.3093779087 73.831924438  -999.250000  -999.250000  -999.250000  -999.250000  -999.250000  -999.250000
 2361.1821289 5.0000000000 8.6017999649 8.5000000000 66.682395935 -0.006096000  -999.250000  -999.250000 2.4304015636 3.3580069542 74.164779663  -999.250000  -999.250000  -999.250000  -999.250000  -999.250000  -999.250000
 2361.3344727 5.0000000000 8.5797996521 8.5000000000 68.512138367 -0.003600000  -999.250000  -999.250000 2.4314000607 3.3622999191 77.337600708  -999.250000  -999.250000  -999.250000  -999.250000  -999.250000  -999.250000
 2361.4868164 5.0000000000 8.5925998688 8.5000000000 67.454399109 -0.001800000  -999.250000  -999.250000 2.4233999252 3.4254999161 83.350898743  -999.250000  -999.250000  -999.250000  -999.250000  -999.250000  -999.250000
 2361.6394043 5.0000000000 8.5963001251 8.5000000000 67.613136292 0.0019961540  -999.250000  -999.250000 2.4216046333 3.3668813705 85.162025452  -999.250000  -999.250000  -999.250000  -999.250000  -999.250000  -999.250000
 2361.7917480  -999.250000 8.5930004120 8.5000000000 61.264423370 -0.000401920  -999.250000  -999.250000 2.4244291782 3.4174535275 87.296165466  -999.250000  -999.250000  -999.250000  -999.250000  -999.250000  -999.250000
 2361.9440918  -999.250000 8.5900001526 8.5000000000 73.952102661 -0.001600000  -999.250000  -999.250000 2.4426000118 3.3884999752 87.964500427  -999.250000  -999.250000  -999.250000  -999.250000  -999.250000  -999.250000
