# LAS format log file from PETREL
# Project units are specified as depth units
#==================================================================
~Version information
VERS.   2.0:
WRAP.   NO:
#==================================================================
~Well
STRT .m      684.17242432 :
STOP .m      2208.3249512 :
STEP .m     0.00000000 :
NULL .        -999.250000 :
COMP.           : COMPANY
WELL.  16/2-16   : WELL
FLD.            : FIELD
LOC.            : LOCATION
SRVC.           : SERVICE COMPANY
DATE.  2018-09-11 14:48:07   : Log Export Date {yyyy-MM-dd HH:mm:ss}
PROV.           : PROVINCE
UWI.   16/2-16   : UNIQUE WELL ID
API.            : API NUMBER
#==================================================================
~Curve
DEPT .m                   : DEPTH
Lithology_geolink ._      : Lithology_geolink
CALI .in                  : CALI
BS .in                    : BS
ROP .m/h                  : ROP
DRHO .g/cm3               : DRHO
THOR .ppm                 : THOR
NPHI .m3/m3               : NPHI
RHOB .g/cm3               : RHOB
PEF .b/e                  : PEF
GR .gAPI                  : GR
URAN .ppm                 : URAN
DTC .us/ft                : DTC
DTS .us/ft                : DTS
RDEP .ohm.m               : RDEP
RMED .ohm.m               : RMED
~Parameter
#==================================================================
~Ascii
# ...
 987.29608154  -999.250000 12.407099724 12.250000954 94.230140686 -0.016399359  -999.250000 0.5397999883 1.8673000336 2.8368999958 89.746597290  -999.250000 148.24133301  -999.250000 0.9947753549 0.9976000190
 987.44842529  -999.250000 12.391699791 12.250000954 93.601631165 -0.015596035  -999.250000 0.5396999717 1.8610999584 2.5632998943 84.662399292  -999.250000 148.90124512  -999.250000 0.9641000628 0.9607999921
 987.60083008  -999.250000 12.372400284 12.250000954 88.496383667 -0.005701602  -999.250000 0.5457000136 1.8690999746 2.6500999928 83.353103638  -999.250000 150.04147339  -999.250000 0.9641982913 0.9743999839
 987.75323486  -999.250000 12.369199753 12.250000954 88.475959778 -0.009700041  -999.250000 0.5376999974 1.8634999990 2.7198998928 87.193603516  -999.250000 150.46864319  -999.250000 0.9599000216 0.9596999884
 987.90563965  -999.250000 12.364199638 12.250000954 89.063796997 -0.009800240  -999.250000 0.5763999820 1.8468999863 2.8419001102 90.030296326  -999.250000 150.58125305  -999.250000 0.9598982334 0.9596999884
 988.05804443  -999.250000 12.402600288 12.250000954 91.069915771 -0.010398999  -999.250000 0.5588999987 1.8309999704 2.8389999866 89.310203552  -999.250000 150.20939636  -999.250000 0.9553850293 0.9391999841
 988.21044922  -999.250000 12.397999763 12.250000954 104.25680542 -0.007900240  -999.250000 0.5564000010 1.8250999451 2.9588999748 87.848197937  -999.250000 149.91282654  -999.250000 0.9180090427 0.9273999929
 988.36285400  -999.250000 12.369400024 12.250000954 105.68176270 -0.008498439  -999.250000 0.5174999833 1.8360999823 3.1884999275 87.259101868  -999.250000 149.22819519  -999.250000 0.9406091571 0.9395999908
 988.51525879  -999.250000 12.387000084 12.250000954 104.03430939 -0.004600641  -999.250000 0.4966999888 1.8596999645 3.4616000652 88.175498962  -999.250000 148.44845581  -999.250000 0.9635021091 0.9592999816
 988.66766357  -999.250000 12.432299614 12.250000954 102.05238342 -0.006194514  -999.250000 0.4747000039 1.8651000261 3.9326000214 92.474296570  -999.250000 147.34875488  -999.250000 0.9687044024 0.9628000259
 988.82006836  -999.250000 12.455599785 12.250000954 91.942321777 0.0075004003  -999.250000 0.4828000069 1.8902000189 3.9247999191 94.926902771  -999.250000 146.74450684  -999.250000 0.9796997905 0.9763000011
 988.97247314  -999.250000 12.434301376 12.250000954 88.826034546 0.0085005211  -999.250000 0.5133000016 1.8717999458 3.6809999943 91.487998962  -999.250000 146.51477051  -999.250000 0.9790960550 0.9763000011
 989.12487793  -999.250000 12.404000282 12.250000954 85.348197937 0.0097929519  -999.250000 0.5738999844 1.8669999838 3.4981000423 89.646301270  -999.250000 146.92434692  -999.250000 0.9692960382 0.9671000242
 989.27728271  -999.250000 12.370600700 12.250000954 85.881118774 0.0009918303  -999.250000 0.5838000178 1.8578000069 3.0594999790 93.281600952  -999.250000 147.23495483  -999.250000 0.9644035697 0.9696999788
 989.42968750  -999.250000 12.372499466 12.250000954 84.505355835 -0.009195996  -999.250000 0.6208999753 1.8753999472 2.8062999249 95.741996765  -999.250000 146.18208313  -999.250000 0.9689276814 0.9707000256
 989.58203125  -999.250000 12.417699814 12.250000954 84.641853333 -0.004203003  -999.250000 0.6564999819 1.9352999926 3.0574998856 97.253097534  -999.250000 144.54534912  -999.250000 1.0034126043 0.9980999827
 989.73443604  -999.250000 12.451700211 12.250000954 83.304214478 -0.011699279  -999.250000 0.6450999975 1.9433000088 3.2160000801 101.24079895  -999.250000 142.91116333  -999.250000 1.0351051092 1.0320999622
 989.88684082  -999.250000 12.436400414 12.250000954 85.948181152 -0.009896836  -999.250000 0.6187000275 1.9379999638 3.5201001167 100.54799652  -999.250000 143.34965515  -999.250000 1.0479788780 1.0434000492
 990.03924561  -999.250000 12.621600151 12.250000954 83.537345886 -0.001999520  -999.250000 0.6297000051 1.9197000265 3.8643000126 96.794799805  -999.250000 144.72990417  -999.250000 0.9953033924 1.0016000271
 990.19165039  -999.250000 12.725299835 12.250000954 80.958694458 -0.000802563  -999.250000 0.6187999845 1.8906999826 3.6129999161 99.162399292  -999.250000 146.74176025  -999.250000 1.0038077831 0.9947999716
 990.34405518  -999.250000 12.696998596 12.250000954 86.758476257 -0.007200320  -999.250000 0.6189000010 1.8593000174 3.5782001019 103.43930054  -999.250000 148.86080933  -999.250000 1.0232090950 1.0157999992
 990.49645996  -999.250000 12.491600037 12.250000954 89.085556030 -0.007997878  -999.250000 0.5733000040 1.8472000360 3.5350000858 104.43209839  -999.250000 149.40148926  -999.250000 1.0458114147 1.0341999531
 990.64886475  -999.250000 12.268199921 12.250000954 96.292243958 -0.002701322  -999.250000 0.5633000135 1.8552000523 3.6651000977 106.18869781  -999.250000 149.38148499  -999.250000 1.0743074417 1.0647000074
 990.80126953  -999.250000 12.324700356 12.250000954 95.260353088 -0.005997557  -999.250000 0.5473999977 1.8467999697 3.5866000652 105.38140106  -999.250000 149.33966064  -999.250000 1.0926963091 1.0736999512
 990.95367432  -999.250000 12.389599800 12.250000954 95.711791992 0.0001005607  -999.250000 0.5011000037 1.8623000383 3.9755001068 99.871597290  -999.250000 149.76403809  -999.250000 1.0836074352 1.0724999905
 991.10607910  -999.250000 12.439100266 12.250000954 95.339759827 0.0014981570  -999.250000 0.5146999955 1.8631999493 3.5344998837 97.263999939  -999.250000 147.85447693  -999.250000 1.1021072865 1.0874999762
 991.25848389  -999.250000 12.446499825 12.250000954 95.804176331 -0.003098398  -999.250000 0.5138999820 1.8612999916 3.4526000023 99.195098877  -999.250000 146.78776550  -999.250000 1.1201961040 1.1093000174
 991.41088867  -999.250000 12.454700470 12.250000954 92.176147461 -0.001106328  -999.250000 0.5303000212 1.8926000595 3.3322000504 99.933403015  -999.250000 145.98240662  -999.250000 1.1152799129 1.1121000051
 991.56329346  -999.250000 12.508299828 12.250000954 95.409805298 -0.008994233  -999.250000 0.4859000146 1.9090000391 3.4804000854 98.304100037  -999.250000 146.36584473  -999.250000 1.0901064873 1.0834000111
 991.71563721  -999.250000 12.593600273 12.250000954 98.316696167 -0.001801722  -999.250000 0.4882000089 1.9071999788 3.5882000923 97.958602905  -999.250000 147.17413330  -999.250000 1.0981055498 1.0841000080
 991.86804199  -999.250000 12.696998596 12.250000954 99.369873047 -0.006099119  -999.250000 0.5076000094 1.8760000467 3.6143999100 96.194702148  -999.250000 146.52143860  -999.250000 1.1120082140 1.0956000090
 992.02044678  -999.250000 12.500399590 12.250000954 99.671134949 -0.003902923  -999.250000 0.5525000095 1.8564000130 3.4368999004 93.598098755  -999.250000 145.37107849  -999.250000 1.1324717999 1.1213999987
 992.17285156  -999.250000 12.468400002 12.250000954 100.18521881 -0.011196916  -999.250000 0.5766000152 1.8824000359 3.3696999550 94.459999084  -999.250000 143.81170654  -999.250000 1.0618826151 1.0616999865
 992.32525635  -999.250000 12.530599594 12.250000954 98.985343933 -0.003500921  -999.250000 0.5583000183 1.9196000099 3.7079999447 99.129699707  -999.250000 143.08612061  -999.250000 1.0185272694 1.0034999847
 992.47766113  -999.250000 12.610099792 12.250000954 99.241119385 -0.005798718  -999.250000 0.5586000085 1.9391000271 3.3506000042 103.34110260  -999.250000 143.12232971  -999.250000 1.0868268013 1.0734000206
 992.63006592  -999.250000 12.641999245 12.250000954 95.904495239 -0.002600040  -999.250000 0.5497999787 1.9423999786 3.3687000275 101.63909912  -999.250000 143.45887756  -999.250000 1.1537111998 1.1354999542
 992.78247070  -999.250000 12.693301201 12.250000954 92.560150146 -0.002697157  -999.250000 0.5451999903 1.9447000027 3.3643999100 98.765998840  -999.250000 143.16067505  -999.250000 1.1818023920 1.1721999645
 992.93487549  -999.250000 12.697299004 12.250000954 93.652236938 0.0043977974  -999.250000 0.5198000073 1.9364999533 3.6463000774 98.533203125  -999.250000 142.35911560  -999.250000 1.1877044439 1.1684999466
 993.08728027  -999.250000 12.702099800 12.250000954 91.212738037 -0.001101002  -999.250000 0.5329999924 1.9544999599 3.4535000324 99.071502686  -999.250000 141.40798950  -999.250000 1.1987086535 1.1862000227
