# LAS format log file from PETREL
# Project units are specified as depth units
#==================================================================
~Version information
VERS.   2.0:
WRAP.   NO:
#==================================================================
~Well
STRT .m      734.31201172 :
STOP .m      2361.9440918 :
STEP .m     0.00000000 :
NULL .        -999.250000 :
COMP.           : COMPANY
WELL.  16/2-11 A Johan Sverdrup Appr   : WELL
FLD.            : FIELD
LOC.            : LOCATION
SRVC.           : SERVICE COMPANY
DATE.  2018-09-11 14:48:07   : Log Export Date {yyyy-MM-dd HH:mm:ss}
PROV.           : PROVINCE
UWI.   16/2-11 A   : UNIQUE WELL ID
API.            : API NUMBER
#==================================================================
~Curve
DEPT .m                   : DEPTH
Lithology_geolink ._      : Lithology_geolink
CALI .in                  : CALI
BS .in                    : BS
ROP .m/h                  : ROP
DRHO .g/cm3               : DRHO
THOR .ppm                 : THOR
NPHI .m3/m3               : NPHI
RHOB .g/cm3               : RHOB
PEF .b/e                  : PEF
GR .gAPI                  : GR
URAN .ppm                 : URAN
DTC .us/ft                : DTC
DTS .us/ft                : DTS
RDEP .ohm.m               : RDEP
RMIC .ohm.m               : RMIC
RMED .ohm.m               : RMED
~Parameter
#==================================================================
~Ascii
# ...
 1067.0012207  -999.250000 12.309700012 12.250000954 77.821517944 -0.010600000  -999.250000 0.4512000084 2.0469000340 3.9670000076 119.74069977  -999.250000 142.01109314  -999.250000 1.5262999535  -999.250000 1.4980000257
 1067.1535645  -999.250000 12.306100845 12.250000954 87.413391113 -0.014300000  -999.250000 0.4890696704 2.0401000977 4.1114997864 116.19709778  -999.250000 142.61781311  -999.250000 1.5513797998  -999.250000 1.5469608307
 1067.3060303  -999.250000 12.303399086 12.250000954 91.696189880 -0.015300000  -999.250000 0.4781999886 2.0438001156 3.9642999172 115.57170105  -999.250000 142.12950134  -999.250000 1.5717999935  -999.250000 1.5585000515
 1067.4583740  -999.250000 12.300700188 12.250000954 96.575790405 -0.013600000  -999.250000 0.4884917438 2.0592999458 3.8750998974 122.12629700  -999.250000 140.80935669  -999.250000 1.5906848907  -999.250000 1.5993672609
 1067.6108398  -999.250000 12.303699493 12.250000954 101.45013428 -0.011300000  -999.250000 0.4476000071 2.0815000534 3.7869000435 130.39480591  -999.250000 140.20190430  -999.250000 1.6373000145  -999.250000 1.6283999681
 1067.7631836  -999.250000 12.305199623 12.250000954 102.46719360 -0.012100000  -999.250000 0.4754776359 2.0796000957 3.9612998962 133.72990417  -999.250000 138.80003357  -999.250000 1.6175158024  -999.250000 1.6240035295
 1067.9156494  -999.250000 12.308400154 12.250000954 109.35400391 -0.005600000  -999.250000 0.4652000070 2.0754001141 4.1847000122 131.87710571  -999.250000 136.61689758  -999.250000 1.6644999981  -999.250000 1.6759999990
 1068.0679932  -999.250000 12.309700012 12.250000954 116.62532806 -0.007800000  -999.250000 0.4970744550 2.0632998943 4.1356000900 131.55279541  -999.250000 135.11170959  -999.250000 1.7289483547  -999.250000 1.7236618996
 1068.2203369  -999.250000 12.324500084 12.250000954 118.30611420 -0.001100000  -999.250000 0.4692223370 2.0745999813 4.0686001778 132.78030396  -999.250000 130.81504822  -999.250000 1.7274012566  -999.250000 1.7476807833
 1068.3728027  -999.250000 12.332301140 12.250000954 118.67651367 -0.007900000  -999.250000 0.4512144327 2.0817999840 4.1215000153 131.62229919  -999.250000 133.70158386  -999.250000 1.6857334375  -999.250000 1.7065330744
 1068.5251465  -999.250000 12.302499771 12.250000954 112.68044281 -0.001100000  -999.250000 0.4436060786 2.1198999882 4.5423002243 129.00509644  -999.250000 133.88436890  -999.250000 1.6380382776  -999.250000 1.6607366800
 1068.6776123  -999.250000 12.322199821 12.250000954 108.63713837 -0.004200000  -999.250000 0.4539000094 2.1473999023 4.9523000717 126.52690125  -999.250000 132.71949768  -999.250000 1.5901999474  -999.250000 1.6140999794
 1068.8299561  -999.250000 12.345700264 12.250000954 95.649932861 -0.002300000  -999.250000 0.4799790978 2.1872000694 5.2459001541 124.04869843  -999.250000 131.39546204  -999.250000 1.5766108036  -999.250000 1.5910184383
 1068.9824219  -999.250000 12.343099594 12.250000954 95.751968384 -0.000500000  -999.250000 0.4821000099 2.2149000168 5.5043997765 121.82520294  -999.250000 129.46449280  -999.250000 1.5880000591  -999.250000 1.5829000473
 1069.1347656  -999.250000 12.288999557 12.250000954 93.166343689 0.0077999998  -999.250000 0.5110767484 2.2602000237 5.5085000992 122.28839874  -999.250000 126.08621216  -999.250000 1.5824044943  -999.250000 1.5827001333
 1069.2872314  -999.250000 12.289401054 12.250000954 91.736221313 0.0218000002  -999.250000 0.5483999848 2.2697000504 5.6399998665 122.79799652  -999.250000 125.13449860  -999.250000 1.6207000017  -999.250000 1.6123000383
 1069.4395752  -999.250000 12.289898872 12.250000954 90.708335876 0.0229000002  -999.250000 0.5238196850 2.2550001144 5.4864001274 118.98799896  -999.250000 123.61231995  -999.250000 1.6892449856  -999.250000 1.6505693197
 1069.5920410  -999.250000 12.326800346 12.250000954 85.000656128 0.0093999999  -999.250000 0.5011000037 2.2195000648 5.2625999451 116.70659637  -999.250000 124.07619476  -999.250000 1.7555999756  -999.250000 1.6988999844
 1069.7443848  -999.250000 12.338600159 12.250000954 84.847442627 -0.003200000  -999.250000 0.5082942247 2.1900999546 4.6477999687 119.12689972  -999.250000 128.08049011  -999.250000 1.7174305916  -999.250000 1.7053947449
 1069.8968506  -999.250000 12.319500923 12.250000954 87.300201416 -0.009400000  -999.250000 0.4909999967 2.1696000099 4.2150998116 120.48190308  -999.250000 129.82600403  -999.250000 1.5527000427  -999.250000 1.5498000383
 1070.0491943  -999.250000 12.298000336 12.250000954 90.483924866 -0.010900000  -999.250000 0.4829064906 2.1496999264 3.8076999187 122.10310364  -999.250000 132.45588684  -999.250000 1.4536794424  -999.250000 1.4584732056
 1070.2015381  -999.250000 12.315099716 12.250000954 95.255905151 -0.015900001  -999.250000 0.4304420948 2.1422998905 3.5599000454 124.30339813  -999.250000 132.61959839  -999.250000 1.4186279774  -999.250000 1.4244272709
 1070.3540039  -999.250000 12.326599121 12.250000954 104.11843872 -0.020199999  -999.250000 0.4698683918 2.1386001110 3.4616999626 124.23390198  -999.250000 129.90049744  -999.250000 1.4124050140  -999.250000 1.3981211185
 1070.5063477  -999.250000 12.344900131 12.250000954 103.36253357 -0.013400000  -999.250000 0.4742964804 2.1472001076 3.4797999859 122.51999664  -999.250000 127.86920166  -999.250000 1.3837230206  -999.250000 1.3654261827
 1070.6588135  -999.250000 12.269200325 12.250000954 106.54330444 -0.011800000  -999.250000 0.4941000044 2.1403999329 3.4072000980 113.62619781  -999.250000 127.59751129  -999.250000 1.3351999521  -999.250000 1.3269000053
 1070.8111572  -999.250000 12.272999763 12.250000954 106.79592896 -0.008700000  -999.250000 0.5044916272 2.1421999931 3.3076999187 96.324996948  -999.250000 127.42040253  -999.250000 1.0767071247  -999.250000 1.0696060658
 1070.9636230  -999.250000 12.276398659 12.250000954 109.28675079 -0.011900000  -999.250000 0.4483000040 2.1098999977 3.3268001080 77.888900757  -999.250000 127.77709961  -999.250000 0.8707000017  -999.250000 0.8730999827
 1071.1159668  -999.250000 12.300700188 12.250000954 121.17486572 -0.004900000  -999.250000 0.4002000093 2.1098001003 3.4186999798 65.103996277  -999.250000 133.80130005  -999.250000 0.8135457635  -999.250000 0.8183438778
 1071.2684326  -999.250000 12.297100067 12.250000954 122.43077087 -0.006100000  -999.250000 0.3195999861 2.0824999809 3.3894000053 58.387401581  -999.250000 134.37629700  -999.250000 0.7688000202  -999.250000 0.7785000205
 1071.4207764  -999.250000 12.291700363 12.250000954 120.40420532 -0.010100000  -999.250000 0.2991000116 2.0905001163 2.5989000797 52.574001312  -999.250000 135.12429810  -999.250000 0.7813899517  -999.250000 0.7815974951
 1071.5732422  -999.250000 12.277299881 12.250000954 119.66371155 -0.018800000  -999.250000 0.2820000052 2.0618000031 2.3945999146 49.470401764  -999.250000 135.93350220  -999.250000 0.8057000041  -999.250000 0.7912999988
 1071.7255859  -999.250000 12.276901245 12.250000954 118.66798401 -0.019500000  -999.250000 0.2975000143 2.0622999668 2.3973999023 50.466300964  -999.250000 134.67669678  -999.250000 0.8057000041  -999.250000 0.7912999988
 1071.8780518  -999.250000 12.267100334 12.250000954 125.24245453 -0.012600000  -999.250000 0.3125999868 2.0611000061 2.7644000053 51.948600769  -999.250000 133.20329285  -999.250000 0.8126999736  -999.250000 0.8037999868
 1072.0303955  -999.250000 12.273098946 12.250000954 124.67813873 -0.009600000  -999.250000 0.3075999916 2.0708000660 3.0006000996 56.094398499  -999.250000 134.22019958  -999.250000 0.8101021051  -999.250000 0.8191876411
 1072.1828613  -999.250000 12.279100418 12.250000954 114.65386963 -0.013000000  -999.250000 0.3039999902 2.0578999519 3.3819000721 65.775703430  -999.250000 132.71629333  -999.250000 0.8718000054  -999.250000 0.8755000234
 1072.3352051  -999.250000 12.286699295 12.250000954 114.61615753 -0.017500000  -999.250000 0.2964000106 2.0527000427 3.8059000969 73.442001343  -999.250000 130.73030090  -999.250000 0.9796136618  -999.250000 0.9748204350
 1072.4875488  -999.250000 12.293501854 12.250000954 107.79232025 -0.015799999  -999.250000 0.3332000077 2.0585000515 4.2487001419 73.951499939  -999.250000 127.40999603  -999.250000 1.0551395416  -999.250000 1.0563346148
