# LAS format log file from PETREL
# Project units are specified as depth units
#==================================================================
~Version information
VERS.   2.0:
WRAP.   NO:
#==================================================================
~Well
STRT .m      703.83190918 :
STOP .m      2487.0642090 :
STEP .m     0.00000000 :
NULL .        -999.250000 :
COMP.           : COMPANY
WELL.  16/2-7 Johan Sverdrup Appr   : WELL
FLD.            : FIELD
LOC.            : LOCATION
SRVC.           : SERVICE COMPANY
DATE.  2018-09-11 14:48:07   : Log Export Date {yyyy-MM-dd HH:mm:ss}
PROV.           : PROVINCE
UWI.   16/2-7   : UNIQUE WELL ID
API.            : API NUMBER
#==================================================================
~Curve
DEPT .m                   : DEPTH
Lithology_geolink ._      : Lithology_geolink
CALI .in                  : CALI
BS .in                    : BS
ROP .m/h                  : ROP
DRHO .g/cm3               : DRHO
THOR .ppm                 : THOR
NPHI .m3/m3               : NPHI
RHOB .g/cm3               : RHOB
PEF .b/e                  : PEF
GR .gAPI                  : GR
URAN .ppm                 : URAN
DTC .us/ft                : DTC
DTS .us/ft                : DTS
RDEP .ohm.m               : RDEP
RMIC .ohm.m               : RMIC
RMED .ohm.m               : RMED
~Parameter
#==================================================================
~Ascii
# ...
 946.30035400  -999.250000 12.806799889 12.250000954 48.468833923 0.0189999994  -999.250000 0.4435999990 1.9788959026 3.2018077374 105.56269836  -999.250000 158.59429932  -999.250000 1.2961000204  -999.250000 1.2595000267
 946.45275879  -999.250000 12.791700363 12.250000954 54.334976196 0.0093999999  -999.250000 0.4778999984 1.9686993361 2.9716706276 102.86979675  -999.250000 158.56861877  -999.250000 1.2961028814  -999.250000 1.2594983578
 946.60516357  -999.250000 12.784399986 12.250000954 58.470474243 0.0071999999  -999.250000 0.5052999854 1.9668966532 2.8982219696 98.383003235  -999.250000 159.36471558  -999.250000 1.3033028841  -999.250000 1.2553982735
 946.75756836  -999.250000 12.805198669 12.250000954 64.364173889 0.0048000002  -999.250000 0.4792999923 1.9586962461 2.9527175426 97.385101318  -999.250000 160.12860107  -999.250000 1.3105112314  -999.250000 1.2513144016
 946.90997314  -999.250000 12.768500328 12.250000954 69.539695740 -0.005300000  -999.250000 0.4745999873 1.9494071007 2.7468123436 109.31140137  -999.250000 160.62886047  -999.250000 1.3385119438  -999.250000 1.2873153687
 947.06237793  -999.250000 12.763699532 12.250000954 55.904201508 0.0020000001  -999.250000 0.4796999991 1.9673032761 2.7775330544 96.715202332  -999.250000 161.06530762  -999.250000 1.3683999777  -999.250000 1.3256000280
 947.21478271  -999.250000 12.771500587 12.250000954 43.740814209 0.0068000001  -999.250000 0.4814999998 1.9751992226 2.8600895405 103.96739960  -999.250000 161.37014771  -999.250000 1.3683758974  -999.250000 1.3255752325
 947.36718750  -999.250000 12.776399612 12.250000954 43.302494049 0.0116999997  -999.250000 0.5011000037 1.9730994701 3.0838458538 104.43419647  -999.250000 161.98010254  -999.250000 1.3084000349  -999.250000 1.2637000084
 947.51959229  -999.250000 12.766098976 12.250000954 52.922241211 0.0136000002  -999.250000 0.4954000115 1.9720001221 3.1981036663 100.98909760  -999.250000 162.47666931  -999.250000 1.3083926439  -999.250000 1.2636939287
 947.67199707  -999.250000 12.762001038 12.250000954 104.50951385 0.0122999996  -999.250000 0.5429999828 1.9722946882 3.2068481445 107.12719727  -999.250000 162.39181519  -999.250000 1.2899900675  -999.250000 1.2485954762
 947.82440186  -999.250000 12.759899139 12.250000954 177.47047424 0.0066999998  -999.250000 0.5070999861 1.9655950069 3.0172946453 106.31770325  -999.250000 161.92195129  -999.250000 1.2776781321  -999.250000 1.2428871393
 947.97680664  -999.250000 12.754199982 12.250000954 200.90748596 0.0057000001  -999.250000 0.5213999748 1.9592981339 2.8858988285 92.995597839  -999.250000 161.50553894  -999.250000 1.2504863739  -999.250000 1.2267814875
 948.12915039  -999.250000 12.755600929 12.250000954 197.99703979 0.0114000002  -999.250000 0.5163000226 1.9568957090 3.0092883110 96.825798035  -999.250000 161.67985535  -999.250000 1.2335962057  -999.250000 1.2036948204
 948.28155518  -999.250000 12.763599396 12.250000954 181.80216980 0.0149999997  -999.250000 0.5794000030 1.9462976456 3.2293913364 95.594802856  -999.250000 161.81352234  -999.250000 1.2241963148  -999.250000 1.1909949780
 948.43395996  -999.250000 12.768600464 12.250000954 166.72309875 0.0113000004  -999.250000 0.5187000036 1.9404047728 2.9581358433 98.923797607  -999.250000 161.84361267  -999.250000 1.2151000500  -999.250000 1.1785999537
 948.58636475  -999.250000 12.770199776 12.250000954 153.01246643 0.0162000004  -999.250000 0.5182999969 1.9523022175 3.0472369194 113.85990143  -999.250000 162.38418579  -999.250000 1.2151181698  -999.250000 1.1786252260
 948.73876953  -999.250000 12.753199577 12.250000954 166.61843872 0.0098999999  -999.250000 0.5267999768 1.9579086304 2.8896491528 114.60389709  -999.250000 162.28895569  -999.250000 1.2603927851  -999.250000 1.2417911291
 948.89117432  -999.250000 12.750199318 12.250000954 167.73983765 0.0135000004  -999.250000 0.5230000019 1.9793055058 2.7626183033 116.08370209  -999.250000 161.69628906  -999.250000 1.2421952486  -999.250000 1.2198942900
 949.04357910  -999.250000 12.750100136 12.250000954 154.45504761 0.0116999997  -999.250000 0.5393000245 1.9929009676 2.8087358475 116.08370209  -999.250000 161.42643738  -999.250000 1.2303050756  -999.250000 1.2055032253
 949.19598389  -999.250000 12.778300285 12.250000954 145.57972717 0.0126999998  -999.250000 0.5191000104 1.9953023195 2.8978273869 102.09660339  -999.250000 161.78080750  -999.250000 1.2430069447  -999.250000 1.2136052847
 949.34838867  -999.250000 12.789400101 12.250000954 137.80314636 0.0194000024  -999.250000 0.4990000129 2.0010981560 2.9660789967 102.09660339  -999.250000 162.29910278  -999.250000 1.2604143620  -999.250000 1.2268158197
 949.50079346  -999.250000 12.788000107 12.250000954 145.50328064 0.0170000009  -999.250000 0.4896000028 1.9961994886 3.1631295681 103.18550110  -999.250000 162.29507446  -999.250000 1.2960941792  -999.250000 1.2664005756
 949.65319824  -999.250000 12.780698776 12.250000954 147.80151367 0.0124000004  -999.250000 0.5400000215 1.9948993921 2.9879209995 103.18550110  -999.250000 161.48643494  -999.250000 1.2813882828  -999.250000 1.2679964304
 949.80560303  -999.250000 12.774499893 12.250000954 148.78443909 0.0115000000  -999.250000 0.5637999773 1.9941018820 3.0142362118 104.02330017  -999.250000 161.90899658  -999.250000 1.2667593956  -999.250000 1.2634302378
 949.95800781  -999.250000 12.779000282 12.250000954 154.49803162 0.0115999999  -999.250000 0.5404999852 1.9964998960 3.0594332218 104.42780304  -999.250000 161.53671265  -999.250000 1.2160861492  -999.250000 1.1764762402
 950.11035156  -999.250000 12.783399582 12.250000954 154.79560852 0.0133999996  -999.250000 0.5170999765 1.9964001179 2.9762668610 95.265296936  -999.250000 160.90365601  -999.250000 1.1988035440  -999.250000 1.1469037533
 950.26275635  -999.250000 12.770399094 12.250000954 163.35563660 0.0118000004  -999.250000 0.5317000151 1.9965969324 2.8936624527 86.102699280  -999.250000 160.80055237  -999.250000 1.2077106237  -999.250000 1.1561082602
 950.41516113  -999.250000 12.747900009 12.250000954 188.64106750 0.0057000001  -999.250000 0.5465000272 1.9890030622 2.8003172874 88.687103271  -999.250000 160.69787598  -999.250000 1.2343133688  -999.250000 1.1767134666
 950.56756592  -999.250000 12.752499580 12.250000954 225.69818115 0.0148000000  -999.250000 0.5055999756 1.9967010021 3.0930323601 88.081001282  -999.250000 161.62663269  -999.250000 1.2675052881  -999.250000 1.2103058100
 950.71997070  -999.250000 12.737799644 12.250000954 247.87962341 0.0041999999  -999.250000 0.5116999745 1.9989948273 2.6746222973 87.925498962  -999.250000 161.73332214  -999.250000 1.2805989981  -999.250000 1.2250031233
 950.87237549  -999.250000 12.725399971 12.250000954 254.28674316 0.0027000001  -999.250000 0.4991999865 1.9861997366 2.7304177284 83.339797974  -999.250000 159.74871826  -999.250000 1.2780777216  -999.250000 1.2327812910
 951.02478027  -999.250000 12.723501205 12.250000954 260.53707886 0.0082000000  -999.250000 0.4866000116 1.9855954647 2.7743330002 83.339797974  -999.250000 157.78697205  -999.250000 1.2223875523  -999.250000 1.1860816479
 951.17718506  -999.250000 12.721799850 12.250000954 274.74868774 0.0052999998  -999.250000 0.5030999780 1.9743984938 2.6073799133 94.980400085  -999.250000 157.96238708  -999.250000 1.1913982630  -999.250000 1.1402978897
 951.32958984  -999.250000 12.731900215 12.250000954 250.57150269 0.0065000001  -999.250000 0.5345000029 1.9705996513 2.5571072102 94.489997864  -999.250000 158.19683838  -999.250000 1.1868020296  -999.250000 1.1348021030
 951.48199463  -999.250000 12.732700348 12.250000954 247.71817017 0.0081000002  -999.250000 0.5385000110 1.9695980549 2.5747387409 91.483596802  -999.250000 158.55564880  -999.250000 1.1919001341  -999.250000 1.1402014494
 951.63439941  -999.250000 12.704099655 12.250000954 260.46554565 0.0066000000  -999.250000 0.5393000245 1.9647034407 2.6713104248 89.638801575  -999.250000 158.72535706  -999.250000 1.1920944452  -999.250000 1.1436985731
 951.78680420  -999.250000 12.697401047 12.250000954 257.83956909 0.0097000012  -999.250000 0.5393000245 1.9733064175 2.6976652145 80.757698059  -999.250000 156.17863464  -999.250000 1.1781830788  -999.250000 1.1400779486
