# LAS format log file from PETREL
# Project units are specified as depth units
#==================================================================
~Version information
VERS.   2.0:
WRAP.   NO:
#==================================================================
~Well
STRT .m      734.31201172 :
STOP .m      2361.9440918 :
STEP .m     0.00000000 :
NULL .        -999.250000 :
COMP.           : COMPANY
WELL.  16/2-11 A Johan Sverdrup Appr   : WELL
FLD.            : FIELD
LOC.            : LOCATION
SRVC.           : SERVICE COMPANY
DATE.  2018-09-11 14:48:07   : Log Export Date {yyyy-MM-dd HH:mm:ss}
PROV.           : PROVINCE
UWI.   16/2-11 A   : UNIQUE WELL ID
API.            : API NUMBER
#==================================================================
~Curve
DEPT .m                   : DEPTH
Lithology_geolink ._      : Lithology_geolink
CALI .in                  : CALI
BS .in                    : BS
ROP .m/h                  : ROP
DRHO .g/cm3               : DRHO
THOR .ppm                 : THOR
NPHI .m3/m3               : NPHI
RHOB .g/cm3               : RHOB
PEF .b/e                  : PEF
GR .gAPI                  : GR
URAN .ppm                 : URAN
DTC .us/ft                : DTC
DTS .us/ft                : DTS
RDEP .ohm.m               : RDEP
RMIC .ohm.m               : RMIC
RMED .ohm.m               : RMED
~Parameter
#==================================================================
~Ascii
# ...
 2144.0122070 13.000000000 10.078399658 8.5000000000 29.556386948 -0.003596955 9.5285158157 0.3129000068 2.3165140152 3.3172781467 87.624206543 1.5503258705 112.42800140 263.96478271 1.4133000374 1.2490999699 1.4486999512
 2144.1645508 13.000000000 10.128900528 8.5000000000 34.440448761 -0.001698240 10.845921516 0.3063000143 2.3253033161 3.3036470413 95.918388367 1.4420225620 111.49700165 263.81491089 1.4279999733 1.0806000233 1.4595999718
 2144.3168945 13.000000000 10.142499924 8.5000000000 37.612205505 -0.000600000 10.110300064 0.3039999902 2.3273999691 3.3329000473 98.657203674 1.5808999538 111.29039764 258.08999634 1.5621999502 1.1663999557 1.5951999426
 2144.4692383 13.000000000 10.125900269 8.5000000000 41.065616608 -0.001000000 9.1715002060 0.3154999912 2.3220000267 3.4145998955 92.905899048 1.3315000534 111.42089844 252.76870728 1.5196000338 1.3022999763 1.5556000471
 2144.6218262 13.000000000 10.131799698 8.5000000000 44.650455475 -0.001300962 8.6186809540 0.3210000098 2.3211035728 3.4811680317 87.467735291 1.2952184677 110.77400208 252.21287537 1.4596999884 1.4665000439 1.5046000481
 2144.7741699 13.000000000 9.9715003967 8.5000000000 48.248519897 -0.001900962 8.3585987091 0.3213999867 2.3233094215 3.5234556198 83.247108459 1.2446223497 109.52079773 250.19621277 1.5327999592 1.5799000263 1.5714000463
 2144.9265137 13.000000000 10.057000160 8.5000000000 51.825298309 -0.002500160 8.7329015732 0.3036000133 2.3292036057 3.4958970547 80.195869446 1.3830052614 108.18429565 250.25721741 1.6253999472 1.5101000071 1.6658999920
 2145.0788574 13.000000000 10.042799950 8.5000000000 53.566928864 -0.002600000 9.4204998016 0.2818999887 2.3315000534 3.4941000938 77.555603027 1.3238999844 108.24180603 251.96049500 1.6514999866 1.5264999866 1.6901999712
 2145.2314453 13.000000000 9.9928989410 8.5000000000 56.111843109 -0.002501763 9.8503122330 0.2809000015 2.3355860710 3.4801166058 83.303543091 1.3448995352 109.32220459 257.58615112 1.5518000126 1.4090000391 1.5884000063
 2145.3837891 13.000000000 10.035599709 8.5000000000 55.881008148 -0.003598237 10.106969833 0.2872000039 2.3269004822 3.5530736446 81.840179443 1.4063699245 109.65660095 263.29544067 1.5183000565 1.4671000242 1.5683000088
 2145.5361328 13.000000000 10.024900436 8.5000000000 52.266277313 -0.002499360 10.086813927 0.3057000041 2.3271970749 3.7240476608 84.119873047 1.0762627125 109.13430023 263.32290649 1.5671999454 1.5132999420 1.6068999767
 2145.6884766 13.000000000 10.035599709 8.5000000000 52.595470428 -0.002100000 9.4088001251 0.3152999878 2.3254001141 4.0034999847 77.924896240 1.1778000593 108.67379761 264.32501221 1.5233999491 1.6692999601 1.5648000240
 2145.8408203 13.000000000 10.131799698 8.5000000000 51.599739075 -0.002100000 8.6367998123 0.3185000122 2.3310000896 4.2961997986 79.204299927 1.1993999481 108.71379852 256.00369263 1.4848999977 1.5765999556 1.5262000561
 2145.9934082 13.000000000 10.106900215 8.5000000000 47.644851685 -0.003200801 9.0704946518 0.3041999936 2.3337054253 4.5621037483 77.464332581 1.0245126486 108.65360260 254.95878601 1.4749000072 1.4404000044 1.5189000368
 2146.1457520 13.000000000 10.065600395 8.5000000000 45.501285553 -0.003698080 8.9426202774 0.2944000065 2.3371007442 4.9388122559 81.221366882 1.2193456888 108.34179688 251.02522278 1.5936000347 1.4306000471 1.6608999968
 2146.2980957 13.000000000 10.072999954 8.5000000000 47.123359680 -0.002500000 8.7679996490 0.2939000130 2.3375999928 5.3832998276 79.579498291 1.2477999926 108.47380066 251.16369629 1.5678999424 1.5750000477 1.6352000237
 2146.4504395 13.000000000 10.089098930 8.5000000000 45.849082947 -0.002900000 8.3527002335 0.2917999923 2.3380999565 5.5995998383 79.782203674 1.3136999607 108.92979431 254.09939575 1.5491000414 1.6773999929 1.6168999672
 2146.6030273 13.000000000 9.9715003967 8.5000000000 45.922721863 -0.003800962 8.2650938034 0.2899000049 2.3421206474 5.4111790657 76.103034973 1.0793175697 108.82730103 254.92431641 1.5293999910 1.5798000097 1.5922000408
 2146.7553711 13.000000000 10.106900215 8.5000000000 45.810077667 -0.004400800 8.1362342834 0.2904999852 2.3550050259 4.8988370895 77.555961609 0.8410516381 108.50080109 254.68075562 1.5203000307 1.4249000549 1.5824999809
 2146.9077148 13.000000000 10.046299934 8.5000000000 45.425197601 -0.004900000 7.8456997871 0.3055000007 2.3582003117 4.4226999283 75.407501221 0.8108999729 108.33998871 252.34890747 1.4776999950 1.3573999405 1.5389000177
 2147.0600586 13.000000000 10.099800110 8.5000000000 46.242454529 -0.003600000 7.9622006416 0.3195999861 2.3543000221 4.0731000900 73.240798950 0.7792999744 108.27089691 247.89439392 1.5185999870 1.3567999601 1.5868999958
 2147.2126465 13.000000000 10.110400200 8.5000000000 44.425754547 -0.001094872 7.5061860085 0.3251999915 2.3449919224 3.8907923698 72.993003845 0.9671016335 108.66909790 250.81735229 1.5285999775 1.3799999952 1.5867999792
 2147.3649902 13.000000000 10.114000320 8.5000000000 43.345767975 0.0020998397 7.3726973534 0.3240999877 2.3399825096 3.7612063885 74.996757507 1.1552017927 109.29570007 252.84712219 1.5273000002 1.3592000008 1.5868999958
 2147.5173340 13.000000000 10.284998894 8.5000000000 45.565814972 0.0019987200 7.2470817566 0.3240999877 2.3290901184 3.6403725147 79.462257385 1.2810282707 109.93540192 252.05332947 1.5614999533 1.3054000139 1.6316000223
 2147.6696777 13.000000000 10.072999954 8.5000000000 40.979003906 0.0012000001 7.7347993851 0.3226000071 2.3229999542 3.4983999729 83.987998962 1.3610999584 110.29759979 256.19848633 1.5855000019 1.3473999500 1.6542999744
 2147.8222656 13.000000000 10.146800041 8.5000000000 39.815437317 -0.000700481 7.4834461212 0.3217000067 2.3162050247 3.4152605534 85.325691223 1.2759774923 110.41999817 256.32592773 1.5886000395 1.3723000288 1.6563999653
 2147.9746094 13.000000000 10.151100159 8.5000000000 38.270832062 -0.001000160 8.3230476379 0.3544000089 2.3193149567 3.3907270432 86.070991516 1.1992750168 110.62580872 263.51843262 1.4744000435 1.3257000446 1.5206999779
 2148.1269531 13.000000000 10.171699524 8.5000000000 37.142597198 -0.001099520 8.8516817093 0.3589000106 2.3287334442 3.4075143337 88.118293762 0.9969742894 110.90769196 269.87933350 1.3471000195 1.3530000448 1.3818999529
 2148.2792969 13.000000000 10.174600601 8.5000000000 35.021652222 -0.000800000 9.2145004272 0.3693999946 2.3494999409 3.4165000916 85.865196228 1.1057000160 110.31719971 265.98150635 1.3257999420 1.4483000040 1.3575999737
 2148.4316406 13.000000000 10.030500412 8.5000000000 33.808399200 -0.001300000 9.1402997971 0.3391999900 2.3684999943 3.4890999794 81.710502625 1.2547999620 107.45980072 258.12521362 1.5219000578 1.7000999451 1.5585000515
 2148.5842285 13.000000000 10.089098930 8.5000000000 32.289516449 -0.002203365 9.0859584808 0.3203000128 2.3876163960 3.5999925137 76.626968384 1.2247959375 103.71469879 247.28012085 1.8895000219 1.8085000515 1.9379999638
 2148.7365723 13.000000000 10.169199944 8.5000000000 31.561557770 -0.004298560 8.9356231689 0.2887000144 2.3979182243 3.7827186584 78.166587830 1.2220970392 99.042800903 234.74618530 2.0422000885 1.8552999496 2.0961999893
 2148.8889160 13.000000000 10.249401093 8.5000000000 30.664695740 -0.003400000 8.7630996704 0.2743999958 2.4091999531 4.0440001488 77.969200134 1.0953999758 95.995796204 225.56590271 2.1898999214 1.8008999825 2.2511999607
 2149.0412598 13.000000000 10.235200882 8.5000000000 28.725063324 0.0071999999 9.1806001663 0.2536000013 2.4138998985 4.4569997787 76.399902344 1.0627000332 97.216804504 215.46009827 2.3585000038 1.6865999699 2.4344000816
 2149.1938477 13.000000000 10.249401093 8.5000000000 29.463647842 0.0348307714 9.7465219498 0.2435999960 2.4296071529 4.8587546349 77.343971252 0.9900508523 99.895790100 212.86015320 1.8107999563 1.6571999788 1.8693000078
 2149.3461914 13.000000000 10.206599236 8.5000000000 26.435575485 0.0539934300 10.509118080 0.2538999915 2.4340898991 5.1421084404 80.010040283 0.9594683051 103.81590271 216.89862061 1.8109999895 1.6131000519 1.8679000139
 2149.4985352 13.000000000 10.227999687 8.5000000000 25.544549942 0.0498604774 11.579157829 0.2996999919 2.4277749062 5.2093520164 81.276512146 1.0020328760 108.59140015 226.02563477 1.3918999434 1.3826999664 1.4358999729
