# LAS format log file from PETREL
# Project units are specified as depth units
#==================================================================
~Version information
VERS.   2.0:
WRAP.   NO:
#==================================================================
~Well
STRT .m      703.83190918 :
STOP .m      2487.0642090 :
STEP .m     0.00000000 :
NULL .        -999.250000 :
COMP.           : COMPANY
WELL.  16/2-7 Johan Sverdrup Appr   : WELL
FLD.            : FIELD
LOC.            : LOCATION
SRVC.           : SERVICE COMPANY
DATE.  2018-09-11 14:48:07   : Log Export Date {yyyy-MM-dd HH:mm:ss}
PROV.           : PROVINCE
UWI.   16/2-7   : UNIQUE WELL ID
API.            : API NUMBER
#==================================================================
~Curve
DEPT .m                   : DEPTH
Lithology_geolink ._      : Lithology_geolink
CALI .in                  : CALI
BS .in                    : BS
ROP .m/h                  : ROP
DRHO .g/cm3               : DRHO
THOR .ppm                 : THOR
NPHI .m3/m3               : NPHI
RHOB .g/cm3               : RHOB
PEF .b/e                  : PEF
GR .gAPI                  : GR
URAN .ppm                 : URAN
DTC .us/ft                : DTC
DTS .us/ft                : DTS
RDEP .ohm.m               : RDEP
RMIC .ohm.m               : RMIC
RMED .ohm.m               : RMED
~Parameter
#==================================================================
~Ascii
# ...
 1538.3743896 11.000000000 12.991499901 12.250000954 127.65518951 0.0275999997  -999.250000 0.2250999957 2.3456981182 5.5689997673 34.637901306  -999.250000 82.878150940 176.73591614 1.4678964615  -999.250000 1.4633926153
 1538.5267334 11.000000000 12.971099854 12.250000954 125.58825684 0.0294000003  -999.250000 0.2219000012 2.3433904648 5.5345001221 32.479400635  -999.250000 84.428489685 176.88957214 1.4635072947  -999.250000 1.4542068243
 1538.6791992 11.000000000 13.006399155 12.250000954 127.64403534 0.0231999997  -999.250000 0.2342000008 2.3315982819 5.4675002098 32.477901459  -999.250000 83.541999817 175.00659180 1.4725805521  -999.250000 1.4626760483
 1538.8315430 11.000000000 13.129400253 12.250000954 122.00492096 0.0469000004  -999.250000 0.2382999957 2.3294086456 5.8906998634 35.041198730  -999.250000 79.677955627 172.66259766 1.4482474327  -999.250000 1.4327307940
 1538.9840088 11.000000000 13.361100197 12.250000954 112.18766785 0.0696000010  -999.250000 0.2524999976 2.3400661945 6.2571001053 38.488601685  -999.250000 80.997032166 174.91050720 1.3825440407  -999.250000 1.3461030722
 1539.1363525 11.000000000 13.279999733 12.250000954 105.29920959 0.0766000003  -999.250000 0.2576999962 2.3189847469 6.9242000580 30.039400101  -999.250000 82.831504822 177.55630493 1.2852319479  -999.250000 1.2232306004
 1539.2888184 11.000000000 13.573699951 12.250000954 93.028213501 0.0970999971  -999.250000 0.2872999907 2.2998952866 7.5669999123 29.176700592  -999.250000 84.083419800 178.45410156 1.2001528740  -999.250000 1.1364125013
 1539.4410400 11.000000000 14.086400032 12.250000954 77.014808655 0.1481590569  -999.250000 0.2861009538 2.2969000340 8.9954547882 30.871042252  -999.250000 82.722389221 175.09100342 1.0461000204  -999.250000 0.9570999742
 1539.5933838 11.000000000 14.460597992 12.250000954 72.559944153 0.1762550026  -999.250000 0.3145543635 2.2335999012 10.376486778 35.848918915  -999.250000 83.040100098 171.39482117 1.0160000324  -999.250000 0.9222999811
 1539.7458496 11.000000000 15.053898811 12.250000954 70.048263550 0.1805965602  -999.250000 0.3335847855 2.1533999443 11.706135750 35.029163361  -999.250000 84.873199463 174.25209045 0.9735999703  -999.250000 0.8650000095
 1539.8981934 11.000000000 15.059200287 12.250000954 57.859836578 0.2047806084  -999.250000 0.3609780371 2.1665999889 12.849284172 37.674179077  -999.250000 84.526000977 176.39480591 1.1209000349  -999.250000 1.0147999525
 1540.0506592 11.000000000 14.845600128 12.250000954 42.983699799 0.2023019940  -999.250000 0.3563037515 2.1891000271 12.160952568 37.643726349  -999.250000 85.223503113 175.81057739 1.3171000481  -999.250000 1.2612999678
 1540.2030029 11.000000000 14.726599693 12.250000954 31.530826569 0.2145901471  -999.250000 0.3481065631 2.2402000427 11.949170113 36.793884277  -999.250000 85.558998108 173.28323364 1.3437000513  -999.250000 1.3063999414
 1540.3554688 11.000000000 14.457700729 12.250000954 24.339416504 0.1947159320  -999.250000 0.3390072584 2.2502000332 11.073202133 36.848953247  -999.250000 85.724098206 169.00363159 1.4395999908  -999.250000 1.4486999512
 1540.5078125 11.000000000 14.262700081 12.250000954 20.632888794 0.1799118668  -999.250000 0.3292078376 2.2606999874 10.487069130 36.053638458  -999.250000 87.563293457 168.97419739 1.4171999693  -999.250000 1.3774000406
 1540.6602783 11.000000000 13.971699715 12.250000954 21.367847443 0.1611150503  -999.250000 0.3235045671 2.2920999527 10.044453621 36.412212372  -999.250000 88.080291748 171.16453552 1.4746999741  -999.250000 1.3963999748
 1540.8126221 11.000000000 13.555301666 12.250000954 23.913969040 0.1248290837  -999.250000 0.2943233848 2.3187003136 8.6221408844 36.199771881  -999.250000 86.529090881 173.30488586 1.6672999859  -999.250000 1.6335999966
 1540.9649658 11.000000000 13.329799652 12.250000954 27.798563004 0.0838656574  -999.250000 0.2622514069 2.3169000149 7.2985210419 30.480873108  -999.250000 85.086097717 177.62667847 1.7338999510  -999.250000 1.7669999599
 1541.1174316 11.000000000 13.266799927 12.250000954 33.956356049 0.0767056942  -999.250000 0.2749897540 2.3247001171 7.0854692459 31.452814102  -999.250000 82.467094421 181.03857422 1.5822999477  -999.250000 1.5978000164
 1541.2697754 11.000000000 13.253198624 12.250000954 39.595291138 0.0762007982  -999.250000 0.2705072165 2.3306000233 7.1756548882 34.368328094  -999.250000 81.515495300 181.01274109 1.4693000317  -999.250000 1.4473999739
 1541.4222412 11.000000000 13.224100113 12.250000954 40.060985565 0.0845932737  -999.250000 0.2647046447 2.3368999958 7.0701847076 34.495101929  -999.250000 78.969299316 178.65510559 1.4093999863  -999.250000 1.3909000158
 1541.5745850 11.000000000 13.203201294 12.250000954 41.461334229 0.0668285042  -999.250000 0.2599076927 2.3289999962 6.7068824768 34.843143463  -999.250000 80.115097046 174.59890747 1.4160000086  -999.250000 1.3948999643
 1541.7270508 11.000000000 13.243600845 12.250000954 44.253993988 0.0738943070  -999.250000 0.2642964721 2.3357999325 6.8107161522 37.990673065  -999.250000 80.830398560 170.67774963 1.4285000563  -999.250000 1.4085999727
 1541.8793945 11.000000000 13.232700348 12.250000954 44.748619080 0.0876889452  -999.250000 0.2607028782 2.3434998989 7.1040649414 38.153671265  -999.250000 81.278198242 168.31149292 1.4104000330  -999.250000 1.3679000139
 1542.0318604 11.000000000 13.302399635 12.250000954 45.911468506 0.0977919176  -999.250000 0.2567031980 2.3494999409 7.5407505035 31.273511887  -999.250000 80.148300171 167.94929504 1.4079999924  -999.250000 1.3566999435
 1542.1842041 11.000000000 13.369400024 12.250000954 45.551799774 0.0916049704  -999.250000 0.2580988705 2.3329999447 7.3191776276 33.542575836  -999.250000 78.730201721 167.95239258 1.4445999861  -999.250000 1.3904000521
 1542.3366699 11.000000000 13.282099724 12.250000954 41.172801971 0.0910004750  -999.250000 0.2515052855 2.3399999142 7.4242157936 32.894920349  -999.250000 79.748901367 167.09739685 1.4831999540  -999.250000 1.4571000338
 1542.4890137 11.000000000 13.279199600 12.250000954 37.044975281 0.0905003995  -999.250000 0.2663880587 2.3471000195 7.4221019745 35.745414734  -999.250000 79.289703369 165.63027954 1.4706000090  -999.250000 1.4546999931
 1542.6414795 11.000000000 13.286600113 12.250000954 23.750150681 0.0966950357  -999.250000 0.2648012936 2.3480999470 7.5743780136 35.796760559  -999.250000 75.518699646 162.90258789 1.3890999556  -999.250000 1.3786000013
 1542.7938232 11.000000000 13.296199799 12.250000954 14.920457840 0.1002971157  -999.250000 0.2576057911 2.3348999023 7.5994801521 35.457569122  -999.250000 76.853309631 162.12492371 1.3207000494  -999.250000 1.3042000532
 1542.9461670 11.000000000 13.344699860 12.250000954 21.539241791 0.1014980748  -999.250000 0.2657868564 2.3250000477 7.7076263428 34.809936523  -999.250000 78.187995911 164.91790771 1.2711000443  -999.250000 1.2467999458
 1543.0986328 11.000000000 13.292098999 12.250000954 29.558866501 0.0953049660  -999.250000 0.2687975764 2.3213000298 7.3331003189 30.932008743  -999.250000 79.627105713 168.47724915 1.2716000080  -999.250000 1.2338999510
 1543.2509766 11.000000000 13.313699722 12.250000954 35.124942780 0.0926043242  -999.250000 0.2727935910 2.3245000839 7.1766505241 33.197059631  -999.250000 81.110603333 169.71972656 1.2825000286  -999.250000 1.2407000065
 1543.4034424 11.000000000 13.430599213 12.250000954 37.789867401 0.0804097727  -999.250000 0.2671045661 2.3206000328 7.0372114182 37.402629852  -999.250000 82.594192505 169.89126587 1.3177000284  -999.250000 1.2696000338
 1543.5557861 11.000000000 13.524399757 12.250000954 38.415012360 0.0778041631  -999.250000 0.2393445075 2.3194000721 6.9641170502 33.215320587  -999.250000 83.875190735 168.70420837 1.3444999456  -999.250000 1.3021999598
 1543.7082520 11.000000000 13.692899704 12.250000954 39.195568085 0.0779998377  -999.250000 0.2312064916 2.3224999905 6.8040280342 29.211605072  -999.250000 83.420211792 170.81968689 1.3394000530  -999.250000 1.3107999563
 1543.8605957 11.000000000 13.712498665 12.250000954 42.649787903 0.0888912678  -999.250000 0.2340976745 2.3348000050 7.1651105881 32.670223236  -999.250000 82.965202332 170.35806274 1.3314000368  -999.250000 1.3094999790
