# LAS format log file from PETREL
# Project units are specified as depth units
#==================================================================
~Version information
VERS.   2.0:
WRAP.   NO:
#==================================================================
~Well
STRT .m      684.17242432 :
STOP .m      2208.3249512 :
STEP .m     0.00000000 :
NULL .        -999.250000 :
COMP.           : COMPANY
WELL.  16/2-16   : WELL
FLD.            : FIELD
LOC.            : LOCATION
SRVC.           : SERVICE COMPANY
DATE.  2018-09-11 14:48:07   : Log Export Date {yyyy-MM-dd HH:mm:ss}
PROV.           : PROVINCE
UWI.   16/2-16   : UNIQUE WELL ID
API.            : API NUMBER
#==================================================================
~Curve
DEPT .m                   : DEPTH
Lithology_geolink ._      : Lithology_geolink
CALI .in                  : CALI
BS .in                    : BS
ROP .m/h                  : ROP
DRHO .g/cm3               : DRHO
THOR .ppm                 : THOR
NPHI .m3/m3               : NPHI
RHOB .g/cm3               : RHOB
PEF .b/e                  : PEF
GR .gAPI                  : GR
URAN .ppm                 : URAN
DTC .us/ft                : DTC
DTS .us/ft                : DTS
RDEP .ohm.m               : RDEP
RMED .ohm.m               : RMED
~Parameter
#==================================================================
~Ascii
# ...
 1896.6668701 13.000000000 8.6669998169 8.5000000000 38.430118561 -0.007600000 10.176184654 0.3569000065 2.3580000401 2.8642001152 94.915603638 1.2592750788 110.14299774 262.45498657 1.4475914240 1.5159000158
 1896.8193359 13.000000000 8.6721000671 8.5000000000 40.063320160 -0.005200000 9.9069480896 0.3343999982 2.3585000038 2.8935999870 91.277496338 1.2284834385 109.87989807 259.59710693 1.3122172356 1.3724000454
 1896.9716797 13.000000000 8.6822996140 8.5000000000 41.524608612 -0.004900000 9.2512874603 0.3307000101 2.3589999676 2.8961999416 90.382499695 1.4051517248 110.31220245 259.95260620 1.3230217695 1.3840999603
 1897.1241455 13.000000000 8.6745996475 8.5000000000 43.034450531 -0.008100000 9.2342128754 0.3269000053 2.3557999134 2.9012999535 87.821601868 1.3451738358 110.32619476 258.52688599 1.3504110575 1.4104000330
 1897.2764893 13.000000000 8.6568002701 8.5000000000 46.205051422 -0.006700000 8.5559358597 0.3262999952 2.3543999195 2.9398999214 83.667297363 1.5158959627 109.85590363 255.15609741 1.4818930626 1.5467000008
 1897.4288330 13.000000000 8.6644001007 8.5000000000 47.641403198 -0.005200000 7.9772377014 0.3222000003 2.3524000645 2.9837000370 80.061698914 1.5108095407 109.43169403 253.08590698 1.3486212492 1.4031000137
 1897.5812988 13.000000000 8.6555004120 8.5000000000 48.184055328 -0.006100000 8.0244369507 0.3172999918 2.3501999378 3.0123999119 79.608299255 1.3978301287 109.36070251 253.86927795 1.3751233816 1.4284000397
 1897.7336426 13.000000000 8.6618995667 8.5000000000 50.291339874 -0.010300000 8.0702371597 0.3147000074 2.3482000828 3.0220999718 80.875701904 1.3107129335 109.49069977 254.22109985 1.4042024612 1.4574999809
 1897.8861084 13.000000000 8.6592998505 8.5000000000 49.859252930 -0.012800000 7.8666143417 0.3249000013 2.3491001129 3.0143001080 81.096496582 1.3268995285 109.66010284 254.31649780 1.4073402882 1.4598000050
 1898.0384521 13.000000000 8.6592998505 8.5000000000 49.887794495 -0.011400000 7.7605099678 0.3307000101 2.3510000706 2.9739000797 82.200500488 1.4511207342 109.97489166 255.37190247 1.3328733444 1.3794000149
 1898.1909180 13.000000000 8.6568002701 8.5000000000 53.686351776 -0.010100000 8.1472082138 0.3316000104 2.3510999680 2.9293000698 81.930099487 1.4770172834 110.29440308 256.80789185 1.2994928360 1.3415000439
 1898.3432617 13.000000000 8.6555004120 8.5000000000 53.787075043 -0.011000000 8.0337028503 0.3197999895 2.3512001038 2.8993999958 83.722702026 1.4986433983 110.40630341 258.50289917 1.2906243801 1.3313000202
 1898.4957275 13.000000000 8.6592998505 8.5000000000 53.533138275 -0.009700001 8.1620874405 0.3097000122 2.3575000763 2.9149999619 84.792900085 1.5528330803 110.52890015 259.82708740 1.4453125000 1.4917999506
 1898.6480713 13.000000000 8.6784000397 8.5000000000 54.727363586 -0.008700000 8.2171993256 0.3158000112 2.3671998978 2.9577000141 91.328399658 1.6359037161 110.54810333 261.03021240 1.2659540176 1.3059999943
 1898.8005371 13.000000000 8.6745996475 8.5000000000 54.619426727 -0.005100000 8.8402948380 0.3237000108 2.3917996883 3.0280001163 99.714202881 1.7652190924 110.24229431 261.24758911 1.2090260983 1.2467999458
 1898.9528809 13.000000000 8.6555004120 8.5000000000 53.365486145 -0.000400000 9.0865201950 0.3129999936 2.4235000610 3.1542000771 106.20290375 1.7770518064 109.64270020 257.36538696 1.4746856689 1.5190999508
 1899.1053467 13.000000000 8.6644001007 8.5000000000 54.196521759 -0.000300000 9.1108055115 0.3068999946 2.4270999432 3.2414999008 102.46240234 1.7166941166 108.61318970 253.40010071 1.4567142725 1.5010000467
 1899.2576904 13.000000000 8.6541996002 8.5000000000 53.219814301 -0.006100000 8.3651266098 0.3149999976 2.3993999958 3.2750999928 94.530097961 1.5259377956 107.89439392 249.03149414 1.4034014940 1.4450000525
 1899.4100342 13.000000000 8.6568002701 8.5000000000 52.509513855 -0.012400000 7.6497797966 0.3163000047 2.3631999493 3.2474999428 86.401702881 1.4482814074 107.72470093 246.76890564 1.5298920870 1.5721999407
 1899.5625000 13.000000000 8.6485996246 8.5000000000 51.862533569 -0.013600000 7.4999475479 0.3242999911 2.3526999950 3.2253000736 83.311698914 1.3001128435 107.69120026 246.72068787 1.5201088190 1.5629999638
 1899.7148438 13.000000000 8.6532001495 8.5000000000 48.016403198 -0.011000000 7.4340014458 0.3224000037 2.3554999828 3.2144000530 83.443702698 1.1914693117 108.03320313 245.18531799 1.5310602188 1.5753999949
 1899.8673096 13.000000000 8.6532001495 8.5000000000 33.110565186 -0.013900000 7.0612244606 0.3339000046 2.3531999588 3.1821999550 84.140502930 1.2779523134 108.37409973 245.70071411 1.4812922478 1.5246000290
 1900.0196533 13.000000000 8.6592998505 8.5000000000 32.296588898 -0.017200001 6.8425498009 0.3341000080 2.3515999317 3.1533000469 83.557601929 1.3431293964 108.78510284 247.83940125 1.4716544151 1.5118999481
 1900.1721191 13.000000000 8.6624002457 8.5000000000 31.162401199 -0.017300000 6.6558265686 0.3330000043 2.3520998955 3.1456999779 82.688598633 1.2548968792 109.28589630 251.01310730 1.4148209095 1.4506000280
 1900.3244629 13.000000000 8.6577997208 8.5000000000 30.849739075 -0.014300000 7.3120064735 0.3481000066 2.3517000675 3.1382000446 81.661697388 1.1263254881 109.61599731 253.08090210 1.4408164024 1.4780999422
 1900.4769287 13.000000000 8.6646995544 8.5000000000 31.277233124 -0.014600000 7.3206129074 0.3486000001 2.3455998898 3.1205000877 85.588699341 1.1581516266 109.85590363 254.06700134 1.3366634846 1.3748999834
 1900.6292725 13.000000000 8.6721000671 8.5000000000 29.479001999 -0.018100001 7.7109656334 0.3425000012 2.3368999958 3.0973999500 87.601196289 1.2225641012 109.82279205 254.98280334 1.4158873558 1.4570000172
 1900.7817383 13.000000000 8.6532001495 8.5000000000 26.120735168 -0.022399999 7.9171395302 0.3321999907 2.3347001076 3.1001999378 85.451599121 1.3028700352 109.50579834 253.54209900 1.4001698494 1.4442000389
 1900.9340820 13.000000000 8.6541996002 8.5000000000 26.698820114 -0.024599999 7.5051178932 0.3282999992 2.3410000801 3.1375999451 83.503097534 1.4711468220 108.78790283 252.74310303 1.4438039064 1.4911999702
 1901.0865479 13.000000000 8.6669998169 8.5000000000 27.322505951 -0.022900000 7.2772974968 0.3226999938 2.3522000313 3.1979999542 81.672302246 1.4047166109 107.98410034 250.01440430 1.5734424591 1.6227999926
 1901.2388916 13.000000000 8.6577997208 8.5000000000 28.654527664 -0.018100001 6.9638695717 0.3226000071 2.3613998890 3.2586998940 83.513000488 1.3526716232 107.83529663 247.85040283 1.5997008085 1.6514999866
 1901.3913574 13.000000000 8.6738996506 8.5000000000 39.071193695 -0.013100000 7.0509557724 0.3174000084 2.3627998829 3.2983000278 83.081298828 1.3174570799 108.61710358 250.79510498 1.3511979580 1.3973000050
 1901.5437012 13.000000000 8.6669998169 8.5000000000 40.024276733 -0.012100000 7.3354372978 0.3226999938 2.3601000309 3.2980999947 85.480903625 1.4154269695 109.80940247 255.36489868 1.2876015902 1.3303999901
 1901.6960449 13.000000000 8.6600999832 8.5000000000 41.497375488 -0.013100000 7.6320347786 0.3257000148 2.3556001186 3.2781999111 90.472198486 1.4490457773 110.43699646 260.26818848 1.2896596193 1.3321000338
 1901.8485107 13.000000000 8.6624002457 8.5000000000 42.729988098 -0.013800000 8.1743392944 0.3161999881 2.3534998894 3.2516999245 88.877502441 1.5062192678 110.00309753 259.97311401 1.3641517162 1.4078999758
 1902.0008545 13.000000000 8.6644001007 8.5000000000 42.657810211 -0.014700000 7.8492546082 0.3194999993 2.3538999557 3.2219998837 85.941497803 1.5302501917 109.08110046 256.23950195 1.4287493229 1.4750000238
 1902.1533203 13.000000000 8.6716003418 8.5000000000 46.789043427 -0.016100001 7.9177894592 0.3106999993 2.3543000221 3.2019000053 83.063697815 1.4679899216 108.71910095 252.27369690 1.4903455973 1.5397000313
 1902.3056641 13.000000000 8.6465997696 8.5000000000 59.536746979 -0.013100000 7.6556549072 0.3237000108 2.3598999977 3.1877999306 80.997901917 1.4552214146 109.31790161 253.09329224 1.4224047661 1.4688999653
 1902.4581299 13.000000000 8.8121995926 8.5000000000 48.905509949 -0.009500000 7.9743175507 0.3296999931 2.3580999374 3.1826999187 83.167098999 1.3570994139 110.40989685 257.59991455 1.3034548759 1.3468999863
