# LAS format log file from PETREL
# Project units are specified as depth units
#==================================================================
~Version information
VERS.   2.0:
WRAP.   NO:
#==================================================================
~Well
STRT .m      684.17242432 :
STOP .m      2208.3249512 :
STEP .m     0.00000000 :
NULL .        -999.250000 :
COMP.           : COMPANY
WELL.  16/2-16   : WELL
FLD.            : FIELD
LOC.            : LOCATION
SRVC.           : SERVICE COMPANY
DATE.  2018-09-11 14:48:07   : Log Export Date {yyyy-MM-dd HH:mm:ss}
PROV.           : PROVINCE
UWI.   16/2-16   : UNIQUE WELL ID
API.            : API NUMBER
#==================================================================
~Curve
DEPT .m                   : DEPTH
Lithology_geolink ._      : Lithology_geolink
CALI .in                  : CALI
BS .in                    : BS
ROP .m/h                  : ROP
DRHO .g/cm3               : DRHO
THOR .ppm                 : THOR
NPHI .m3/m3               : NPHI
RHOB .g/cm3               : RHOB
PEF .b/e                  : PEF
GR .gAPI                  : GR
URAN .ppm                 : URAN
DTC .us/ft                : DTC
DTS .us/ft                : DTS
RDEP .ohm.m               : RDEP
RMED .ohm.m               : RMED
~Parameter
#==================================================================
~Ascii
# ...
 1997.7081299 5.0000000000 8.2199001312 8.5000000000 81.406471252 -0.005100000 6.5606813431 0.3197000027 2.1849999428 4.7885999680 85.145500183 0.5085240006 111.62038422 205.93157959 0.6586796045 0.6238999963
 1997.8605957 5.0000000000 8.0151996613 8.5000000000 79.731384277 -0.000200000 8.4104681015 0.3641999960 2.1865999699 5.0465002060 99.499801636 0.5384937525 117.82552338 248.06639099 0.7581204176 0.7074999809
 1998.0129395 6.0000000000 7.8808999062 8.5000000000 79.583740234 0.0031000001 9.8246603012 0.4124999940 2.2179000378 5.1805000305 107.61869812 0.5344260335 115.77720642 251.97055054 0.8334222436 0.7570000291
 1998.1652832 6.0000000000 8.1128997803 8.5000000000 84.170104980 0.0172000006 10.398582458 0.4230000079 2.3111000061 5.0225000381 107.33460236 0.3175897598 108.41597748 232.41099548 1.1107677221 1.0009000301
 1998.3177490 6.0000000000 8.2658004761 8.5000000000 77.799911499 0.0184000004 9.2535591125 0.3926999867 2.3891000748 4.7500000000 97.383499146 0.4296348691 99.384346008 192.46673584 1.3202323914 1.1900000572
 1998.4700928 6.0000000000 8.4998998642 8.5000000000 71.293914795 0.0138999997 8.5796823502 0.3655000031 2.4230000973 4.5728998184 87.683403015 0.4729799032 93.579650879 175.05891418 1.4853504896 1.3394999504
 1998.6225586 5.0000000000 8.4949998856 8.5000000000 65.900772095 0.0022000000 8.6824846268 0.3643000126 2.3933999538 4.5524001122 86.156700134 0.3228188455 94.144378662 171.94569397 1.4235106707 1.2881000042
 1998.7749023 5.0000000000 8.4049997330 8.5000000000 61.210948944 0.0103000002 9.6614599228 0.3878999949 2.3673000336 4.7118000984 87.252899170 -0.027633386 99.481620789 168.83410645 1.3120269775 1.1900999546
 1998.9273682 5.0000000000 8.3526000977 8.5000000000 55.882503510 0.0287999995 9.4868450165 0.4190999866 2.3340001106 5.0952000618 94.071502686 0.1802664995 105.38272858 176.46249390 1.0960512161 0.9977999926
 1999.0797119 5.0000000000 8.3613004684 8.5000000000 54.597831726 0.0482000001 10.165512085 0.4463999867 2.2569999695 5.8269000053 99.098098755 0.1385655701 110.53660583 193.30223083 1.0351408720 0.9474999905
 1999.2321777 6.0000000000 8.9497003555 8.5000000000 51.811302185 0.0744000003 10.305899620 0.4794999957 2.1733000278 6.7382001877 100.01490021 0.2202729285 114.65996552 222.83993530 0.9613531828 0.8877000213
 1999.3845215 6.0000000000 9.3481998444 8.5000000000 48.885726929 0.0993999988 10.929229736 0.5024999976 2.1250998974 7.5040001869 103.51989746 0.0619691536 117.48915863 263.15841675 0.9029557705 0.8414000273
 1999.5369873 6.0000000000 8.2150001526 8.5000000000 46.306781769 0.1142999977 10.592007637 0.5325999856 2.1328001022 7.9081997871 101.48100281 0.2729766965 120.93552399 271.66952515 0.8477732539 0.8022000194
 1999.6893311 6.0000000000 8.3994998932 8.5000000000 44.482490540 0.1062999964 10.471796989 0.5494999886 2.1428999901 7.9654998779 103.07929993 0.3209997714 123.82112122 280.78665161 0.8311223388 0.7900999784
 1999.8417969 6.0000000000 8.4540996552 8.5000000000 46.381847382 0.0895000026 10.467559814 0.5690000057 2.1396000385 7.8066000938 107.43939972 0.5701261163 126.33612823 290.56271362 0.8589757085 0.8274999857
 1999.9941406 6.0000000000 7.9639005661 8.5000000000 48.810535431 0.0778999999 10.380744934 0.5806999803 2.1379001141 7.5149002075 113.35150146 0.5862125754 127.97214508 290.56680298 0.8437902331 0.8125000000
 2000.1466064 6.0000000000 8.1396999359 8.5000000000 49.844200134 0.0715000033 11.434477806 0.5604000092 2.1672000885 7.0156002045 110.99620056 0.3524841368 126.02278900 295.63717651 0.8316168189 0.8019000292
 2000.2989502 6.0000000000 8.3361997604 8.5000000000 52.325836182 0.0599000007 11.170484543 0.5425000191 2.2323999405 6.2234001160 108.73049927 0.3427396417 121.27168274 288.70675659 0.8420823216 0.8112000227
 2000.4512939 6.0000000000 8.5753002167 8.5000000000 55.255855560 0.0351999998 10.402989388 0.5020999908 2.2927000523 5.3186001778 109.17819977 0.5170462132 114.02153015 277.28286743 0.8200243115 0.7897999883
 2000.6037598 6.0000000000 8.3115997314 8.5000000000 58.872856140 0.0119000003 10.139550209 0.4503000081 2.3434998989 4.5991997719 106.36329651 0.6995478868 107.82066345 254.75016785 0.8506672978 0.8179000020
 2000.7561035 6.0000000000 8.3879995346 8.5000000000 58.651424408 -0.005000000 10.203100204 0.3849999905 2.3636000156 4.2951998711 106.37000275 0.7590917349 105.64843750 209.19596863 1.1840773821 1.1444000006
 2000.9085693 6.0000000000 7.9639005661 8.5000000000 58.052989960 -0.006500000 10.827967644 0.3621999919 2.3821001053 4.2518000603 102.02690125 0.6240676641 105.06811523 208.04238892 1.2804839611 1.2410000563
 2001.0609131 6.0000000000 8.5141000748 8.5000000000 58.267032623 -0.006000000 10.413503647 0.3923000097 2.3919000626 4.2678999901 106.27600098 0.7084017992 103.59608459 210.52514648 1.1359055042 1.1004999876
 2001.2133789 6.0000000000 8.5065002441 8.5000000000 55.366165161 -0.008300000 10.667760849 0.4113000035 2.3976998329 4.2462000847 106.52089691 0.7105635405 103.33136749 212.32452393 1.1428126097 1.1089999676
 2001.3657227 6.0000000000 8.5163002014 8.5000000000 52.526943207 -0.011600000 10.493465424 0.4156000018 2.3993000984 4.2121000290 111.41349792 0.6649923921 105.16320801 211.85409546 1.1585839987 1.1223000288
 2001.5181885 6.0000000000 8.5261001587 8.5000000000 52.169326782 -0.014000000 10.326406479 0.4160999954 2.3935999870 4.2045998573 112.15249634 0.5305575728 106.04573822 210.10316467 1.1386135817 1.1002999544
 2001.6705322 6.0000000000 8.5261001587 8.5000000000 51.984226227 -0.013900000 10.766295433 0.4275000095 2.3842999935 4.1985001564 117.89679718 0.3796142042 105.94642639 210.08706665 1.0846531391 1.0484000444
 2001.8229980 6.0000000000 8.5370998383 8.5000000000 49.905197144 -0.012600000 10.012224197 0.4472999871 2.3842999935 4.1500000954 115.64109802 0.6469293237 105.35689545 209.91461182 1.0264549255 0.9919999838
 2001.9753418 6.0000000000 8.5195999146 8.5000000000 49.503402710 -0.015100000 9.9649534225 0.4485999942 2.3805000782 4.0689001083 117.40689850 0.7899569869 105.16493988 208.92178345 1.1231403351 1.0855000019
 2002.1278076 6.0000000000 8.5179996490 8.5000000000 49.658676147 -0.017500000 9.9064531326 0.4483999908 2.3791999817 3.9874000549 116.90869904 0.8612723947 105.72016144 208.53140259 1.1733468771 1.1351000071
 2002.2801514 6.0000000000 8.5163002014 8.5000000000 52.247299194 -0.020600000 9.9395999908 0.4377000034 2.3740999699 3.9512000084 114.82579803 1.0311375856 106.44439697 209.95826721 1.1401536465 1.1030000448
 2002.4324951 6.0000000000 8.5195999146 8.5000000000 54.199611664 -0.018300001 9.8139953613 0.4426000118 2.3738000393 3.9556000233 112.32189941 1.0780409575 107.31472015 211.29626465 1.0823135376 1.0492000580
 2002.5849609 6.0000000000 8.5141000748 8.5000000000 56.831024170 -0.014100000 9.5585422516 0.4368000031 2.3698999882 3.9300999641 107.79709625 1.1292392015 107.96080017 213.62808228 1.0991859436 1.0692000389
 2002.7373047 6.0000000000 8.5195999146 8.5000000000 60.503921509 -0.008400000 9.7347736359 0.4293999970 2.3733000755 3.8139998913 110.56749725 1.1780817509 106.21855164 215.06221008 1.0816810131 1.0535000563
 2002.8897705 6.0000000000 8.5141000748 8.5000000000 64.164123535 -0.007400000 9.2019214630 0.4029999971 2.3715999126 3.6661999226 109.33660126 1.0304838419 103.03984833 210.72204590 1.0582516193 1.0372999907
 2003.0421143 5.0000000000 8.5714998245 8.5000000000 63.842247009 -0.005900000 8.2313404083 0.3702000082 2.3594999313 3.6433999538 104.86340332 1.0103347301 101.46798706 201.92713928 1.2477414608 1.2324999571
 2003.1945801 5.0000000000 8.5686998367 8.5000000000 54.083141327 -0.003400000 7.4073314667 0.3449999988 2.3261001110 3.8671000004 97.365402222 1.0536427498 103.94585419 201.24073792 1.6733013391 1.6545000076
 2003.3469238 5.0000000000 8.5621995926 8.5000000000 57.115756989 0.0038000001 7.3223199844 0.3756999969 2.3099999428 4.1792001724 98.108703613 1.1069425344 108.87165070 213.27378845 1.0514013767 1.0500999689
 2003.4993896 5.0000000000 8.4682998657 8.5000000000 57.451595306 0.0052999998 8.0960693359 0.4485999942 2.3155000210 4.3173999786 100.43900299 1.0355020761 110.67716217 228.59967041 0.9285218120 0.9297000170
