# LAS format log file from PETREL
# Project units are specified as depth units
#==================================================================
~Version information
VERS.   2.0:
WRAP.   NO:
#==================================================================
~Well
STRT .m      703.83190918 :
STOP .m      2487.0642090 :
STEP .m     0.00000000 :
NULL .        -999.250000 :
COMP.           : COMPANY
WELL.  16/2-7 Johan Sverdrup Appr   : WELL
FLD.            : FIELD
LOC.            : LOCATION
SRVC.           : SERVICE COMPANY
DATE.  2018-09-11 14:48:07   : Log Export Date {yyyy-MM-dd HH:mm:ss}
PROV.           : PROVINCE
UWI.   16/2-7   : UNIQUE WELL ID
API.            : API NUMBER
#==================================================================
~Curve
DEPT .m                   : DEPTH
Lithology_geolink ._      : Lithology_geolink
CALI .in                  : CALI
BS .in                    : BS
ROP .m/h                  : ROP
DRHO .g/cm3               : DRHO
THOR .ppm                 : THOR
NPHI .m3/m3               : NPHI
RHOB .g/cm3               : RHOB
PEF .b/e                  : PEF
GR .gAPI                  : GR
URAN .ppm                 : URAN
DTC .us/ft                : DTC
DTS .us/ft                : DTS
RDEP .ohm.m               : RDEP
RMIC .ohm.m               : RMIC
RMED .ohm.m               : RMED
~Parameter
#==================================================================
~Ascii
# ...
 1651.1502686 11.000000000 12.696300507 12.250000954 67.378608704 0.0219000001  -999.250000 0.1618999988 2.4506125450 5.4386000633 35.386299133  -999.250000 67.817703247 143.80070496 2.2304999828  -999.250000 2.2716000080
 1651.3027344 11.000000000 12.706100464 12.250000954 72.874671936 0.0177999996  -999.250000 0.1492999941 2.4664182663 5.5806999207 31.342399597  -999.250000 67.914901733 146.79499817 2.2026000023  -999.250000 2.1768999100
 1651.4550781 11.000000000 12.696500778 12.250000954 74.312995911 0.0156999994  -999.250000 0.1465000063 2.4778954983 5.6382999420 32.432701111  -999.250000 67.914901733 150.09519958 2.2739000320  -999.250000 2.2190001011
 1651.6075439 11.000000000 12.685298920 12.250000954 72.324142456 0.0126000000  -999.250000 0.1450999975 2.4722142220 5.3835000992 30.954099655  -999.250000 67.914901733 151.64239502 2.5460000038  -999.250000 2.4684998989
 1651.7598877 11.000000000 12.685199738 12.250000954 71.727691650 0.0200999994  -999.250000 0.1378999949 2.4811029434 5.7688999176 29.475099564  -999.250000 67.819602966 150.77740479 2.7314000130  -999.250000 2.6150999069
 1651.9123535 11.000000000 12.686200142 12.250000954 71.325790405 0.0165999997  -999.250000 0.1343999952 2.4846675396 5.4257998466 34.160301208  -999.250000 67.448699951 147.50929260 2.9876999855  -999.250000 2.8577001095
 1652.0646973 11.000000000 12.685400009 12.250000954 70.883537292 0.0087000001  -999.250000 0.1335999966 2.4644954205 5.4071998596 31.566799164  -999.250000 67.077796936 143.80360413 3.1547000408  -999.250000 3.0625998974
 1652.2170410 11.000000000 12.705499649 12.250000954 72.826110840 0.0104000000  -999.250000 0.1405999959 2.4588952065 5.3762998581 31.563199997  -999.250000 66.706901550 142.14289856 3.1466999054  -999.250000 3.1080999374
 1652.3695068 11.000000000 12.675600052 12.250000954 65.626312256 0.0030000000  -999.250000 0.1427000016 2.4528126717 5.2072000504 30.303499222  -999.250000 65.479400635 140.81410217 3.2009000778  -999.250000 3.1616001129
 1652.5218506 11.000000000 12.665399551 12.250000954 60.515422821 0.0044999998  -999.250000 0.1473000050 2.4686048031 5.3291997910 30.762300491  -999.250000 63.810798645 138.90609741 3.2825999260  -999.250000 3.3222000599
 1652.6743164 11.000000000 12.661501884 12.250000954 63.192253113 0.0085000005  -999.250000 0.1491000056 2.4746727943 5.2922000885 30.298700333  -999.250000 62.797298431 134.51820374 3.2985999584  -999.250000 3.3008999825
 1652.8266602 11.000000000 12.690601349 12.250000954 59.123691559 0.0111999996  -999.250000 0.1521999985 2.4406881332 5.3933000565 37.649898529  -999.250000 63.631801605 131.03300476 3.2906999588  -999.250000 3.2881000042
 1652.9791260 11.000000000 12.714000702 12.250000954 53.752952576 0.0136000002  -999.250000 0.1515000015 2.4258003235 5.2973999977 29.462400436  -999.250000 64.818397522 128.12460327 3.3118000031  -999.250000 3.1889998913
 1653.1314697 11.000000000 12.727799416 12.250000954 55.731956482 0.0269000009  -999.250000 0.1712000072 2.4260113239 5.4085998535 28.672300339  -999.250000 66.183898926 128.71850586 3.3763000965  -999.250000 3.4289999008
 1653.2839355 11.000000000 12.793299675 12.250000954 67.247375488 0.0351000018  -999.250000 0.1680999994 2.4401259422 5.6737999916 36.158500671  -999.250000 67.550086975 131.47979736 3.1324999332  -999.250000 3.1965000629
 1653.4362793 11.000000000 12.837800026 12.250000954 78.172569275 0.0366999991  -999.250000 0.1612000018 2.4562985897 5.8340997696 30.583900452  -999.250000 67.914901733 137.05090332 2.7953000069  -999.250000 2.7686998844
 1653.5887451 11.000000000 12.827500343 12.250000954 74.295280457 0.0229000002  -999.250000 0.1597999930 2.4544100761 5.8425998688 31.771099091  -999.250000 67.914901733 141.92309570 2.6533999443  -999.250000 2.5924999714
 1653.7410889 11.000000000 12.700601578 12.250000954 67.289367676 0.0126000000  -999.250000 0.1577000022 2.4606022835 5.5531001091 31.198299408  -999.250000 67.914901733 144.64239502 2.6391999722  -999.250000 2.5208001137
 1653.8935547 11.000000000 12.672900200 12.250000954 61.723102570 0.0109999999  -999.250000 0.1490000039 2.4635941982 5.4847002029 30.996700287  -999.250000 67.914810181 145.00390625 2.8032000065  -999.250000 2.6737999916
 1654.0458984 11.000000000 12.663298607 12.250000954 59.888450623 0.0113000004  -999.250000 0.1483999938 2.4600996971 5.3989000320 33.863700867  -999.250000 67.856330872 143.56219482 2.9971001148  -999.250000 2.8866000175
 1654.1982422 11.000000000 12.691099167 12.250000954 57.525592804 0.0210999995  -999.250000 0.1516000032 2.4598891735 5.5041999817 31.471000671  -999.250000 67.022125244 139.02009583 3.1124000549  -999.250000 2.9967999458
 1654.3507080 11.000000000 12.673000336 12.250000954 51.901905060 0.0196000002  -999.250000 0.1609999985 2.4465794563 5.3986001015 34.803199768  -999.250000 66.187927246 135.10499573 3.1001000404  -999.250000 3.0360999107
 1654.5030518 11.000000000 12.720399857 12.250000954 50.660106659 0.0193000007  -999.250000 0.1762000024 2.4210808277 5.5448999405 33.257598877  -999.250000 65.354873657 134.48890686 3.0483000278  -999.250000 3.1105999947
 1654.6555176 11.000000000 12.730099678 12.250000954 55.503608704 0.0233999994  -999.250000 0.1834000051 2.3972034454 5.5499000549 30.287300110  -999.250000 65.945442200 135.04479980 2.8282001019  -999.250000 2.9721999168
 1654.8078613 11.000000000 12.733999252 12.250000954 66.838584900 0.0170000009  -999.250000 0.1878000051 2.4015240669 5.4239997864 35.733200073  -999.250000 66.746643066 135.90719604 2.5055999756  -999.250000 2.6510999203
 1654.9603271 11.000000000 12.719200134 12.250000954 73.916992188 0.0189999994  -999.250000 0.1816000044 2.4316310883 5.3583002090 33.599998474  -999.250000 67.547622681 137.23840332 2.2732999325  -999.250000 2.3787999153
 1655.1126709 11.000000000 12.699800491 12.250000954 75.994422913 0.0258000009  -999.250000 0.1608999968 2.4703099728 5.5809001923 30.938999176  -999.250000 68.200416565 141.61880493 2.0734000206  -999.250000 2.0578999519
 1655.2651367 11.000000000 12.688699722 12.250000954 77.525917053 0.0205000006  -999.250000 0.1597999930 2.4829044342 5.7663002014 30.809700012  -999.250000 68.727416992 149.06900024 2.1075999737  -999.250000 1.9804999828
 1655.4174805 11.000000000 12.737199783 12.250000954 77.182411194 0.0208999999  -999.250000 0.1456000060 2.4886920452 5.7379999161 33.060001373  -999.250000 69.248901367 151.18580627 2.4109001160  -999.250000 2.2167000771
 1655.5699463 11.000000000 12.751600266 12.250000954 68.712272644 0.0160000008  -999.250000 0.1503999978 2.4789803028 5.3860001564 30.715700150  -999.250000 69.248901367 148.78689575 2.7086999416  -999.250000 2.4316000938
 1655.7222900 11.000000000 12.800200462 12.250000954 64.721458435 0.0329999998  -999.250000 0.1636999995 2.4666707516 5.5887999535 32.798698425  -999.250000 69.248901367 142.31500244 3.0123999119  -999.250000 2.8677999973
 1655.8747559 11.000000000 12.907299995 12.250000954 67.646980286 0.0322999991  -999.250000 0.1661999971 2.4300003052 5.7585000992 34.230899811  -999.250000 69.248901367 134.98530579 3.1152000427  -999.250000 3.0829000473
 1656.0270996 11.000000000 12.880398750 12.250000954 68.745079041 0.0329000019  -999.250000 0.1743000001 2.4302158356 5.9331002235 27.282100677  -999.250000 69.248580933 129.74209595 3.1250000000  -999.250000 3.1858999729
 1656.1795654 11.000000000 12.820799828 12.250000954 64.740158081 0.0280000009  -999.250000 0.1647000015 2.4497413635 5.9180998802 36.872600555  -999.250000 68.846565247 129.06669617 2.8996000290  -999.250000 3.0625998974
 1656.3319092 11.000000000 12.707299232 12.250000954 60.615810394 0.0278999992  -999.250000 0.1518999934 2.4753961563 5.8524999619 34.348999023  -999.250000 68.014831543 133.11160278 2.6677999496  -999.250000 2.8227999210
 1656.4842529 11.000000000 12.693200111 12.250000954 62.090877533 0.0154999997  -999.250000 0.1354999989 2.4705076218 5.5265998840 30.223699570  -999.250000 69.680526733 138.62609863 2.5478000641  -999.250000 2.5801999569
 1656.6367188 11.000000000 12.683200836 12.250000954 63.780189514 0.0240000002  -999.250000 0.1251000017 2.4799096584 5.7357997894 30.509799957  -999.250000 70.582901001 146.58360291 2.7204999924  -999.250000 2.6352999210
