# LAS format log file from PETREL
# Project units are specified as depth units
#==================================================================
~Version information
VERS.   2.0:
WRAP.   NO:
#==================================================================
~Well
STRT .m      734.31201172 :
STOP .m      2361.9440918 :
STEP .m     0.00000000 :
NULL .        -999.250000 :
COMP.           : COMPANY
WELL.  16/2-11 A Johan Sverdrup Appr   : WELL
FLD.            : FIELD
LOC.            : LOCATION
SRVC.           : SERVICE COMPANY
DATE.  2018-09-11 14:48:07   : Log Export Date {yyyy-MM-dd HH:mm:ss}
PROV.           : PROVINCE
UWI.   16/2-11 A   : UNIQUE WELL ID
API.            : API NUMBER
#==================================================================
~Curve
DEPT .m                   : DEPTH
Lithology_geolink ._      : Lithology_geolink
CALI .in                  : CALI
BS .in                    : BS
ROP .m/h                  : ROP
DRHO .g/cm3               : DRHO
THOR .ppm                 : THOR
NPHI .m3/m3               : NPHI
RHOB .g/cm3               : RHOB
PEF .b/e                  : PEF
GR .gAPI                  : GR
URAN .ppm                 : URAN
DTC .us/ft                : DTC
DTS .us/ft                : DTS
RDEP .ohm.m               : RDEP
RMIC .ohm.m               : RMIC
RMED .ohm.m               : RMED
~Parameter
#==================================================================
~Ascii
# ...
 1388.4129639  -999.250000 12.616800308 12.250000954 92.721755981 -0.009406565  -999.250000 0.4402000010 2.0978937149 3.0811548233 104.83354950  -999.250000 141.25059509  -999.250000 0.9693999887  -999.250000 0.9416999817
 1388.5653076  -999.250000 12.523200989 12.250000954 93.931221008 -0.013499760  -999.250000 0.4727999866 2.0941028595 2.9906101227 101.62210083  -999.250000 137.75090027  -999.250000 1.0003999472  -999.250000 0.9578999877
 1388.7177734  -999.250000 12.424099922 12.250000954 94.493690491 -0.013193115  -999.250000 0.4860000014 2.0978336334 3.0033261776 100.87126160  -999.250000 139.37170410  -999.250000 0.9628000259  -999.250000 0.9293000102
 1388.8701172  -999.250000 12.445698738 12.250000954 98.536079407 -0.008898077  -999.250000 0.4797999859 2.1187968254 3.0820329189 102.28015137  -999.250000 138.37100220  -999.250000 0.9538999796  -999.250000 0.9523000121
 1389.0224609  -999.250000 12.497900009 12.250000954 100.16294861 -0.006502322  -999.250000 0.4902000129 2.1152875423 3.2479813099 105.33529663  -999.250000 138.78599548  -999.250000 1.0591000319  -999.250000 1.0376000404
 1389.1749268  -999.250000 12.468099594 12.250000954 103.71061707 -0.009391426  -999.250000 0.4736000001 2.0997030735 3.3495368958 109.45146179  -999.250000 137.78500366  -999.250000 1.1361000538  -999.250000 1.0870000124
 1389.3272705  -999.250000 12.400700569 12.250000954 103.68563843 0.0012985589  -999.250000 0.5159999728 2.1035025120 3.6452207565 109.15139008  -999.250000 136.38360596  -999.250000 1.1246999502  -999.250000 1.0904999971
 1389.4797363  -999.250000 12.357000351 12.250000954 99.104927063 -0.000503766  -999.250000 0.4397999942 2.1068904400 3.6709716320 103.76597595  -999.250000 136.19079590  -999.250000 1.1467000246  -999.250000 1.1075999737
 1389.6320801  -999.250000 12.255699158 12.250000954 99.433624268 -0.005213371  -999.250000 0.4142999947 2.0948829651 3.5105922222 99.614830017  -999.250000 136.85920715  -999.250000 1.1303000450  -999.250000 1.1080000401
 1389.7845459  -999.250000 12.298800468 12.250000954 98.081451416 -0.021898879  -999.250000 0.3973000050 2.0737006664 3.1264140606 100.52906036  -999.250000 135.45069885  -999.250000 1.1749999523  -999.250000 1.1460000277
 1389.9368896  -999.250000 12.360199928 12.250000954 95.323623657 -0.020496475  -999.250000 0.4474000037 2.0746991634 3.1440794468 104.71784973  -999.250000 135.12919617  -999.250000 1.2403999567  -999.250000 1.1794999838
 1390.0893555  -999.250000 12.270799637 12.250000954 91.385574341 -0.016091995  -999.250000 0.4591999948 2.0735876560 3.2431221008 106.52565765  -999.250000 135.93679810  -999.250000 1.2181999683  -999.250000 1.1635999680
 1390.2416992  -999.250000 12.222399712 12.250000954 82.014137268 -0.011100320  -999.250000 0.4266000092 2.0657856464 3.1943674088 105.24876404  -999.250000 134.85549927  -999.250000 1.2156000137  -999.250000 1.1633000374
 1390.3941650  -999.250000 12.226900101 12.250000954 71.815773010 -0.011497118  -999.250000 0.3952000141 2.0478017330 3.0291597843 104.83508301  -999.250000 135.63879395  -999.250000 1.1890000105  -999.250000 1.1499999762
 1390.5465088  -999.250000 12.297100067 12.250000954 66.800010681 -0.009699681  -999.250000 0.3740000129 2.0488941669 3.0666456223 105.01165009  -999.250000 133.58149719  -999.250000 1.1550999880  -999.250000 1.1244000196
 1390.6989746  -999.250000 12.440600395 12.250000954 63.292781830 -0.009293595  -999.250000 0.3817000091 2.0418922901 3.2488937378 104.20285034  -999.250000 133.83020020  -999.250000 1.1334999800  -999.250000 1.1030000448
 1390.8513184  -999.250000 12.291999817 12.250000954 61.121681213 -0.005305288  -999.250000 0.3752000034 2.0370874405 3.6189813614 101.36466980  -999.250000 134.50909424  -999.250000 1.1256999969  -999.250000 1.0892000198
 1391.0035400  -999.250000 12.309700012 12.250000954 60.262790680 -0.011900000  -999.250000 0.3997803032 2.0213999748 3.4707999229 99.448402405  -999.250000 136.93585205  -999.250000 1.1118110418  -999.250000 1.0808067322
 1391.1560059  -999.250000 12.434900284 12.250000954 60.325134277 -0.017500000  -999.250000 0.4058951139 2.0244998932 3.2044999599 99.093200684  -999.250000 137.93231201  -999.250000 1.1147975922  -999.250000 1.0788015127
 1391.3083496  -999.250000 12.408899307 12.250000954 57.049209595 -0.027500000  -999.250000 0.4446689188 2.0213000774 2.7946999073 97.270103455  -999.250000 137.97506714  -999.250000 1.1118023396  -999.250000 1.0798991919
 1391.4608154  -999.250000 12.356800079 12.250000954 54.090225220 -0.026500000  -999.250000 0.4363067448 2.0404999256 2.6315000057 99.116897583  -999.250000 136.49798584  -999.250000 1.1173955202  -999.250000 1.0820982456
 1391.6131592  -999.250000 12.302499771 12.250000954 53.124996185 -0.019099999  -999.250000 0.4428947270 2.0576000214 2.6433000565 105.50959778  -999.250000 135.52207947  -999.250000 1.1216965914  -999.250000 1.0903933048
 1391.7656250  -999.250000 12.292300224 12.250000954 54.842193604 -0.008700000  -999.250000 0.4336074591 2.0857999325 2.7042000294 107.82199860  -999.250000 135.85313416  -999.250000 1.1292939186  -999.250000 1.1051882505
 1391.9179688  -999.250000 12.281599998 12.250000954 55.045932770 -0.008700000  -999.250000 0.4715695381 2.0906999111 2.7383999825 102.35659790  -999.250000 134.16944885  -999.250000 1.1352952719  -999.250000 1.1026020050
 1392.0703125  -999.250000 12.274600029 12.250000954 55.206035614 -0.009900000  -999.250000 0.4663085043 2.0922000408 2.8443000317 97.534500122  -999.250000 134.99366760  -999.250000 1.1407911777  -999.250000 1.1055952311
 1392.2227783  -999.250000 12.316399574 12.250000954 53.888782501 -0.017000001  -999.250000 0.4476149976 2.0676000118 2.9205999374 98.560501099  -999.250000 134.72891235  -999.250000 1.1390014887  -999.250000 1.1003042459
 1392.3751221  -999.250000 12.336799622 12.250000954 52.814960480 -0.014300000  -999.250000 0.4422086477 2.0657999516 3.0139000416 101.47270203  -999.250000 134.86686707  -999.250000 1.1238243580  -999.250000 1.0893176794
 1392.5275879  -999.250000 12.404601097 12.250000954 53.444229126 -0.017100001  -999.250000 0.4384030402 2.0678999424 2.9105999470 104.32569885  -999.250000 135.13519287  -999.250000 1.1348910332  -999.250000 1.0936964750
 1392.6799316  -999.250000 12.470900536 12.250000954 53.971782684 -0.011700000  -999.250000 0.4296140969 2.0876998901 3.0439000130 106.68150330  -999.250000 135.77258301  -999.250000 1.1292091608  -999.250000 1.0901057720
 1392.8323975  -999.250000 12.402798653 12.250000954 55.045276642 -0.009000000  -999.250000 0.4319980741 2.0924000740 3.3771998882 108.33889771  -999.250000 136.92419434  -999.250000 1.1162103415  -999.250000 1.0764110088
 1392.9847412  -999.250000 12.307000160 12.250000954 58.213256836 -0.002400000  -999.250000 0.4300016165 2.0933001041 3.6717998981 110.51719666  -999.250000 137.38780212  -999.250000 1.1226947308  -999.250000 1.0785982609
 1393.1372070  -999.250000 12.455599785 12.250000954 51.765419006 -0.005000000  -999.250000 0.4473860860 2.0785000324 3.5750000477 109.30960083  -999.250000 138.95559692  -999.250000 1.1278958321  -999.250000 1.0916894674
 1393.2895508  -999.250000 12.239500999 12.250000954 54.240158081 -0.008100000  -999.250000 0.4035351574 2.0639998913 3.1710000038 101.98570251  -999.250000 144.70140076  -999.250000 1.1368927956  -999.250000 1.0996935368
 1393.4420166  -999.250000 12.427700043 12.250000954 58.221786499 -0.007600000  -999.250000 0.3954064846 2.0603001118 2.9960000515 98.000198364  -999.250000 146.76860046  -999.250000 1.1496897936  -999.250000 1.1073937416
 1393.5943604  -999.250000 12.324099541 12.250000954 61.916992188 -0.005100000  -999.250000 0.4001961648 2.0738999844 2.8868000507 100.26519775  -999.250000 145.09069824  -999.250000 1.1155273914  -999.250000 1.0883152485
 1393.7468262  -999.250000 12.333000183 12.250000954 69.378608704 -0.006200000  -999.250000 0.4329737425 2.0829000473 2.8415000439 100.56510162  -999.250000 142.92219543  -999.250000 1.1401802301  -999.250000 1.1003903151
 1393.8991699  -999.250000 12.346699715 12.250000954 78.729331970 -0.012000000  -999.250000 0.4194109142 2.0796999931 2.7688999176 100.84130096  -999.250000 140.55099487  -999.250000 1.1639809608  -999.250000 1.1149883270
