# LAS format log file from PETREL
# Project units are specified as depth units
#==================================================================
~Version information
VERS.   2.0:
WRAP.   NO:
#==================================================================
~Well
STRT .m      684.17242432 :
STOP .m      2208.3249512 :
STEP .m     0.00000000 :
NULL .        -999.250000 :
COMP.           : COMPANY
WELL.  16/2-16   : WELL
FLD.            : FIELD
LOC.            : LOCATION
SRVC.           : SERVICE COMPANY
DATE.  2018-09-11 14:48:07   : Log Export Date {yyyy-MM-dd HH:mm:ss}
PROV.           : PROVINCE
UWI.   16/2-16   : UNIQUE WELL ID
API.            : API NUMBER
#==================================================================
~Curve
DEPT .m                   : DEPTH
Lithology_geolink ._      : Lithology_geolink
CALI .in                  : CALI
BS .in                    : BS
ROP .m/h                  : ROP
DRHO .g/cm3               : DRHO
THOR .ppm                 : THOR
NPHI .m3/m3               : NPHI
RHOB .g/cm3               : RHOB
PEF .b/e                  : PEF
GR .gAPI                  : GR
URAN .ppm                 : URAN
DTC .us/ft                : DTC
DTS .us/ft                : DTS
RDEP .ohm.m               : RDEP
RMED .ohm.m               : RMED
~Parameter
#==================================================================
~Ascii
# ...
 2199.7905273  -999.250000 8.7242002487 8.5000000000 75.601051331 0.1342999935  -999.250000 0.1218999997 2.5215001106 3.7067000866 131.08219910  -999.250000  -999.250000  -999.250000 5.6925477982 5.9489002228
 2199.9428711  -999.250000 8.7110004425 8.5000000000 77.692909241 0.1162000000  -999.250000 0.1301999986 2.4955999851 3.6912999153 127.65419769  -999.250000  -999.250000  -999.250000 6.2216000557 6.3081998825
 2200.0952148  -999.250000 8.7218999863 8.5000000000 76.749671936 0.1079000011  -999.250000 0.1239999980 2.5069999695 3.5827999115 125.08640289  -999.250000  -999.250000  -999.250000 5.3523001671 6.1571998596
 2200.2478027  -999.250000 8.7333002090 8.5000000000 76.438972473 0.1054000035  -999.250000 0.1248999983 2.5192000866 3.5952000618 124.99870300  -999.250000  -999.250000  -999.250000 5.3484230042 5.9734997749
 2200.4001465  -999.250000 8.7097997665 8.5000000000 74.753936768 0.1206000000  -999.250000 0.1286000013 2.5367000103 3.6029000282 125.15219879  -999.250000  -999.250000  -999.250000 5.1128449440 5.5420999527
 2200.5524902  -999.250000 8.7068996429 8.5000000000 77.366470337 0.1254000068  -999.250000 0.1238000020 2.5267000198 3.6584999561 124.11479950  -999.250000  -999.250000  -999.250000 4.7055292130 5.0097999573
 2200.7048340  -999.250000 8.7336997986 8.5000000000 76.568893433 0.1247000024  -999.250000 0.1238999963 2.5169000626 3.7065000534 124.26640320  -999.250000  -999.250000  -999.250000 5.1605000496 5.7017002106
 2200.8574219  -999.250000 8.7207002640 8.5000000000 78.090553284 0.1360999942  -999.250000 0.1159999967 2.5302000046 3.6895000935 124.03079987  -999.250000  -999.250000  -999.250000 5.8133172989 4.6491999626
 2201.0097656  -999.250000 8.7237997055 8.5000000000 77.692909241 0.1316999942  -999.250000 0.1262000054 2.5253999233 3.6817998886 122.77610016  -999.250000  -999.250000  -999.250000 5.5743770599 5.7006998062
 2201.1621094  -999.250000 8.7179002762 8.5000000000 78.204727173 0.1328999996  -999.250000 0.1296000034 2.5283000469 3.6861999035 122.64459991  -999.250000  -999.250000  -999.250000 5.3739800453 5.9222998619
 2201.3144531  -999.250000 8.6992998123 8.5000000000 76.758201599 0.1237000003  -999.250000 0.1351000071 2.5204999447 3.6865999699 123.13230133  -999.250000  -999.250000  -999.250000 5.7357001305 5.7925000191
 2201.4667969  -999.250000 8.7192001343 8.5000000000 76.650917053 0.1154000014  -999.250000 0.1330000013 2.5113000870 3.7453999519 122.12409973  -999.250000  -999.250000  -999.250000 5.0683999062 5.5292000771
 2201.6193848  -999.250000 8.7165002823 8.5000000000 79.130905151 0.1064999998  -999.250000 0.1404000074 2.5048000813 3.7506000996 122.81079865  -999.250000  -999.250000  -999.250000 5.2989592552 5.3600997925
 2201.7717285  -999.250000 8.7170000076 8.5000000000 78.711616516 0.1105000004  -999.250000 0.1306000054 2.5148000717 3.7304000854 128.59840393  -999.250000  -999.250000  -999.250000 5.3983316422 6.1293001175
 2201.9240723  -999.250000 8.7152004242 8.5000000000 79.888450623 0.1297000051  -999.250000 0.1254000068 2.5446999073 3.6761999130 130.38819885  -999.250000  -999.250000  -999.250000 5.5427999496 5.8488998413
 2202.0764160  -999.250000 8.7239999771 8.5000000000 78.730972290 0.1343999952  -999.250000 0.1327999979 2.5525000095 3.6110999584 128.88150024  -999.250000  -999.250000  -999.250000 6.1964001656 6.3685998917
 2202.2290039  -999.250000 8.7207002640 8.5000000000 78.312339783 0.1362999976  -999.250000 0.1306000054 2.5466001034 3.6670000553 126.96569824  -999.250000  -999.250000  -999.250000 5.4793157578 6.0405998230
 2202.3813477  -999.250000 8.7286996841 8.5000000000 77.362533569 0.1182999983  -999.250000 0.1292999983 2.5260999203 3.7634999752 119.57270050  -999.250000  -999.250000  -999.250000 5.4262046814 5.8274002075
 2202.5336914  -999.250000 8.7230997086 8.5000000000 75.601707458 0.1026000008  -999.250000 0.1287000030 2.5192000866 3.7772998810 118.63580322  -999.250000  -999.250000  -999.250000 5.1799669266 5.5234999657
 2202.6860352  -999.250000 8.6925001144 8.5000000000 76.882881165 0.0895000026  -999.250000 0.1289000064 2.5179998875 3.7504999638 125.64530182  -999.250000  -999.250000  -999.250000 5.2841000557 5.8031001091
 2202.8386230  -999.250000 8.7157001495 8.5000000000 78.387466431 0.0956000015  -999.250000 0.1301999986 2.5369000435 3.5715999603 128.21850586  -999.250000  -999.250000  -999.250000 5.5682873726 5.8028001785
 2202.9909668  -999.250000 8.7433996201 8.5000000000 78.202102661 0.1037999988  -999.250000 0.1208999977 2.5483999252 3.5255999565 127.50990295  -999.250000  -999.250000  -999.250000 5.4999628067 6.1132001877
 2203.1433105  -999.250000 8.7454996109 8.5000000000 74.903869629 0.1102999970  -999.250000 0.1221000031 2.5502998829 3.5160000324 127.27980042  -999.250000  -999.250000  -999.250000 6.5955872536 7.0836000443
 2203.2956543  -999.250000 8.7377996445 8.5000000000 73.911087036 0.1080000028  -999.250000 0.1280000061 2.5350999832 3.6602001190 127.26339722  -999.250000  -999.250000  -999.250000 5.0275001526 4.9700999260
 2203.4479980  -999.250000 8.7281999588 8.5000000000 74.792320251 0.1070000008  -999.250000 0.1295000017 2.5239999294 3.6735999584 126.89630127  -999.250000  -999.250000  -999.250000 5.5756998062 6.0019001961
 2203.6005859  -999.250000 8.7319002151 8.5000000000 75.323165894 0.1099999994  -999.250000 0.1263999939 2.5246999264 3.6949999332 125.69640350  -999.250000  -999.250000  -999.250000 5.5981507301 5.7280001640
 2203.7529297  -999.250000 8.6792001724 8.5000000000 77.166336060 0.1149000004  -999.250000 0.1191999987 2.5295999050 3.6417999268 125.40599823  -999.250000  -999.250000  -999.250000 5.5051217079 5.3600001335
 2203.9052734  -999.250000 8.6677999496 8.5000000000 77.159446716 0.1208000034  -999.250000 0.1134999990 2.5401999950 3.6219000816 126.82869720  -999.250000  -999.250000  -999.250000 5.4562997818 5.9507999420
 2204.0576172  -999.250000 8.7018995285 8.5000000000 77.900596619 0.1106999964  -999.250000 0.1306000054 2.5373001099 3.5597999096 126.12380219  -999.250000  -999.250000  -999.250000 5.6366000175 6.3965001106
 2204.2102051  -999.250000 8.7096004486 8.5000000000 76.425849915 0.1010000035  -999.250000 0.1256999969 2.5350999832 3.4900000095 122.14600372  -999.250000  -999.250000  -999.250000 5.1706433296 4.8435997963
 2204.3625488  -999.250000 8.7404003143 8.5000000000 75.974082947 0.0812999979  -999.250000 0.1281999946 2.5243000984 3.4702000618 119.95809937  -999.250000  -999.250000  -999.250000 5.4475002289 5.7621998787
 2204.5148926  -999.250000 8.7235002518 8.5000000000 74.459640503 0.0837000012  -999.250000 0.1224000007 2.5257000923 3.4630000591 121.46119690  -999.250000  -999.250000  -999.250000 5.8202271461 6.7771000862
 2204.6672363  -999.250000 8.7192001343 8.5000000000 75.918312073 0.0847000033  -999.250000 0.1294000000 2.5078001022 3.5350999832 125.68000031  -999.250000  -999.250000  -999.250000 5.0882000923 5.1898999214
 2204.8198242  -999.250000 8.6972999573 8.5000000000 77.362861633 0.1062000021  -999.250000 0.1363999993 2.5157001019 3.5727999210 130.34069824  -999.250000  -999.250000  -999.250000 4.9299120903 5.0651001930
 2204.9721680  -999.250000 8.7194995880 8.5000000000 79.596786499 0.1086999997  -999.250000 0.1306000054 2.5216000080 3.5439000130 130.71690369  -999.250000  -999.250000  -999.250000 5.6232123375 6.3758001328
 2205.1245117  -999.250000 8.6942996979 8.5000000000 78.593505859 0.0971999988  -999.250000 0.1316999942 2.5253999233 3.4849998951 127.50260162  -999.250000  -999.250000  -999.250000 5.8806829453 5.9453001022
 2205.2768555  -999.250000 8.6844997406 8.5000000000 79.094490051 0.0771000013  -999.250000 0.1289999932 2.5181999207 3.4723000526 126.73739624  -999.250000  -999.250000  -999.250000 6.1820001602 5.8063998222
 2205.4291992  -999.250000 8.6902999878 8.5000000000 78.155838013 0.0803000033  -999.250000 0.1250000000 2.5301001072 3.4955000877 129.90969849  -999.250000  -999.250000  -999.250000 7.1117000580 7.1245999336
 2205.5817871  -999.250000 8.7189998627 8.5000000000 78.869750977 0.0926999971  -999.250000 0.1317999959 2.5341999531 3.5722000599 130.30969238  -999.250000  -999.250000  -999.250000 4.5562644005 5.4096999168
