# LAS format log file from PETREL
# Project units are specified as depth units
#==================================================================
~Version information
VERS.   2.0:
WRAP.   NO:
#==================================================================
~Well
STRT .m      735.07409668 :
STOP .m      2124.0476074 :
STEP .m     0.00000000 :
NULL .        -999.250000 :
COMP.           : COMPANY
WELL.  16/2-6   : WELL
FLD.            : FIELD
LOC.            : LOCATION
SRVC.           : SERVICE COMPANY
DATE.  2018-09-11 14:48:07   : Log Export Date {yyyy-MM-dd HH:mm:ss}
PROV.           : PROVINCE
UWI.   16/2-6   : UNIQUE WELL ID
API.            : API NUMBER
#==================================================================
~Curve
DEPT .m                   : DEPTH
Lithology_geolink ._      : Lithology_geolink
CALI .in                  : CALI
BS .in                    : BS
ROP .m/h                  : ROP
DRHO .g/cm3               : DRHO
NPHI .m3/m3               : NPHI
RHOB .g/cm3               : RHOB
PEF .b/e                  : PEF
GR .gAPI                  : GR
DTC .us/ft                : DTC
DTS .us/ft                : DTS
RDEP .ohm.m               : RDEP
RMED .ohm.m               : RMED
~Parameter
#==================================================================
~Ascii
# ...
 1653.7412109 11.000000000 12.872099876 12.250000954 26.308069229 0.0068013612 0.1895000041 2.3845822811 6.0139031410 19.864400864 79.997909546 145.26301575 2.0662999153 1.7580000162
 1653.8936768 11.000000000 12.876299858 12.250000954 25.765092850 0.0084996801 0.1955000013 2.3625805378 6.1424975395 19.556400299 80.784301758 143.78466797 2.1059999466 1.7897000313
 1654.0460205 11.000000000 12.874099731 12.250000954 25.431430817 0.0081014428 0.2070000023 2.3381996155 6.2642683983 18.650800705 81.716789246 142.86767578 1.9350999594 1.7581000328
 1654.1984863 11.000000000 12.762298584 12.250000954 26.010828018 0.0099067250 0.2162999958 2.3375148773 6.3494243622 16.896299362 82.139801025 144.46022034 1.6842000484 1.5030000210
 1654.3508301 11.000000000 12.635499001 12.250000954 27.049213409 0.0141024040 0.2216999978 2.3468084335 6.3645286560 16.904399872 82.972908020 146.40011597 1.6130000353 1.4371000528
 1654.5032959 11.000000000 12.795599937 12.250000954 28.221456528 0.0171033628 0.2259999961 2.3572132587 6.4002132416 17.690099716 83.464897156 148.52766418 1.5377000570 1.3059999943
 1654.6556396 11.000000000 12.824000359 12.250000954 29.563974380 0.0191983189 0.2311999947 2.3655021191 6.4086332321 17.595300674 83.787399292 150.31599426 1.6191999912 1.3317999840
 1654.8081055 11.000000000 12.825799942 12.250000954 30.433399200 0.0170953572 0.2219000012 2.3680956364 6.4504470825 18.040500641 83.849906921 152.56777954 1.6354000568 1.3865000010
 1654.9604492 11.000000000 12.779500008 12.250000954 31.402559280 0.0141989589 0.2247000039 2.3653903008 6.4174175262 18.799100876 83.461502075 153.86601257 1.6706000566 1.4271999598
 1655.1127930 11.000000000 12.852100372 12.250000954 33.652233124 0.0128994398 0.2173999995 2.3531868458 6.4396595955 19.856399536 82.538002014 154.37440491 1.8293000460 1.5530999899
 1655.2652588 11.000000000 12.770699501 12.250000954 35.207679749 0.0121993590 0.2172999978 2.3368933201 6.3892855644 19.474599838 82.214302063 153.63752747 1.8395999670 1.5521999598
 1655.4176025 11.000000000 12.817199707 12.250000954 36.776576996 0.0113968775 0.2120999992 2.3285031319 6.3716344833 16.890399933 82.487998962 154.67282104 1.7440999746 1.4357000589
 1655.5700684 11.000000000 12.806400299 12.250000954 38.143047333 0.0074992785 0.2097000033 2.3325188160 6.2902350426 18.710399628 82.993301392 154.56948853 1.6539000273 1.4473999739
 1655.7224121 11.000000000 12.771100044 12.250000954 39.018375397 0.0066068857 0.2062000036 2.3560237885 6.2097096443 21.864999771 83.936195374 153.42878723 1.5018999577 1.2647999525
 1655.8748779 11.000000000 12.878499985 12.250000954 40.017387390 0.0152032049 0.2094999999 2.3859019279 6.3463931084 18.784700394 83.712600708 153.65415955 1.5315999985 1.2888000011
 1656.0272217 11.000000000 12.822099686 12.250000954 39.605972290 0.0192056857 0.2169000059 2.3881902695 6.4628033638 16.070100784 82.372901917 153.72135925 1.7697999477 1.3769999743
 1656.1796875 11.000000000 12.844901085 12.250000954 39.408462524 0.0262969546 0.2242999971 2.3758730888 6.7165737152 17.135900497 81.430198669 153.40710449 2.1215000153 1.7137000561
 1656.3320313 11.000000000 12.727600098 12.250000954 37.812664032 0.0225039274 0.2225999981 2.3422913551 6.8091559410 18.394699097 81.588500977 152.66711426 2.1259000301 1.8227000237
 1656.4844971 11.000000000 12.737999916 12.250000954 37.758857727 0.0274209771 0.2127999961 2.3314960003 7.0044565201 19.048299789 82.719596863 149.80496216 1.8802000284 1.5519000292
 1656.6368408 11.000000000 12.741299629 12.250000954 36.246063232 0.0405017622 0.2001000047 2.3290128708 7.4137349129 19.271099091 83.841300964 148.40516663 1.6843999624 1.4546999931
 1656.7893066 11.000000000 12.821400642 12.250000954 36.300853729 0.0426827073 0.1963000000 2.3452024460 7.3325223923 20.793699265 84.605300903 148.49087524 1.6857000589 1.4833999872
 1656.9416504 11.000000000 12.882399559 12.250000954 37.407810211 0.0318877399 0.2013999969 2.3467011452 6.9719634056 20.979299545 85.000907898 150.35127258 1.6984000206 1.4263999462
 1657.0941162 11.000000000 12.930398941 12.250000954 37.868110657 0.0166089665 0.2132000029 2.3482091427 6.4275441170 15.565099716 85.075691223 152.80610657 1.7421000004 1.4751000404
 1657.2464600 11.000000000 12.987999916 12.250000954 38.223426819 0.0221997593 0.2222000062 2.3538961411 6.7042202950 10.796899796 85.663497925 154.37312317 1.5838999748 1.3289999962
 1657.3988037 11.000000000 12.858799934 12.250000954 38.135169983 0.0218991991 0.2242999971 2.3490982056 6.7299509048 11.769900322 86.097099304 155.02362061 1.6554000378 1.5013999939
 1657.5512695 11.000000000 12.890200615 12.250000954 38.716537476 0.0208987184 0.2223999947 2.3465976715 6.6685442924 16.385700226 85.626701355 156.30088806 1.6233999729 1.3624000549
 1657.7036133 11.000000000 12.873299599 12.250000954 38.848751068 0.0193000808 0.2230000049 2.3435950279 6.5991516113 21.216999054 85.814598083 155.41635132 1.5211999416 1.2821999788
 1657.8560791 11.000000000 12.844901085 12.250000954 42.211616516 0.0193996821 0.2239000052 2.3373961449 6.6635718346 21.220699310 85.048202515 155.99147034 1.6168999672 1.3634999990
 1658.0084229 11.000000000 12.772000313 12.250000954 43.709320068 0.0189983975 0.2303999960 2.3326931000 6.6285829544 19.635000229 84.937103271 155.08752441 1.6497000456 1.3503999710
 1658.1608887 11.000000000 12.784399986 12.250000954 45.526905060 0.0169996005 0.2275000066 2.3239998817 6.6072592735 21.035800934 84.870597839 155.11897278 1.5715999603 1.3569999933
 1658.3132324 11.000000000 12.878999710 12.250000954 47.969161987 0.0165042467 0.2337000072 2.3241045475 6.5568737984 21.038400650 84.314903259 154.57981873 1.5980000496 1.2766000032
 1658.4656982 11.000000000 12.767100334 12.250000954 48.005577087 0.0217990391 0.2343000025 2.3297042847 6.6489148140 16.969499588 83.576698303 154.72601318 1.7864999771 1.3837000132
 1658.6180420 11.000000000 12.763500214 12.250000954 47.308071136 0.0211941507 0.2389999926 2.3324053288 6.5954747200 11.262999535 83.545097351 155.49095154 2.1022000313 1.5415999889
 1658.7705078 11.000000000 12.840999603 12.250000954 45.485237122 0.0138844671 0.2371000051 2.3390254974 6.4387116432 8.9772996902 83.790298462 155.30632019 1.9672000408 1.7491999865
 1658.9228516 11.000000000 12.860600471 12.250000954 43.697837830 0.0041998397 0.2319999933 2.3550176620 6.1965975761 12.317600250 84.086601257 154.50845337 1.9464999437 1.8392000198
 1659.0753174 11.000000000 12.901100159 12.250000954 40.069229126 0.0039996798 0.2184000015 2.3769967556 6.0685987473 17.284400940 84.107498169 152.69628906 1.7301000357 1.4995000362
 1659.2276611 11.000000000 12.892600060 12.250000954 37.821521759 0.0038013624 0.2114000022 2.3748993874 5.9429249763 18.712200165 83.483802795 153.37258911 1.6233999729 1.4191999435
 1659.3800049 11.000000000 12.900099754 12.250000954 35.450130463 0.0054979986 0.2114000022 2.3739843369 5.8495578766 17.184099197 83.732002258 154.23666382 1.8195999861 1.5498000383
 1659.5324707 11.000000000 12.814499855 12.250000954 32.452754974 0.0029981572 0.2199999988 2.3543002605 5.9215846062 16.996599197 82.672698975 155.81683350 1.8873000145 1.5641000271
 1659.6848145 11.000000000 12.785699844 12.250000954 30.682086945 0.0007002401 0.2204000056 2.3544969559 5.9023690224 18.606399536 81.854209900 155.23262024 1.9036999941 1.5651999712
 1659.8372803 11.000000000 12.750300407 12.250000954 27.697505951 0.0009998397 0.2181999981 2.3506197929 5.9887967110 19.362100601 80.997985840 154.63922119 2.4535000324 2.0195000172
 1659.9896240 11.000000000 12.729900360 12.250000954 22.382545471 0.0008038431 0.2116000056 2.3753244877 5.8600902557 18.168199539 80.736419678 155.51400757 2.7885999680 2.3643000126
 1660.1420898 11.000000000 12.672800064 12.250000954 21.919618607 0.0055978363 0.2053000033 2.4059143066 5.9722189903 19.219100952 81.268508911 155.50946045 2.4939999580 2.4488000870
 1660.2944336 11.000000000 12.656300545 12.250000954 22.076772690 0.0028936698 0.1915999949 2.4238846302 5.8711342812 22.654100418 81.278106689 154.58784485 2.2051000595 2.1171000004
