# LAS format log file from PETREL
# Project units are specified as depth units
#==================================================================
~Version information
VERS.   2.0:
WRAP.   NO:
#==================================================================
~Well
STRT .m      735.07409668 :
STOP .m      2124.0476074 :
STEP .m     0.00000000 :
NULL .        -999.250000 :
COMP.           : COMPANY
WELL.  16/2-6   : WELL
FLD.            : FIELD
LOC.            : LOCATION
SRVC.           : SERVICE COMPANY
DATE.  2018-09-11 14:48:07   : Log Export Date {yyyy-MM-dd HH:mm:ss}
PROV.           : PROVINCE
UWI.   16/2-6   : UNIQUE WELL ID
API.            : API NUMBER
#==================================================================
~Curve
DEPT .m                   : DEPTH
Lithology_geolink ._      : Lithology_geolink
CALI .in                  : CALI
BS .in                    : BS
ROP .m/h                  : ROP
DRHO .g/cm3               : DRHO
NPHI .m3/m3               : NPHI
RHOB .g/cm3               : RHOB
PEF .b/e                  : PEF
GR .gAPI                  : GR
DTC .us/ft                : DTC
DTS .us/ft                : DTS
RDEP .ohm.m               : RDEP
RMED .ohm.m               : RMED
~Parameter
#==================================================================
~Ascii
# ...
 2116.4277344 15.000000000 8.5151996613 8.5000000000 32.554134369 0.0364556089 0.3644846082 2.3393630981 4.3694939613 19.573200226  -999.250000  -999.250000 0.6794441938 0.6963999867
 2116.5800781 15.000000000 8.5424995422 8.5000000000 34.855316162 0.0087916795 0.3549228907 2.3163485527 4.2420973778 20.443700790  -999.250000  -999.250000 0.6446697712 0.7483000159
 2116.7324219 15.000000000 8.5452003479 8.5000000000 36.058399200 0.0035999999 0.3691999912 2.2841999531 4.7395000458 23.443000793  -999.250000  -999.250000 0.6258000135 0.5971000195
 2116.8847656 15.000000000 8.5202999115 8.5000000000 37.970146179 0.0355999991 0.3384000063 2.3002998829 5.1476998329 24.117200851  -999.250000  -999.250000 0.7883999944 0.8148000240
 2117.0371094 15.000000000 8.4937000275 8.5000000000 36.375587463 0.0577000007 0.3562000096 2.3375999928 4.9366998672 24.117300034  -999.250000  -999.250000 0.5331000090 0.5852678418
 2117.1894531 15.000000000 8.4972000122 8.5000000000 41.957901001 0.0720999986 0.3149000108 2.4195001125 4.7097001076 23.333856583  -999.250000  -999.250000 1.1712000370 1.2289662361
 2117.3420410 15.000000000 8.4735002518 8.5000000000 46.092849731 0.0843999982 0.2170999944 2.5078001022 4.7969999313 23.024999619  -999.250000  -999.250000 2.8847999573 2.5366001129
 2117.4943848 15.000000000 8.4739999771 8.5000000000 41.104331970 0.1020999998 0.1908999979 2.5676999092 5.1609001160 19.594999313  -999.250000  -999.250000 2.8254001141 2.5882000923
 2117.6467285 15.000000000 8.4633998871 8.5000000000 37.523780823 0.1142999977 0.2221000046 2.5668001175 5.1996002197 15.844410896  -999.250000  -999.250000 1.2668000460 1.0323932171
 2117.7990723 15.000000000 8.4833002090 8.5000000000 34.565761566 0.0874999985 0.2286999971 2.5287001133 4.8503999710 13.529405594  -999.250000  -999.250000 1.6203999519 2.5078277588
 2117.9514160 15.000000000 8.4670000076 8.5000000000 32.494785309 0.0793000013 0.2389999926 2.5243999958 4.5826001167 15.402586937  -999.250000  -999.250000 1.1368000507 1.2404381037
 2118.1040039 15.000000000 8.4666004181 8.5000000000 30.292650223 0.0685999990 0.2734000087 2.5197999477 4.4959001541 16.816400528  -999.250000  -999.250000 1.5947999954 1.5951999426
 2118.2563477 15.000000000 8.4524002075 8.5000000000 29.672906876 0.0828000009 0.2845000029 2.5271999836 4.5237998962 19.688995361  -999.250000  -999.250000 1.8159999847 1.7448601723
 2118.4086914 15.000000000 8.4624996185 8.5000000000 29.246417999 0.0873999968 0.2484000027 2.5195999146 4.5837001801 23.394958496  -999.250000  -999.250000 1.6360000372 1.6739143133
 2118.5610352 15.000000000 8.4642000198 8.5000000000 29.392480850 0.0943000019 0.2372000068 2.5299999714 4.6819000244 27.285600662  -999.250000  -999.250000 2.4024000168 2.4368753433
 2118.7136230 15.000000000 8.4825000763 8.5000000000 28.684709549 0.0905999988 0.2416999936 2.5348999500 4.8849000931 29.246500015  -999.250000  -999.250000 2.5645000935 2.4249000549
 2118.8659668 15.000000000 8.5003004074 8.5000000000 28.706037521 0.0993999988 0.2375999987 2.5713000298 5.2104001045 29.976100922  -999.250000  -999.250000 5.6128001213 3.4089999199
 2119.0183105 15.000000000 8.5180997849 8.5000000000 30.091283798 0.0786999986 0.2071000040 2.5741000175 5.2298002243 28.579099655  -999.250000  -999.250000 4.4050002098 7.3638620377
 2119.1706543 15.000000000 8.4899997711 8.5000000000 31.272386551 0.0850000009 0.1800999939 2.6101999283 5.1114001274 29.678199768  -999.250000  -999.250000 3.9899001122 4.8219904900
 2119.3232422 15.000000000 8.4607000351 8.5000000000 28.404525757 0.0834000036 0.1779000014 2.5908999443 4.9165000916 33.515399933  -999.250000  -999.250000 1.9308999777 3.5327999592
 2119.4755859 15.000000000 8.5354995728 8.5000000000 28.562994003 0.1062999964 0.1851000041 2.5894999504 4.8751001358 36.689601898  -999.250000  -999.250000 1.2201999426 1.5254000425
 2119.6279297 15.000000000 8.5356998444 8.5000000000 30.119224548 0.0973000005 0.2067999989 2.5288999081 4.8979001045 35.180099487  -999.250000  -999.250000 2.6656000614 1.6989219189
 2119.7802734 15.000000000 8.4743003845 8.5000000000 30.548854828 0.0826999992 0.2038999945 2.4734001160 4.8225998878 33.138301849  -999.250000  -999.250000 1.3630000353 1.0641193390
 2119.9328613 15.000000000 8.4969997406 8.5000000000 30.943569183 0.0710999966 0.2374999970 2.4254999161 4.7375998497 37.277999878  -999.250000  -999.250000 1.0012999773 1.1511000395
 2120.0852051 15.000000000 8.5312004089 8.5000000000 32.479003906 0.0769999996 0.2939999998 2.4117999077 4.9739999771 44.047798157  -999.250000  -999.250000 1.0054999590 1.0634000301
 2120.2375488 15.000000000 8.5234003067 8.5000000000 34.271736145 0.0800999999 0.3179999888 2.3773000240 5.5173997879 43.628101349  -999.250000  -999.250000 0.7835000157 0.7646787167
 2120.3898926 15.000000000 8.5845003128 8.5000000000 36.878040314 0.1066000015 0.3316999972 2.3523001671 6.6862998009 35.913600922  -999.250000  -999.250000 0.9135000110 1.0201890469
 2120.5422363 15.000000000 8.6091995239 8.5000000000 42.010467529 0.1386999935 0.3445000052 2.3429999352 7.4098000526 26.653999329  -999.250000  -999.250000 0.9957000017 0.9644900560
 2120.6948242 15.000000000 8.6482000351 8.5000000000 47.743110657 0.1319999993 0.3361000121 2.3536000252 6.9913997650 20.870800018  -999.250000  -999.250000 0.9725999832 0.9448000193
 2120.8471680 15.000000000 8.5335998535 8.5000000000 65.443092346 0.1045999974 0.3251999915 2.3806002140 5.8394999504 21.695600510  -999.250000  -999.250000 1.0886000395 1.0541247129
 2120.9995117 15.000000000 8.5331001282 8.5000000000 76.681152344 0.0658999979 0.3235999942 2.4056000710 4.9261999130 21.606700897  -999.250000  -999.250000 1.0592000484 1.1320751905
 2121.1518555 15.000000000 8.4863004684 8.5000000000 79.757232666 0.0641999990 0.3203000128 2.4307999611 4.5947999954 21.824600220  -999.250000  -999.250000 0.9840000272 0.9644692540
 2121.3044434 15.000000000 8.4979000092 8.5000000000 80.774932861 0.0736000016 0.3107999861 2.4446001053 4.5633001328 18.854799271  -999.250000  -999.250000 0.9830999970 1.0880000591
 2121.4567871 15.000000000 8.4900999069 8.5000000000 76.220474243 0.0750999972 0.3260999918 2.4472000599 4.4931001663 19.163999557  -999.250000  -999.250000 1.0813000202 1.0398999453
 2121.6091309 15.000000000 8.4804000854 8.5000000000 73.703514099 0.0684000030 0.3023000062 2.4474999905 4.4135999680 19.548200607  -999.250000  -999.250000 1.0559999943 1.1910578012
 2121.7614746 15.000000000 8.4989995956 8.5000000000 70.874610901 0.0560999997 0.3059999943 2.4482998848 4.3317999840 21.130399704  -999.250000  -999.250000 1.2165000439 1.0475307703
 2121.9140625 15.000000000 8.4675998688 8.5000000000 64.817581177 0.0656000003 0.2845999897 2.4514999390 4.4678001404 20.556499481  -999.250000  -999.250000 1.3509999514 1.3918999434
 2122.0664063 15.000000000 8.4670000076 8.5000000000 57.862857819 0.0829000026 0.2973000109 2.4570999146 4.6017999649 21.659299850  -999.250000  -999.250000 1.3136999607 1.4263999462
 2122.2187500 15.000000000 8.4900999069 8.5000000000 55.507385254 0.0907000005  -999.250000 2.4597001076 4.7239999771 21.028900146  -999.250000  -999.250000 1.7146999836 1.9025369883
 2122.3710938 15.000000000 8.4755001068 8.5000000000 50.567962646 0.0876000002  -999.250000 2.4584999084 4.7147998810 21.133100510  -999.250000  -999.250000 1.7280999422 1.8268227577
 2122.5234375 15.000000000 8.4652996063 8.5000000000 48.712936401 0.0866999999  -999.250000 2.4621999264 4.7399001122 21.021200180  -999.250000  -999.250000 1.2266999483 1.3125252724
 2122.6760254 15.000000000 8.4834995270 8.5000000000 49.124015808 0.0892999917  -999.250000 2.4607999325 4.7814002037 24.848199844  -999.250000  -999.250000 1.1957999468 1.5724999905
 2122.8283691 15.000000000 8.4834995270 8.5000000000 50.610481262 0.1090999991  -999.250000 2.4746999741 4.9375000000 36.647399902  -999.250000  -999.250000 1.1899000406 1.1345019341
 2122.9807129 15.000000000 8.5382003784 8.5000000000 53.500286102 0.1231999993  -999.250000 2.4914000034 5.0029997826 50.213401794  -999.250000  -999.250000 4.6194000244 4.4427886009
