# LAS format log file from PETREL
# Project units are specified as depth units
#==================================================================
~Version information
VERS.   2.0:
WRAP.   NO:
#==================================================================
~Well
STRT .m      703.83190918 :
STOP .m      2487.0642090 :
STEP .m     0.00000000 :
NULL .        -999.250000 :
COMP.           : COMPANY
WELL.  16/2-7 Johan Sverdrup Appr   : WELL
FLD.            : FIELD
LOC.            : LOCATION
SRVC.           : SERVICE COMPANY
DATE.  2018-09-11 14:48:07   : Log Export Date {yyyy-MM-dd HH:mm:ss}
PROV.           : PROVINCE
UWI.   16/2-7   : UNIQUE WELL ID
API.            : API NUMBER
#==================================================================
~Curve
DEPT .m                   : DEPTH
Lithology_geolink ._      : Lithology_geolink
CALI .in                  : CALI
BS .in                    : BS
ROP .m/h                  : ROP
DRHO .g/cm3               : DRHO
THOR .ppm                 : THOR
NPHI .m3/m3               : NPHI
RHOB .g/cm3               : RHOB
PEF .b/e                  : PEF
GR .gAPI                  : GR
URAN .ppm                 : URAN
DTC .us/ft                : DTC
DTS .us/ft                : DTS
RDEP .ohm.m               : RDEP
RMIC .ohm.m               : RMIC
RMED .ohm.m               : RMED
~Parameter
#==================================================================
~Ascii
# ...
 2006.3946533 6.0000000000 8.4916000366 8.5000000000 71.992782593 0.0221942309 8.8250999451 0.3025999963 2.4630138874 4.5345997810 129.46620178 2.9588000774 100.13863373 200.10279846 1.9859999418 1.7058999538 1.9988000393
 2006.5471191 6.0000000000 8.5177001953 8.5000000000 67.921264648 0.0266963970 8.8032999039 0.3059000075 2.4803233147 4.5503001213 131.32269287 2.9568998814 98.682037354 193.82481384 1.9839999676 1.7028000355 1.9997999668
 2006.6994629 6.0000000000 8.4828996658 8.5000000000 63.303150177 0.0202052072 7.8900003433 0.2897999883 2.4949045181 4.3631000519 128.34700012 3.2058999538 96.638252258 189.59519958 2.3714001179 2.1336998940 2.3843998909
 2006.8518066 6.0000000000 8.5046997070 8.5000000000 62.388458252 0.0100163324 7.9229001999 0.2825999856 2.5005908012 4.0954999924 125.82369995 3.2244000435 94.958877563 187.75520325 2.3510999680 2.6779000759 2.3682999611
 2007.0042725 6.0000000000 8.5263996124 8.5000000000 64.856628418 0.0034052886 8.2704000473 0.2816999853 2.4890928268 3.9014999866 122.78359985 3.2072000504 93.563446045 185.91430664 2.4072999954 2.6352999210 2.4265000820
 2007.1566162 6.0000000000 8.5214004517 8.5000000000 66.815620422 0.0058959969 8.2772998810 0.2763000131 2.4800879955 3.8601999283 121.23410034 3.5044999123 94.249031067 185.87390137 2.4651999474 2.5947000980 2.4820001125
 2007.3090820 6.0000000000 8.5046997070 8.5000000000 70.631233215 0.0060998397 8.2262001038 0.2669000030 2.4653022289 3.8784000874 119.59880066 3.4806001186 94.536743164 183.92359924 2.5552999973 2.3993000984 2.5515999794
 2007.4614258 6.0000000000 8.4132995605 8.5000000000 71.806755066 0.0061998400 8.0826997757 0.2676999867 2.4679019451 3.9047999382 122.47250366 3.5703999996 93.606025696 183.20530701 2.3371000290 2.4554998875 2.3276998997
 2007.6138916 6.0000000000 8.5003004074 8.5000000000 71.557411194 0.0024030451 8.2073001862 0.2881000042 2.4703025818 3.8696000576 122.98809814 3.3336000443 93.383255005 182.69502258 2.4288001060 2.5873000622 2.4158000946
 2007.7662354 6.0000000000 8.5249996185 8.5000000000 65.725067139 0.0005015224 7.9597001076 0.2984000146 2.4735012054 3.8389000893 125.76249695 3.1649999619 92.201057434 181.57080078 2.6538000107 2.8587999344 2.6405999660
 2007.9187012 6.0000000000 8.5285997391 8.5000000000 60.574142456 -0.000299359 7.4551000595 0.2908999920 2.4749066830 3.8071999550 123.23799896 3.2657999992 91.152023315 179.20089722 2.4175999165 2.6707999706 2.4100000858
 2008.0710449 6.0000000000 8.5177001953 8.5000000000 60.447181702 -0.000899519 7.4562997818 0.2860000134 2.4791078568 3.8027000427 117.06120300 2.9037001133 91.164840698 178.83959961 2.4161999226 2.5704998970 2.4084000587
 2008.2235107 6.0000000000 8.4916000366 8.5000000000 62.243114471 -0.001099840 7.2994999886 0.2802999914 2.4889178276 3.7995998859 114.11049652 2.7969000340 90.212776184 178.87979126 2.8512001038 2.6824998856 2.8396000862
 2008.3758545 6.0000000000 8.5046997070 8.5000000000 62.311019897 -0.000600401 7.5226001740 0.2745000124 2.5000026226 3.8317999840 113.52829742 2.3675000668 90.504844666 179.06900024 2.6775000095 3.0697999001 2.6698000431
 2008.5283203 6.0000000000 8.5003004074 8.5000000000 65.054138184 -0.000000480 7.5925998688 0.2800999880 2.5031976700 3.8666999340 113.77739716 2.4100000858 93.549560547 184.66679382 2.6807000637 2.9588000774 2.6714999676
 2008.6806641 6.0000000000 8.5068998337 8.5000000000 74.730316162 0.0014987981 7.5858001709 0.2793000042 2.5016937256 3.8636999130 109.26139832 2.4210000038 94.463150024 189.89939880 2.4481000900 2.8747999668 2.4344000816
 2008.8330078 6.0000000000 8.4960002899 8.5000000000 82.760505676 0.0018993595 7.8078999519 0.2890000045 2.4940974712 3.7727999687 109.61430359 2.4656999111 94.518829346 192.52789307 2.3257000446 2.5306000710 2.3115000725
 2008.9854736 6.0000000000 8.4872999191 8.5000000000 79.954719543 0.0016002404 7.6215000153 0.2739000022 2.4907939434 3.6043999195 111.23819733 2.3719000816 92.553764343 188.75489807 2.2671000957 2.6861999035 2.2532999516
 2009.1378174 6.0000000000 8.4960002899 8.5000000000 75.930114746 0.0009011209 7.5711002350 0.2599999905 2.4833948612 3.4737000465 112.40809631 2.5896000862 89.888084412 182.98458862 2.7625000477 2.8548998833 2.7527000904
 2009.2902832 6.0000000000 8.4996004105 8.5000000000 75.719490051 0.0017992788 7.4319000244 0.2407999933 2.4767000675 3.4326000214 105.89340210 2.4412000179 89.119338989 177.61480713 2.7843999863 3.2490000725 2.7820999622
 2009.4426270 5.0000000000 8.5003004074 8.5000000000 79.368438721 0.0048950361 7.5503001213 0.2263000011 2.4767062664 3.5062000751 103.55429840 2.3968000412 89.404739380 172.19250488 2.8094000816 2.8366000652 2.8089001179
 2009.5950928 5.0000000000 8.5003004074 8.5000000000 83.237205505 0.0064987182 7.7801995277 0.2202000022 2.4843072891 3.6045000553 97.467300415 2.2119998932 89.076324463 173.36120605 2.8104000092 2.7671000957 2.8196001053
 2009.7474365 6.0000000000 8.4785995483 8.5000000000 87.140098572 0.0047014421 8.1305999756 0.2180999964 2.4934937954 3.6549999714 97.207298279 2.0550999641 87.739280701 168.55340576 3.0959000587 2.8376998901 3.1073999405
 2009.8999023 6.0000000000 8.5089998245 8.5000000000 90.258201599 0.0017024019 7.8764996529 0.2233999968 2.4856774807 3.6695001125 100.73919678 1.9649001360 85.716384888 164.86412048 3.1089999676 3.4328999519 3.1321001053
 2010.0522461 6.0000000000 8.4960002899 8.5000000000 90.522308350 0.0010005609 7.5281000137 0.2160000056 2.4575877190 3.7744998932 101.66400146 2.0357999802 84.828010559 165.06199646 3.3104999065 3.7165000439 3.3313000202
 2010.2047119 5.0000000000 8.4633998871 8.5000000000 90.786415100 0.0112917535 7.4313001633 0.2028000057 2.4419820309 3.9774999619 100.47540283 1.8774000406 86.712600708 169.87893677 3.3250999451 2.0106000900 3.3345999718
 2010.3570557 5.0000000000 8.4046001434 8.5000000000 94.110893250 0.0144974357 7.0704002380 0.2026000023 2.4308164120 4.1419000626 93.256797791 1.8348000050 88.709182739 175.16587830 2.3845000267 2.0009000301 2.3949999809
 2010.5095215 6.0000000000 8.4219999313 8.5000000000 98.866470337 0.0156990383 7.4711999893 0.2094999999 2.4513156414 4.1101999283 93.923698425 1.7323000431 87.687004089 177.72091675 3.2067999840 1.8604999781 3.2114999294
 2010.6618652 6.0000000000 8.4264001846 8.5000000000 99.792327881 0.0084058493 7.6976003647 0.2240999937 2.4611144066 4.0085000992 100.34490204 1.9055000544 86.878250122 171.05558777 2.6512999535 3.0359001160 2.6691999435
 2010.8143311 6.0000000000 8.4132995605 8.5000000000 94.846458435 0.0099987192 8.1653995514 0.2312999964 2.4789052010 3.9807000160 102.34310150 1.8825999498 86.809036255 170.47709656 2.6763000488 3.3657999039 2.7042000294
 2010.9666748 6.0000000000 8.4264001846 8.5000000000 91.302162170 0.0155955125 8.2333002090 0.2222999930 2.4821906090 4.0812001228 101.98459625 1.9674998522 87.202407837 171.01849365 3.2943000793 2.6860001087 3.3320000172
 2011.1190186 6.0000000000 8.4437999725 8.5000000000 95.470802307 0.0168979168 7.5184001923 0.2141000032 2.4705905914 4.1978001595 96.602699280 2.2065000534 87.840469360 171.02276611 2.4584000111 2.6157000065 2.5006000996
 2011.2714844 5.0000000000 8.4611997604 8.5000000000 104.59580231 0.0149016026 6.7846999168 0.2182999998 2.4589898586 4.2670001984 95.655502319 2.1452999115 88.796241760 170.51750183 2.6645998955 2.1068999767 2.7119998932
 2011.4238281 5.0000000000 8.4307003021 8.5000000000 109.84416199 0.0074120094 5.6318998337 0.2265000045 2.4461953640 4.3397002220 92.979698181 2.0322999954 86.478561401 167.43209839 2.4307000637 2.6013998985 2.4832000732
 2011.5762939 5.0000000000 8.4132995605 8.5000000000 107.61186981 0.0020043270 5.1009001732 0.2143000066 2.4404876232 4.4903001785 85.858901978 1.7141000032 86.297012329 164.66168213 2.8986001015 2.7644000053 2.9558999538
 2011.7286377 5.0000000000 8.4264001846 8.5000000000 105.64796448 -0.003095913 4.5577001572 0.2120999992 2.4248867035 4.6406998634 77.819000244 1.5025999546 86.192840576 165.33010864 2.4862000942 2.9035999775 2.5357999802
 2011.8811035 5.0000000000 8.3958997726 8.5000000000 109.38615417 -0.006697117 3.8966000080 0.2072000057 2.4082942009 4.6826000214 78.063400269 1.5930999517 86.624176025 166.74331665 1.9682999849 2.4941000938 2.0113999844
