# LAS format log file from PETREL
# Project units are specified as depth units
#==================================================================
~Version information
VERS.   2.0:
WRAP.   NO:
#==================================================================
~Well
STRT .m      684.17242432 :
STOP .m      2208.3249512 :
STEP .m     0.00000000 :
NULL .        -999.250000 :
COMP.           : COMPANY
WELL.  16/2-16   : WELL
FLD.            : FIELD
LOC.            : LOCATION
SRVC.           : SERVICE COMPANY
DATE.  2018-09-11 14:48:07   : Log Export Date {yyyy-MM-dd HH:mm:ss}
PROV.           : PROVINCE
UWI.   16/2-16   : UNIQUE WELL ID
API.            : API NUMBER
#==================================================================
~Curve
DEPT .m                   : DEPTH
Lithology_geolink ._      : Lithology_geolink
CALI .in                  : CALI
BS .in                    : BS
ROP .m/h                  : ROP
DRHO .g/cm3               : DRHO
THOR .ppm                 : THOR
NPHI .m3/m3               : NPHI
RHOB .g/cm3               : RHOB
PEF .b/e                  : PEF
GR .gAPI                  : GR
URAN .ppm                 : URAN
DTC .us/ft                : DTC
DTS .us/ft                : DTS
RDEP .ohm.m               : RDEP
RMED .ohm.m               : RMED
~Parameter
#==================================================================
~Ascii
# ...
 785.21362305  -999.250000 12.578100204 12.250000954 113.54592896 0.0313000008  -999.250000 0.4350000024 2.1914000511 5.2852001190 116.71730042  -999.250000 142.28019714  -999.250000 1.4198000431 1.4067000151
 785.36602783  -999.250000 12.639399529 12.250000954 113.39467621 0.0137977572  -999.250000 0.4248000085 2.1709001064 4.9288001060 114.10610199  -999.250000 143.45010376  -999.250000 1.3884999752 1.3760000467
 785.51843262  -999.250000 12.702500343 12.250000954 112.24212646 0.0082009612  -999.250000 0.4176000059 2.1588997841 4.6855001450 115.27529907  -999.250000 144.34970093  -999.250000 1.3582999706 1.3500000238
 785.67083740  -999.250000 12.642100334 12.250000954 110.51574707 0.0105997194  -999.250000 0.4269999862 2.1505000591 4.8576002121 119.64499664  -999.250000 143.90780640  -999.250000 1.3009999990 1.2914999723
 785.82324219  -999.250000 12.572600365 12.250000954 108.47835541 0.0099026430  -999.250000 0.4471000135 2.1408998966 4.8786997795 122.28350067  -999.250000 144.10789490  -999.250000 1.2484999895 1.2414000034
 785.97564697  -999.250000 12.533301353 12.250000954 108.42487335 0.0132011212  -999.250000 0.4490000010 2.1494998932 5.0921001434 124.03099823  -999.250000 142.57690430  -999.250000 1.2825000286 1.2656999826
 786.12805176  -999.250000 12.541900635 12.250000954 111.95143890 0.0145991193  -999.250000 0.4411999881 2.1459999084 5.3003997803 122.89630127  -999.250000 142.11109924  -999.250000 1.3437000513 1.3291000128
 786.28039551  -999.250000 12.553400040 12.250000954 109.84941864 0.0134991594  -999.250000 0.4356999993 2.1561999321 5.0482001305 118.86669922  -999.250000 141.72970581  -999.250000 1.3580000401 1.3497999907
 786.43280029  -999.250000 12.521400452 12.250000954 109.02690125 0.0114048459  -999.250000 0.4002000093 2.1588997841 4.9278001785 121.36160278  -999.250000 141.38070679  -999.250000 1.3674000502 1.3688999414
 786.58520508  -999.250000 12.493101120 12.250000954 104.91141510 0.0235043652  -999.250000 0.3842999935 2.1675999165 5.1034002304 127.85620117  -999.250000 141.50120544  -999.250000 1.3536000252 1.3494999409
 786.73760986  -999.250000 12.493101120 12.250000954 99.737533569 0.0343983173  -999.250000 0.3794000149 2.1689000130 5.6852002144 130.38670349  -999.250000 141.94410706  -999.250000 1.2964999676 1.2992000580
 786.89001465  -999.250000 12.564700127 12.250000954 97.679458618 0.0301936325  -999.250000 0.4339999855 2.1461999416 5.3633999825 132.78959656  -999.250000 141.30490112  -999.250000 1.2380000353 1.2316999435
 787.04241943  -999.250000 12.618900299 12.250000954 98.842514038 0.0142991990  -999.250000 0.4514000118 2.1417996883 4.8308000565 135.88710022  -999.250000 141.44580078  -999.250000 1.2218999863 1.2174999714
 787.19482422  -999.250000 12.659500122 12.250000954 92.618110657 0.0122996392  -999.250000 0.4636000097 2.1542000771 4.3330001831 133.14309692  -999.250000 141.97929382  -999.250000 1.1864000559 1.1786999702
 787.34722900  -999.250000 12.539899826 12.250000954 93.548233032 0.0113991592  -999.250000 0.4681999981 2.1531999111 4.1813998222 126.35130310  -999.250000 142.36610413  -999.250000 1.2060999870 1.1984000206
 787.49963379  -999.250000 12.442799568 12.250000954 95.365158081 0.0093008811  -999.250000 0.4377999902 2.1426000595 4.1841001511 124.97660065  -999.250000 142.97320557  -999.250000 1.2036000490 1.1963000298
 787.65203857  -999.250000 12.610099792 12.250000954 94.630249023 0.0114997197  -999.250000 0.4210999906 2.1519000530 4.4513998032 128.91529846  -999.250000 142.59460449  -999.250000 1.2353999615 1.2411999702
 787.80444336  -999.250000 12.586400032 12.250000954 94.599739075 0.0107984375  -999.250000 0.3878999949 2.1456000805 4.6059999466 130.30819702  -999.250000 142.33979797  -999.250000 1.2869999409 1.2724000216
 787.95684814  -999.250000 12.575401306 12.250000954 93.449478149 0.0069077690  -999.250000 0.4449999928 2.1368999481 4.4559001923 128.86430359  -999.250000 143.00529480  -999.250000 1.2294000387 1.2328000069
 788.10925293  -999.250000 12.591798782 12.250000954 91.975067139 0.0166008007  -999.250000 0.4638000131 2.1609001160 4.2314000130 129.69720459  -999.250000 143.51409912  -999.250000 1.1433999538 1.1447999477
 788.26165771  -999.250000 12.618399620 12.250000954 96.989173889 0.0176029634  -999.250000 0.4485000074 2.1593000889 4.3901000023 135.11239624  -999.250000 143.40739441  -999.250000 1.0983999968 1.0964000225
 788.41400146  -999.250000 12.587300301 12.250000954 89.055114746 0.0213048849  -999.250000 0.4242999852 2.1738998890 4.7986001968 137.16000366  -999.250000 142.23510742  -999.250000 1.1876000166 1.1790000200
 788.56640625  -999.250000 12.627499580 12.250000954 87.064956665 0.0335077308  -999.250000 0.4144999981 2.1659998894 5.8259000778 130.07539368  -999.250000 141.68499756  -999.250000 1.2826207876 1.2683999538
 788.71881104  -999.250000 12.724499702 12.250000954 88.905838013 0.0528020822  -999.250000 0.4111999869 2.1682000160 6.7374000549 124.50379944  -999.250000 142.23680115  -999.250000 1.3342562914 1.3202999830
 788.87121582  -999.250000 12.849699974 12.250000954 84.568237305 0.0579931885  -999.250000 0.4138999879 2.1533000469 6.9223999977 124.59470367  -999.250000 143.65370178  -999.250000 1.2251819372 1.2151000500
 789.02362061  -999.250000 12.931099892 12.250000954 83.527236938 0.0409987196  -999.250000 0.4246000051 2.1405000687 6.1749000549 124.27829742  -999.250000 144.00590515  -999.250000 1.1801197529 1.1922999620
 789.17602539  -999.250000 12.777500153 12.250000954 83.941276550 0.0377981551  -999.250000 0.4347000122 2.1476998329 5.7761001587 127.07140350  -999.250000 144.18649292  -999.250000 1.2295287848 1.2438000441
 789.32843018  -999.250000 12.749100685 12.250000954 83.452430725 0.0332012810  -999.250000 0.4273999929 2.1387999058 5.9180998802 129.99540710  -999.250000 143.83770752  -999.250000 1.3012946844 1.2641999722
 789.48083496  -999.250000 12.785699844 12.250000954 83.326774597 0.0364001617  -999.250000 0.4287000000 2.1407001019 6.0043001175 125.10749817  -999.250000 144.07310486  -999.250000 1.2879009247 1.2728999853
 789.63323975  -999.250000 12.829899788 12.250000954 84.575134277 0.0367986001  -999.250000 0.4361000061 2.1357998848 6.0666999817 121.86340332  -999.250000 145.74630737  -999.250000 1.2901849747 1.2709000111
 789.78564453  -999.250000 12.881400108 12.250000954 83.626968384 0.0332985632  -999.250000 0.4546999931 2.1310000420 6.0254998207 121.40879822  -999.250000 146.08929443  -999.250000 1.2527849674 1.2371000051
 789.93804932  -999.250000 12.932900429 12.250000954 82.678810120 0.0297000408  -999.250000 0.4731999934 2.1261000633 5.9843001366 120.95420074  -999.250000 146.43229675  -999.250000 1.2153723240 1.2032999992
 790.09045410  -999.250000 12.760100365 12.250000954 84.172897339 0.0297935121  -999.250000 0.4835000038 2.1338999271 5.8573999405 116.72460175  -999.250000 145.60780334  -999.250000 1.1463334560 1.1478999853
 790.24285889  -999.250000 12.983200073 12.250000954 76.485237122 0.0216987189  -999.250000 0.4776999950 2.1329998970 5.7820000648 118.81220245  -999.250000 144.97140503  -999.250000 1.1881334782 1.1911000013
 790.39526367  -999.250000 13.145000458 12.250000954 74.769691467 0.0201068074  -999.250000 0.4284000099 2.1245999336 6.1182999611 122.87090302  -999.250000 144.79840088  -999.250000 1.2298759222 1.2228000164
 790.54760742  -999.250000 13.081000328 12.250000954 74.414047241 0.0286046453  -999.250000 0.4171000123 2.1275999546 6.3846998215 115.60449982  -999.250000 145.53669739  -999.250000 1.1998001337 1.2053999901
 790.70001221  -999.250000 13.064200401 12.250000954 72.153869629 0.0401999168  -999.250000 0.4609000087 2.1356000900 6.5735998154 106.40689850  -999.250000 145.26950073  -999.250000 1.2002301216 1.2127000093
 790.85241699  -999.250000 13.052700043 12.250000954 62.976047516 0.0400006399  -999.250000 0.4715999961 2.1391000748 6.6069998741 108.75270081  -999.250000 145.20579529  -999.250000 1.2755227089 1.2506999969
 791.00482178  -999.250000 12.939300537 12.250000954 61.905841827 0.0415960364  -999.250000 0.4593000114 2.1510000229 6.6237001419 112.98960114  -999.250000 144.91940308  -999.250000 1.3321888447 1.3223999739
