# LAS format log file from PETREL
# Project units are specified as depth units
#==================================================================
~Version information
VERS.   2.0:
WRAP.   NO:
#==================================================================
~Well
STRT .m      734.31201172 :
STOP .m      2361.9440918 :
STEP .m     0.00000000 :
NULL .        -999.250000 :
COMP.           : COMPANY
WELL.  16/2-11 A Johan Sverdrup Appr   : WELL
FLD.            : FIELD
LOC.            : LOCATION
SRVC.           : SERVICE COMPANY
DATE.  2018-09-11 14:48:07   : Log Export Date {yyyy-MM-dd HH:mm:ss}
PROV.           : PROVINCE
UWI.   16/2-11 A   : UNIQUE WELL ID
API.            : API NUMBER
#==================================================================
~Curve
DEPT .m                   : DEPTH
Lithology_geolink ._      : Lithology_geolink
CALI .in                  : CALI
BS .in                    : BS
ROP .m/h                  : ROP
DRHO .g/cm3               : DRHO
THOR .ppm                 : THOR
NPHI .m3/m3               : NPHI
RHOB .g/cm3               : RHOB
PEF .b/e                  : PEF
GR .gAPI                  : GR
URAN .ppm                 : URAN
DTC .us/ft                : DTC
DTS .us/ft                : DTS
RDEP .ohm.m               : RDEP
RMIC .ohm.m               : RMIC
RMED .ohm.m               : RMED
~Parameter
#==================================================================
~Ascii
# ...
 852.72680664  -999.250000 12.363800049 12.250000954 59.184383392 -0.021000000  -999.250000 0.3255000114 2.0388000011 2.4477999210 47.322200775  -999.250000 141.61999512  -999.250000 0.7778000236  -999.250000 0.7720999718
 852.87921143  -999.250000 12.340000153 12.250000954 62.227684021 -0.013100000  -999.250000 0.3097000122 2.0434999466 2.7019999027 47.853000641  -999.250000 141.17030334  -999.250000 0.7904999852  -999.250000 0.7885000110
 853.03161621  -999.250000 12.326800346 12.250000954 64.911415100 -0.003600000  -999.250000 0.3059999943 2.0501999855 3.0643999577 44.174301147  -999.250000 142.52529907  -999.250000 0.7882999778  -999.250000 0.7835000157
 853.18402100  -999.250000 12.330399513 12.250000954 69.312995911 -0.005700000  -999.250000 0.3158000112 2.0464000702 3.0701000690 41.055198669  -999.250000 143.32730103  -999.250000 0.7731999755  -999.250000 0.7684999704
 853.33642578  -999.250000 12.298899651 12.250000954 73.530189514 -0.012800000  -999.250000 0.3251000047 2.0592000484 2.7976999283 42.684200287  -999.250000 144.17460632  -999.250000 0.7791000009  -999.250000 0.7741000056
 853.48883057  -999.250000 12.308300018 12.250000954 76.736549377 -0.020700000  -999.250000 0.3546999991 2.0501999855 2.7193000317 45.687400818  -999.250000 143.99029541  -999.250000 0.7777000070  -999.250000 0.7734000087
 853.64123535  -999.250000 12.322300911 12.250000954 71.139114380 -0.016200000  -999.250000 0.3445000052 2.0513000488 2.8993000984 46.351398468  -999.250000 143.21749878  -999.250000 0.7846000195  -999.250000 0.7840999961
 853.79364014  -999.250000 12.421400070 12.250000954 77.629600525 -0.010100000  -999.250000 0.3508000076 2.0429999828 3.2430999279 45.849601746  -999.250000 142.88079834  -999.250000 0.7831000090  -999.250000 0.7771999836
 853.94598389  -999.250000 12.455599785 12.250000954 89.992126465 -0.007100000  -999.250000 0.3208999932 2.0323998928 3.3840999603 46.424701691  -999.250000 141.21809387  -999.250000 0.7792000175  -999.250000 0.7764999866
 854.09838867  -999.250000 12.393501282 12.250000954 87.980972290 -0.014900000  -999.250000 0.3307999969 2.0225999355 3.0548000336 45.451999664  -999.250000 138.75750732  -999.250000 0.7796999812  -999.250000 0.7698000073
 854.25079346  -999.250000 12.403399467 12.250000954 76.751640320 -0.025300000  -999.250000 0.3398999870 2.0118000507 2.6591999531 42.267299652  -999.250000 138.53759766  -999.250000 0.7986000180  -999.250000 0.7946000099
 854.40319824  -999.250000 12.362100601 12.250000954 77.340553284 -0.023800001  -999.250000 0.3337000012 2.0178999901 2.5876998901 41.080299377  -999.250000 138.21119690  -999.250000 0.8025000095  -999.250000 0.8012999892
 854.55560303  -999.250000 12.327700615 12.250000954 75.388450623 -0.023300000  -999.250000 0.3258000016 2.0188000202 2.6491000652 43.721801758  -999.250000 137.67520142  -999.250000 0.7874000072  -999.250000 0.7853000164
 854.70800781  -999.250000 12.325399399 12.250000954 60.998691559 -0.011800000  -999.250000 0.3240999877 2.0341000557 2.9932000637 45.714900970  -999.250000 138.19929504  -999.250000 0.7836999893  -999.250000 0.7803000212
 854.86041260  -999.250000 12.323200226 12.250000954 62.130905151 -0.010800000  -999.250000 0.3160000145 2.0206999779 3.1092998981 43.027000427  -999.250000 136.67649841  -999.250000 0.7743999958  -999.250000 0.7687000036
 855.01281738  -999.250000 12.361800194 12.250000954 64.578079224 -0.013100000  -999.250000 0.3341000080 2.0093998909 3.0118999481 42.267299652  -999.250000 139.87989807  -999.250000 0.7908999920  -999.250000 0.7833999991
 855.16522217  -999.250000 12.357000351 12.250000954 70.613845825 -0.022700001  -999.250000 0.3409999907 2.0000000000 2.5718998909 47.316398621  -999.250000 140.17080688  -999.250000 0.8019999862  -999.250000 0.7944999933
 855.31762695  -999.250000 12.325098991 12.250000954 69.253936768 -0.025599999  -999.250000 0.3468999863 2.0185999870 2.3166000843 54.287899017  -999.250000 139.53199768  -999.250000 0.8288000226  -999.250000 0.8269000053
 855.47003174  -999.250000 12.313300133 12.250000954 68.369094849 -0.028600000  -999.250000 0.3185000122 2.0380001068 2.3034999371 66.401000977  -999.250000 136.49510193  -999.250000 0.9207000136  -999.250000 0.9039999843
 855.62243652  -999.250000 12.317999840 12.250000954 66.791671753 -0.020700000  -999.250000 0.3312000036 2.0685000420 2.8492000103 80.197303772  -999.250000 133.65589905  -999.250000 1.1265000105  -999.250000 1.1204999685
 855.77484131  -999.250000 12.322300911 12.250000954 94.328414917 -0.007900000  -999.250000 0.3310000002 2.1110000610 3.5357999802 86.709396362  -999.250000 130.92840576  -999.250000 1.3838000298  -999.250000 1.3696999550
 855.92724609  -999.250000 12.335599899 12.250000954 92.885826111 -0.000600000  -999.250000 0.3499999940 2.1472001076 3.8808999062 91.847198486  -999.250000 130.35459900  -999.250000 1.4582999945  -999.250000 1.4423999786
 856.07958984  -999.250000 12.347599983 12.250000954 95.181762695 0.0024999999  -999.250000 0.3576999903 2.1689999104 3.8466000557 98.559997559  -999.250000 129.59069824  -999.250000 1.4570000172  -999.250000 1.4680999517
 856.23199463  -999.250000 12.365501404 12.250000954 133.50918579 0.0012000001  -999.250000 0.3890999854 2.1705999374 3.7888000011 103.69020081  -999.250000 128.92230225  -999.250000 1.4546999931  -999.250000 1.4711999893
 856.38439941  -999.250000 12.416899681 12.250000954 122.73293304 0.0116999997  -999.250000 0.4198000133 2.1554999352 4.1052999496 106.12210083  -999.250000 131.35910034  -999.250000 1.4780000448  -999.250000 1.4876999855
 856.53680420  -999.250000 12.375501633 12.250000954 119.25688934 0.0100999996  -999.250000 0.4154999852 2.1236999035 4.2709999084 106.81690216  -999.250000 127.72979736  -999.250000 1.5001000166  -999.250000 1.4884999990
 856.68920898  -999.250000 12.404298782 12.250000954 116.99278259 0.0009000000  -999.250000 0.4338999987 2.1070001125 4.2699999809 108.43820190  -999.250000 130.81149292  -999.250000 1.5140999556  -999.250000 1.4953999519
 856.84161377  -999.250000 12.450201035 12.250000954 112.75754547 0.0033000000  -999.250000 0.4289000034 2.1328001022 4.1553001404 105.16089630  -999.250000 132.35169983  -999.250000 1.5349999666  -999.250000 1.5068999529
 856.99401855  -999.250000 12.380399704 12.250000954 104.05741119 -0.000500000  -999.250000 0.4129000008 2.1577000618 3.9040000439 100.07710266  -999.250000 132.37590027  -999.250000 1.5482000113  -999.250000 1.5283999443
 857.14642334  -999.250000 12.315999031 12.250000954 108.65386963 0.0020999999  -999.250000 0.3923999965 2.1758999825 3.9388999939 102.77529907  -999.250000 127.28189850  -999.250000 1.5365999937  -999.250000 1.5231000185
 857.29882813  -999.250000 12.323200226 12.250000954 94.696189880 -0.003400000  -999.250000 0.3991000056 2.1707999706 3.7541000843 107.70860291  -999.250000 126.22319794  -999.250000 1.5397000313  -999.250000 1.5320999622
 857.45123291  -999.250000 12.326800346 12.250000954 74.182411194 -0.000300000  -999.250000 0.4194000065 2.1770999432 3.5947000980 103.93340302  -999.250000 126.49520111  -999.250000 1.5690000057  -999.250000 1.5634000301
 857.60363770  -999.250000 12.336799622 12.250000954 73.421913147 0.0076000001  -999.250000 0.4160000086 2.1763000488 3.6503999233 93.668403625  -999.250000 129.75909424  -999.250000 1.5723999739  -999.250000 1.5663000345
 857.75604248  -999.250000 12.316299438 12.250000954 72.867782593 0.0152000003  -999.250000 0.3898999989 2.1659998894 3.7873001099 90.143302917  -999.250000 128.79339600  -999.250000 1.4931000471  -999.250000 1.4951000214
 857.90844727  -999.250000 12.301600456 12.250000954 69.843833923 0.0121999998  -999.250000 0.3653999865 2.1677999496 3.6951999664 93.193603516  -999.250000 129.69819641  -999.250000 1.5052000284  -999.250000 1.4982999563
 858.06079102  -999.250000 12.324099541 12.250000954 71.015090942 0.0034000000  -999.250000 0.3716999888 2.1677999496 3.5411999226 95.989196777  -999.250000 128.81489563  -999.250000 1.5798000097  -999.250000 1.5688999891
 858.21319580  -999.250000 12.335300446 12.250000954 69.355316162 -0.004000000  -999.250000 0.3779999912 2.1807999611 3.3231000900 98.131599426  -999.250000 129.26150513  -999.250000 1.5850000381  -999.250000 1.5726000071
