# LAS format log file from PETREL
# Project units are specified as depth units
#==================================================================
~Version information
VERS.   2.0:
WRAP.   NO:
#==================================================================
~Well
STRT .m      734.31201172 :
STOP .m      2361.9440918 :
STEP .m     0.00000000 :
NULL .        -999.250000 :
COMP.           : COMPANY
WELL.  16/2-11 A Johan Sverdrup Appr   : WELL
FLD.            : FIELD
LOC.            : LOCATION
SRVC.           : SERVICE COMPANY
DATE.  2018-09-11 14:48:07   : Log Export Date {yyyy-MM-dd HH:mm:ss}
PROV.           : PROVINCE
UWI.   16/2-11 A   : UNIQUE WELL ID
API.            : API NUMBER
#==================================================================
~Curve
DEPT .m                   : DEPTH
Lithology_geolink ._      : Lithology_geolink
CALI .in                  : CALI
BS .in                    : BS
ROP .m/h                  : ROP
DRHO .g/cm3               : DRHO
THOR .ppm                 : THOR
NPHI .m3/m3               : NPHI
RHOB .g/cm3               : RHOB
PEF .b/e                  : PEF
GR .gAPI                  : GR
URAN .ppm                 : URAN
DTC .us/ft                : DTC
DTS .us/ft                : DTS
RDEP .ohm.m               : RDEP
RMIC .ohm.m               : RMIC
RMED .ohm.m               : RMED
~Parameter
#==================================================================
~Ascii
# ...
 1174.1384277  -999.250000 12.208900452 12.250000954 125.29724884 -0.013900000  -999.250000 0.4273000062 2.2214999199 3.3666000366 152.94940186  -999.250000 131.06910706  -999.250000 1.3654999733  -999.250000 1.3573999405
 1174.2908936  -999.250000 12.238599777 12.250000954 115.05744171 -0.011092554  -999.250000 0.4422999918 2.2231104374 3.4617235661 145.82545471  -999.250000 130.33000183  -999.250000 1.4112000465  -999.250000 1.3975000381
 1174.4432373  -999.250000 12.295300484 12.250000954 110.60368347 -0.001800000  -999.250000 0.4284000099 2.2362999916 3.6159999371 144.25619507  -999.250000 129.87690735  -999.250000 1.4133000374  -999.250000 1.3956999779
 1174.5957031  -999.250000 12.264200211 12.250000954 103.01373291 -0.006903125  -999.250000 0.4352000058 2.2225883007 3.5141069889 144.54402161  -999.250000 130.42100525  -999.250000 1.3999999762  -999.250000 1.4055000544
 1174.7480469  -999.250000 12.234101295 12.250000954 96.809211731 -0.010804083  -999.250000 0.4404000044 2.2080807686 3.3980751038 139.32321167  -999.250000 131.98330688  -999.250000 1.4078999758  -999.250000 1.3989000320
 1174.9005127  -999.250000 12.242500305 12.250000954 93.735145569 -0.015902566  -999.250000 0.4356000125 2.1839916706 3.3669910431 135.58837891  -999.250000 133.58859253  -999.250000 1.3813999891  -999.250000 1.3681000471
 1175.0528564  -999.250000 12.249400139 12.250000954 94.029487610 -0.019098237  -999.250000 0.4309000075 2.1737022400 3.3556602001 131.19509888  -999.250000 131.13499451  -999.250000 1.3502999544  -999.250000 1.3371000290
 1175.2052002  -999.250000 12.225500107 12.250000954 95.620735168 -0.016899999  -999.250000 0.4541000128 2.1763999462 3.4307000637 128.44419861  -999.250000 137.45719910  -999.250000 1.3299000263  -999.250000 1.3123999834
 1175.3576660  -999.250000 12.210700989 12.250000954 101.51627350 -0.018093595  -999.250000 0.4864999950 2.1806190014 3.4391257763 134.44143677  -999.250000 137.89489746  -999.250000 1.3059999943  -999.250000 1.2841000557
 1175.5100098  -999.250000 12.267399788 12.250000954 104.21850586 -0.010100000  -999.250000 0.4934000075 2.2042996883 3.5961000919 138.36070251  -999.250000 138.75689697  -999.250000 1.3292000294  -999.250000 1.3086999655
 1175.6624756  -999.250000 12.271400452 12.250000954 112.81070709 -0.009998479  -999.250000 0.4458999932 2.2269067764 3.9474775791 132.31649780  -999.250000 139.11390686  -999.250000 1.3292000294  -999.250000 1.3086999655
 1175.8148193  -999.250000 12.281800270 12.250000954 117.75688934 -0.008100000  -999.250000 0.4208000004 2.2351999283 4.0440998077 123.96540070  -999.250000 138.94369507  -999.250000 1.3667000532  -999.250000 1.3521000147
 1175.9672852  -999.250000 12.288499832 12.250000954 122.10475922 -0.018201362  -999.250000 0.4007999897 2.2039687634 3.8166337013 122.49811554  -999.250000 140.57339478  -999.250000 1.3708000183  -999.250000 1.3288999796
 1176.1196289  -999.250000 12.298899651 12.250000954 131.22737122 -0.019900000  -999.250000 0.4065999985 2.1649999619 3.4844000340 123.26699829  -999.250000 129.15029907  -999.250000 1.3386000395  -999.250000 1.2886999846
 1176.2720947  -999.250000 12.288100243 12.250000954 139.67292786 -0.017593594  -999.250000 0.4282999933 2.1595058441 3.3587179184 120.51192474  -999.250000 127.59738922  -999.250000 1.3717999458  -999.250000 1.3191000223
 1176.4244385  -999.250000 12.279999733 12.250000954 147.08857727 -0.009600000  -999.250000 0.4471000135 2.1668999195 3.5060000420 114.79470062  -999.250000 130.78509521  -999.250000 1.3688000441  -999.250000 1.3270000219
 1176.5769043  -999.250000 12.280598640 12.250000954 148.00703430 -0.004802322  -999.250000 0.4659000039 2.1813910007 3.5382010937 111.28537750  -999.250000 128.47039795  -999.250000 1.2537000179  -999.250000 1.2431000471
 1176.7292480  -999.250000 12.280899048 12.250000954 146.95866394 -0.007700000  -999.250000 0.4909999967 2.1702001095 3.5395998955 114.62500000  -999.250000 129.90499878  -999.250000 1.1499999762  -999.250000 1.1369999647
 1176.8817139  -999.250000 12.324199677 12.250000954 140.81405640 -0.009905288  -999.250000 0.4738000035 2.1716821194 3.5219695568 116.45800781  -999.250000 134.76770020  -999.250000 1.1455999613  -999.250000 1.1277999878
 1177.0340576  -999.250000 12.331100464 12.250000954 142.55268860 -0.016499359  -999.250000 0.4650000036 2.1494085789 3.4838685989 113.97719574  -999.250000 131.00300598  -999.250000 1.1657999754  -999.250000 1.1503000259
 1177.1865234  -999.250000 12.335801125 12.250000954 139.93644714 -0.015696393  -999.250000 0.4519999921 2.1600000858 3.5697062016 118.09984589  -999.250000 129.25520325  -999.250000 1.1560000181  -999.250000 1.1402000189
 1177.3388672  -999.250000 12.336799622 12.250000954 146.59667969 -0.011196797  -999.250000 0.5019000173 2.1599059105 3.5774593353 125.89280701  -999.250000 129.21180725  -999.250000 1.1519000530  -999.250000 1.1424000263
 1177.4912109  -999.250000 12.324099541 12.250000954 144.39830017 -0.007200000  -999.250000 0.4842000008 2.1672000885 3.5267000198 128.02200317  -999.250000 127.96209717  -999.250000 1.1371999979  -999.250000 1.1373000145
 1177.6436768  -999.250000 12.307900429 12.250000954 142.46221924 -0.009006404  -999.250000 0.4997000098 2.1515889168 3.3767337799 125.82366943  -999.250000 128.16250610  -999.250000 1.1256999969  -999.250000 1.1301000118
 1177.7960205  -999.250000 12.272500038 12.250000954 144.43470764 -0.017000001  -999.250000 0.4514000118 2.1377999783 3.1691999435 120.41790009  -999.250000 129.36770630  -999.250000 1.1399999857  -999.250000 1.1461000443
 1177.9484863  -999.250000 12.250301361 12.250000954 142.31652832 -0.018397359  -999.250000 0.4474000037 2.1388070583 3.1006712914 119.28136444  -999.250000 129.33770752  -999.250000 1.2292000055  -999.250000 1.2178000212
 1178.1008301  -999.250000 12.227800369 12.250000954 139.36614990 -0.015100000  -999.250000 0.4440000057 2.1475999355 3.0650000572 124.10749817  -999.250000 129.58520508  -999.250000 1.3430999517  -999.250000 1.3459999561
 1178.2532959  -999.250000 12.262701035 12.250000954 141.39439392 -0.013097919  -999.250000 0.4449999928 2.1384987831 3.1164481640 125.73910522  -999.250000 129.58560181  -999.250000 1.3959000111  -999.250000 1.3812999725
 1178.4056396  -999.250000 12.300700188 12.250000954 149.22900391 -0.010500000  -999.250000 0.4638999999 2.1370000839 3.1765000820 123.12490082  -999.250000 129.88459778  -999.250000 1.2674000263  -999.250000 1.2770999670
 1178.5581055  -999.250000 12.262800217 12.250000954 146.12666321 -0.014804644  -999.250000 0.4481000006 2.1217966080 3.1484293938 119.56281281  -999.250000 131.53169250  -999.250000 1.2157000303  -999.250000 1.2309000492
 1178.7104492  -999.250000 12.239500999 12.250000954 145.32972717 -0.020600000  -999.250000 0.5060999990 2.1175999641 3.0603001118 115.20870209  -999.250000 132.18589783  -999.250000 1.2072999477  -999.250000 1.2165999413
 1178.8629150  -999.250000 12.295300484 12.250000954 141.17829895 -0.024991827  -999.250000 0.5242999792 2.1017105579 2.9864323139 110.60585022  -999.250000 132.86729431  -999.250000 1.1892999411  -999.250000 1.2008999586
 1179.0152588  -999.250000 12.284400940 12.250000954 144.64192200 -0.014796717  -999.250000 0.5691999793 2.1146981716 3.1513881683 112.04346466  -999.250000 136.69979858  -999.250000 1.2060999870  -999.250000 1.2022000551
 1179.1677246  -999.250000 12.274600029 12.250000954 148.57261658 -0.010699760  -999.250000 0.5235000253 2.1122918129 3.1364855766 118.36703491  -999.250000 134.61650085  -999.250000 1.2213000059  -999.250000 1.1964999437
 1179.3200684  -999.250000 12.320500374 12.250000954 147.48921204 -0.010404804  -999.250000 0.4717000127 2.1022796631 3.1184763908 119.78255463  -999.250000 134.83990479  -999.250000 1.2012000084  -999.250000 1.1648000479
 1179.4724121  -999.250000 12.311100006 12.250000954 145.48654175 -0.016400000  -999.250000 0.4496000111 2.0766999722 2.9642999172 114.86180115  -999.250000 135.66740417  -999.250000 1.1784000397  -999.250000 1.1626000404
 1179.6248779  -999.250000 12.296199799 12.250000954 140.90440369 -0.014500400  -999.250000 0.4379999936 2.0629928112 3.0654454231 110.25543976  -999.250000 136.55889893  -999.250000 1.1513999701  -999.250000 1.1477999687
