# LAS format log file from PETREL
# Project units are specified as depth units
#==================================================================
~Version information
VERS.   2.0:
WRAP.   NO:
#==================================================================
~Well
STRT .m      734.31201172 :
STOP .m      2361.9440918 :
STEP .m     0.00000000 :
NULL .        -999.250000 :
COMP.           : COMPANY
WELL.  16/2-11 A Johan Sverdrup Appr   : WELL
FLD.            : FIELD
LOC.            : LOCATION
SRVC.           : SERVICE COMPANY
DATE.  2018-09-11 14:48:07   : Log Export Date {yyyy-MM-dd HH:mm:ss}
PROV.           : PROVINCE
UWI.   16/2-11 A   : UNIQUE WELL ID
API.            : API NUMBER
#==================================================================
~Curve
DEPT .m                   : DEPTH
Lithology_geolink ._      : Lithology_geolink
CALI .in                  : CALI
BS .in                    : BS
ROP .m/h                  : ROP
DRHO .g/cm3               : DRHO
THOR .ppm                 : THOR
NPHI .m3/m3               : NPHI
RHOB .g/cm3               : RHOB
PEF .b/e                  : PEF
GR .gAPI                  : GR
URAN .ppm                 : URAN
DTC .us/ft                : DTC
DTS .us/ft                : DTS
RDEP .ohm.m               : RDEP
RMIC .ohm.m               : RMIC
RMED .ohm.m               : RMED
~Parameter
#==================================================================
~Ascii
# ...
 1929.7375488 11.000000000 12.999899864 12.250000954 18.405183792 0.0165999997  -999.250000 0.1708000004 2.4572999477 6.5088000298 14.212900162  -999.250000 74.331802368 143.51890564 2.8537762165  -999.250000 2.7553637028
 1929.8900146 11.000000000 12.963399887 12.250000954 17.411745071 0.0197000001  -999.250000 0.1718000025 2.4495000839 6.4085001945 12.568200111  -999.250000 73.914199829 143.02000427 2.7729649544  -999.250000 2.6917510033
 1930.0423584 11.000000000 12.933100700 12.250000954 16.106300354 0.0119000003  -999.250000 0.1735000014 2.4572000504 6.2579002380 12.513999939  -999.250000 73.569000244 143.21539307 2.6872372627  -999.250000 2.6446752548
 1930.1948242 11.000000000 12.905300140 12.250000954 15.743765831 0.0046000001  -999.250000 0.1738000065 2.4440000057 6.0760002136 13.567000389  -999.250000 74.536102295 144.22680664 2.6101617813  -999.250000 2.5758550167
 1930.3471680 11.000000000 13.046999931 12.250000954 15.398622513 -0.000100000  -999.250000 0.1748999953 2.4409000874 5.8674998283 13.730699539  -999.250000 74.981201172 146.08380127 2.5153517723  -999.250000 2.4812517166
 1930.4996338 11.000000000 13.017999649 12.250000954 15.408137321 0.0016000000  -999.250000 0.1781000048 2.4293999672 5.8755002022 13.530200005  -999.250000 76.055496216 147.73410034 2.4493527412  -999.250000 2.3820793629
 1930.6519775 11.000000000 13.018300056 12.250000954 15.517389297 0.0038000001  -999.250000 0.1859000027 2.4216001034 6.0109000206 13.372900009  -999.250000 75.801696777 148.28410339 2.4152274132  -999.250000 2.3361368179
 1930.8044434 11.000000000 12.840600014 12.250000954 15.685695648 0.0174000002  -999.250000 0.1920000017 2.4142000675 6.2920999527 13.026200294  -999.250000 75.921302795 147.52169800 2.3977141380  -999.250000 2.3158161640
 1930.9567871 11.000000000 12.803500175 12.250000954 16.419620514 0.0132999998  -999.250000 0.1965000033 2.3993999958 6.3400001526 13.794599533  -999.250000 76.639198303 147.41650391 2.3471405506  -999.250000 2.2856240273
 1931.1092529 11.000000000 12.854398727 12.250000954 17.232612610 0.0121999998  -999.250000 0.1946000010 2.4000999928 6.3115000725 14.717200279  -999.250000 76.982803345 147.91900635 2.2961406708  -999.250000 2.2411355972
 1931.2615967 11.000000000 12.911100388 12.250000954 18.070209503 0.0059000002  -999.250000 0.1963000000 2.3984999657 6.1494002342 15.196999550  -999.250000 77.162597656 148.78259277 2.2682223320  -999.250000 2.2116236687
 1931.4140625 11.000000000 12.822400093 12.250000954 18.770341873 0.0068999999  -999.250000 0.1943999976 2.4049000740 6.2221999168 15.987500191  -999.250000 76.831298828 147.34019470 2.2470169067  -999.250000 2.1863203049
 1931.5664063 11.000000000 12.833999634 12.250000954 20.145013809 0.0105999997  -999.250000 0.1939000040 2.4047999382 6.3744997978 15.498600006  -999.250000 75.755996704 145.70829773 2.2373077869  -999.250000 2.1885981560
 1931.7187500 11.000000000 12.890000343 12.250000954 20.770013809 0.0127999997  -999.250000 0.1915999949 2.3991000652 6.5212001801 13.398799896  -999.250000 74.997802734 145.27780151 2.2472839355  -999.250000 2.1798141003
 1931.8712158 11.000000000 12.979399681 12.250000954 20.477361679 0.0170000009  -999.250000 0.1940000057 2.3963999748 6.6378998756 12.319899559  -999.250000 75.878799438 147.23620605 2.2340106964  -999.250000 2.1514227390
 1932.0235596 11.000000000 12.992999077 12.250000954 19.869750977 0.0219999999  -999.250000 0.1951999962 2.3980998993 6.8491001129 13.890000343  -999.250000 76.446601868 148.21510315 2.2775301933  -999.250000 2.1782567501
 1932.1760254 11.000000000 12.996801376 12.250000954 19.781496048 0.0344000012  -999.250000 0.1914999932 2.4173998833 7.3159999847 16.601200104  -999.250000 76.130500793 147.19529724 2.3627316952  -999.250000 2.2614331245
 1932.3283691 11.000000000 12.908699989 12.250000954 19.440616608 0.0366000012  -999.250000 0.1815000027 2.4293999672 7.3807001114 17.686399460  -999.250000 75.099601746 146.54769897 2.5374197960  -999.250000 2.4332246780
 1932.4808350 11.000000000 12.876299858 12.250000954 17.873687744 0.0307999998  -999.250000 0.1730999947 2.4370000362 7.1005001068 16.854799271  -999.250000 73.740402222 143.88510132 2.7999897003  -999.250000 2.7001862526
 1932.6331787 11.000000000 12.817099571 12.250000954 17.425853729 0.0220999997  -999.250000 0.1683000028 2.4542996883 6.5164999962 14.932700157  -999.250000 72.052001953 142.95710754 2.9449839592  -999.250000 2.8615708351
 1932.7856445 11.000000000 12.734900475 12.250000954 17.124015808 0.0062000002  -999.250000 0.1651999950 2.4684998989 6.1347999573 13.284799576  -999.250000 70.632003784 140.40480042 3.0189409256  -999.250000 2.9709124565
 1932.9379883 11.000000000 12.699600220 12.250000954 16.533794403 0.0015000000  -999.250000 0.1615999937 2.4995999336 5.9688000679 14.311800003  -999.250000 69.951103210 135.50929260 3.1058304310  -999.250000 3.0980982780
 1933.0904541 11.000000000 12.668499947 12.250000954 15.354331017 -0.006000000  -999.250000 0.1573999971 2.5041999817 5.7905998230 15.576299667  -999.250000 66.394302368 134.96029663 3.1104965210  -999.250000 3.1571528912
 1933.2427979 11.000000000 12.658599854 12.250000954 13.964239120 0.0034000000  -999.250000 0.1525000036 2.5132999420 5.8473000526 15.545800209  -999.250000 67.370002747 138.73390198 3.0802242756  -999.250000 3.1349179745
 1933.3952637 11.000000000 12.643199921 12.250000954 13.539370537 0.0002000000  -999.250000 0.1475999951 2.4830999374 5.8488998413 15.462599754  -999.250000 69.005599976 143.05320740 3.0057597160  -999.250000 3.0275859833
 1933.5476074 11.000000000 12.754697800 12.250000954 13.361876488 0.0080000004  -999.250000 0.1482000053 2.4604001045 6.1753997803 15.067399979  -999.250000 70.700103760 144.18940735 2.9241652489  -999.250000 2.9164888859
 1933.7000732 11.000000000 12.723999023 12.250000954 12.602362633 0.0156999994  -999.250000 0.1554999948 2.4412999153 6.3074002266 14.477700233  -999.250000 74.376998901 149.11869812 2.8382687569  -999.250000 2.8139820099
 1933.8524170 11.000000000 12.715000153 12.250000954 12.758858681 0.0176999997  -999.250000 0.1634999961 2.4423999786 6.5409998894 13.976799965  -999.250000 75.915000916 154.24240112 2.7457740307  -999.250000 2.7103829384
 1934.0047607 11.000000000 12.821400642 12.250000954 13.345143318 0.0173000004  -999.250000 0.1741999984 2.4423999786 6.5015997887 14.249400139  -999.250000 76.689697266 155.14349365 2.6588392258  -999.250000 2.6048691273
 1934.1572266 11.000000000 12.804100037 12.250000954 13.208333015 0.0142999999  -999.250000 0.1779000014 2.4316000938 6.3154001236 15.169400215  -999.250000 79.017601013 154.23889160 2.6109383106  -999.250000 2.5328576565
 1934.3095703 11.000000000 12.923298836 12.250000954 13.084645271 0.0153000001  -999.250000 0.1871999949 2.4151999950 6.3017997742 16.432199478  -999.250000 81.262603760 162.00689697 2.5299298763  -999.250000 2.4343578815
 1934.4620361 11.000000000 12.914501190 12.250000954 13.479986191 0.0132999998  -999.250000 0.1922000051 2.4100999832 6.1234998703 17.924400330  -999.250000 84.686599731 167.42878723 2.4725000858  -999.250000 2.3689000607
 1934.6143799 11.000000000 13.096200943 12.250000954 14.727689743 0.0115000000  -999.250000 0.2043000013 2.4191999435 6.0967998505 18.925100327  -999.250000 88.173202515 170.55992126 2.4251999855  -999.250000 2.3326001167
 1934.7668457 11.000000000 13.008000374 12.250000954 16.407152176 0.0093000000  -999.250000 0.2124000043 2.4347000122 6.0388998985 18.774000168  -999.250000 88.305900574 175.00151062 2.3050000668  -999.250000 2.2464001179
 1934.9191895 11.000000000 13.007699966 12.250000954 17.788059235 0.0252000000  -999.250000 0.2117999941 2.4440000057 6.5662999153 19.310400009  -999.250000 87.412902832 173.09700012 2.3729999065  -999.250000 2.3148999214
 1935.0716553 11.000000000 12.935500145 12.250000954 18.372375488 0.0419000015  -999.250000 0.2052000016 2.4530999660 7.2842001915 20.913299561  -999.250000 85.417800903 168.59530640 2.4967000484  -999.250000 2.4298000336
 1935.2239990 11.000000000 13.054800987 12.250000954 19.670276642 0.0626000017  -999.250000 0.1955000013 2.4467999935 7.9851999283 21.072000504  -999.250000 83.533401489 165.42919922 2.5910999775  -999.250000 2.5220000744
