# LAS format log file from PETREL
# Project units are specified as depth units
#==================================================================
~Version information
VERS.   2.0:
WRAP.   NO:
#==================================================================
~Well
STRT .m      684.17242432 :
STOP .m      2208.3249512 :
STEP .m     0.00000000 :
NULL .        -999.250000 :
COMP.           : COMPANY
WELL.  16/2-16   : WELL
FLD.            : FIELD
LOC.            : LOCATION
SRVC.           : SERVICE COMPANY
DATE.  2018-09-11 14:48:07   : Log Export Date {yyyy-MM-dd HH:mm:ss}
PROV.           : PROVINCE
UWI.   16/2-16   : UNIQUE WELL ID
API.            : API NUMBER
#==================================================================
~Curve
DEPT .m                   : DEPTH
Lithology_geolink ._      : Lithology_geolink
CALI .in                  : CALI
BS .in                    : BS
ROP .m/h                  : ROP
DRHO .g/cm3               : DRHO
THOR .ppm                 : THOR
NPHI .m3/m3               : NPHI
RHOB .g/cm3               : RHOB
PEF .b/e                  : PEF
GR .gAPI                  : GR
URAN .ppm                 : URAN
DTC .us/ft                : DTC
DTS .us/ft                : DTS
RDEP .ohm.m               : RDEP
RMED .ohm.m               : RMED
~Parameter
#==================================================================
~Ascii
# ...
 1492.5020752 6.0000000000 12.486200333 12.250000954 220.44192505 0.0055000000  -999.250000 0.5059000254 2.1953999996 4.4011998177 93.630897522  -999.250000 150.32789612  -999.250000 0.5676000118 0.5703999996
 1492.6544189 6.0000000000 12.490401268 12.250000954 214.94915771 -0.005100000  -999.250000 0.5083000064 2.1679000854 4.4432001114 87.163497925  -999.250000 150.53970337  -999.250000 0.5784000158 0.5878999829
 1492.8068848 5.0000000000 12.477600098 12.250000954 202.32644653 0.0022000000  -999.250000 0.4900999963 2.1577000618 4.7772002220 79.353996277  -999.250000 150.14140320  -999.250000 0.5584999919 0.5619000196
 1492.9592285 5.0000000000 12.549799919 12.250000954 198.02362061 0.0074999998  -999.250000 0.4914999902 2.1737000942 4.6243000031 78.424797058  -999.250000 149.85060120  -999.250000 0.5493999720 0.5461999774
 1493.1115723 5.0000000000 12.538200378 12.250000954 172.91436768 0.0062000002  -999.250000 0.4663999975 2.1828999519 4.5450000763 79.608398438  -999.250000 150.35949707  -999.250000 0.5921000242 0.5896000266
 1493.2640381 5.0000000000 12.527999878 12.250000954 136.71391296 0.0031999999  -999.250000 0.4440000057 2.1854000092 4.4749999046 77.860702515  -999.250000 150.87289429  -999.250000 0.5717999935 0.5767999887
 1493.4163818 5.0000000000 12.522399902 12.250000954 118.96784210 0.0033000000  -999.250000 0.4560999870 2.1868999004 4.4560999870 74.254600525  -999.250000 150.44819641  -999.250000 0.5569000244 0.5548999906
 1493.5688477 5.0000000000 12.519700050 12.250000954 114.88648224 -0.004600000  -999.250000 0.4494000077 2.1723001003 4.3857998848 74.361503601  -999.250000 150.94699097  -999.250000 0.5543000102 0.5604000092
 1493.7211914 5.0000000000 12.517899513 12.250000954 111.84022522 -0.002500000  -999.250000 0.4760000110 2.1953999996 4.0199999809 80.950599670  -999.250000 150.87930298  -999.250000 0.5716000199 0.5677999854
 1493.8736572 5.0000000000 12.516900063 12.250000954 110.55774689 -0.004800000  -999.250000 0.5042999983 2.1840000153 3.8582000732 85.025001526  -999.250000 151.98748779  -999.250000 0.5583999753 0.5532000065
 1494.0260010 5.0000000000 12.621000290 12.250000954 112.06693268 -0.007100000  -999.250000 0.4968999922 2.1607000828 3.8740000725 83.811897278  -999.250000 151.72509766  -999.250000 0.5375999808 0.5386999846
 1494.1784668 5.0000000000 12.696998596 12.250000954 116.39895630 -0.002900000  -999.250000 0.4891000092 2.1540000439 4.3059000969 81.500000000  -999.250000 151.13999939  -999.250000 0.5515999794 0.5461000204
 1494.3308105 5.0000000000 12.891500473 12.250000954 122.20046234 -0.004900000  -999.250000 0.4598999918 2.1579999924 4.0746002197 80.681396484  -999.250000 152.07780457  -999.250000 0.5515999794 0.5461000204
 1494.4832764 5.0000000000 13.062700272 12.250000954 127.13779449 -0.007500000  -999.250000 0.4790000021 2.1324999332 3.6586000919 82.960098267  -999.250000 151.66259766  -999.250000 0.5139999986 0.5167000294
 1494.6356201 5.0000000000 12.536999702 12.250000954 142.52067566 -0.003900000  -999.250000 0.5055000186 2.1335999966 3.5464000702 84.951202393  -999.250000 151.81069946  -999.250000 0.5368999839 0.5357999802
 1494.7880859 6.0000000000 12.400699615 12.250000954 182.40550232 -0.004300000  -999.250000 0.5360000134 2.1508998871 3.6122000217 87.528602600  -999.250000 151.84748840  -999.250000 0.5988000035 0.6024000049
 1494.9404297 6.0000000000 12.614700317 12.250000954 211.51640320 0.0010000000  -999.250000 0.5512999892 2.1867001057 4.0216999054 90.703300476  -999.250000 150.39302063  -999.250000 0.6383000016 0.6349999905
 1495.0927734 6.0000000000 12.711599350 12.250000954 195.16108704 0.0026000000  -999.250000 0.5270000100 2.2114999294 4.2793002129 87.075103760  -999.250000 147.82730103  -999.250000 0.6920999885 0.6808999777
 1495.2452393 6.0000000000 12.583100319 12.250000954 170.76803589 0.0055999998  -999.250000 0.4927000105 2.2334001064 4.3944997787 76.909400940  -999.250000 144.05909729  -999.250000 0.7347000241 0.7249000072
 1495.3975830 5.0000000000 12.475700378 12.250000954 149.57676697 0.0026000000  -999.250000 0.4253000021 2.2316000462 4.4738001823 66.467201233  -999.250000 140.61990356  -999.250000 0.7208999991 0.7232999802
 1495.5500488 5.0000000000 12.426300049 12.250000954 136.27067566 0.0077999998  -999.250000 0.4013999999 2.2546999454 4.6359000206 62.706298828  -999.250000 138.54110718  -999.250000 0.7092000246 0.7236999869
 1495.7023926 5.0000000000 12.408101082 12.250000954 128.10629272 0.0074000000  -999.250000 0.3801000118 2.2622001171 4.6870999336 68.557899475  -999.250000 137.24020386  -999.250000 0.7462000251 0.7430999875
 1495.8548584 5.0000000000 12.396200180 12.250000954 120.26213837 0.0073000002  -999.250000 0.4284999967 2.2665998936 4.8248000145 73.181602478  -999.250000 136.28770447  -999.250000 0.8015999794 0.8011000156
 1496.0072021 5.0000000000 12.378800392 12.250000954 113.91733551 0.0024999999  -999.250000 0.4393000007 2.2732000351 4.7497000694 67.982696533  -999.250000 135.77340698  -999.250000 0.8288000226 0.8284999728
 1496.1596680 5.0000000000 12.438099861 12.250000954 109.16207123 0.0017000000  -999.250000 0.4483000040 2.2992999554 4.8277997971 61.589000702  -999.250000 135.83900452  -999.250000 0.8082000017 0.7979000211
 1496.3120117 5.0000000000 12.575401306 12.250000954 102.66765594 -0.003900000  -999.250000 0.4237000048 2.2955000401 4.8934998512 62.119998932  -999.250000 136.18850708  -999.250000 0.7407000065 0.7515000105
 1496.4644775 5.0000000000 12.562398911 12.250000954 97.549873352 -0.007300000  -999.250000 0.4187000096 2.2850999832 4.9935998917 65.844100952  -999.250000 137.02090454  -999.250000 0.7299000025 0.7390999794
 1496.6168213 5.0000000000 12.541600227 12.250000954 90.389434814 -0.002200000  -999.250000 0.4280999899 2.2794001102 5.2560000420 69.048202515  -999.250000 138.19110107  -999.250000 0.7203000188 0.7300000191
 1496.7692871 5.0000000000 12.373299599 12.250000954 91.015090942 -0.001900000  -999.250000 0.4621999860 2.2713000774 5.4770002365 69.771003723  -999.250000 139.36419678  -999.250000 0.7221999764 0.7257999778
 1496.9216309 5.0000000000 12.386799812 12.250000954 94.307090759 0.0002000000  -999.250000 0.4869000018 2.2778999805 5.6103000641 70.500999451  -999.250000 141.17179871  -999.250000 0.7148000002 0.7160999775
 1497.0739746 5.0000000000 12.408101082 12.250000954 93.702102661 -0.006800000  -999.250000 0.4842000008 2.2449998856 5.2209000587 74.379997253  -999.250000 143.34820557  -999.250000 0.6825000048 0.6815000176
 1497.2264404 5.0000000000 12.418999672 12.250000954 89.772636414 -0.006500000  -999.250000 0.4744000137 2.2112998962 4.8164000511 76.861503601  -999.250000 145.52810669  -999.250000 0.7272999883 0.7419000268
 1497.3787842 5.0000000000 12.400699615 12.250000954 90.202430725 0.0035000001  -999.250000 0.4961000085 2.1995000839 4.3447999954 76.500099182  -999.250000 148.78900146  -999.250000 0.5501000285 0.5515000224
 1497.5312500 5.0000000000 12.465700150 12.250000954 88.856300354 0.0027000001  -999.250000 0.5281999707 2.1998999119 4.5756998062 76.278900146  -999.250000 150.58309937  -999.250000 0.5522999763 0.5533999801
 1497.6835938 5.0000000000 12.499600410 12.250000954 89.111549377 0.0010000000  -999.250000 0.4735000134 2.1909999847 4.8232998848 76.876197815  -999.250000 150.85839844  -999.250000 0.5974000096 0.5960000157
 1497.8360596 5.0000000000 12.520500183 12.250000954 78.524940491 0.0013000000  -999.250000 0.4381999969 2.2007999420 5.1936998367 78.579696655  -999.250000 150.11109924  -999.250000 0.5992000103 0.5965999961
 1497.9884033 5.0000000000 12.431799889 12.250000954 76.921585083 -0.000700000  -999.250000 0.4063999951 2.2149000168 4.4807000160 81.588500977  -999.250000 149.00379944  -999.250000 0.6021999717 0.5970000029
 1498.1408691 5.0000000000 12.435600281 12.250000954 86.676177979 0.0035999999  -999.250000 0.4167999923 2.2281999588 4.3850998878 80.880500793  -999.250000 148.31230164  -999.250000 0.5986999869 0.6006000042
 1498.2932129 5.0000000000 12.440999031 12.250000954 93.518371582 0.0074999998  -999.250000 0.4560000002 2.2390999794 4.2845997810 75.515602112  -999.250000 148.03750610  -999.250000 0.5978000164 0.6039000154
