# LAS format log file from PETREL
# Project units are specified as depth units
#==================================================================
~Version information
VERS.   2.0:
WRAP.   NO:
#==================================================================
~Well
STRT .m      735.07409668 :
STOP .m      2124.0476074 :
STEP .m     0.00000000 :
NULL .        -999.250000 :
COMP.           : COMPANY
WELL.  16/2-6   : WELL
FLD.            : FIELD
LOC.            : LOCATION
SRVC.           : SERVICE COMPANY
DATE.  2018-09-11 14:48:07   : Log Export Date {yyyy-MM-dd HH:mm:ss}
PROV.           : PROVINCE
UWI.   16/2-6   : UNIQUE WELL ID
API.            : API NUMBER
#==================================================================
~Curve
DEPT .m                   : DEPTH
Lithology_geolink ._      : Lithology_geolink
CALI .in                  : CALI
BS .in                    : BS
ROP .m/h                  : ROP
DRHO .g/cm3               : DRHO
NPHI .m3/m3               : NPHI
RHOB .g/cm3               : RHOB
PEF .b/e                  : PEF
GR .gAPI                  : GR
DTC .us/ft                : DTC
DTS .us/ft                : DTS
RDEP .ohm.m               : RDEP
RMED .ohm.m               : RMED
~Parameter
#==================================================================
~Ascii
# ...
 1284.9332275  -999.250000 12.513400078 12.250000954 104.13910675 -0.009306010 0.4546000063 2.0965702534 3.2013928890 101.00520325 142.41349792  -999.250000 1.1973999739 1.0235999823
 1285.0856934  -999.250000 12.508600235 12.250000954 106.78083801 -0.016804323 0.4176000059 2.0593745708 3.0676808357 112.96269989 142.33380127  -999.250000 1.2201999426 1.0351999998
 1285.2380371  -999.250000 12.492000580 12.250000954 108.62270355 -0.019500241 0.4190999866 2.0434980392 2.9309313297 110.28520203 142.89109802  -999.250000 1.2417000532 1.0399999619
 1285.3905029  -999.250000 12.496899605 12.250000954 110.26377869 -0.019791674 0.4242999852 2.0411133766 2.8455209732 102.26779938 144.22129822  -999.250000 1.2321000099 1.0246000290
 1285.5428467  -999.250000 12.496500015 12.250000954 108.88812256 -0.014596715 0.4390000105 2.0493950844 2.9834129810 98.205200195 143.46659851  -999.250000 1.2415000200 1.0374000072
 1285.6953125  -999.250000 12.495900154 12.250000954 106.40945435 -0.010499519 0.4239000082 2.0430822372 3.1242945194 91.476402283 140.50230408  -999.250000 1.2296999693 1.0398000479
 1285.8476563  -999.250000 12.498499870 12.250000954 103.82643890 -0.010199440 0.3948999941 2.0318975449 3.1832211018 88.802696228 140.20379639  -999.250000 1.2290999889 1.0361000299
 1286.0000000  -999.250000 12.503700256 12.250000954 100.82873535 -0.009498399 0.3903999925 2.0289106369 3.2099261284 92.078002930 137.85830688  -999.250000 1.2806999683 1.0875999928
 1286.1524658  -999.250000 12.517499924 12.250000954 98.254592896 -0.007492468 0.4174999893 2.0424420834 3.3673191071 87.744300842 135.20120239  -999.250000 1.5305999517 1.4433000088
 1286.3048096  -999.250000 12.512299538 12.250000954 94.693893433 0.0019003203 0.4539000094 2.0952007771 3.5159351826 79.578300476 136.25369263  -999.250000 1.2688000202 1.0664999485
 1286.4572754  -999.250000 12.505700111 12.250000954 90.881889343 0.0022963141 0.4548000097 2.0960843563 3.3101384640 79.466903687 134.79690552  -999.250000 1.2294000387 1.0544999838
 1286.6096191  -999.250000 12.520400047 12.250000954 86.386810303 -0.002308086 0.4239000082 2.0763511658 2.9839110374 83.861801147 138.46919250  -999.250000 1.2378000021 1.0729999542
 1286.7620850  -999.250000 12.510599136 12.250000954 82.674217224 -0.012403205 0.4108000100 2.0152904987 2.7479956150 85.683296204 139.69599915  -999.250000 1.2271000147 1.0450999737
 1286.9144287  -999.250000 12.535099983 12.250000954 80.793960571 -0.016398879 0.4117000103 2.0035178661 2.8671822548 86.769500732 141.08729553  -999.250000 1.2264000177 1.0419000387
 1287.0668945  -999.250000 12.513500214 12.250000954 80.876640320 -0.015000640 0.4237999916 2.0257167816 2.9699313641 91.442901611 142.04220581  -999.250000 1.2130000591 1.0470000505
 1287.2192383  -999.250000 12.500800133 12.250000954 81.790679932 -0.015399119 0.4160999954 2.0361106396 2.9893920422 95.475799561 143.08259583  -999.250000 1.2321000099 1.0446000099
 1287.3717041  -999.250000 12.512500763 12.250000954 82.812011719 -0.014295196 0.4413999915 2.0493876934 2.8549358845 92.701797485 142.82890320  -999.250000 1.2515000105 1.0572999716
 1287.5240479  -999.250000 12.526301384 12.250000954 83.011154175 -0.011296394 0.4458999932 2.0416207314 3.0020661354 92.170097351 143.51080322  -999.250000 1.2290999889 1.0332000256
 1287.6765137  -999.250000 12.497799873 12.250000954 84.763450623 -0.006797758 0.4451999962 2.0675137043 3.2097413540 99.291801453 143.37950134  -999.250000 1.2041000128 1.0297000408
 1287.8288574  -999.250000 12.499798775 12.250000954 87.197181702 -0.005401042 0.4487000108 2.0760140419 3.4225397110 102.62729645 144.33059692  -999.250000 1.2591999769 1.0851000547
 1287.9812012  -999.250000 12.523299217 12.250000954 89.422241211 -0.006695916 0.4517999887 2.0936112404 3.3473281860 100.71559906 146.80920410  -999.250000 1.2321000099 1.0640000105
 1288.1336670  -999.250000 12.543899536 12.250000954 92.785430908 -0.001598638 0.4323999882 2.1076142788 3.3824872971 97.633300781 148.42019653  -999.250000 1.2373000383 1.0701999664
 1288.2860107  -999.250000 12.544899940 12.250000954 96.681755066 0.0001011209 0.4232999980 2.1256897449 3.3665955067 94.528900146 147.51119995  -999.250000 1.2906999588 1.1189999580
 1288.4384766  -999.250000 12.561600685 12.250000954 97.118766785 0.0014960737 0.4106000066 2.1128666401 3.3609130383 95.063598633 142.65049744  -999.250000 1.3080999851 1.1296000481
 1288.5908203  -999.250000 12.538999557 12.250000954 96.358268738 -0.003402322 0.4178999960 2.0712754726 3.2524597645 97.703903198 138.63490295  -999.250000 1.3068000078 1.1217999458
 1288.7432861  -999.250000 12.505700111 12.250000954 94.186019897 -0.006308414 0.3971999884 2.0406355858 3.2027416229 97.358497620 134.58090210  -999.250000 1.2641999722 1.0456000566
 1288.8956299  -999.250000 12.528200150 12.250000954 93.502296448 -0.016812490 0.3973999918 2.0848689079 3.7540152073 91.699203491 133.68060303  -999.250000 2.1291000843 1.6970000267
 1289.0480957  -999.250000 12.553700447 12.250000954 49.285106659 -0.032387421 0.4120000005 2.1708014011 4.5213465691 84.012199402 134.76519775  -999.250000 1.4261000156 1.1245000362
 1289.2004395  -999.250000 12.504699707 12.250000954 45.487533569 -0.016690945 0.3828000128 2.1724553108 3.9550886154 80.982002258 140.46330261  -999.250000 1.3274999857 1.1079000235
 1289.3529053  -999.250000 12.562500000 12.250000954 44.698818207 -0.005415373 0.3838000000 2.1169688702 3.1926634312 84.959197998 139.42390442  -999.250000 1.3366999626 1.1684000492
 1289.5052490  -999.250000 12.537099838 12.250000954 43.741142273 -0.015002403 0.4045999944 2.0974986553 3.1074881554 89.225997925 138.18719482  -999.250000 1.3360999823 1.1498999596
 1289.6577148  -999.250000 12.588999748 12.250000954 43.064960480 -0.017994715 0.4149000049 2.0958254337 3.0928997993 90.384597778 142.84300232  -999.250000 1.3336999416 1.1319999695
 1289.8100586  -999.250000 12.559201241 12.250000954 42.809383392 -0.014698237 0.4185000062 2.1117117405 3.2175760269 92.690696716 141.50549316  -999.250000 1.3413000107 1.1500999928
 1289.9625244  -999.250000 12.525300026 12.250000954 43.003608704 -0.012491833 0.4336999953 2.1263482571 3.3126618862 93.682197571 141.38850403  -999.250000 1.3063999414 1.1225999594
 1290.1148682  -999.250000 12.489999771 12.250000954 43.498687744 -0.007400641 0.4287000000 2.1563942432 3.4136023521 93.537399292 141.34440613  -999.250000 1.3474999666 1.1414999962
 1290.2672119  -999.250000 12.506699562 12.250000954 44.231628418 -0.008198239 0.4379000068 2.1493697166 3.4165179729 95.728302002 139.97837830  -999.250000 1.4558000565 1.2417000532
 1290.4196777  -999.250000 12.485099792 12.250000954 44.379264832 -0.005999519 0.4345999956 2.1115722656 3.4386858940 94.766502380 136.58782959  -999.250000 1.6603000164 1.3989000320
 1290.5720215  -999.250000 12.456700325 12.250000954 76.074798584 -0.005399039 0.4467999935 2.0770783424 3.2962801456 89.222297668 133.75550842  -999.250000 1.5923999548 1.3208999634
 1290.7244873  -999.250000 12.488100052 12.250000954 83.883201599 -0.004205609 0.4381000102 2.0498986244 3.2715580463 84.714103699 133.14845276  -999.250000 1.5336347818 1.2813999653
 1290.8768311  -999.250000 12.505700111 12.250000954 79.480972290 -0.011199839 0.4300999939 2.0480091572 3.2191951275 83.432899475 137.44657898  -999.250000 1.4522769451 1.2178000212
 1291.0292969  -999.250000 12.452699661 12.250000954 77.461616516 -0.011000481 0.4169000089 2.0594074726 3.2132024765 83.978797913 142.91830444  -999.250000 1.4235742092 1.2000999451
 1291.1816406  -999.250000 12.419400215 12.250000954 74.454071045 -0.011598157 0.4022000134 2.0685062408 3.2160954475 85.371398926 141.93167114  -999.250000 1.3913912773 1.1481000185
 1291.3341064  -999.250000 12.471499443 12.250000954 72.222114563 -0.009306725 0.4059999883 2.0760855675 3.0855057240 88.141601563 139.01972961  -999.250000 1.3806219101 1.1657999754
 1291.4864502  -999.250000 12.511599541 12.250000954 69.128280640 -0.013497276 0.4041999876 2.0670034885 3.0268273354 92.193099976 141.21220398  -999.250000 1.3943294287 1.1680999994
