# LAS format log file from PETREL
# Project units are specified as depth units
#==================================================================
~Version information
VERS.   2.0:
WRAP.   NO:
#==================================================================
~Well
STRT .m      703.83190918 :
STOP .m      2487.0642090 :
STEP .m     0.00000000 :
NULL .        -999.250000 :
COMP.           : COMPANY
WELL.  16/2-7 Johan Sverdrup Appr   : WELL
FLD.            : FIELD
LOC.            : LOCATION
SRVC.           : SERVICE COMPANY
DATE.  2018-09-11 14:48:07   : Log Export Date {yyyy-MM-dd HH:mm:ss}
PROV.           : PROVINCE
UWI.   16/2-7   : UNIQUE WELL ID
API.            : API NUMBER
#==================================================================
~Curve
DEPT .m                   : DEPTH
Lithology_geolink ._      : Lithology_geolink
CALI .in                  : CALI
BS .in                    : BS
ROP .m/h                  : ROP
DRHO .g/cm3               : DRHO
THOR .ppm                 : THOR
NPHI .m3/m3               : NPHI
RHOB .g/cm3               : RHOB
PEF .b/e                  : PEF
GR .gAPI                  : GR
URAN .ppm                 : URAN
DTC .us/ft                : DTC
DTS .us/ft                : DTS
RDEP .ohm.m               : RDEP
RMIC .ohm.m               : RMIC
RMED .ohm.m               : RMED
~Parameter
#==================================================================
~Ascii
# ...
 2480.0537109  -999.250000 8.5571002960 8.5000000000 57.473827362 0.0800732374 4.3337001801 0.1243008077 2.4567000866 2.8549883366 111.45026398 3.1445000172 68.130699158 125.28189850 1.9012000561  -999.250000 1.8184000254
 2480.2060547  -999.250000 8.5536003113 8.5000000000 59.041782379 0.0819969550 4.2627000809 0.1210052893 2.4681000710 2.9719130993 114.94118500 3.3355998993 68.854103088 126.33600616 1.9314999580  -999.250000 1.8296999931
 2480.3586426  -999.250000 8.5574998856 8.5000000000 58.241146088 0.0754000023 4.1697001457 0.1225000024 2.4581000805 2.6940999031 113.33419800 3.5629000664 69.772796631 127.61279297 1.9945000410  -999.250000 1.8736000061
 2480.5109863  -999.250000 8.5811996460 8.5000000000 56.466102600 0.0683113635 3.8603997231 0.1217012778 2.4493000507 2.5786850452 107.23727417 3.9760003090 70.454803467 128.49780273 2.0118000507  -999.250000 1.9004000425
 2480.6633301  -999.250000 8.5797996521 8.5000000000 54.141853333 0.0776849315 3.5320000648 0.1217998341 2.4698998928 2.8350882530 106.53800964 4.1837000847 70.623199463 129.32609558 2.0065999031  -999.250000 1.9214999676
 2480.8156738  -999.250000 8.5735998154 8.5000000000 52.076797485 0.0744052902 3.7314999104 0.1204022393 2.4607999325 2.6650733948 94.473060608 4.5469999313 70.641197205 130.41940308 2.0109999180  -999.250000 1.9713000059
 2480.9682617  -999.250000 8.6035995483 8.5000000000 51.663715363 0.0812000036 3.6874001026 0.1226999983 2.4602999687 2.8303999901 88.187400818 4.4197001457 70.766799927 131.62600708 1.9802999496  -999.250000 1.9996999502
 2481.1206055  -999.250000 8.5944004059 8.5000000000 54.703083038 0.0820999965 3.5313000679 0.1280999929 2.4614999294 2.7918000221 94.594902039 4.8287000656 71.268898010 132.03919983 1.8999999762  -999.250000 1.9002000093
 2481.2729492  -999.250000 8.5916996002 8.5000000000 58.825416565 0.0807022452 3.6754000187 0.1279003173 2.4595000744 2.8123672009 93.937355042 4.7104997635 71.885398865 132.79330444 1.9306999445  -999.250000 1.9047000408
 2481.4252930  -999.250000 8.6015996933 8.5000000000 59.252929688 0.0876887813 3.5069000721 0.1283991933 2.4762001038 2.8543326855 89.371726990 5.3365998268 72.186096191 132.86380005 1.9651999474  -999.250000 1.9883999825
 2481.5778809  -999.250000 8.6023998260 8.5000000000 59.483921051 0.0876000002 3.3805999756 0.1324999928 2.4642999172 2.9614000320 101.27059937 6.2957000732 72.247497559 133.43029785 1.7820999622  -999.250000 1.7810000181
 2481.7302246  -999.250000 8.6215000153 8.5000000000 60.739173889 0.0873000026 4.5363001823 0.1366000026 2.4509999752 2.9681000710 91.318496704 6.0830998421 72.095199585 132.14160156 1.5849000216  -999.250000 1.5118999481
 2481.8825684  -999.250000 8.5918998718 8.5000000000 59.014247894 0.0849038363  -999.250000 0.1371990442 2.4405000210 2.8356125355 92.990318298  -999.250000 71.835700989 131.85159302 1.6921000481  -999.250000 1.5585000515
 2482.0349121  -999.250000 8.5886001587 8.5000000000 57.374675751 0.0789096206  -999.250000 0.1310099363 2.4474000931 2.9949438572 92.513374329  -999.250000 71.426696777 132.51899719 1.9551999569  -999.250000 1.8479000330
 2482.1872559  -999.250000 8.5946998596 8.5000000000 61.353511810 0.0746068954  -999.250000 0.1188195497 2.4621000290 2.7583799362 95.859931946  -999.250000 71.191299438 132.05529785 2.0596001148  -999.250000 1.9955999851
 2482.3398438  -999.250000 8.5872001648 8.5000000000 69.263122559 0.0763999969  -999.250000 0.1212000027 2.4674999714 2.7585999966 97.368797302  -999.250000 71.380203247 131.64450073 2.0172998905  -999.250000 1.9697999954
 2482.4921875  -999.250000 8.5583000183 8.5000000000 69.412170410 0.0742035136  -999.250000 0.1213996783 2.4579913616 2.7525098324 99.855316162  -999.250000 71.694297791 132.32510376 1.8754999638  -999.250000 1.7984000444
 2482.6445313  -999.250000 8.5593004227 8.5000000000 62.506824493 0.0762966350  -999.250000 0.1196028814 2.4526000023 2.8157985210 92.514488220  -999.250000 71.743499756 133.69290161 1.9273999929  -999.250000 1.8655999899
 2482.7968750  -999.250000 8.5546998978 8.5000000000 56.666511536 0.0797943920  -999.250000 0.1167046502 2.4679999352 2.8693141937 95.865600586  -999.250000 71.608901978 134.48139954 2.0506999493  -999.250000 2.0360999107
 2482.9494629  -999.250000 8.5399999619 8.5000000000 53.876308441 0.0837000012  -999.250000 0.1155000031 2.4807918072 2.9711999893 91.050399780  -999.250000 71.668800354 135.40930176 2.1110999584  -999.250000 2.0789999962
 2483.1018066  -999.250000 8.5508003235 8.5000000000 52.833007813 0.0758000016  -999.250000 0.1133999974 2.4757928848 2.6607999802 97.755699158  -999.250000 72.096702576 135.50410461 2.2070000172  -999.250000 2.1006999016
 2483.2541504  -999.250000 8.5684003830 8.5000000000 48.624198914 0.0766985640  -999.250000 0.1122019216 2.4713187218 2.8415102959 86.951614380  -999.250000 72.781646729 136.02259827 2.3798999786  -999.250000 2.2643001080
 2483.4064941  -999.250000 8.5732002258 8.5000000000 40.307632446 0.0786967948  -999.250000 0.1120003238 2.4830000401 2.9362483025 92.405715942  -999.250000 73.060401917 135.92660522 2.4834001064  -999.250000 2.4237000942
 2483.5590820  -999.250000 8.5727996826 8.5000000000 47.232612610 0.0688999966  -999.250000 0.1142999977 2.4715838432 2.6647999287 94.738601685  -999.250000 72.741661072 134.76539612 2.3529000282  -999.250000 2.3524000645
 2483.7114258  -999.250000 8.5659999847 8.5000000000 60.209651947 0.0737999976  -999.250000  -999.250000 2.4614844322 2.9024000168 96.921203613  -999.250000 72.216819763 133.80430603 2.1435999870  -999.250000 2.0715000629
 2483.8637695  -999.250000 8.5509996414 8.5000000000 55.141323090 0.0761961639  -999.250000  -999.250000 2.4519445896 3.0557541847 93.380378723  -999.250000 71.917510986 133.33580017 2.4251000881  -999.250000 2.2727000713
 2484.0161133  -999.250000 8.5581998825 8.5000000000 56.140113831 0.0810921490  -999.250000  -999.250000 2.4797999859 3.0758681297 87.376029968  -999.250000 71.859596252 133.33360291 2.7495000362  -999.250000 2.6547999382
 2484.1684570  -999.250000 8.5711002350 8.5000000000 53.441341400 0.0830967948  -999.250000  -999.250000 2.4927000999 2.9980249405 89.022346497  -999.250000 71.727798462 131.10519409 2.7899000645  -999.250000 2.7581999302
 2484.3210449  -999.250000 8.5902996063 8.5000000000 49.117782593 0.0829000026  -999.250000  -999.250000 2.4966061115 2.9855000973 96.409896851  -999.250000 71.264541626 134.69140625 2.7806000710  -999.250000 2.8322000504
 2484.4733887  -999.250000 8.5945997238 8.5000000000 44.913890839 0.0821012780  -999.250000  -999.250000 2.5003762245 3.0146532059 100.78099823  -999.250000 70.419921875 129.17720032 2.5954999924  -999.250000 2.6861999035
 2484.6257324  -999.250000 8.5794000626 8.5000000000 40.890304565 0.0777070448  -999.250000  -999.250000 2.4855000973 2.9084703922 98.009857178  -999.250000 70.119300842 129.54989624 2.2420001030  -999.250000 2.3045001030
 2484.7780762  -999.250000 8.5764999390 8.5000000000 38.988605499 0.0806951970  -999.250000  -999.250000 2.4762001038 2.9966580868 94.489143372  -999.250000 70.589302063 129.08309937 2.1517000198  -999.250000 2.1572000980
 2484.9306641  -999.250000 8.5839996338 8.5000000000 41.220474243 0.0744000003  -999.250000  -999.250000 2.4637095928 2.7678999901 97.908996582  -999.250000 70.612312317 128.48449707 2.2056000233  -999.250000 2.2063999176
 2485.0830078  -999.250000 8.5869998932 8.5000000000 45.853347778 0.0763999969  -999.250000  -999.250000 2.4696309566 2.6888999939 91.236503601  -999.250000 70.184654236 128.42269897 2.3002998829  -999.250000 2.2683000565
 2485.2353516  -999.250000 8.5833997726 8.5000000000 49.324489594 0.0876819193  -999.250000  -999.250000 2.4889025688 3.0564110279 91.259460449  -999.250000 70.277847290 129.76699829 2.4530000687  -999.250000 2.3896000385
 2485.3876953  -999.250000 8.5925998688 8.5000000000 51.249546051 0.0883988738  -999.250000  -999.250000 2.4906001091 3.0394282341 94.304611206  -999.250000 70.560600281 129.66870117 2.5599999428  -999.250000 2.4718000889
 2485.5402832  -999.250000 8.6027002335 8.5000000000 54.702758789 0.0913999975  -999.250000  -999.250000 2.4911713600 3.0520999432 93.404502869  -999.250000 70.456192017 127.79229736 2.5253999233  -999.250000 2.4521999359
