# LAS format log file from PETREL
# Project units are specified as depth units
#==================================================================
~Version information
VERS.   2.0:
WRAP.   NO:
#==================================================================
~Well
STRT .m      735.07409668 :
STOP .m      2124.0476074 :
STEP .m     0.00000000 :
NULL .        -999.250000 :
COMP.           : COMPANY
WELL.  16/2-6   : WELL
FLD.            : FIELD
LOC.            : LOCATION
SRVC.           : SERVICE COMPANY
DATE.  2018-09-11 14:48:07   : Log Export Date {yyyy-MM-dd HH:mm:ss}
PROV.           : PROVINCE
UWI.   16/2-6   : UNIQUE WELL ID
API.            : API NUMBER
#==================================================================
~Curve
DEPT .m                   : DEPTH
Lithology_geolink ._      : Lithology_geolink
CALI .in                  : CALI
BS .in                    : BS
ROP .m/h                  : ROP
DRHO .g/cm3               : DRHO
NPHI .m3/m3               : NPHI
RHOB .g/cm3               : RHOB
PEF .b/e                  : PEF
GR .gAPI                  : GR
DTC .us/ft                : DTC
DTS .us/ft                : DTS
RDEP .ohm.m               : RDEP
RMED .ohm.m               : RMED
~Parameter
#==================================================================
~Ascii
# ...
 1566.5684814 5.0000000000 12.870900154 12.250000954 71.026245117 -0.005100000 0.4086000025 2.1263000965 3.7311000824 72.411300659 143.62899780  -999.250000 1.1536999941 0.9327999949
 1566.7208252 5.0000000000 12.549799919 12.250000954 70.456039429 -0.003100000 0.3874999881 2.1352000237 3.6308999062 69.886100769 142.91650391  -999.250000 0.8883000016 0.7354999781
 1566.8731689 5.0000000000 12.725299835 12.250000954 71.909782410 -0.008300000 0.3896000087 2.1294999123 3.4370999336 71.300903320 143.68479919  -999.250000 0.7010999918 0.5950000286
 1567.0256348 5.0000000000 12.566499710 12.250000954 71.362861633 -0.010400000 0.4442000091 2.1245999336 3.3580999374 78.408599854 146.05220032  -999.250000 0.6610999703 0.5719000101
 1567.1779785 5.0000000000 12.558600426 12.250000954 70.060371399 -0.011500000 0.4819000065 2.1175000668 3.4921000004 87.354400635 148.97720337  -999.250000 0.6179000139 0.5224000216
 1567.3304443 5.0000000000 12.548800468 12.250000954 70.885498047 -0.009500000 0.5163000226 2.1219999790 3.5662000179 87.781402588 152.34320068  -999.250000 0.5866000056 0.4912000000
 1567.4827881 5.0000000000 12.578700066 12.250000954 70.348098755 -0.009000000 0.4930999875 2.1284999847 3.5880000591 84.409599304 150.42700195  -999.250000 0.6571000218 0.5498999953
 1567.6352539 5.0000000000 12.778200150 12.250000954 69.110237122 -0.006300000 0.4796000123 2.1282999516 3.7544999123 81.988403320 146.06210327  -999.250000 0.6712999940 0.5339999795
 1567.7875977 5.0000000000 12.853699684 12.250000954 68.049209595 0.0027000001 0.4571000040 2.1361000538 4.0815000534 79.533798218 145.42619324  -999.250000 0.6579999924 0.5321999788
 1567.9400635 5.0000000000 12.929200172 12.250000954 67.051506042 0.0030000000 0.4492999911 2.1317000389 4.1779999733 78.965599060 145.91050720  -999.250000 0.7210000157 0.6568999887
 1568.0924072 5.0000000000 12.773300171 12.250000954 50.034778595 0.0006000000 0.4214000106 2.1429998875 4.0029997826 81.906700134 147.00030518  -999.250000 0.6603000164 0.5295000076
 1568.2448730 6.0000000000 12.647800446 12.250000954 50.130905151 -0.006800000 0.4201000035 2.1387000084 3.7555999756 87.543800354 148.99450684  -999.250000 0.6912000179 0.5597000122
 1568.3972168 6.0000000000 12.692399979 12.250000954 48.397968292 -0.005300000 0.4318000078 2.1456999779 3.8276998997 90.603698730 149.88697815  -999.250000 0.6718999743 0.5390999913
 1568.5496826 6.0000000000 12.656700134 12.250000954 46.171916962 0.0023000001 0.4431000054 2.1568999290 3.9632000923 91.086502075 149.35290527  -999.250000 0.6389999986 0.4718999863
 1568.7020264 6.0000000000 12.587500572 12.250000954 46.116142273 0.0062000002 0.4492000043 2.1607000828 4.0910000801 88.758102417 147.68919373  -999.250000 0.6851999760 0.5580999851
 1568.8543701 6.0000000000 12.580200195 12.250000954 46.449802399 0.0065000001 0.4417000115 2.1549000740 4.1174001694 82.693901062 146.42860413  -999.250000 0.6304000020 0.4756000042
 1569.0068359 5.0000000000 12.950799942 12.250000954 46.577098846 -0.001700000 0.4329000115 2.1421999931 3.9876999855 84.539596558 146.51409912  -999.250000 0.6789000034 0.5497000217
 1569.1591797 5.0000000000 12.604700089 12.250000954 41.042980194 -0.005000000 0.4338999987 2.1412000656 3.9598999023 89.088600159 148.21380615  -999.250000 0.6570000052 0.5217000246
 1569.3116455 5.0000000000 12.859600067 12.250000954 40.996391296 -0.010300000 0.4259999990 2.1424002647 3.9895999432 82.846199036 149.93168640  -999.250000 0.6470999718 0.5059999824
 1569.4639893 5.0000000000 12.805198669 12.250000954 39.092193604 -0.007000000 0.4478999972 2.1484999657 4.1163997650 77.561897278 150.63749695  -999.250000 0.6495000124 0.5202999711
 1569.6164551 5.0000000000 12.676300049 12.250000954 49.265419006 -0.000400000 0.4503999949 2.1535000801 4.3126997948 82.534301758 151.59129333  -999.250000 0.6309000254 0.4982999861
 1569.7687988 5.0000000000 12.603099823 12.250000954 51.095474243 0.0052999998 0.4690999985 2.1531999111 4.3207998276 90.692802429 152.20150757  -999.250000 0.6455000043 0.5178999901
 1569.9212646 5.0000000000 12.957098961 12.250000954 53.479003906 0.0057000001 0.4620000124 2.1452000141 4.3822999001 93.422203064 152.09880066  -999.250000 0.6438000202 0.5152000189
 1570.0736084 5.0000000000 12.538000107 12.250000954 54.271652222 0.0041000000 0.4519000053 2.1498000622 4.2390999794 91.543197632 151.10429382  -999.250000 0.6538000107 0.5360000134
 1570.2260742 5.0000000000 12.580200195 12.250000954 53.987201691 0.0035000001 0.4494999945 2.1491999626 4.1975998878 87.922500610 150.07139587  -999.250000 0.6035000086 0.4699000120
 1570.3784180 5.0000000000 12.597800255 12.250000954 54.638450623 0.0077999998 0.4449999928 2.1579999924 4.2322998047 82.333702087 148.99719238  -999.250000 0.6546999812 0.5370000005
 1570.5308838 5.0000000000 12.556699753 12.250000954 53.977035522 0.0041999999 0.4756999910 2.1410000324 4.1992001534 81.210403442 148.16279602  -999.250000 0.6302000284 0.5049999952
 1570.6832275 5.0000000000 12.547800064 12.250000954 64.276573181 0.0041999999 0.4729999900 2.1417996883 4.1182999611 84.216499329 148.45370483  -999.250000 0.6173999906 0.4921999872
 1570.8355713 5.0000000000 12.538999557 12.250000954 63.772636414 -0.000100000 0.4684000015 2.1387000084 3.9746999741 84.054199219 149.40159607  -999.250000 0.6607999802 0.5256999731
 1570.9880371 5.0000000000 12.574299812 12.250000954 68.499343872 -0.002300000 0.4708000124 2.1317000389 3.9572000504 83.193801880 150.03089905  -999.250000 0.6510000229 0.5260000229
 1571.1403809 5.0000000000 12.588000298 12.250000954 69.416015625 -0.003400000 0.4808999896 2.1333000660 3.9200000763 83.762702942 150.15490723  -999.250000 0.5710999966 0.4352999926
 1571.2928467 6.0000000000 12.551799774 12.250000954 67.446853638 -0.002300000 0.4912000000 2.1454999447 3.8290998936 84.606399536 150.16889954  -999.250000 0.5830000043 0.4614000022
 1571.4451904 6.0000000000 12.692899704 12.250000954 66.354003906 -0.008300000 0.4837000072 2.1368999481 3.6554000378 88.141601563 149.75321960  -999.250000 0.6911000013 0.5601999760
 1571.5976563 6.0000000000 12.641999245 12.250000954 69.423233032 -0.007600000 0.4963000119 2.1456999779 3.7704999447 90.522003174 148.89649963  -999.250000 0.6972000003 0.5680000186
 1571.7500000 6.0000000000 12.668399811 12.250000954 68.015419006 -0.003200000 0.4796999991 2.1681001186 3.8499000072 89.448799133 148.05430603  -999.250000 0.7074999809 0.6018999815
 1571.9024658 6.0000000000 12.657600403 12.250000954 66.753936768 0.0011000000 0.4801999927 2.1677000523 4.1201000214 88.895500183 147.76890564  -999.250000 0.6741999984 0.5591999888
 1572.0548096 6.0000000000 12.584099770 12.250000954 67.115486145 0.0041000000 0.4634000063 2.1726999283 4.2189998627 89.445098877 148.16720581  -999.250000 0.6863999963 0.5794000030
 1572.2072754 6.0000000000 12.865500450 12.250000954 65.468833923 0.0037000000 0.4787000120 2.1691000462 4.3386998177 88.137901306 148.36889648  -999.250000 0.6783000231 0.5526000261
 1572.3596191 5.0000000000 12.583100319 12.250000954 65.833992004 0.0068999999 0.4778000116 2.1682999134 4.4932999611 83.655700684 147.87080383  -999.250000 0.6521999836 0.5339000225
 1572.5120850 5.0000000000 13.129699707 12.250000954 64.996063232 0.0097000012 0.4702999890 2.1591000557 4.7378997803 82.998497009 147.29479980  -999.250000 0.6687999964 0.5515000224
 1572.6644287 5.0000000000 12.866199493 12.250000954 60.730316162 0.0129000004 0.4751999974 2.1593999863 4.8428997993 87.844596863 148.12519836  -999.250000 0.6952000260 0.5630000234
 1572.8168945 6.0000000000 12.538000107 12.250000954 56.335300446 0.0115000000 0.4508000016 2.1537001133 4.9047999382 90.874801636 149.76710510  -999.250000 0.6870999932 0.5486999750
 1572.9692383 6.0000000000 12.736100197 12.250000954 56.583988190 0.0051000002 0.4803000093 2.1549999714 4.6683001518 93.281097412 149.86059570  -999.250000 0.6693000197 0.5654000044
 1573.1215820 6.0000000000 12.640000343 12.250000954 34.848426819 0.0022000000 0.4767999947 2.1505999565 4.4868001938 94.629096985 148.42260742  -999.250000 0.7131999731 0.6079000235
