# LAS format log file from PETREL
# Project units are specified as depth units
#==================================================================
~Version information
VERS.   2.0:
WRAP.   NO:
#==================================================================
~Well
STRT .m      684.17242432 :
STOP .m      2208.3249512 :
STEP .m     0.00000000 :
NULL .        -999.250000 :
COMP.           : COMPANY
WELL.  16/2-16   : WELL
FLD.            : FIELD
LOC.            : LOCATION
SRVC.           : SERVICE COMPANY
DATE.  2018-09-11 14:48:07   : Log Export Date {yyyy-MM-dd HH:mm:ss}
PROV.           : PROVINCE
UWI.   16/2-16   : UNIQUE WELL ID
API.            : API NUMBER
#==================================================================
~Curve
DEPT .m                   : DEPTH
Lithology_geolink ._      : Lithology_geolink
CALI .in                  : CALI
BS .in                    : BS
ROP .m/h                  : ROP
DRHO .g/cm3               : DRHO
THOR .ppm                 : THOR
NPHI .m3/m3               : NPHI
RHOB .g/cm3               : RHOB
PEF .b/e                  : PEF
GR .gAPI                  : GR
URAN .ppm                 : URAN
DTC .us/ft                : DTC
DTS .us/ft                : DTS
RDEP .ohm.m               : RDEP
RMED .ohm.m               : RMED
~Parameter
#==================================================================
~Ascii
# ...
 1088.3372803  -999.250000 12.515000343 12.250000954 75.426841736 0.0007000000  -999.250000 0.5026999712 2.0703001022 3.1361000538 115.33170319  -999.250000 146.81300354  -999.250000 1.1832873821 1.1776000261
 1088.4896240  -999.250000 12.424599648 12.250000954 77.632217407 -0.003500000  -999.250000 0.4955999851 2.0585999489 3.1937999725 116.49919891  -999.250000 147.40759277  -999.250000 1.1675071716 1.1727000475
 1088.6420898  -999.250000 12.305601120 12.250000954 84.075790405 0.0024000001  -999.250000 0.4751000106 2.0464000702 3.8029000759 118.08119965  -999.250000 147.21240234  -999.250000 1.1764386892 1.1746000051
 1088.7944336  -999.250000 12.621998787 12.250000954 95.397636414 0.0018000000  -999.250000 0.4467999935 2.0383999348 3.9498000145 117.02279663  -999.250000 147.01280212  -999.250000 1.2247987986 1.2042000294
 1088.9467773  -999.250000 12.439599991 12.250000954 102.81790924 0.0012000001  -999.250000 0.4463000000 2.0306999683 3.7718999386 112.34220123  -999.250000 146.57490540  -999.250000 1.2232999802 1.2072000504
 1089.0992432  -999.250000 12.277299881 12.250000954 110.64994049 -0.000400000  -999.250000 0.4618000090 2.0225000381 3.7223000526 110.96389771  -999.250000 146.53019714  -999.250000 1.2112077475 1.2014000416
 1089.2515869  -999.250000 12.282799721 12.250000954 115.51148987 0.0016000000  -999.250000 0.5514000058 2.0148000717 3.8740000725 115.82270050  -999.250000 146.55599976  -999.250000 1.2209000587 1.2069000006
 1089.4040527  -999.250000 12.318500519 12.250000954 117.84809875 0.0062000002  -999.250000 0.5939999819 2.0176999569 3.7994000912 117.63379669  -999.250000 146.57220459  -999.250000 1.2560038567 1.2403000593
 1089.5563965  -999.250000 12.376999855 12.250000954 133.46556091 0.0031999999  -999.250000 0.5839999914 2.0132999420 3.6809999943 115.02259827  -999.250000 145.85560608  -999.250000 1.2606999874 1.2434999943
 1089.7088623  -999.250000 12.415399551 12.250000954 136.52690125 -0.001400000  -999.250000 0.5235999823 2.0081000328 3.5174000263 113.16049957  -999.250000 144.95170593  -999.250000 1.3509469032 1.3301000595
 1089.8612061  -999.250000 12.365999222 12.250000954 134.62072754 -0.005900000  -999.250000 0.4979000092 1.9952000380 3.4811000824 113.09510040  -999.250000 144.49969482  -999.250000 1.4093999863 1.3895000219
 1090.0136719  -999.250000 12.309300423 12.250000954 129.37696838 -0.002500000  -999.250000 0.4656000137 1.9872000217 3.7160000801 115.80090332  -999.250000 144.05290222  -999.250000 1.4500999451 1.4407999516
 1090.1660156  -999.250000 12.324799538 12.250000954 124.71260834 0.0001000000  -999.250000 0.4573000073 1.9876999855 3.4590001106 120.38330078  -999.250000 143.54119873  -999.250000 1.4500999451 1.4407999516
 1090.3184814  -999.250000 12.352399826 12.250000954 116.19094849 0.0044000000  -999.250000 0.4611000121 2.0067000389 3.3447999954 121.72530365  -999.250000 143.40609741  -999.250000 1.4717010260 1.4558000565
 1090.4708252  -999.250000 12.368699074 12.250000954 114.54135132 0.0002000000  -999.250000 0.4783999920 2.0032999516 3.3773999214 122.07990265  -999.250000 144.10659790  -999.250000 1.4729843140 1.4562000036
 1090.6232910  -999.250000 12.356900215 12.250000954 110.02788544 0.0052999998  -999.250000 0.5121999979 2.0006000996 3.8013000488 124.68199921  -999.250000 144.31520081  -999.250000 1.4532849789 1.4375000000
 1090.7756348  -999.250000 12.433799744 12.250000954 104.58956909 -0.001900000  -999.250000 0.4943000078 1.9887000322 3.8896000385 126.85870361  -999.250000 144.88909912  -999.250000 1.3098000288 1.3064999580
 1090.9279785  -999.250000 12.516000748 12.250000954 97.731956482 -0.005700000  -999.250000 0.5195000172 2.0211000443 3.7232999802 128.80619812  -999.250000 144.85310364  -999.250000 1.3098000288 1.3064999580
 1091.0804443  -999.250000 12.727199554 12.250000954 99.341209412 -0.014500000  -999.250000 0.4900000095 2.0650999546 3.4210000038 129.61349487  -999.250000 143.67999268  -999.250000 1.2437973022 1.2329000235
 1091.2327881  -999.250000 12.526900291 12.250000954 106.03806305 -0.011300000  -999.250000 0.4828999937 2.0948998928 3.6565999985 128.87159729  -999.250000 141.70309448  -999.250000 1.2403999567 1.2316000462
 1091.3852539  -999.250000 12.651599884 12.250000954 115.40518188 -0.004400000  -999.250000 0.4598000050 2.1375000477 3.8239998817 124.13649750  -999.250000 140.34210205  -999.250000 1.1998000145 1.1791000366
 1091.5375977  -999.250000 12.725299835 12.250000954 124.46325684 -0.001300000  -999.250000 0.4665000141 2.1329998970 3.5734000206 115.40809631  -999.250000 140.34440613  -999.250000 1.1998000145 1.1791000366
 1091.6900635  -999.250000 12.679599762 12.250000954 129.13681030 0.0063000000  -999.250000 0.4731999934 2.1150999069 3.2204999924 107.26889801  -999.250000 140.41690063  -999.250000 0.9824000001 0.9678000212
 1091.8424072  -999.250000 12.691900253 12.250000954 132.97474670 -0.005300000  -999.250000 0.4444000125 2.0750999451 2.7291998863 96.140197754  -999.250000 141.89460754  -999.250000 0.9824000001 0.9678000212
 1091.9948730  -999.250000 12.701600075 12.250000954 129.29266357 0.0017000000  -999.250000 0.4004000127 2.1057999134 4.5591998100 83.735000610  -999.250000 143.14030457  -999.250000 0.9320783615 0.9297999740
 1092.1472168  -999.250000 12.364199638 12.250000954 129.94192505 0.0018000000  -999.250000 0.3472000062 2.0710000992 4.1065001488 75.144798279  -999.250000 143.54699707  -999.250000 0.9050999880 0.9029999971
 1092.2996826  -999.250000 12.375399590 12.250000954 133.68011475 0.0018000000  -999.250000 0.3336000144 2.0578000546 3.7232000828 71.376998901  -999.250000 144.02459717  -999.250000 0.9121218920 0.9016000032
 1092.4520264  -999.250000 12.397100449 12.250000954 140.70307922 0.0043000001  -999.250000 0.3362999856 2.0573000908 4.3013000488 77.643302917  -999.250000 145.57460022  -999.250000 0.9394000173 0.9204999804
 1092.6044922  -999.250000 12.369999886 12.250000954 143.94029236 0.0020000001  -999.250000 0.4050999880 2.0473001003 4.2494001389 91.415901184  -999.250000 145.38099670  -999.250000 0.9960235357 0.9692000151
 1092.7568359  -999.250000 12.354999542 12.250000954 140.02886963 0.0015000000  -999.250000 0.4708000124 2.0690000057 4.0272002220 98.736900330  -999.250000 145.57629395  -999.250000 1.0253485441 1.0149999857
 1092.9093018  -999.250000 12.578100204 12.250000954 131.78805542 -0.000400000  -999.250000 0.4785000086 2.0752000809 3.7916998863 91.143203735  -999.250000 145.59410095  -999.250000 0.9610741138 0.9585000277
 1093.0616455  -999.250000 12.403200150 12.250000954 132.31364441 -0.001600000  -999.250000 0.3851999938 2.0620000362 3.3078000546 81.378303528  -999.250000 147.36709595  -999.250000 0.9288142323 0.9131000042
 1093.2139893  -999.250000 12.440099716 12.250000954 74.314636230 -0.003400000  -999.250000 0.4016999900 2.0662999153 3.1545999050 86.015296936  -999.250000 147.70449829  -999.250000 0.9466000199 0.9574000239
 1093.3664551  -999.250000 12.420000076 12.250000954 75.913383484 -0.002200000  -999.250000 0.4718999863 2.0796000957 3.2367999554 90.405601501  -999.250000 147.36849976  -999.250000 0.9831130505 0.9883000255
 1093.5187988  -999.250000 12.406200409 12.250000954 76.971458435 0.0010000000  -999.250000 0.4636999965 2.0901999474 3.3824999332 93.017601013  -999.250000 147.44169617  -999.250000 0.9994000196 1.0026999712
 1093.6712646  -999.250000 12.555299759 12.250000954 77.024604797 0.0013000000  -999.250000 0.4343999922 2.0968999863 3.4363000393 90.689300537  -999.250000 147.06030273  -999.250000 0.9851944447 0.9799000025
 1093.8236084  -999.250000 12.357799530 12.250000954 77.500328064 0.0059000002  -999.250000 0.4063999951 2.1229000092 3.4906001091 91.110496521  -999.250000 147.85980225  -999.250000 0.9782999754 0.9646999836
 1093.9760742  -999.250000 12.394300461 12.250000954 75.672241211 0.0062000002  -999.250000 0.4124999940 2.1235001087 3.4902000427 95.125503540  -999.250000 148.75880432  -999.250000 0.9252794385 0.9355000257
 1094.1284180  -999.250000 12.380599976 12.250000954 77.235237122 0.0019000000  -999.250000 0.4379999936 2.1033999920 3.3629999161 94.699996948  -999.250000 148.49110413  -999.250000 0.8996000290 0.9014000297
