# LAS format log file from PETREL
# Project units are specified as depth units
#==================================================================
~Version information
VERS.   2.0:
WRAP.   NO:
#==================================================================
~Well
STRT .m      735.07409668 :
STOP .m      2124.0476074 :
STEP .m     0.00000000 :
NULL .        -999.250000 :
COMP.           : COMPANY
WELL.  16/2-6   : WELL
FLD.            : FIELD
LOC.            : LOCATION
SRVC.           : SERVICE COMPANY
DATE.  2018-09-11 14:48:07   : Log Export Date {yyyy-MM-dd HH:mm:ss}
PROV.           : PROVINCE
UWI.   16/2-6   : UNIQUE WELL ID
API.            : API NUMBER
#==================================================================
~Curve
DEPT .m                   : DEPTH
Lithology_geolink ._      : Lithology_geolink
CALI .in                  : CALI
BS .in                    : BS
ROP .m/h                  : ROP
DRHO .g/cm3               : DRHO
NPHI .m3/m3               : NPHI
RHOB .g/cm3               : RHOB
PEF .b/e                  : PEF
GR .gAPI                  : GR
DTC .us/ft                : DTC
DTS .us/ft                : DTS
RDEP .ohm.m               : RDEP
RMED .ohm.m               : RMED
~Parameter
#==================================================================
~Ascii
# ...
 828.95245361  -999.250000 12.379199028 12.250000954 75.078086853 -0.012296556 0.3786000013 2.1394598484 3.3575596809 92.508697510 133.00491333  -999.250000 0.7781177163 0.7447999716
 829.10485840  -999.250000 12.381699562 12.250000954 80.603347778 -0.007995996 0.3680999875 2.0895800591 3.8065350056 77.751296997 136.51000977  -999.250000 0.8002572656 0.7113000154
 829.25726318  -999.250000 12.383099556 12.250000954 85.748359680 -0.003003284 0.3592999876 2.0646948814 4.0996732712 68.883499146 139.76907349  -999.250000 0.8717163801 0.6984000206
 829.40960693  -999.250000 12.534099579 12.250000954 75.292648315 -0.007101322 0.3932000101 2.0585017204 3.9411799908 69.640998840 141.98100281  -999.250000 0.8921741843 0.6844000220
 829.56201172  -999.250000 12.503800392 12.250000954 75.028869629 -0.010402403 0.4081999958 2.0624959469 3.6415989399 69.447898865 142.47084045  -999.250000 0.8277024031 0.6496999860
 829.71441650  -999.250000 12.422300339 12.250000954 75.352035522 -0.016399078 0.3948000073 2.0520994663 3.3890752792 62.759899139 141.57159424  -999.250000 0.8335956335 0.6543999910
 829.86682129  -999.250000 12.454600334 12.250000954 78.330711365 -0.014103284 0.3361000121 2.0510971546 3.3271925449 63.766201019 140.55117798  -999.250000 0.8227053285 0.6219999790
 830.01922607  -999.250000 12.494899750 12.250000954 83.356300354 -0.022300281 0.3316999972 2.0442016125 3.0590717793 66.621902466 140.50079346  -999.250000 0.8358724117 0.5952000022
 830.17163086  -999.250000 12.456000328 12.250000954 89.647308350 -0.023003165 0.3366999924 2.0484957695 2.9890856743 63.684600830 140.48284912  -999.250000 0.7669868469 0.5661000013
 830.32403564  -999.250000 12.413599968 12.250000954 91.864501953 -0.030895595 0.3409999907 2.0377054214 2.9532146454 62.124900818 141.09451294  -999.250000 0.7341103554 0.5497999787
 830.47644043  -999.250000 12.390000343 12.250000954 86.135169983 -0.019898597 0.3181000054 2.0514013767 3.2394368649 59.673999786 141.64312744  -999.250000 0.7600104213 0.5640000105
 830.62884521  -999.250000 12.389399529 12.250000954 90.161087036 -0.016396636 0.3005999923 2.0549073219 3.3317127228 54.690498352 141.94740295  -999.250000 0.7860074043 0.5906999707
 830.78125000  -999.250000 12.388999939 12.250000954 94.645339966 -0.008002203 0.3115999997 2.0730969906 3.3633196354 52.870800018 142.43673706  -999.250000 0.8043965697 0.6065999866
 830.93365479  -999.250000 12.366600037 12.250000954 124.83039856 -0.013500801 0.3282000124 2.0652024746 3.1624469757 59.339527130 142.01745605  -999.250000 0.7957268357 0.6146000028
 831.08605957  -999.250000 12.338000298 12.250000954 135.07020569 -0.015500721 0.3427000046 2.0709140301 3.0302541256 68.146522522 140.92994690  -999.250000 0.8631380200 0.6517999768
 831.23846436  -999.250000 12.746899605 12.250000954 141.91241455 -0.016399920 0.3291000128 2.0884068012 2.9731907845 75.418060303 138.00329590  -999.250000 1.5342881680 1.0170999765
 831.39086914  -999.250000 12.512599945 12.250000954 132.56398010 -0.016297838 0.3402999938 2.0970189571 3.0864293575 87.857063293 135.37783813  -999.250000 1.5194067955 1.1510000229
 831.54321289  -999.250000 12.444299698 12.250000954 113.88024902 -0.013602243 0.3438999951 2.1207945347 3.1229956150 94.176025391 135.04594421  -999.250000 1.2783844471 1.0688999891
 831.69561768  -999.250000 12.380200386 12.250000954 108.68142700 -0.019200202 0.3553000093 2.1069045067 3.1121873856 84.746925354 135.91651917  -999.250000 1.2396874428 1.1705000401
 831.84802246  -999.250000 12.436599731 12.250000954 104.00459290 -0.019700041 0.3542999923 2.1184935570 3.0808110237 74.075187683 137.21443176  -999.250000 1.2085270882 1.1898000240
 832.00042725  -999.250000 12.478199959 12.250000954 134.21160889 -0.019799318 0.3609000146 2.1024990082 3.1079404354 74.796920776 136.80142212  -999.250000 1.5260900259 1.4694000483
 832.15283203  -999.250000 12.449199677 12.250000954 129.00524902 -0.018097358 0.3704999983 2.1003103256 3.2094280720 88.080780029 133.38140869  -999.250000 2.2500851154 1.8456000090
 832.30523682  -999.250000 12.421400070 12.250000954 111.02198029 -0.011500721 0.3763000071 2.1259074211 3.2797455788 103.01289368 130.40281677  -999.250000 2.2131910324 1.8417999744
 832.45764160  -999.250000 12.417301178 12.250000954 93.465881348 -0.013297277 0.3700999916 2.1444208622 3.3934886456 109.00051880 125.95729828  -999.250000 2.1902947426 1.9114999771
 832.61004639  -999.250000 12.412199974 12.250000954 84.078735352 -0.006500000 0.3752999902 2.1969051361 3.3649203777 109.30214691 125.44046021  -999.250000 2.1770968437 1.9759999514
 832.76245117  -999.250000 12.404700279 12.250000954 80.570533752 -0.006501362 0.3765999973 2.2100040913 3.4152357578 111.91419983 126.33746338  -999.250000 2.1693248749 1.9531999826
 832.91485596  -999.250000 12.394800186 12.250000954 81.823493958 -0.009900561 0.4018999934 2.2201986313 3.2552897930 118.16722107 127.25765991  -999.250000 2.2313573360 1.9914000034
 833.06726074  -999.250000 12.382199287 12.250000954 88.243438721 -0.011300441 0.3853999972 2.2164993286 3.2298004627 122.96401215 128.63858032  -999.250000 2.1249973774 1.8851000071
 833.21966553  -999.250000 12.388999939 12.250000954 88.417327881 -0.012396556 0.3729999959 2.2148082256 3.2308976650 125.24478149 130.58126831  -999.250000 2.1186964512 1.8517999649
 833.37207031  -999.250000 12.377600670 12.250000954 93.022315979 -0.008099920 0.3610000014 2.2252011299 3.3529319763 127.21606445 132.29269409  -999.250000 2.1141901016 1.8644000292
 833.52447510  -999.250000 12.401800156 12.250000954 82.946189880 -0.007999680 0.3867000043 2.2266016006 3.3929371834 128.41853333 133.14669800  -999.250000 2.1016647816 1.8170000315
 833.67681885  -999.250000 12.399800301 12.250000954 74.152557373 -0.007599840 0.4287999868 2.2287011147 3.4392950535 128.84248352 134.12915039  -999.250000 2.0575723648 1.8113000393
 833.82922363  -999.250000 12.390999794 12.250000954 75.736221313 -0.007201402 0.4420999885 2.2313959599 3.4266953468 131.07025146 133.76739502  -999.250000 1.9885026217 1.7529000044
 833.98162842  -999.250000 12.396900177 12.250000954 80.704071045 -0.010700361 0.4320999980 2.2214987278 3.4148852825 132.43266296 134.49436951  -999.250000 1.9949661493 1.7831000090
 834.13403320  -999.250000 12.435099602 12.250000954 85.254592896 -0.011599760 0.4523999989 2.2185962200 3.3778851032 132.86790466 135.92103577  -999.250000 1.9104850292 1.6706000566
 834.28643799  -999.250000 12.371400833 12.250000954 84.851051331 -0.010998879 0.4498000145 2.2090010643 3.3407700062 135.11984253 137.52182007  -999.250000 1.8729900122 1.6382999420
 834.43884277  -999.250000 12.358599663 12.250000954 82.988845825 -0.008200200 0.4693999887 2.2116005421 3.2656476498 132.01013184 138.06001282  -999.250000 1.8480648994 1.6331000328
 834.59124756  -999.250000 12.446900368 12.250000954 82.047897339 -0.008699720 0.4842000008 2.2128036022 3.1345715523 125.09969330 140.58992004  -999.250000 2.0098080635 1.7977000475
 834.74365234  -999.250000 12.433099747 12.250000954 81.169616699 -0.007999840 0.5056999922 2.2214989662 3.0639126301 128.33245850 141.37594604  -999.250000 2.0299158096 1.7796000242
 834.89605713  -999.250000 12.538999557 12.250000954 80.723426819 -0.007600961 0.5192000270 2.2190964222 3.0952043533 136.72508240 144.01110840  -999.250000 2.0692057610 1.8353999853
 835.04846191  -999.250000 12.508600235 12.250000954 82.712928772 -0.009999920 0.4553999901 2.2101969719 3.1061480045 136.20751953 142.01316833  -999.250000 2.0833525658 1.8487000465
 835.20086670  -999.250000 12.531200409 12.250000954 90.038055420 -0.009798478 0.4641999900 2.2030017376 3.2256975174 132.03392029 139.17997742  -999.250000 1.9647588730 1.7782000303
 835.35327148  -999.250000 12.400800705 12.250000954 89.728675842 -0.007894713 0.4259000123 2.2050046921 3.2227845192 130.43721008 139.26147461  -999.250000 1.9135266542 1.6714999676
 835.50567627  -999.250000 12.427300453 12.250000954 91.527885437 -0.001302163 0.4189999998 2.2111005783 3.4527897835 128.95945740 133.61126709  -999.250000 1.9469739199 1.6859999895
