# LAS format log file from PETREL
# Project units are specified as depth units
#==================================================================
~Version information
VERS.   2.0:
WRAP.   NO:
#==================================================================
~Well
STRT .m      735.07409668 :
STOP .m      2124.0476074 :
STEP .m     0.00000000 :
NULL .        -999.250000 :
COMP.           : COMPANY
WELL.  16/2-6   : WELL
FLD.            : FIELD
LOC.            : LOCATION
SRVC.           : SERVICE COMPANY
DATE.  2018-09-11 14:48:07   : Log Export Date {yyyy-MM-dd HH:mm:ss}
PROV.           : PROVINCE
UWI.   16/2-6   : UNIQUE WELL ID
API.            : API NUMBER
#==================================================================
~Curve
DEPT .m                   : DEPTH
Lithology_geolink ._      : Lithology_geolink
CALI .in                  : CALI
BS .in                    : BS
ROP .m/h                  : ROP
DRHO .g/cm3               : DRHO
NPHI .m3/m3               : NPHI
RHOB .g/cm3               : RHOB
PEF .b/e                  : PEF
GR .gAPI                  : GR
DTC .us/ft                : DTC
DTS .us/ft                : DTS
RDEP .ohm.m               : RDEP
RMED .ohm.m               : RMED
~Parameter
#==================================================================
~Ascii
# ...
 916.12524414  -999.250000 12.371400833 12.250000954 82.642631531 0.0012036044 0.4388000071 2.0165112019 3.2110219002 118.71297455 144.99539185  -999.250000 1.8635094166 1.5814000368
 916.27764893  -999.250000 12.365599632 12.250000954 82.418151855 0.0102015622 0.4884000123 2.0444054604 3.2655224800 113.91295624 144.46099854  -999.250000 1.8870829344 1.5967999697
 916.43005371  -999.250000 12.360099792 12.250000954 82.033843994 0.0140973972 0.4686000049 2.0581943989 3.3213069439 113.05706024 145.44155884  -999.250000 1.8445794582 1.5741000175
 916.58245850  -999.250000 12.354701042 12.250000954 82.142562866 0.0075981179 0.4650000036 2.0445866585 3.3387796879 116.95584869 146.59671021  -999.250000 1.7932419777 1.5442999601
 916.73486328  -999.250000 12.359600067 12.250000954 83.403556824 0.0028993192 0.4846999943 2.0110905170 3.5375015736 119.82367706 147.63673401  -999.250000 1.6483870745 1.5635000467
 916.88726807  -999.250000 12.364400864 12.250000954 86.725189209 0.0012002804 0.5248000026 1.9870046377 3.5415554047 116.02031708 146.99761963  -999.250000 1.8654909134 1.6162999868
 917.03967285  -999.250000 12.370400429 12.250000954 87.033157349 0.0018989989 0.6460000277 1.9987083673 3.4300959110 110.33335114 146.03237915  -999.250000 1.8428382874 1.5647000074
 917.19207764  -999.250000 12.376800537 12.250000954 87.079391479 -0.000601843 0.6500999928 2.0194046497 3.1702883244 109.94813538 145.23213196  -999.250000 1.9382833242 1.6405999660
 917.34448242  -999.250000 12.387999535 12.250000954 84.597908020 -0.005201201 0.6462000012 2.0311970711 3.1413502693 112.03269196 144.32655334  -999.250000 1.8966181278 1.5753999949
 917.49688721  -999.250000 12.388699532 12.250000954 84.355674744 -0.006700320 0.5123000145 2.0276026726 3.2041394711 114.63874817 144.38920593  -999.250000 1.7945020199 1.5281000137
 917.64929199  -999.250000 12.390000343 12.250000954 81.932846069 -0.007102883 0.5006999969 2.0309031010 3.2534058094 116.19599152 144.77191162  -999.250000 1.7969743013 1.4917999506
 917.80163574  -999.250000 12.392700195 12.250000954 80.430236816 -0.010700161 0.4876999855 2.0346965790 3.1360132694 114.81527710 145.66229248  -999.250000 1.7648620605 1.4967000484
 917.95404053  -999.250000 12.397199631 12.250000954 81.545257568 -0.011098919 0.5727000237 2.0261938572 3.1695339680 113.76962280 146.64627075  -999.250000 1.6700754166 1.4333000183
 918.10644531  -999.250000 12.402699471 12.250000954 83.154968262 -0.008399239 0.6317999959 2.0109841824 3.2539017200 116.57629395 147.84281921  -999.250000 1.6088937521 1.3108999729
 918.25885010  -999.250000 12.393600464 12.250000954 85.073112488 -0.006499960 0.7670000196 1.9715909958 3.5078504086 117.56626129 149.13090515  -999.250000 1.5934755802 1.3795000315
 918.41125488  -999.250000 12.381799698 12.250000954 86.591468811 -0.006401922 0.5956000090 1.9489853382 3.3839628696 114.72773743 148.90811157  -999.250000 1.5324068069 1.2518999577
 918.56365967  -999.250000 12.370400429 12.250000954 89.691665649 -0.011200560 0.4988999963 1.9123985767 3.2911326885 117.55829620 149.45437622  -999.250000 1.5495015383 1.2973999977
 918.71606445  -999.250000 12.369099617 12.250000954 89.026443481 -0.012600561 0.4498000145 1.9088997841 3.1236011982 122.54631042 149.65869141  -999.250000 1.5534933805 1.2774000168
 918.86846924  -999.250000 12.367500305 12.250000954 91.984153748 -0.014001562 0.4724000096 1.9084013700 3.1266603470 120.31909180 149.12057495  -999.250000 1.5367810726 1.2603000402
 919.02087402  -999.250000 12.359600067 12.250000954 93.372329712 -0.017900079 0.4702999890 1.9117012024 3.0281064510 120.31069946 150.28385925  -999.250000 1.4894810915 1.2826000452
 919.17327881  -999.250000 12.368201256 12.250000954 94.069839478 -0.018100442 0.5112000108 1.9147992134 3.0440838337 127.04943848 150.68257141  -999.250000 1.4421808720 1.2180999517
 919.32568359  -999.250000 12.383099556 12.250000954 96.430557251 -0.019197596 0.5583000183 1.9126982689 3.0036656857 130.64541626 149.12829590  -999.250000 1.3945003748 1.1534999609
 919.47808838  -999.250000 12.374600410 12.250000954 95.906929016 -0.013197437 0.6351000071 1.9080977440 3.1676762104 128.43838501 150.12145996  -999.250000 1.3955186605 1.1670000553
 919.63049316  -999.250000 12.368398666 12.250000954 96.849533081 -0.009998959 0.5658804774 1.9052878618 3.1378500462 125.78846741 149.31912231  -999.250000 1.4189304113 1.1813000441
 919.78277588  -999.250000 12.365099907 12.250000954 95.773948669 -0.008700000 0.5414999723 1.8901000023 3.2002999783 124.99810028 149.71910095  -999.250000 1.4569000006 1.2022831440
 919.93518066  -999.250000 12.362499237 12.250000954 92.992782593 -0.012300000 0.5225999951 1.8856999874 3.1231000423 120.43049622 149.29550171  -999.250000 1.4548000097 1.2230916023
 920.08758545  -999.250000 12.376999855 12.250000954 88.373031616 -0.013900000 0.5425000191 1.8834999800 3.0987999439 112.86609650 148.73849487  -999.250000 1.4919999838 1.2395933867
 920.23999023  -999.250000 12.394901276 12.250000954 87.091865540 -0.015500000 0.5370000005 1.8896000385 3.0030000210 110.69370270 148.10279846  -999.250000 1.4859999418 1.2116111517
 920.39239502  -999.250000 12.391799927 12.250000954 84.185691833 -0.013100000 0.5062999725 1.8832999468 3.0608000755 114.60399628 147.45869446  -999.250000 1.4866000414 1.2387892008
 920.54479980  -999.250000 12.387399673 12.250000954 83.397636414 -0.014200000 0.5117999911 1.8747999668 3.0827999115 121.35520172 147.16369629  -999.250000 1.4850000143 1.2462970018
 920.69720459  -999.250000 12.385100365 12.250000954 84.905189514 -0.008500000 0.5526000261 1.8801000118 3.0912001133 124.90899658 147.14120483  -999.250000 1.5351999998 1.3289668560
 920.84960938  -999.250000 12.364000320 12.250000954 84.540359497 -0.012800000 0.5838000178 1.8838000298 2.8793001175 120.85379791 147.49710083  -999.250000 1.5520999432 1.2962131500
 921.00201416  -999.250000 12.355699539 12.250000954 83.890747070 -0.012000000 0.6255999804 1.8760000467 2.8612000942 115.51750183 148.04730225  -999.250000 1.5650000572 1.3147926331
 921.15441895  -999.250000 12.422399521 12.250000954 80.707023621 -0.017100001 0.6208000183 1.8598999977 2.8498001099 114.72660065 147.58299255  -999.250000 1.5594999790 1.3216972351
 921.30682373  -999.250000 12.413500786 12.250000954 79.762802124 -0.019700000 0.6651999950 1.8489999771 2.8294000626 118.14669800 148.29400635  -999.250000 1.5461000204 1.3214001656
 921.45922852  -999.250000 12.437801361 12.250000954 80.016731262 -0.020700000 0.5985999703 1.8486000299 2.7311999798 120.84269714 148.38710022  -999.250000 1.5192999840 1.2907122374
 921.61157227  -999.250000 12.492899895 12.250000954 79.135498047 -0.019500000 0.5600000024 1.8552000523 2.7314999104 119.34989929 148.71560669  -999.250000 1.5300999880 1.2894010544
 921.76397705  -999.250000 12.479200363 12.250000954 81.098426819 -0.013200000 0.5613999963 1.8733999729 2.7832999229 115.33930206 149.32310486  -999.250000 1.4298000336 1.2796078920
 921.91638184  -999.250000 12.453499794 12.250000954 82.969161987 -0.013600000 0.5425000191 1.8882000446 2.7971999645 109.24549866 149.57299805  -999.250000 1.2606999874 0.9803398848
 922.06878662  -999.250000 12.427300453 12.250000954 85.637138367 -0.011400000 0.5149000287 1.8910000324 2.8956000805 106.19300079 150.13760376  -999.250000 1.4305000305 1.2138062716
 922.22119141  -999.250000 12.439700127 12.250000954 87.109252930 -0.010400000 0.4573000073 1.8894000053 2.9073998928 109.24549866 149.70660400  -999.250000 1.5290000439 1.2508000135
 922.37359619  -999.250000 12.457599640 12.250000954 86.452430725 -0.008900000 0.4745999873 1.8840999603 2.9848999977 113.33399963 149.55830383  -999.250000 1.5965000391 1.3127000332
 922.52600098  -999.250000 12.456400871 12.250000954 84.050529480 -0.011900000 0.4641999900 1.8782000542 2.9426999092 116.10800171 149.21220398  -999.250000 1.6076999903 1.3494999409
 922.67840576  -999.250000 12.454299927 12.250000954 85.532150269 -0.015100000 0.4918999970 1.8788000345 2.9762001038 118.97109985 151.64259338  -999.250000 1.5959999561 1.3664000034
