# LAS format log file from PETREL
# Project units are specified as depth units
#==================================================================
~Version information
VERS.   2.0:
WRAP.   NO:
#==================================================================
~Well
STRT .m      734.31201172 :
STOP .m      2361.9440918 :
STEP .m     0.00000000 :
NULL .        -999.250000 :
COMP.           : COMPANY
WELL.  16/2-11 A Johan Sverdrup Appr   : WELL
FLD.            : FIELD
LOC.            : LOCATION
SRVC.           : SERVICE COMPANY
DATE.  2018-09-11 14:48:07   : Log Export Date {yyyy-MM-dd HH:mm:ss}
PROV.           : PROVINCE
UWI.   16/2-11 A   : UNIQUE WELL ID
API.            : API NUMBER
#==================================================================
~Curve
DEPT .m                   : DEPTH
Lithology_geolink ._      : Lithology_geolink
CALI .in                  : CALI
BS .in                    : BS
ROP .m/h                  : ROP
DRHO .g/cm3               : DRHO
THOR .ppm                 : THOR
NPHI .m3/m3               : NPHI
RHOB .g/cm3               : RHOB
PEF .b/e                  : PEF
GR .gAPI                  : GR
URAN .ppm                 : URAN
DTC .us/ft                : DTC
DTS .us/ft                : DTS
RDEP .ohm.m               : RDEP
RMIC .ohm.m               : RMIC
RMED .ohm.m               : RMED
~Parameter
#==================================================================
~Ascii
# ...
 745.58959961  -999.250000 13.750800133 9.8750000000 93.264114380 -0.009900000  -999.250000  -999.250000  -999.250000  -999.250000 118.01509857  -999.250000 165.53898621  -999.250000 1.4882999659  -999.250000 1.4118000269
 745.74200439  -999.250000 13.698200226 9.8750000000 94.739173889 -0.020900000  -999.250000  -999.250000  -999.250000  -999.250000 121.45330048  -999.250000 167.07629395  -999.250000 1.4479000568  -999.250000 1.3781000376
 745.89440918  -999.250000 13.645600319 9.8750000000 91.836616516 -0.019600000  -999.250000  -999.250000  -999.250000  -999.250000 123.28330231  -999.250000 164.44638062  -999.250000 1.4684000015  -999.250000 1.4069999456
 746.04681396  -999.250000 13.574500084 9.8750000000 89.552162170 -0.016500000  -999.250000  -999.250000  -999.250000  -999.250000 120.60700226  -999.250000 160.11480713  -999.250000 1.3969000578  -999.250000 1.3244999647
 746.19921875  -999.250000 13.041700363 9.8750000000 90.000000000 -0.005600000  -999.250000  -999.250000  -999.250000  -999.250000 118.79579926  -999.250000 160.45700073  -999.250000 1.4011000395  -999.250000 1.3387000561
 746.35162354  -999.250000 13.137000084 9.8750000000 101.12368774 -0.004900000  -999.250000  -999.250000  -999.250000  -999.250000 119.41100311  -999.250000 153.81460571  -999.250000 1.4076999426  -999.250000 1.3466999531
 746.50402832  -999.250000 13.481800079 9.8750000000 104.95636749 -0.005000000  -999.250000  -999.250000  -999.250000  -999.250000 120.86309814  -999.250000 150.60479736  -999.250000 1.4105999470  -999.250000 1.3486000299
 746.65643311  -999.250000 13.329400063 9.8750000000 99.447509766 -0.008600000  -999.250000  -999.250000  -999.250000  -999.250000 121.19409943  -999.250000 149.51710510  -999.250000 1.4406000376  -999.250000 1.3796000481
 746.80883789  -999.250000 13.098499298 9.8750000000 98.360565186 -0.000600000  -999.250000  -999.250000  -999.250000  -999.250000 117.99320221  -999.250000 154.05039978  -999.250000 1.5464999676  -999.250000 1.4733999968
 746.96124268  -999.250000 13.348098755 9.8750000000 101.12368774 0.0029000000  -999.250000  -999.250000  -999.250000  -999.250000 113.49629974  -999.250000 159.89419556  -999.250000 1.5563999414  -999.250000 1.4938000441
 747.11364746  -999.250000 14.869500160 9.8750000000 102.27264404 0.0109999999  -999.250000  -999.250000  -999.250000  -999.250000 112.12850189  -999.250000 161.47718811  -999.250000 1.5247999430  -999.250000 1.4634000063
 747.26605225  -999.250000 14.413900375 9.8750000000 100.55577850 0.0114000002  -999.250000  -999.250000  -999.250000  -999.250000 114.28949738  -999.250000 167.17210388  -999.250000 1.4977999926  -999.250000 1.4397000074
 747.41839600  -999.250000 13.986498833 9.8750000000 96.774276733 0.0188999996  -999.250000  -999.250000  -999.250000  -999.250000 115.55120087  -999.250000 166.72470093  -999.250000 1.4917000532  -999.250000 1.4370000362
 747.57080078  -999.250000 13.846199989 9.8750000000 100.55872345 0.0164999999  -999.250000  -999.250000  -999.250000  -999.250000 116.10700226  -999.250000 156.65570068  -999.250000 1.4917000532  -999.250000 1.4370000362
 747.72320557  -999.250000 13.556699753 9.8750000000 93.278213501 0.0076000001  -999.250000  -999.250000  -999.250000  -999.250000 115.17019653  -999.250000 149.80679321  -999.250000 1.4076999426  -999.250000 1.3566000462
 747.87561035  -999.250000 13.327999115 9.8750000000 100.00000000 0.0002000000  -999.250000  -999.250000  -999.250000  -999.250000 110.96679688  -999.250000 145.66369629  -999.250000 1.4622000456  -999.250000 1.3961999416
 748.02801514  -999.250000 13.112899780 9.8750000000 94.240814209 -0.004300000  -999.250000  -999.250000  -999.250000  -999.250000 107.12580109  -999.250000 141.42199707  -999.250000 1.4955999851  -999.250000 1.4270999432
 748.18041992  -999.250000 13.560299873 9.8750000000 91.370735168 -0.005700000  -999.250000  -999.250000  -999.250000  -999.250000 105.78919983  -999.250000 133.68200684  -999.250000 1.4617999792  -999.250000 1.3976000547
 748.33282471  -999.250000 13.269498825 9.8750000000 90.000000000 -0.010200000  -999.250000  -999.250000  -999.250000  -999.250000 107.43800354  -999.250000 139.03349304  -999.250000 1.4636000395  -999.250000 1.3962999582
 748.48522949  -999.250000 13.274000168 9.8750000000 91.370735168 -0.011600000  -999.250000  -999.250000  -999.250000  -999.250000 107.90650177  -999.250000 140.14649963  -999.250000 1.4618999958  -999.250000 1.3992999792
 748.63763428  -999.250000 13.112899780 9.8750000000 88.669944763 -0.015100000  -999.250000  -999.250000  -999.250000  -999.250000 103.63439941  -999.250000 139.22109985  -999.250000 1.4635000229  -999.250000 1.4098999500
 748.79003906  -999.250000 13.059599876 9.8750000000 90.000000000 -0.013300000  -999.250000  -999.250000  -999.250000  -999.250000 100.35540009  -999.250000 142.75590515  -999.250000 1.5140999556  -999.250000 1.4491000175
 748.94244385  -999.250000 13.017400742 9.8750000000 96.774276733 -0.010500000  -999.250000  -999.250000  -999.250000  -999.250000 103.09100342  -999.250000 145.05290222  -999.250000 1.5370999575  -999.250000 1.4653999805
 749.09484863  -999.250000 13.216800690 9.8750000000 84.112205505 -0.009000000  -999.250000  -999.250000  -999.250000  -999.250000 109.23680115  -999.250000 143.66229248  -999.250000 1.5207999945  -999.250000 1.4506000280
 749.24725342  -999.250000 13.441499710 9.8750000000 89.986877441 -0.013500000  -999.250000  -999.250000  -999.250000  -999.250000 111.76629639  -999.250000 147.17179871  -999.250000 1.4456000328  -999.250000 1.4013999701
 749.39959717  -999.250000 13.261400223 9.8750000000 82.568901062 -0.015600000  -999.250000  -999.250000  -999.250000  -999.250000 107.85030365  -999.250000 154.34738159  -999.250000 1.3018000126  -999.250000 1.2662999630
 749.55200195  -999.250000 13.101400375 9.8750000000 83.720802307 -0.016100001  -999.250000  -999.250000  -999.250000  -999.250000 105.95875549  -999.250000 155.12869263  -999.250000 1.2538000345  -999.250000 1.2141000032
 749.70440674  -999.250000 12.947899818 9.8750000000 83.338905334 0.0029000000  -999.250000  -999.250000  -999.250000  -999.250000 108.34687042  -999.250000 146.43260193  -999.250000 1.3631999493  -999.250000 1.3082000017
 749.85681152  -999.250000 12.722701073 9.8750000000 89.108924866 0.0041999999  -999.250000  -999.250000  -999.250000  -999.250000 108.52439880  -999.250000 147.80839539  -999.250000 1.4148999453  -999.250000 1.3522000313
 750.00921631  -999.250000 12.518600464 9.8750000000 88.669944763 0.0060999999  -999.250000  -999.250000  -999.250000  -999.250000 107.52165222  -999.250000 148.58729553  -999.250000 1.4249999523  -999.250000 1.3542000055
 750.16162109  -999.250000 12.562701225 9.8750000000 89.330055237 0.0014000000  -999.250000  -999.250000  -999.250000  -999.250000 105.65702057  -999.250000 146.91990662  -999.250000 1.3853000402  -999.250000 1.3214999437
 750.31402588  -999.250000 12.797300339 9.8750000000 88.669944763 0.0137000000  -999.250000  -999.250000  -999.250000  -999.250000 103.22345734  -999.250000 142.39500427  -999.250000 1.3313000202  -999.250000 1.2788000107
 750.46643066  -999.250000 12.254799843 9.8750000000 84.112205505 0.0370000005  -999.250000  -999.250000  -999.250000  -999.250000 106.37201691  -999.250000 142.75129700  -999.250000 1.3033000231  -999.250000 1.2608000040
 750.61883545  -999.250000 12.687899590 9.8750000000 98.901245117 0.0205000006  -999.250000  -999.250000  -999.250000  -999.250000 111.40051270  -999.250000 141.03660583  -999.250000 1.2616000175  -999.250000 1.2161999941
 750.77124023  -999.250000 12.766200066 9.8750000000 90.000000000 0.0052000000  -999.250000  -999.250000  -999.250000  -999.250000 110.42556763  -999.250000 138.76350403  -999.250000 1.1891000271  -999.250000 0.9007999897
 750.92364502  -999.250000 12.309598923 9.8750000000 90.000000000 -0.002400000  -999.250000  -999.250000  -999.250000  -999.250000 107.85894775  -999.250000 145.14779663  -999.250000 1.1216000319  -999.250000 0.8565999866
 751.07604980  -999.250000 12.176898956 9.8750000000 91.370735168 0.0066999998  -999.250000  -999.250000  -999.250000  -999.250000 106.23819733  -999.250000 145.71890259  -999.250000 1.1354000568  -999.250000 0.8927000165
