# LAS format log file from PETREL
# Project units are specified as depth units
#==================================================================
~Version information
VERS.   2.0:
WRAP.   NO:
#==================================================================
~Well
STRT .m      703.83190918 :
STOP .m      2487.0642090 :
STEP .m     0.00000000 :
NULL .        -999.250000 :
COMP.           : COMPANY
WELL.  16/2-7 Johan Sverdrup Appr   : WELL
FLD.            : FIELD
LOC.            : LOCATION
SRVC.           : SERVICE COMPANY
DATE.  2018-09-11 14:48:07   : Log Export Date {yyyy-MM-dd HH:mm:ss}
PROV.           : PROVINCE
UWI.   16/2-7   : UNIQUE WELL ID
API.            : API NUMBER
#==================================================================
~Curve
DEPT .m                   : DEPTH
Lithology_geolink ._      : Lithology_geolink
CALI .in                  : CALI
BS .in                    : BS
ROP .m/h                  : ROP
DRHO .g/cm3               : DRHO
THOR .ppm                 : THOR
NPHI .m3/m3               : NPHI
RHOB .g/cm3               : RHOB
PEF .b/e                  : PEF
GR .gAPI                  : GR
URAN .ppm                 : URAN
DTC .us/ft                : DTC
DTS .us/ft                : DTS
RDEP .ohm.m               : RDEP
RMIC .ohm.m               : RMIC
RMED .ohm.m               : RMED
~Parameter
#==================================================================
~Ascii
# ...
 1064.7150879  -999.250000 12.575899124 12.250000954 10.934991837 0.0345987193  -999.250000 0.5056999922 2.1435999870 4.4390001297 120.05011749  -999.250000 137.99070740  -999.250000 1.5770000219  -999.250000 1.4779000282
 1064.8675537  -999.250000 12.702099800 12.250000954 15.658793449 0.0228000004  -999.250000 0.5095000267 2.1140000820 3.6670000553 123.05460358  -999.250000 138.48899841  -999.250000 1.6060999632  -999.250000 1.5365999937
 1065.0198975  -999.250000 12.777500153 12.250000954 20.847547531 0.0326920711  -999.250000 0.5045999885 2.1098001003 3.8756000996 121.42390442  -999.250000 139.85839844  -999.250000 1.3572000265  -999.250000 1.2767000198
 1065.1723633  -999.250000 12.854600906 12.250000954 23.852035522 0.0405000001  -999.250000 0.5299999714 2.1108000278 4.0559000969 119.54049683  -999.250000 141.15950012  -999.250000 1.3128000498  -999.250000 1.2202999592
 1065.3247070  -999.250000 12.975798607 12.250000954 21.357313156 0.0396007188  -999.250000 0.5429000258 2.1015999317 4.1880002022 116.76422882  -999.250000 141.07550049  -999.250000 1.3914999962  -999.250000 1.3036999702
 1065.4771729  -999.250000 12.922200203 12.250000954 14.041996002 0.0414999984  -999.250000 0.5343999863 2.0917000771 4.3440999985 114.39900208  -999.250000 141.07449341  -999.250000 1.3878999949  -999.250000 1.3008999825
 1065.6295166  -999.250000 12.881999969 12.250000954 13.164417267 0.0515919141  -999.250000 0.5264000297 2.0878024101 4.8993000984 115.88970184  -999.250000 140.48890686  -999.250000 1.4025000334  -999.250000 1.3152999878
 1065.7818604  -999.250000 13.024700165 12.250000954 16.268508911 0.0557966344  -999.250000 0.5347999930 2.0908999443 5.0802998543 112.94855499  -999.250000 139.51960754  -999.250000 1.4277000427  -999.250000 1.3461999893
 1065.9343262  -999.250000 13.167400360 12.250000954 19.375793457 0.0599966347  -999.250000 0.5432000160 2.0938918591 5.2613000870 110.00386047  -999.250000 138.82870483  -999.250000 1.4529000521  -999.250000 1.3772000074
 1066.0866699  -999.250000 13.333000183 12.250000954 22.904651642 0.0602997579  -999.250000 0.5460000038 2.0838000774 6.0173001289 112.89347839  -999.250000 139.32539368  -999.250000 1.5231000185  -999.250000 1.4363000393
 1066.2391357  -999.250000 13.406200409 12.250000954 25.946193695 0.0643000007  -999.250000 0.5313000083 2.0823020935 6.4003000259 108.98390198  -999.250000 140.80819702  -999.250000 1.6172000170  -999.250000 1.5578999519
 1066.3914795  -999.250000 13.440899849 12.250000954 28.536968231 0.0621017627  -999.250000 0.5634999871 2.0850999355 6.0362000465 109.90276337  -999.250000 143.61059570  -999.250000 1.6448999643  -999.250000 1.5981999636
 1066.5439453  -999.250000 13.276399612 12.250000954 31.048229218 0.0577999987  -999.250000 0.5418999791 2.0752046108 5.7958998680 105.30580139  -999.250000 148.72479248  -999.250000 1.6251000166  -999.250000 1.5875999928
 1066.6962891  -999.250000 13.297499657 12.250000954 30.862024307 0.0722883940  -999.250000 0.5606999993 2.0810000896 6.3899998665 112.80908966  -999.250000 155.69580078  -999.250000 1.4398000240  -999.250000 1.3855999708
 1066.8487549  -999.250000 13.426798820 12.250000954 28.131233215 0.0754999965  -999.250000 0.5289000273 2.0744135380 6.6676001549 117.58159637  -999.250000 153.69580078  -999.250000 1.4758000374  -999.250000 1.4019999504
 1067.0010986  -999.250000 13.409600258 12.250000954 24.985462189 0.0848924741  -999.250000 0.5404000282 2.0915000439 7.1497998238 120.77154541  -999.250000 150.11230469  -999.250000 1.5637999773  -999.250000 1.4846999645
 1067.1535645  -999.250000 13.218898773 12.250000954 22.086614609 0.0711999983  -999.250000 0.5469999909 2.0981976986 6.2758998871 116.65229797  -999.250000 149.40620422  -999.250000 1.6281000376  -999.250000 1.5541000366
 1067.3059082  -999.250000 13.037899971 12.250000954 20.949075699 0.0618075244  -999.250000 0.5674999952 2.0952975750 5.8322000504 115.02780151  -999.250000 152.51249695  -999.250000 1.6203999519  -999.250000 1.5454000235
 1067.4583740  -999.250000 12.857000351 12.250000954 19.810039520 0.0524000004  -999.250000 0.5881000161 2.0924248695 5.3885002136 113.40070343  -999.250000 152.20460510  -999.250000 1.6126999855  -999.250000 1.5365999937
 1067.6107178  -999.250000 12.781599998 12.250000954 18.710853577 0.0544983186  -999.250000 0.5465000272 2.1234304905 5.4727001190 105.19717407  -999.250000 151.18470764  -999.250000 1.5976999998  -999.250000 1.5102000237
 1067.7630615  -999.250000 12.810501099 12.250000954 16.623720169 0.0472058505  -999.250000 0.4999000132 2.1614000797 5.6640000343 101.58549500  -999.250000 154.11070251  -999.250000 1.7240999937  -999.250000 1.6751999855
 1067.9155273  -999.250000 12.801100731 12.250000954 14.542675972 0.0421040840  -999.250000 0.4781000018 2.2197058201 5.9127998352 105.58109283  -999.250000 157.82240295  -999.250000 1.8382999897  -999.250000 1.8632999659
 1068.0678711  -999.250000 12.752901077 12.250000954 14.165328979 0.0264125802  -999.250000 0.4729000032 2.2267000675 5.6707000732 104.02124786  -999.250000 163.15190125  -999.250000 1.8497999907  -999.250000 1.9225000143
 1068.2203369  -999.250000 12.704700470 12.250000954 13.789041519 0.0107000005  -999.250000 0.4677000046 2.2336659431 5.4285998344 102.45570374  -999.250000 164.99221802  -999.250000 1.8612999916  -999.250000 1.9817999601
 1068.3726807  -999.250000 12.687800407 12.250000954 14.090966225 -0.022773178  -999.250000 0.4050999880 2.1909999847 4.3365001678 96.517959595  -999.250000 161.78779602  -999.250000 1.7589999437  -999.250000 1.9198999405
 1068.5251465  -999.250000 12.610199928 12.250000954 16.876640320 0.0199999996  -999.250000 0.3817999959 2.1739530563 3.9560999870 93.316703796  -999.250000 155.60260010  -999.250000 1.5629999638  -999.250000 1.6431000233
 1068.6774902  -999.250000 12.555701256 12.250000954 26.758485794 0.0350879133  -999.250000 0.4198000133 2.1152000427 4.0739002228 104.16220856  -999.250000 153.20799255  -999.250000 1.4530999660  -999.250000 1.5360000134
 1068.8299561  -999.250000 12.534999847 12.250000954 47.879596710 0.0241000000  -999.250000 0.4882999957 2.0779852867 3.6454999447 106.56390381  -999.250000 158.56489563  -999.250000 1.4345999956  -999.250000 1.5140000582
 1068.9822998  -999.250000 12.621600151 12.250000954 60.614791870 0.0162063260  -999.250000 0.5160999894 2.0596001148 3.3979001045 111.53561401  -999.250000 157.89469910  -999.250000 1.4543999434  -999.250000 1.5358999968
 1069.1347656  -999.250000 12.734099388 12.250000954 58.420276642 0.0160000008  -999.250000 0.5170000196 2.0576016903 3.2399001122 111.90760040  -999.250000 157.12860107  -999.250000 1.4577000141  -999.250000 1.4915000200
 1069.2871094  -999.250000 12.960200310 12.250000954 54.778835297 0.0223948751  -999.250000 0.4927000105 2.0595972538 3.4595000744 117.86122894  -999.250000 162.93069458  -999.250000 1.4443000555  -999.250000 1.3997000456
 1069.4395752  -999.250000 12.854499817 12.250000954 57.407150269 0.0216000006  -999.250000 0.4923999906 2.0558962822 3.5051999092 117.35870361  -999.250000 161.94859314  -999.250000 1.4693000317  -999.250000 1.3919999599
 1069.5919189  -999.250000 12.651201248 12.250000954 71.313003540 0.0185024831  -999.250000 0.5113999844 2.0510005951 3.4612998962 114.51957703  -999.250000 160.32739258  -999.250000 1.4702999592  -999.250000 1.4139000177
 1069.7442627  -999.250000 12.630800247 12.250000954 77.182632446 0.0171011221  -999.250000 0.5264000297 2.0517001152 3.3989999294 111.90789032  -999.250000 159.06741333  -999.250000 1.4146000147  -999.250000 1.3506000042
 1069.8967285  -999.250000 12.675900459 12.250000954 74.923736572 0.0218961574  -999.250000 0.5275999904 2.0503234863 3.6661000252 109.90579987  -999.250000 159.86999512  -999.250000 1.3595999479  -999.250000 1.2860000134
 1070.0490723  -999.250000 12.654899597 12.250000954 75.372016907 0.0477792472  -999.250000 0.4966000021 2.0799002647 5.0950999260 112.36053467  -999.250000 157.25120544  -999.250000 1.4180999994  -999.250000 1.3763999939
 1070.2015381  -999.250000 12.640800476 12.250000954 77.555114746 0.0505999997  -999.250000 0.5033000112 2.1116905212 4.8864998817 117.89389801  -999.250000 155.00399780  -999.250000 1.4332000017  -999.250000 1.3960000277
