# LAS format log file from PETREL
# Project units are specified as depth units
#==================================================================
~Version information
VERS.   2.0:
WRAP.   NO:
#==================================================================
~Well
STRT .m      703.83190918 :
STOP .m      2487.0642090 :
STEP .m     0.00000000 :
NULL .        -999.250000 :
COMP.           : COMPANY
WELL.  16/2-7 Johan Sverdrup Appr   : WELL
FLD.            : FIELD
LOC.            : LOCATION
SRVC.           : SERVICE COMPANY
DATE.  2018-09-11 14:48:07   : Log Export Date {yyyy-MM-dd HH:mm:ss}
PROV.           : PROVINCE
UWI.   16/2-7   : UNIQUE WELL ID
API.            : API NUMBER
#==================================================================
~Curve
DEPT .m                   : DEPTH
Lithology_geolink ._      : Lithology_geolink
CALI .in                  : CALI
BS .in                    : BS
ROP .m/h                  : ROP
DRHO .g/cm3               : DRHO
THOR .ppm                 : THOR
NPHI .m3/m3               : NPHI
RHOB .g/cm3               : RHOB
PEF .b/e                  : PEF
GR .gAPI                  : GR
URAN .ppm                 : URAN
DTC .us/ft                : DTC
DTS .us/ft                : DTS
RDEP .ohm.m               : RDEP
RMIC .ohm.m               : RMIC
RMED .ohm.m               : RMED
~Parameter
#==================================================================
~Ascii
# ...
 1419.9594727 19.000000000 13.317700386 12.250000954 47.569225311 0.0397995971  -999.250000 0.5110999942 2.0759000778 5.9454998970 71.174499512  -999.250000 157.43600464  -999.250000 0.7053999901  -999.250000 0.6812999845
 1420.1119385 5.0000000000 13.252000809 12.250000954 40.238517761 0.0588847063  -999.250000 0.4932999909 2.0957000256 6.4092001915 78.697097778  -999.250000 159.31082153  -999.250000 0.7185999751  -999.250000 0.6945000291
 1420.2642822 5.0000000000 13.243399620 12.250000954 33.894359589 0.0645954311  -999.250000 0.4555999935 2.1138999462 6.3745999336 81.437400818  -999.250000 160.18449402  -999.250000 0.7129999995  -999.250000 0.7014999986
 1420.4166260 5.0000000000 13.234800339 12.250000954 26.242454529 0.0628028810  -999.250000 0.4535999894 2.1224000454 6.1494998932 87.710601807  -999.250000 161.02760315  -999.250000 0.6822999716  -999.250000 0.6687999964
 1420.5690918 6.0000000000 13.216098785 12.250000954 20.812992096 0.0513092168  -999.250000 0.4523999989 2.1087999344 5.4706997871 88.363998413  -999.250000 161.87069702  -999.250000 0.6596000195  -999.250000 0.6474999785
 1420.7214355 6.0000000000 13.148698807 12.250000954 20.434383392 0.0489038453  -999.250000 0.4708000124 2.0980000496 5.1199998856 97.240303040  -999.250000 160.26219177  -999.250000 0.6362000108  -999.250000 0.6212000251
 1420.8739014 6.0000000000 13.098899841 12.250000954 25.545930862 0.0522972755  -999.250000 0.4790999889 2.0982999802 5.7238001823 100.44439697  -999.250000 159.77090454  -999.250000 0.6385999918  -999.250000 0.6207000017
 1421.0262451 6.0000000000 13.094400406 12.250000954 35.824474335 0.0523998402  -999.250000 0.4767000079 2.0973000526 5.9720997810 96.334800720  -999.250000 159.78250122  -999.250000 0.6344000101  -999.250000 0.6255999804
 1421.1787109 5.0000000000 13.181900024 12.250000954 42.494422913 0.0595942289  -999.250000 0.4300999939 2.0964999199 6.1564998627 91.848396301  -999.250000 159.20880127  -999.250000 0.5918999910  -999.250000 0.5942999721
 1421.3310547 5.0000000000 13.232999802 12.250000954 48.551181793 0.0584009625  -999.250000 0.4311000109 2.0906000137 6.1577000618 86.389602661  -999.250000 159.24060059  -999.250000 0.5397999883  -999.250000 0.5067999959
 1421.4835205 5.0000000000 13.291000366 12.250000954 52.191272736 0.0542033650  -999.250000 0.4345999956 2.0747001171 6.0197000504 87.778999329  -999.250000 158.42260742  -999.250000 0.5457000136  -999.250000 0.5149000287
 1421.6358643 5.0000000000 13.241499901 12.250000954 48.112205505 0.0490041636  -999.250000 0.4699999988 2.0729000568 5.2964000702 96.358398438  -999.250000 154.81159973  -999.250000 0.6122999787  -999.250000 0.5784000158
 1421.7883301 5.0000000000 13.200201035 12.250000954 38.383201599 0.0492997617  -999.250000 0.4921000004 2.0924999714 5.2164998055 103.44239807  -999.250000 154.23210144  -999.250000 0.6283000112  -999.250000 0.5999000072
 1421.9406738 6.0000000000 13.197099686 12.250000954 27.156824112 0.0455030426  -999.250000 0.4733999968 2.1056001186 5.0665998459 110.62619781  -999.250000 155.28849792  -999.250000 0.6197000146  -999.250000 0.5995000005
 1422.0931396 6.0000000000 13.165200233 12.250000954 20.977361679 0.0622865483  -999.250000 0.4426999986 2.1182000637 5.5293002129 105.26959991  -999.250000 152.96960449  -999.250000 0.6031000018  -999.250000 0.5863999724
 1422.2454834 6.0000000000 13.101799011 12.250000954 20.069225311 0.0711928681  -999.250000 0.4370999932 2.1217999458 5.7912001610 99.628799438  -999.250000 154.18260193  -999.250000 0.5899000168  -999.250000 0.5723000169
 1422.3978271 6.0000000000 13.067099571 12.250000954 23.136484146 0.0522304252  -999.250000 0.4472999871 2.0977001190 4.4826002121 111.66960144  -999.250000 156.80079651  -999.250000 0.5655999780  -999.250000 0.5486000180
 1422.5502930 6.0000000000 13.149399757 12.250000954 33.922901154 0.0515005626  -999.250000 0.4704999924 2.0834999084 4.8962001801 119.01699829  -999.250000 159.41900635  -999.250000 0.5243999958  -999.250000 0.5146999955
 1422.7026367 6.0000000000 13.260000229 12.250000954 57.544284821 0.0527979173  -999.250000 0.5012000203 2.0629999638 5.4141998291 95.985298157  -999.250000 160.78709412  -999.250000 0.3961000144  -999.250000 0.3874999881
 1422.8551025 5.0000000000 13.464500427 12.250000954 73.236549377 0.0417088978  -999.250000 0.5936999917 1.9751000404 4.4963002205 87.660797119  -999.250000 161.19508362  -999.250000 0.4032000005  -999.250000 0.3828000128
 1423.0074463 5.0000000000 13.345999718 12.250000954 71.279205322 0.0388046503  -999.250000 0.5863000154 1.9307999611 4.4467000961 114.69329834  -999.250000 159.66909790  -999.250000 0.4314999878  -999.250000 0.3982000053
 1423.1599121 16.000000000 13.337900162 12.250000954 67.243438721 0.0335000008  -999.250000 0.5296999812 2.0280001163 4.7241001129 132.85769653  -999.250000 155.91659546  -999.250000 0.5293999910  -999.250000 0.4970999956
 1423.3122559 16.000000000 13.467900276 12.250000954 64.843177795 0.0469999984  -999.250000 0.4593000114 2.2281999588 5.8716001511 160.66760254  -999.250000 152.37930298  -999.250000 0.5317999721  -999.250000 0.5120000243
 1423.4647217 6.0000000000 13.463199615 12.250000954 62.427165985 0.0513999984  -999.250000 0.5009999871 2.2530000210 6.7255001068 167.76390076  -999.250000 143.21220398  -999.250000 0.4223000109  -999.250000 0.4372000098
 1423.6170654 6.0000000000 13.430701256 12.250000954 70.469818115 0.0866999999  -999.250000 0.4959000051 2.2093999386 7.3364000320 166.24749756  -999.250000 151.75349426  -999.250000 0.3088000119  -999.250000 0.3055999875
 1423.7695313 6.0000000000 13.572099686 12.250000954 98.877296448 0.0720999986  -999.250000 0.5486000180 2.0715000629 7.9909000397 125.33699799  -999.250000 159.88800049  -999.250000 0.3916000128  -999.250000 0.3750999868
 1423.9218750 6.0000000000 13.650999069 12.250000954 94.944877625 0.0700000003  -999.250000 0.5220999718 2.0301001072 7.1003999710 127.33899689  -999.250000 157.01080322  -999.250000 0.4535999894  -999.250000 0.4348999858
 1424.0743408 6.0000000000 13.644700050 12.250000954 95.116470337 0.0788000003  -999.250000 0.4866000116 2.0580000877 6.7527999878 111.28350067  -999.250000 159.28750610  -999.250000 0.4785000086  -999.250000 0.4481000006
 1424.2266846 6.0000000000 13.395999908 12.250000954 82.460960388 0.0848999992  -999.250000 0.4869000018 2.1108000278 6.7741999626 112.79550171  -999.250000 161.79801941  -999.250000 0.6115000248  -999.250000 0.6019999981
 1424.3790283 6.0000000000 12.970500946 12.250000954 76.405517578 0.0857999995  -999.250000 0.4754999876 2.0994000435 6.9773001671 122.19239807  -999.250000 163.98959351  -999.250000 0.6085000038  -999.250000 0.6286000013
 1424.5314941 6.0000000000 13.187399864 12.250000954 76.707351685 0.0900000036  -999.250000 0.4830999970 2.1038999557 6.7128000259 119.67250061  -999.250000 164.04811096  -999.250000 0.5845000148  -999.250000 0.6067000031
 1424.6838379 5.0000000000 13.341899872 12.250000954 114.40452576 0.0619999990  -999.250000 0.5015000105 2.1085999012 5.3248000145 96.739501953  -999.250000 163.71040344  -999.250000 0.5848000050  -999.250000 0.5784000158
 1424.8363037 5.0000000000 13.346300125 12.250000954 148.26771545 0.0467999987  -999.250000 0.4882999957 2.1024000645 4.6630001068 94.194396973  -999.250000 163.56539917  -999.250000 0.6076999903  -999.250000 0.6021000147
 1424.9886475 5.0000000000 13.236000061 12.250000954 149.39633179 0.0474000014  -999.250000 0.4787000120 2.1171000004 4.7869000435 104.62560272  -999.250000 163.91281128  -999.250000 0.6015999913  -999.250000 0.5916000009
 1425.1411133 5.0000000000 13.237299919 12.250000954 144.10105896 0.0505000018  -999.250000 0.4672999978 2.1140999794 4.8618001938 102.10330200  -999.250000 164.12040710  -999.250000 0.5845999718  -999.250000 0.5720000267
 1425.2934570 5.0000000000 13.435099602 12.250000954 121.88156128 0.0445999987  -999.250000 0.4792999923 2.0982000828 4.4274997711 94.388496399  -999.250000 162.42102051  -999.250000 0.5383999944  -999.250000 0.5313000083
 1425.4459229 5.0000000000 13.517700195 12.250000954 108.38221741 0.0428999998  -999.250000 0.4584999979 2.0954999924 4.4900999069 97.588096619  -999.250000 160.63319397  -999.250000 0.5388000011  -999.250000 0.5310000181
