# LAS format log file from PETREL
# Project units are specified as depth units
#==================================================================
~Version information
VERS.   2.0:
WRAP.   NO:
#==================================================================
~Well
STRT .m      734.31201172 :
STOP .m      2361.9440918 :
STEP .m     0.00000000 :
NULL .        -999.250000 :
COMP.           : COMPANY
WELL.  16/2-11 A Johan Sverdrup Appr   : WELL
FLD.            : FIELD
LOC.            : LOCATION
SRVC.           : SERVICE COMPANY
DATE.  2018-09-11 14:48:07   : Log Export Date {yyyy-MM-dd HH:mm:ss}
PROV.           : PROVINCE
UWI.   16/2-11 A   : UNIQUE WELL ID
API.            : API NUMBER
#==================================================================
~Curve
DEPT .m                   : DEPTH
Lithology_geolink ._      : Lithology_geolink
CALI .in                  : CALI
BS .in                    : BS
ROP .m/h                  : ROP
DRHO .g/cm3               : DRHO
THOR .ppm                 : THOR
NPHI .m3/m3               : NPHI
RHOB .g/cm3               : RHOB
PEF .b/e                  : PEF
GR .gAPI                  : GR
URAN .ppm                 : URAN
DTC .us/ft                : DTC
DTS .us/ft                : DTS
RDEP .ohm.m               : RDEP
RMIC .ohm.m               : RMIC
RMED .ohm.m               : RMED
~Parameter
#==================================================================
~Ascii
# ...
 1715.4632568 5.0000000000 12.594300270 12.250000954 133.44520569 -0.010400000  -999.250000 0.3943000138 2.1454000473 3.4725999832 85.538398743  -999.250000 138.78849792  -999.250000 0.8634999990  -999.250000 0.8051000237
 1715.6156006 5.0000000000 12.606900215 12.250000954 132.86810303 -0.008900000  -999.250000 0.3736999929 2.1554999352 3.2820999622 83.241798401  -999.250000 138.48550415  -999.250000 0.8693000078  -999.250000 0.8037999868
 1715.7680664 5.0000000000 12.540102005 12.250000954 133.17912292 -0.000100000  -999.250000 0.3806999922 2.1879000664 3.3085000515 79.098396301  -999.250000 138.60360718  -999.250000 0.8679999709  -999.250000 0.8101999760
 1715.9204102 5.0000000000 12.505100250 12.250000954 135.04002380 0.0015000000  -999.250000 0.3750000000 2.2279999256 3.6324000359 74.280197144  -999.250000 136.88229370  -999.250000 0.8661000133  -999.250000 0.8195999861
 1716.0728760 5.0000000000 12.555500031 12.250000954 127.64665222 -0.006200000  -999.250000 0.3871999979 2.2586998940 3.6124000549 76.103302002  -999.250000 137.94599915  -999.250000 0.9215999842  -999.250000 0.8641999960
 1716.2252197 5.0000000000 12.470800400 12.250000954 119.20734406 -0.018999999  -999.250000 0.3862999976 2.2193000317 3.5827999115 83.514099121  -999.250000 136.07400513  -999.250000 0.9050999880  -999.250000 0.8251000047
 1716.3776855 6.0000000000 12.316899300 12.250000954 118.51115417 -0.016300000  -999.250000 0.3955000043 2.1763999462 3.3742001057 88.154701233  -999.250000 141.25199890  -999.250000 0.8636999726  -999.250000 0.7979999781
 1716.5300293 6.0000000000 12.331000328 12.250000954 114.13648224 -0.015699999  -999.250000 0.4025999904 2.1229999065 3.5262999535 88.000801086  -999.250000 139.02569580  -999.250000 0.8310999870  -999.250000 0.7674999833
 1716.6823730 6.0000000000 12.340399742 12.250000954 109.30971527 -0.014300000  -999.250000 0.4147999883 2.1177999973 3.6710999012 88.213897705  -999.250000 138.14360046  -999.250000 0.8072000146  -999.250000 0.7538999915
 1716.8348389 6.0000000000 12.423299789 12.250000954 103.12335968 -0.008500000  -999.250000 0.4329999983 2.1356999874 3.6470000744 88.647903442  -999.250000 138.17460632  -999.250000 0.8084999919  -999.250000 0.7574999928
 1716.9871826 6.0000000000 12.477199554 12.250000954 99.027557373 -0.006700000  -999.250000 0.4406000078 2.1603999138 3.3977000713 86.146102905  -999.250000 138.49530029  -999.250000 0.8197000027  -999.250000 0.7621999979
 1717.1396484 5.0000000000 12.562100410 12.250000954 94.343833923 -0.005300000  -999.250000 0.4410000145 2.1649999619 3.4333000183 86.185600281  -999.250000 138.30580139  -999.250000 0.8400999904  -999.250000 0.7824000120
 1717.2919922 5.0000000000 12.672599792 12.250000954 88.830711365 -0.009500000  -999.250000 0.4397000074 2.1561000347 3.4881999493 88.805801392  -999.250000 139.17329407  -999.250000 0.8608000278  -999.250000 0.7965999842
 1717.4444580 5.0000000000 12.664699554 12.250000954 87.004592896 -0.013900000  -999.250000 0.4383000135 2.1445000172 3.5901000500 87.124702454  -999.250000 138.83149719  -999.250000 0.8398000002  -999.250000 0.7792000175
 1717.5968018 5.0000000000 12.651900291 12.250000954 89.383201599 -0.010300000  -999.250000 0.4469000101 2.1579999924 3.4828999043 83.419403076  -999.250000 138.15809631  -999.250000 0.8809999824  -999.250000 0.8162999749
 1717.7492676 5.0000000000 12.486199379 12.250000954 90.343505859 -0.010100000  -999.250000 0.4485000074 2.1598000526 3.4509000778 83.123397827  -999.250000 137.57539368  -999.250000 0.8585000038  -999.250000 0.7932000160
 1717.9016113 5.0000000000 12.273698807 12.250000954 89.406166077 -0.003000000  -999.250000 0.4451000094 2.1745998859 3.5169999599 85.526603699  -999.250000 136.89309692  -999.250000 0.8220000267  -999.250000 0.7677999735
 1718.0540771 5.0000000000 12.298000336 12.250000954 89.095802307 -0.007200000  -999.250000 0.4390000105 2.1693999767 3.4928998947 85.621299744  -999.250000 137.32479858  -999.250000 0.8195000291  -999.250000 0.7659000158
 1718.2064209 5.0000000000 12.235600471 12.250000954 89.694229126 -0.007800000  -999.250000 0.4424000084 2.1682000160 3.4100999832 84.733398438  -999.250000 137.11500549  -999.250000 0.8514999747  -999.250000 0.7896000147
 1718.3588867 5.0000000000 12.422499657 12.250000954 92.467514038 -0.008600000  -999.250000 0.4521000087 2.1623001099 3.4925000668 82.780097961  -999.250000 136.87100220  -999.250000 0.8608999848  -999.250000 0.8102999926
 1718.5112305 5.0000000000 12.623600006 12.250000954 92.800849915 -0.004900000  -999.250000 0.4546000063 2.1665999889 3.6837000847 76.671600342  -999.250000 136.90069580  -999.250000 0.8517000079  -999.250000 0.8055999875
 1718.6635742 5.0000000000 12.429699898 12.250000954 96.509513855 -0.005700000  -999.250000 0.4629999995 2.1607000828 3.8060998917 74.505096436  -999.250000 137.96890259  -999.250000 0.8442000151  -999.250000 0.8000000119
 1718.8160400 5.0000000000 12.519300461 12.250000954 98.983596802 -0.007200000  -999.250000 0.4573000073 2.1594998837 3.6233999729 78.991897583  -999.250000 138.24130249  -999.250000 0.8543999791  -999.250000 0.8027999997
 1718.9683838 5.0000000000 12.663599014 12.250000954 97.713912964 -0.010500000  -999.250000 0.4591999948 2.1538000107 3.4435000420 82.768302917  -999.250000 138.41670227  -999.250000 0.8456000090  -999.250000 0.7857000232
 1719.1208496 5.0000000000 12.673300743 12.250000954 97.363189697 -0.008900000  -999.250000 0.4496999979 2.1547999382 3.4642999172 82.626197815  -999.250000 138.58790588  -999.250000 0.8120999932  -999.250000 0.7621999979
 1719.2731934 5.0000000000 13.065199852 12.250000954 97.374343872 -0.008100000  -999.250000 0.4519000053 2.1514000893 3.6026000977 81.217498779  -999.250000 139.26089478  -999.250000 0.7853999734  -999.250000 0.7408999801
 1719.4256592 5.0000000000 12.963700294 12.250000954 97.436683655 -0.007100000  -999.250000 0.4514000118 2.1524000168 3.6663999557 82.050102234  -999.250000 140.01049805  -999.250000 0.7994999886  -999.250000 0.7536000013
 1719.5780029 5.0000000000 13.119800568 12.250000954 96.583663940 -0.009200000  -999.250000 0.4591000080 2.1503999233 3.5943000317 83.877098083  -999.250000 140.02369690  -999.250000 0.8111000061  -999.250000 0.7580000162
 1719.7304688 5.0000000000 13.114299774 12.250000954 97.841209412 -0.008200000  -999.250000 0.4625000060 2.1507000923 3.7253999710 85.459503174  -999.250000 139.48620605  -999.250000 0.8134999871  -999.250000 0.7610999942
 1719.8828125 5.0000000000 13.084398270 12.250000954 97.324806213 -0.007100000  -999.250000 0.4616000056 2.1482999325 3.8403999805 87.633796692  -999.250000 139.54989624  -999.250000 0.7947999835  -999.250000 0.7494000196
 1720.0352783 6.0000000000 12.905598640 12.250000954 96.294616699 -0.007500000  -999.250000 0.4636999965 2.1433000565 3.8041000366 90.092201233  -999.250000 139.62249756  -999.250000 0.7998999953  -999.250000 0.7623999715
 1720.1876221 6.0000000000 13.152600288 12.250000954 96.670928955 -0.008700000  -999.250000 0.4796000123 2.1389000416 3.6612999439 91.236602783  -999.250000 139.46629333  -999.250000 0.7912999988  -999.250000 0.7548999786
 1720.3400879 6.0000000000 13.215999603 12.250000954 100.89304352 -0.008100000  -999.250000 0.4771000147 2.1405000687 3.5938000679 91.796897888  -999.250000 139.72259521  -999.250000 0.8014000058  -999.250000 0.7591000199
 1720.4924316 5.0000000000 12.951299667 12.250000954 105.24573517 -0.005300000  -999.250000 0.4828999937 2.1491999626 3.8657000065 92.842597961  -999.250000 139.52119446  -999.250000 0.8187000155  -999.250000 0.7651000023
 1720.6447754 5.0000000000 12.961600304 12.250000954 106.54757690 -0.003200000  -999.250000 0.4837000072 2.1545999050 4.1273999214 89.973800659  -999.250000 139.25959778  -999.250000 0.7950000167  -999.250000 0.7437999845
 1720.7972412 5.0000000000 13.039999962 12.250000954 110.40715027 -0.004000000  -999.250000 0.4982999861 2.1503999233 4.2994999886 83.979698181  -999.250000 140.19419861  -999.250000 0.7781000137  -999.250000 0.7311999798
 1720.9495850 5.0000000000 13.469498634 12.250000954 111.71751404 -0.000800000  -999.250000 0.5018000007 2.1456000805 4.3494000435 82.231597900  -999.250000 140.91459656  -999.250000 0.7506999969  -999.250000 0.7111999989
