# LAS format log file from PETREL
# Project units are specified as depth units
#==================================================================
~Version information
VERS.   2.0:
WRAP.   NO:
#==================================================================
~Well
STRT .m      703.83190918 :
STOP .m      2487.0642090 :
STEP .m     0.00000000 :
NULL .        -999.250000 :
COMP.           : COMPANY
WELL.  16/2-7 Johan Sverdrup Appr   : WELL
FLD.            : FIELD
LOC.            : LOCATION
SRVC.           : SERVICE COMPANY
DATE.  2018-09-11 14:48:07   : Log Export Date {yyyy-MM-dd HH:mm:ss}
PROV.           : PROVINCE
UWI.   16/2-7   : UNIQUE WELL ID
API.            : API NUMBER
#==================================================================
~Curve
DEPT .m                   : DEPTH
Lithology_geolink ._      : Lithology_geolink
CALI .in                  : CALI
BS .in                    : BS
ROP .m/h                  : ROP
DRHO .g/cm3               : DRHO
THOR .ppm                 : THOR
NPHI .m3/m3               : NPHI
RHOB .g/cm3               : RHOB
PEF .b/e                  : PEF
GR .gAPI                  : GR
URAN .ppm                 : URAN
DTC .us/ft                : DTC
DTS .us/ft                : DTS
RDEP .ohm.m               : RDEP
RMIC .ohm.m               : RMIC
RMED .ohm.m               : RMED
~Parameter
#==================================================================
~Ascii
# ...
 2243.2243652 7.0000000000 8.5157003403 8.5000000000 57.585960388 0.0584000014 10.554400444 0.1494999975 2.5077173710 3.2546000481 377.37820435 22.585599899 74.355148315 135.70555115 3.8809332848  -999.250000 3.6712069511
 2243.3767090 7.0000000000 8.5275001526 8.5000000000 52.286418915 0.0610999987 6.9562997818 0.1464000046 2.5184967518 3.2060999870 243.96040344 14.754199982 72.829811096 134.18324280 4.0886812210  -999.250000 3.9248840809
 2243.5290527 7.0000000000 8.5257997513 8.5000000000 47.145996094 0.0573999994 5.3010001183 0.1447000057 2.5164000988 3.1510999203 173.69830322 10.617400169 71.715599060 131.65100098 4.1392002106  -999.250000 4.0398001671
 2243.6813965 7.0000000000 8.5291004181 8.5000000000 45.031826019 0.0531999990 4.4130997658 0.1376000047 2.5123999119 3.0780999660 138.39089966 8.4190998077 71.510498047 130.90040588 4.0623998642  -999.250000 3.9570000172
 2243.8339844  -999.250000 8.5381002426 8.5000000000 49.179462433 0.0582999997 4.6932997704 0.1303000003 2.5069892406 3.1830999851 123.73889923 6.2829999924 72.256134033 131.73553467 3.8826673031  -999.250000 3.7487916946
 2243.9863281  -999.250000 8.5350999832 8.5000000000 53.210960388 0.0621000007 5.4980001450 0.1273999959 2.5002908707 2.8529000282 112.97840118 4.5644998550 73.586654663 133.75117493 3.7998614311  -999.250000 3.6811494827
 2244.1386719  -999.250000 8.5173997879 8.5000000000 50.703083038 0.0606000014 6.0034999847 0.1292999983 2.4945802689 2.7992000580 108.95600128 3.8604998589 74.555656433 134.85687256 3.7137637138  -999.250000 3.5251917839
 2244.2910156  -999.250000 8.5328998566 8.5000000000 47.260498047 0.0575000010 5.8866000175 0.1300999969 2.4823000431 2.8489999771 108.00789642 3.1559998989 74.278999329 134.71260071 3.8159999847  -999.250000 3.5824999809
 2244.4436035  -999.250000 8.5452003479 8.5000000000 43.155841827 0.0608999990 6.3803000450 0.1280000061 2.4801137447 3.0564000607 110.28199768 2.7272999287 72.832771301 132.77200317 4.1721396446  -999.250000 3.9561450481
 2244.5959473  -999.250000 8.5516004562 8.5000000000 40.155841827 0.0631999969 6.5219998360 0.1271000057 2.4888441563 3.1017000675 113.02349854 2.4525001049 70.696441650 129.40698242 4.3219199181  -999.250000 4.1091403961
 2244.7482910  -999.250000 8.5257997513 8.5000000000 39.084316254 0.0533000007 6.5369000435 0.1193000004 2.5163042545 3.0652999878 119.14969635 2.5157999992 69.226013184 127.39624786 4.5211572647  -999.250000 4.3212442398
 2244.9006348  -999.250000 8.5038995743 8.5000000000 38.097766876 0.0533000007 6.6683998108 0.1208999977 2.5190000534 2.8255000114 119.17250061 2.4663999081 69.110496521 126.61759949 4.4945001602  -999.250000 4.3489999771
 2245.0529785  -999.250000 8.5141000748 8.5000000000 38.457347870 0.0584000014 6.9251999855 0.1215000004 2.5348999500 3.1972000599 117.12809753 2.0627000332 69.498397827 126.47539520 4.4166998863  -999.250000 4.3196001053
 2245.2055664  -999.250000 8.5187997818 8.5000000000 41.180118561 0.0606999993 6.6722002029 0.1255999953 2.5414931774 3.3196001053 111.48709869 2.1393001080 70.014297485 127.60222626 4.3491568565  -999.250000 4.3189120293
 2245.3579102  -999.250000 8.5145998001 8.5000000000 46.508533478 0.0639000013 6.7202000618 0.1246000007 2.5371794701 3.2367000580 106.03849792 1.6906000376 70.387199402 128.61656189 4.3224248886  -999.250000 4.3261270523
 2245.5102539  -999.250000 8.5219001770 8.5000000000 50.975395203 0.0595999993 6.7465000153 0.1224000007 2.5243999958 3.1073999405 104.42109680 1.7135000229 70.698196411 129.58560181 4.2753000259  -999.250000 4.2179999352
 2245.6625977  -999.250000 8.5295000076 8.5000000000 56.192256927 0.0590000004 7.0704002380 0.1225999966 2.5178999901 3.2674000263 101.06109619 1.5760999918 70.855003357 129.26649475 4.3666000366  -999.250000 4.2445001602
 2245.8151855  -999.250000 8.5350999832 8.5000000000 59.059715271 0.0652000010 7.2172999382 0.1184000000 2.5195968151 3.2627000809 99.033599854 1.3458000422 70.569244385 128.53526306 4.5314841270  -999.250000 4.3678741455
 2245.9675293  -999.250000 8.5485000610 8.5000000000 58.352691650 0.0632999986 7.7308998108 0.1156999990 2.5176873207 3.3008000851 100.90399933 1.0815000534 70.282302856 127.89006805 4.7708363533  -999.250000 4.6008024216
 2246.1198730  -999.250000 8.5473003387 8.5000000000 56.626644135 0.0599000007 7.4312000275 0.1147999987 2.5098001957 3.3317999840 100.98090363 1.1086000204 70.222183228 127.37015533 4.6687092781  -999.250000 4.4775185585
 2246.2722168  -999.250000 8.5326004028 8.5000000000 53.902561188 0.0601999983 7.3277997971 0.1150999963 2.5099000931 3.2211000919 104.77130127 1.2348999977 70.211898804 127.09291077 4.5496001244  -999.250000 4.3021001816
 2246.4248047  -999.250000 8.5382003784 8.5000000000 51.345470428 0.0603000000 7.4029998779 0.1184000000 2.5077061653 3.0632998943 104.67230225 1.0211000443 70.060211182 126.68645477 4.6832480431  -999.250000 4.4330224991
 2246.5771484  -999.250000 8.5417003632 8.5000000000 53.734912872 0.0632999986 7.1494998932 0.1155999973 2.5115964413 3.0543000698 105.46800232 1.0230000019 69.880989075 126.78227234 4.7755146027  -999.250000 4.5718512535
 2246.7294922  -999.250000 8.5454998016 8.5000000000 57.138778687 0.0597000010 6.8105001450 0.1154000014 2.5093054771 3.0227000713 103.06420135 1.3479000330 70.064193726 126.63882446 4.8467407227  -999.250000 4.6657981873
 2246.8818359  -999.250000 8.5451002121 8.5000000000 67.909118652 0.0631000027 6.7039999962 0.1191999987 2.5127999783 2.9184000492 99.391700745 1.4133000374 70.495399475 126.46559906 4.7473001480  -999.250000 4.6020002365
 2247.0341797  -999.250000 8.5387001038 8.5000000000 77.376640320 0.0606999993 6.8224000931 0.1234000027 2.5078001022 2.9270999432 98.509498596 1.5144000053 70.476303101 127.35669708 4.7705001831  -999.250000 4.5826997757
 2247.1867676  -999.250000 8.5278997421 8.5000000000 70.551834106 0.0571999997 6.3727998734 0.1242000014 2.5073301792 2.8529999256 93.942298889 1.4405000210 70.272232056 127.25478363 4.8920669556  -999.250000 4.7718462944
 2247.3391113  -999.250000 8.5144996643 8.5000000000 61.280845642 0.0656000003 6.0121998787 0.1195999980 2.5261998177 3.3601999283 94.223602295 1.4739999771 70.227958679 127.42960358 4.6843695641  -999.250000 4.5510902405
 2247.4914551  -999.250000 8.5135002136 8.5000000000 53.445537567 0.0648000017 6.4328999519 0.1217999980 2.5260999203 3.2569999695 95.692100525 1.4844000340 70.138801575 127.55770111 4.5405998230  -999.250000 4.3576998711
 2247.6437988  -999.250000 8.5334997177 8.5000000000 54.373359680 0.0647000000 6.0949997902 0.1244999990 2.5192999840 3.2202999592 101.12989807 1.6222000122 70.100799561 127.57350922 4.5475997925  -999.250000 4.4015998840
 2247.7963867  -999.250000 8.5431003571 8.5000000000 63.695865631 0.0641999990 6.3180999756 0.1253000051 2.5178177357 3.3182001114 101.46849823 1.4426000118 70.046630859 128.14768982 4.5398125648  -999.250000 4.4014754295
 2247.9487305  -999.250000 8.5290002823 8.5000000000 65.479988098 0.0693000033 6.2337999344 0.1292999983 2.5288035870 3.7174000740 99.241798401 1.2323000431 70.505622864 128.96073914 4.4227590561  -999.250000 4.3236842155
 2248.1010742  -999.250000 8.5246000290 8.5000000000 63.121719360 0.0665000007 6.9014000893 0.1335999966 2.5309705734 3.3910999298 100.33540344 1.2640000582 71.520446777 130.42121887 4.2724871635  -999.250000 4.1267366409
 2248.2534180  -999.250000 8.5244998932 8.5000000000 62.808395386 0.0639000013 6.6944999695 0.1325999945 2.5125999451 3.5462000370 104.42919922 1.2585999966 72.296600342 131.43299866 4.2020998001  -999.250000 4.0247001648
 2248.4060059  -999.250000 8.5258998871 8.5000000000 69.193572998 0.0644000024 7.3144998550 0.1319999993 2.5080833435 3.3670001030 113.21630096 1.0388000011 72.629722595 132.01770020 4.0981559753  -999.250000 3.9216892719
 2248.5583496  -999.250000 8.5255002975 8.5000000000 68.453742981 0.0619999990 7.9664006233 0.1319999993 2.4976992607 3.2244999409 112.14839935 0.8956000209 72.583938599 131.83076477 4.1327648163  -999.250000 3.9772059917
 2248.7106934  -999.250000 8.5349998474 8.5000000000 63.413719177 0.0592000000 7.9653000832 0.1333000064 2.4973087311 3.2239000797 109.92780304 0.8740000129 72.360656738 131.68463135 4.1106324196  -999.250000 3.9807388783
