# LAS format log file from PETREL
# Project units are specified as depth units
#==================================================================
~Version information
VERS.   2.0:
WRAP.   NO:
#==================================================================
~Well
STRT .m      703.83190918 :
STOP .m      2487.0642090 :
STEP .m     0.00000000 :
NULL .        -999.250000 :
COMP.           : COMPANY
WELL.  16/2-7 Johan Sverdrup Appr   : WELL
FLD.            : FIELD
LOC.            : LOCATION
SRVC.           : SERVICE COMPANY
DATE.  2018-09-11 14:48:07   : Log Export Date {yyyy-MM-dd HH:mm:ss}
PROV.           : PROVINCE
UWI.   16/2-7   : UNIQUE WELL ID
API.            : API NUMBER
#==================================================================
~Curve
DEPT .m                   : DEPTH
Lithology_geolink ._      : Lithology_geolink
CALI .in                  : CALI
BS .in                    : BS
ROP .m/h                  : ROP
DRHO .g/cm3               : DRHO
THOR .ppm                 : THOR
NPHI .m3/m3               : NPHI
RHOB .g/cm3               : RHOB
PEF .b/e                  : PEF
GR .gAPI                  : GR
URAN .ppm                 : URAN
DTC .us/ft                : DTC
DTS .us/ft                : DTS
RDEP .ohm.m               : RDEP
RMIC .ohm.m               : RMIC
RMED .ohm.m               : RMED
~Parameter
#==================================================================
~Ascii
# ...
 2124.8093262 3.0000000000 8.5544996262 8.5000000000 104.03794098 0.0531966351 5.8292999268 0.2529142797 2.3348000050 3.0496613979 78.899612427 1.5881999731 92.098503113 181.24969482 1.6878999472  -999.250000 1.6511000395
 2124.9619141 3.0000000000 8.5756998062 8.5000000000 111.19652557 0.0500000007 6.3593997955 0.2427999973 2.3341999054 2.7874000072 77.019096375 1.5765999556 91.048301697 180.52470398 1.7005000114  -999.250000 1.6635999680
 2125.1142578 3.0000000000 8.6058998108 8.5000000000 115.20899200 0.0542000011 6.8991999626 0.2433000058 2.3438000679 2.8097000122 78.592201233 1.4580999613 90.718292236 178.27409363 1.7101000547  -999.250000 1.6706999540
 2125.2666016 3.0000000000 8.5495004654 8.5000000000 108.71677399 0.0501065589 6.5005998611 0.2511873543 2.3438999653 2.9669480324 78.724884033 1.7260999680 91.115402222 176.96389771 1.7079999447  -999.250000 1.6615999937
 2125.4189453 3.0000000000 8.5378999710 8.5000000000 107.37352753 0.0538939089 6.9784002304 0.2520985603 2.3561999798 3.2758045197 79.966506958 1.4644000530 91.789909363 177.97079468 1.7268999815  -999.250000 1.6808999777
 2125.5712891 3.0000000000 8.5634002686 8.5000000000 118.76419830 0.0554974377 6.4703998566 0.2521998584 2.3564000130 3.0709297657 82.148399353 1.7777999640 92.572898865 180.31480408 1.7475999594  -999.250000 1.7014000416
 2125.7238770 3.0000000000 8.5387001038 8.5000000000 125.18635559 0.0590999983 6.3831000328 0.2504000068 2.3408999443 2.7859001160 83.638397217 2.0199000835 92.767692566 180.97268677 1.7419999838  -999.250000 1.7013000250
 2125.8762207 3.0000000000 8.5542001724 8.5000000000 136.09112549 0.0696830451 6.8238000870 0.2524966300 2.3434998989 3.1150724888 83.224861145 1.9157998562 91.865303040 180.91438293 1.7394000292  -999.250000 1.6865999699
 2126.0285645 3.0000000000 8.5811004639 8.5000000000 142.95193481 0.0696001649 6.5345997810 0.2520008087 2.3519999981 3.0959315300 81.088623047 1.7594000101 90.781692505 177.92970276 1.7568000555  -999.250000 1.7037999630
 2126.1809082 3.0000000000 8.5979995728 8.5000000000 133.89480591 0.0635097772 6.0896000862 0.2545958161 2.3478999138 3.0984959602 77.622756958 1.5923000574 90.442398071 175.72779846 1.7697999477  -999.250000 1.7266999483
 2126.3334961 3.0000000000 8.5901002884 8.5000000000 128.56922913 0.0680999979 5.8057999611 0.2527999878 2.3561000824 3.1307001114 77.188499451 1.3350000381 90.822799683 175.73730469 1.7766000032  -999.250000 1.7419999838
 2126.4858398 3.0000000000 8.5819997787 8.5000000000 117.69422150 0.0608000010 5.1963000298 0.2502000034 2.3523001671 3.0620999336 75.001296997 1.2947000265 90.987197876 175.31860352 1.7677999735  -999.250000 1.7577999830
 2126.6381836 3.0000000000 8.5652999878 8.5000000000 114.00262451 0.0585036799 4.8882999420 0.2422128022 2.3552000523 3.0433299541 76.071182251 1.3222999573 90.886703491 175.77029419 1.6554000378  -999.250000 1.6361000538
 2126.7905273 3.0000000000 8.5465002060 8.5000000000 125.91066742 0.0463195518 4.6638998985 0.2367088199 2.3285999298 2.6598155499 74.275787354 1.2405999899 90.887199402 176.91589355 1.6330000162  -999.250000 1.5990999937
 2126.9431152 3.0000000000 8.5532999039 8.5000000000 147.60531616 0.0562999994 4.7115001678 0.2335000038 2.3057000637 2.7560000420 74.206497192 1.2862999439 90.964302063 178.66259766 1.6366000175  -999.250000 1.5994999409
 2127.0954590 3.0000000000 8.5529003143 8.5000000000 148.99540710 0.0516000018 4.0297999382 0.2339999974 2.2969999313 2.7355000973 71.041297913 1.7425999641 90.900794983 177.90669250 1.6483999491  -999.250000 1.6008000374
 2127.2478027 3.0000000000 8.5719003677 8.5000000000 140.56141663 0.0489043221 4.1413002014 0.2366956770 2.3071999550 2.6298692226 70.286010742 2.0290000439 90.560600281 176.41209412 1.6787999868  -999.250000 1.6339000463
 2127.4001465 5.0000000000 8.5872001648 8.5000000000 127.19860077 0.0473025627 3.9946999550 0.2406935990 2.3168001175 2.8088123798 75.150283813 2.3034000397 90.412490845 175.07600403 1.7232999802  -999.250000 1.6717000008
 2127.5524902 5.0000000000 8.5776996613 8.5000000000 122.75251007 0.0531905442 3.6651999950 0.2413988858 2.3417000771 3.0038874149 79.025093079 2.4842000008 90.472297668 174.07069397 1.7576999664  -999.250000 1.6973999739
 2127.7050781 5.0000000000 8.5868997574 8.5000000000 124.69423676 0.0559000000 3.9370002747 0.2399999946 2.3536999226 3.0316998959 85.739501953 2.8185999393 90.382301331 173.38061523 1.7684999704  -999.250000 1.7127000093
 2127.8574219 5.0000000000 8.6360998154 8.5000000000 104.83136749 0.0680804774 4.0373001099 0.2343091220 2.3756000996 3.3204371929 81.330665588 2.8010001183 89.807891846 172.45091248 1.7697000504  -999.250000 1.7111999989
 2128.0097656 5.0000000000 8.5584001541 8.5000000000 95.622016907 0.0681998357 4.4057998657 0.2343000025 2.3721001148 3.1607570648 81.729148865 3.1628999710 88.901000977 171.31867981 1.8242000341  -999.250000 1.7864999771
 2128.1621094 5.0000000000 8.5714998245 8.5000000000 89.888442993 0.0625091344 5.0173997879 0.2370955199 2.3736999035 2.9808883667 80.539405823 3.4712998867 88.288307190 171.18020630 1.8068000078  -999.250000 1.7763999701
 2128.3146973 5.0000000000 8.6441001892 8.5000000000 82.321846008 0.0713000000 5.2964000702 0.2316000015 2.4026999474 3.7925000191 86.178497314 3.8900997639 88.354598999 170.83450317 1.7818000317  -999.250000 1.7403000593
 2128.4670410 5.0000000000 8.6913003922 8.5000000000 75.479003906 0.0778999999 5.0836000443 0.2317000031 2.4191000462 3.9291999340 90.486099243 4.0743999481 88.968688965 171.20790100 1.7934999466  -999.250000 1.7547999620
 2128.6193848 5.0000000000 8.6768999100 8.5000000000 67.528160095 0.0783992037 4.9865999222 0.2371912003 2.4191999435 3.5679788589 91.758560181 4.0535001755 89.725097656 171.54080200 1.7941000462  -999.250000 1.7577999830
 2128.7717285 5.0000000000 8.6337995529 8.5000000000 64.821586609 0.0669184327 5.2248997688 0.2403948754 2.3872001171 3.5955545902 91.173637390 3.5927000046 89.954406738 172.31681824 1.7483999729  -999.250000 1.7003999949
 2128.9243164 5.0000000000 8.6167001724 8.5000000000 68.887138367 0.0614000000 5.0801000595 0.2395000011 2.3526000977 3.1703999043 87.342498779 3.0292999744 89.800506592 172.56170654 1.7095999718  -999.250000 1.6518000364
 2129.0766602 5.0000000000 8.6322002411 8.5000000000 76.541992188 0.0662000030 4.8095998764 0.2321999967 2.3299002647 3.1454999447 79.736099243 2.4809000492 89.442695618 170.57899475 1.7407000065  -999.250000 1.6736999750
 2129.2290039 3.0000000000 8.6135997772 8.5000000000 76.574096680 0.0704931244 4.8471999168 0.2286057621 2.3315000534 3.0827007294 74.799713135 2.1064999104 88.943603516 169.52180481 1.7763999701  -999.250000 1.6900999546
 2129.3813477 3.0000000000 8.5999002457 8.5000000000 76.417907715 0.0762907043 4.8485999107 0.2221104205 2.3527998924 3.1048641205 68.108428955 2.0699000359 88.134803772 167.63861084 1.8365000486  -999.250000 1.7368999720
 2129.5336914 3.0000000000 8.5666999817 8.5000000000 76.467445374 0.0609246790 5.4622998238 0.2167086601 2.3568000793 2.7944982052 70.700317383 1.9629001617 86.826599121 165.76809692 1.9527000189  -999.250000 1.8775000572
 2129.6862793 3.0000000000 8.5530004501 8.5000000000 76.234580994 0.0628999993 5.7632999420 0.2119999975 2.3961000443 2.9918000698 71.502502441 2.0913000107 85.423500061 164.69619751 2.0021998882  -999.250000 1.9409999847
 2129.8386230 3.0000000000 8.5454998016 8.5000000000 77.335838318 0.0621012822 6.2371001244 0.1994201541 2.4502999783 3.3907606602 79.147346497 2.2133998871 84.496200562 161.38810730 1.9759000540  -999.250000 1.9177000523
 2129.9909668 3.0000000000 8.5516004562 8.5000000000 74.454765320 0.0599035248 6.7168002129 0.1998991966 2.4890000820 3.6724488735 84.061531067 2.3503999710 84.105598450 161.08592224 1.9556000233  -999.250000 1.9043999910
 2130.1433105 3.0000000000 8.5493001938 8.5000000000 77.382102966 0.0612977557 7.2322001457 0.1968049556 2.5000000000 3.8338415623 90.777236938 2.4955999851 83.662300110 163.73670959 1.9648000002  -999.250000 1.9308999777
 2130.2958984 5.0000000000 8.5587997437 8.5000000000 80.315948486 0.0647000000 7.7544002533 0.1959999949 2.5062003136 3.8450000286 90.179801941 2.2725000381 83.985298157 167.09848022 1.9328999519  -999.250000 1.9088000059
