# LAS format log file from PETREL
# Project units are specified as depth units
#==================================================================
~Version information
VERS.   2.0:
WRAP.   NO:
#==================================================================
~Well
STRT .m      735.07409668 :
STOP .m      2124.0476074 :
STEP .m     0.00000000 :
NULL .        -999.250000 :
COMP.           : COMPANY
WELL.  16/2-6   : WELL
FLD.            : FIELD
LOC.            : LOCATION
SRVC.           : SERVICE COMPANY
DATE.  2018-09-11 14:48:07   : Log Export Date {yyyy-MM-dd HH:mm:ss}
PROV.           : PROVINCE
UWI.   16/2-6   : UNIQUE WELL ID
API.            : API NUMBER
#==================================================================
~Curve
DEPT .m                   : DEPTH
Lithology_geolink ._      : Lithology_geolink
CALI .in                  : CALI
BS .in                    : BS
ROP .m/h                  : ROP
DRHO .g/cm3               : DRHO
NPHI .m3/m3               : NPHI
RHOB .g/cm3               : RHOB
PEF .b/e                  : PEF
GR .gAPI                  : GR
DTC .us/ft                : DTC
DTS .us/ft                : DTS
RDEP .ohm.m               : RDEP
RMED .ohm.m               : RMED
~Parameter
#==================================================================
~Ascii
# ...
 1103.8819580  -999.250000 12.408598900 12.250000954 68.349739075 -0.014000000 0.4456999898 2.1231000423 3.0315001011 134.14439392 140.71459961  -999.250000 2.0987000465 1.9695242643
 1104.0344238  -999.250000 12.349799156 12.250000954 73.540351868 -0.009900000 0.4365000129 2.1496000290 3.0574998856 136.84039307 140.98959351  -999.250000 2.1329998970 2.0423998833
 1104.1867676  -999.250000 12.346899986 12.250000954 71.920928955 -0.007500000 0.4255000055 2.1726999283 3.1026999950 138.35560608 140.25750732  -999.250000 2.1479001045 2.0426998138
 1104.3392334  -999.250000 12.356699944 12.250000954 70.212600708 -0.007300000 0.4122000039 2.1809000969 3.1282000542 134.38949585 139.43769836  -999.250000 2.1105000973 1.9356000423
 1104.4915771  -999.250000 12.335100174 12.250000954 69.105316162 -0.006700000 0.4357999861 2.1775999069 3.1386001110 131.61560059 137.98840332  -999.250000 2.0940999985 2.1186532974
 1104.6440430  -999.250000 12.313500404 12.250000954 65.895996094 -0.005100000 0.4460999966 2.1728000641 3.1456000805 134.18899536 138.30990601  -999.250000 2.2156999111 2.1928000450
 1104.7963867  -999.250000 12.342000961 12.250000954 61.851379395 -0.006600000 0.4726000130 2.1668000221 3.1296999454 143.29080200 137.81990051  -999.250000 2.3459000587 2.2778317928
 1104.9488525  -999.250000 12.331200600 12.250000954 60.716533661 -0.010000000 0.4492999911 2.1751000881 3.1767001152 147.57670593 137.86990356  -999.250000 2.2657001019 1.8998999596
 1105.1011963  -999.250000 12.347800255 12.250000954 60.003940582 -0.011500000 0.4514999986 2.1837999821 3.1484999657 140.85209656 139.27650452  -999.250000 2.2142999172 1.9078935385
 1105.2535400  -999.250000 12.364500046 12.250000954 59.565620422 -0.013100000 0.4537000060 2.1925001144 3.1203999519 135.94110107 141.94149780  -999.250000 2.2093000412 1.9311813116
 1105.4060059  -999.250000 12.410099983 12.250000954 60.266399384 -0.012900000 0.4535000026 2.2070999146 3.0704998970 135.89469910 142.92700195  -999.250000 2.2541000843 2.0770831108
 1105.5583496  -999.250000 12.420399666 12.250000954 61.004268646 -0.011100000 0.4638999999 2.2030000687 3.0506000519 134.90730286 143.57080078  -999.250000 2.2567999363 2.0293383598
 1105.7108154  -999.250000 12.382199287 12.250000954 62.418308258 -0.012700000 0.4639999866 2.1835999489 3.1184000969 130.70089722 146.93499756  -999.250000 2.5118999481 2.1991999149
 1105.8631592  -999.250000 12.353699684 12.250000954 61.687992096 -0.008700000 0.4190999866 2.1738998890 3.2125000954 128.04649353 145.48429871  -999.250000 2.5007998943 1.9011387825
 1106.0156250  -999.250000 12.411599159 12.250000954 58.893043518 -0.004300000 0.3837000132 2.1575000286 3.3901998997 127.40059662 143.76809692  -999.250000 3.0120000839 2.3234999180
 1106.1679688  -999.250000 12.487999916 12.250000954 40.961940765 0.0007000000 0.3795999885 2.1336998940 3.4790999889 122.16639709 142.02990723  -999.250000 2.3650999069 1.8053152561
 1106.3204346  -999.250000 12.505700111 12.250000954 42.834316254 -0.003000000 0.4174999893 2.0996999741 3.4021000862 118.19339752 135.55999756  -999.250000 2.3046000004 1.8251999617
 1106.4727783  -999.250000 12.431200027 12.250000954 44.052494049 -0.006900000 0.4600999951 2.0871000290 3.2256000042 124.79810333 135.62460327  -999.250000 2.2622001171 1.8154078722
 1106.6252441  -999.250000 12.634099960 12.250000954 45.162075043 -0.007900000 0.4762000144 2.0924000740 3.3803999424 134.04420471 138.04559326  -999.250000 2.1010000706 1.6875000000
 1106.7775879  -999.250000 12.394901276 12.250000954 45.604003906 -0.002800000 0.4950999916 2.1087999344 4.0686001778 132.85220337 139.84100342  -999.250000 2.2105000019 1.8028075695
 1106.9300537  -999.250000 12.386099815 12.250000954 45.533794403 0.0027999999 0.4765999913 2.1270999908 4.3768000603 128.77470398 140.39160156  -999.250000 2.2421998978 1.7891999483
 1107.0823975  -999.250000 12.393899918 12.250000954 45.303806305 -0.000500000 0.4929000139 2.1301999092 4.2624001503 129.10899353 140.87260437  -999.250000 2.1215999126 1.7040681839
 1107.2347412  -999.250000 12.401800156 12.250000954 44.088584900 -0.003800000 0.5091000199 2.1333000660 4.1479997635 127.82409668 141.36270142  -999.250000 2.1017999649 1.7256826162
 1107.3872070  -999.250000 12.359600067 12.250000954 43.414371490 -0.008200000 0.4769000113 2.1440999508 3.5139999390 130.90629578 140.43659973  -999.250000 2.1312999725 1.7275984287
 1107.5395508  -999.250000 12.340000153 12.250000954 44.806758881 -0.011000000 0.4778999984 2.1410000324 3.4500000477 139.06480408 140.03259277  -999.250000 2.0627000332 1.6435673237
 1107.6920166  -999.250000 12.314499855 12.250000954 69.309379578 -0.003600000 0.4686000049 2.1510999203 3.5353999138 137.24150085 138.08580017  -999.250000 2.1494998932 1.6895999908
 1107.8443604  -999.250000 12.371400833 12.250000954 66.904853821 -0.004200000 0.4663000107 2.1531999111 3.6247000694 129.79969788 138.30329895  -999.250000 2.1168000698 1.6331452131
 1107.9968262  -999.250000 12.363499641 12.250000954 64.818237305 -0.006400000 0.4715000093 2.1591000557 3.6482000351 131.54870605 139.96359253  -999.250000 2.1259000301 1.6043000221
 1108.1491699  -999.250000 12.535400391 12.250000954 64.075134277 -0.010200000 0.4523000121 2.1514000893 3.5209999084 134.46009827 139.63529968  -999.250000 2.2025001049 1.6856348515
 1108.3016357  -999.250000 12.614500999 12.250000954 63.274612427 -0.008400000 0.4833999872 2.1419999599 3.4635000229 133.76199341 142.12010193  -999.250000 2.2116000652 1.7585999966
 1108.4539795  -999.250000 12.578200340 12.250000954 62.365489960 -0.011800000 0.4954000115 2.1407001019 3.2767999172 137.67230225 142.51699829  -999.250000 2.1412000656 1.7316216230
 1108.6064453  -999.250000 12.543899536 12.250000954 63.699150085 -0.009000000 0.4663999975 2.1589999199 3.3522000313 139.87809753 140.93940735  -999.250000 2.1556000710 1.7036000490
 1108.7587891  -999.250000 12.537099838 12.250000954 67.465225220 -0.004700000 0.4557999969 2.1693000793 3.4553999901 138.52639771 141.29620361  -999.250000 2.1484999657 1.6818174124
 1108.9112549  -999.250000 12.528200150 12.250000954 71.350395203 0.0033000000 0.4512999952 2.1644999981 3.6150999069 139.21339417 143.35549927  -999.250000 2.1547000408 1.6868000031
 1109.0635986  -999.250000 12.609600067 12.250000954 73.478347778 0.0052999998 0.4787999988 2.1484000683 3.7557001114 140.32369995 147.85360718  -999.250000 2.1937999725 1.7247695923
 1109.2159424  -999.250000 12.548800468 12.250000954 74.870735168 0.0038999999 0.4943999946 2.1415998936 3.7923998833 135.42930603 152.04710388  -999.250000 2.1633000374 1.7112108469
 1109.3684082  -999.250000 12.487999916 12.250000954 75.782478333 0.0024000001 0.5099999905 2.1347999573 3.8292000294 128.26969910 148.44949341  -999.250000 2.1909000874 1.7037059069
 1109.5207520  -999.250000 12.494899750 12.250000954 63.768371582 -0.006300000 0.5243999958 2.1273000240 3.7479999065 132.20599365 149.18899536  -999.250000 2.1940000057 1.7265816927
 1109.6732178  -999.250000 12.253700256 12.250000954 66.594818115 -0.009000000 0.5396999717 2.1329998970 3.6203999519 137.62030029 148.47320557  -999.250000 2.1686000824 1.6897000074
 1109.8255615  -999.250000 12.783099174 12.250000954 67.987205505 -0.007500000 0.4889999926 2.1565999985 3.4567000866 135.62240601 143.57890320  -999.250000 2.1626999378 1.6921979189
 1109.9780273  -999.250000 12.390000343 12.250000954 68.073493958 -0.006000000 0.4702000022 2.1661000252 3.4179999828 139.97459412 141.60079956  -999.250000 2.1379001141 1.6322000027
 1110.1303711  -999.250000 12.397800446 12.250000954 69.330383301 -0.005400000 0.4593999982 2.1672999859 3.4309999943 152.05459595 144.30749512  -999.250000 2.0550999641 1.5749459267
 1110.2828369  -999.250000 12.489000320 12.250000954 73.053802490 -0.010200000 0.4873999953 2.1538000107 3.4451000690 155.93530273 142.04069519  -999.250000 1.8466999531 1.4632999897
 1110.4351807  -999.250000 12.497799873 12.250000954 74.786422729 -0.007100000 0.4941000044 2.1668999195 3.5659000874 146.69979858 144.63589478  -999.250000 1.6223000288 1.3896590471
