# LAS format log file from PETREL
# Project units are specified as depth units
#==================================================================
~Version information
VERS.   2.0:
WRAP.   NO:
#==================================================================
~Well
STRT .m      703.83190918 :
STOP .m      2487.0642090 :
STEP .m     0.00000000 :
NULL .        -999.250000 :
COMP.           : COMPANY
WELL.  16/2-7 Johan Sverdrup Appr   : WELL
FLD.            : FIELD
LOC.            : LOCATION
SRVC.           : SERVICE COMPANY
DATE.  2018-09-11 14:48:07   : Log Export Date {yyyy-MM-dd HH:mm:ss}
PROV.           : PROVINCE
UWI.   16/2-7   : UNIQUE WELL ID
API.            : API NUMBER
#==================================================================
~Curve
DEPT .m                   : DEPTH
Lithology_geolink ._      : Lithology_geolink
CALI .in                  : CALI
BS .in                    : BS
ROP .m/h                  : ROP
DRHO .g/cm3               : DRHO
THOR .ppm                 : THOR
NPHI .m3/m3               : NPHI
RHOB .g/cm3               : RHOB
PEF .b/e                  : PEF
GR .gAPI                  : GR
URAN .ppm                 : URAN
DTC .us/ft                : DTC
DTS .us/ft                : DTS
RDEP .ohm.m               : RDEP
RMIC .ohm.m               : RMIC
RMED .ohm.m               : RMED
~Parameter
#==================================================================
~Ascii
# ...
 1769.5650635 13.000000000 12.713399887 12.250000954 25.897254944 0.0172943119  -999.250000 0.2458057702 2.4123001099 4.2829999924 74.069747925  -999.250000 108.75690460 274.44790649 1.2070000172  -999.250000 1.1585999727
 1769.7174072 13.000000000 12.952099800 12.250000954 24.716495514 0.0099059297  -999.250000 0.2384059280 2.4316999912 4.2940998077 67.719696045  -999.250000 107.49519348 276.52960205 1.2704000473  -999.250000 1.2544000149
 1769.8698730 13.000000000 12.904799461 12.250000954 29.304395676 0.0105994390  -999.250000 0.2273088843 2.4312996864 4.5559000969 63.231094360  -999.250000 106.23140717 273.89581299 1.1887999773  -999.250000 1.1519000530
 1770.0222168 13.000000000 12.717500687 12.250000954 35.882522583 -0.012381570  -999.250000 0.2464846224 2.4121000767 3.8241000175 63.928237915  -999.250000 105.48739624 255.29280090 1.2329000235  -999.250000 1.1779999733
 1770.1746826 13.000000000 12.803999901 12.250000954 35.976306915 -0.012599840  -999.250000 0.2535943091 2.4163000584 4.0581998825 64.760536194  -999.250000 103.92859650 235.64289856 1.2488000393  -999.250000 1.2203999758
 1770.3270264 13.000000000 12.791700363 12.250000954 36.176677704 -0.020393752  -999.250000 0.2666895092 2.3803000450 3.4453999996 67.047866821  -999.250000 103.38619995 233.63491821 1.2815999985  -999.250000 1.2317999601
 1770.4794922 13.000000000 12.802699089 12.250000954 37.738250732 -0.011007526  -999.250000 0.2804889381 2.3729999065 3.2969999313 61.678001404  -999.250000 102.10279846 214.86888123 1.4197000265  -999.250000 1.4040000439
 1770.6318359 13.000000000 12.835400581 12.250000954 39.045536041 -0.010500400  -999.250000 0.2814992070 2.3763000965 3.4551000595 63.731246948  -999.250000 103.89739990 220.05401611 1.3234000206  -999.250000 1.2862000465
 1770.7841797 13.000000000 12.720001221 12.250000954 48.225437164 -0.013994396  -999.250000 0.2590360343 2.3810999393 3.5813000202 69.987770081  -999.250000 109.49450684 217.34339905 1.3603999615  -999.250000 1.3214999437
 1770.9366455 13.000000000 12.667598724 12.250000954 55.657764435 -0.009503606  -999.250000 0.2469097078 2.4138998985 3.9333000183 69.306854248  -999.250000 115.49440002 224.39851379 1.3762999773  -999.250000 1.3665000200
 1771.0889893 13.000000000 12.741800308 12.250000954 51.450656891 -0.008501601  -999.250000 0.2383137643 2.4474000931 3.7430000305 64.080688477  -999.250000 117.63220215 244.19061279 1.3023999929  -999.250000 1.2964999676
 1771.2414551 13.000000000 12.580699921 12.250000954 46.599029541 -0.009499199  -999.250000 0.2094231546 2.4633998871 4.1992001534 72.644226074  -999.250000 112.64620209 253.28930664 1.1743999720  -999.250000 1.1512999535
 1771.3937988 13.000000000 12.511099815 12.250000954 44.539058685 -0.007004004  -999.250000 0.2124950439 2.4756999016 4.2077999115 73.891311646  -999.250000 105.05619812 248.52360535 1.1701999903  -999.250000 1.1323000193
 1771.5462646 13.000000000 12.528498650 12.250000954 43.509025574 -0.013894470  -999.250000 0.2053057700 2.4514000416 4.0637001991 69.829856873  -999.250000 95.041488647 245.14979553 1.2207000256  -999.250000 1.1454999447
 1771.6986084 13.000000000 12.690199852 12.250000954 45.267948151 -0.012101443  -999.250000 0.2084974349 2.4388000965 4.1266999245 71.090888977  -999.250000 85.122192383 236.51640320 1.3710000515  -999.250000 1.2907999754
 1771.8510742 13.000000000 15.303799629 12.250000954 47.437568665 -0.011500481  -999.250000 0.2273848802 2.4431002140 4.1834998131 64.773063660  -999.250000 83.537803650 225.73822021 1.7276999950  -999.250000 2.0232000351
 1772.0034180 13.000000000 16.447799683 12.250000954 47.123939514 -0.014497596  -999.250000 0.2230035365 2.4539999962 4.3531999588 70.266387939  -999.250000 86.708396912 225.43870544 1.8717000484  -999.250000 2.2358000278
 1772.1558838 13.000000000 17.300399780 12.250000954 47.574111938 -0.014000401  -999.250000 0.2500782907 2.3882999420 3.8708999157 72.470535278  -999.250000 94.110397339 218.44309998 1.7826000452  -999.250000 2.3664000034
 1772.3082275 13.000000000 17.449800491 12.250000954 51.498165131 -0.002509215 4.8607997894 0.2569999993 2.3671998978 3.7781999111 78.082000732 0.9355000257 100.46420288 228.70219421 1.6592999697  -999.250000 2.3385999203
 1772.4606934 13.000000000 17.526699066 12.250000954 55.319118500 -0.002999600 4.8488998413 0.2698999941 2.3785998821 4.0524001122 79.524551392 0.9147999883 101.30449677 251.49378967 1.6103999615  -999.250000 2.3138999939
 1772.6130371 13.000000000 17.496200562 12.250000954 54.067607880 -0.004698638 4.5696001053 0.2626999915 2.4379000664 4.4984002113 81.973541260 0.7996000051 101.28019714 252.87780762 1.6924999952  -999.250000 2.4061000347
 1772.7653809 13.000000000 17.430999756 12.250000954 47.187213898 -0.003501922 4.5268998146 0.2175000012 2.4872999191 4.5952000618 78.513053894 0.7799999714 102.95739746 246.87210083 1.6713000536  -999.250000 2.3273000717
 1772.9178467 13.000000000 17.422300339 12.250000954 41.106571198 -0.013192227 4.8471999168 0.1802999973 2.5016999245 4.7129998207 75.629508972 0.6664999723 107.51181030 251.69940186 1.5528000593  -999.250000 2.0998001099
 1773.0701904 13.000000000 17.426599503 12.250000954 39.279823303 -0.010204804 5.1087999344 0.1680999994 2.5079998970 4.9330000877 77.023956299 0.8133000135 112.33159637 250.35949707 1.4441000223  -999.250000 1.8975000381
 1773.2226563 13.000000000 17.435300827 12.250000954 38.329826355 -0.013497356 5.2860999107 0.1816000044 2.4751000404 4.3516998291 81.929367065 0.8252999783 112.70629883 246.33209229 1.5039000511  -999.250000 1.8975000381
 1773.3750000 13.000000000 17.387399673 12.250000954 39.439819336 -0.021786710 5.1564002037 0.1897000074 2.4674999714 4.3123998642 80.974342346 0.7184000015 107.14879608 238.20321655 1.7666000128  -999.250000 2.1958000660
 1773.5274658 13.000000000 17.400499344 12.250000954 41.954349518 -0.019102164 4.5715999603 0.2175000012 2.4547998905 4.4373002052 74.379585266 0.6506000161 96.922096252 214.30850220 2.2688000202  -999.250000 2.7414000034
 1773.6798096 13.000000000 17.383100510 12.250000954 42.203540802 -0.006610016 4.1865000725 0.2357999980 2.3777000904 3.4734001160 66.210144043 0.4614999890 88.619598389 204.75729370 2.8045001030  -999.250000 3.3900001049
 1773.8322754 13.000000000 17.400499344 12.250000954 40.558078766 -0.010297038 3.2827999592 0.2619999945 2.3705000877 3.4742999077 62.892551422 0.7002999783 86.001403809 203.51139832 3.2658998966  -999.250000 3.8619999886
 1773.9846191 13.000000000 17.400499344 12.250000954 39.413970947 -0.000607772 3.3229999542 0.2096000016 2.4737000465 4.4140000343 67.966125488 0.7225000262 86.652893066 185.24818420 3.0527000427  -999.250000 3.5234000683
 1774.1370850 13.000000000 17.400499344 12.250000954 38.962631226 -0.005296237 3.2160999775 0.1987999976 2.4779000282 4.4661002159 70.101593018 0.6790000200 86.727195740 183.68409729 2.9114999771  -999.250000 3.3002998829
 1774.2894287 13.000000000 17.400499344 12.250000954 39.889347076 -0.009496634 3.0529000759 0.2161000073 2.4261000156 3.9839999676 71.993583679 0.8701000214 88.259407043 188.20399475 3.0339999199  -999.250000 3.3473000526
 1774.4418945 13.000000000 17.400499344 12.250000954 41.477405548 -0.003205044 3.0292000771 0.2257000059 2.4145998955 4.1592001915 69.875198364 0.9827999473 94.327095032 191.58020020 2.7567000389  -999.250000 2.9467999935
 1774.5942383 13.000000000 17.413600922 12.250000954 41.200683594 -0.003100080 3.7806999683 0.2267999947 2.4135000706 4.1543998718 77.632270813 1.2467999458 102.28469849 195.15107727 2.1177999973  -999.250000 2.2281999588
 1774.7467041 13.000000000 17.435300827 12.250000954 40.050788879 -0.004698719 4.1078000069 0.2254000008 2.4173998833 4.0731000900 84.499801636 1.0115000010 106.90019989 227.32191467 1.9207999706  -999.250000 2.0009000301
 1774.8990479 13.000000000 17.426599503 12.250000954 39.410942078 -0.002701603 4.2067999840 0.2213000059 2.4247999191 4.2224998474 83.756103516 0.7712000012 104.00009918 252.83959961 2.1786999702  -999.250000 2.2994999886
 1775.0513916 13.000000000 17.388200760 12.250000954 43.580909729 -0.000803042 3.7467000484 0.2171999961 2.4321999550 4.3720002174 77.038871765 0.6690000296 97.593597412 247.77949524 2.5704998970  -999.250000 2.7548000813
