# LAS format log file from PETREL
# Project units are specified as depth units
#==================================================================
~Version information
VERS.   2.0:
WRAP.   NO:
#==================================================================
~Well
STRT .m      735.07409668 :
STOP .m      2124.0476074 :
STEP .m     0.00000000 :
NULL .        -999.250000 :
COMP.           : COMPANY
WELL.  16/2-6   : WELL
FLD.            : FIELD
LOC.            : LOCATION
SRVC.           : SERVICE COMPANY
DATE.  2018-09-11 14:48:07   : Log Export Date {yyyy-MM-dd HH:mm:ss}
PROV.           : PROVINCE
UWI.   16/2-6   : UNIQUE WELL ID
API.            : API NUMBER
#==================================================================
~Curve
DEPT .m                   : DEPTH
Lithology_geolink ._      : Lithology_geolink
CALI .in                  : CALI
BS .in                    : BS
ROP .m/h                  : ROP
DRHO .g/cm3               : DRHO
NPHI .m3/m3               : NPHI
RHOB .g/cm3               : RHOB
PEF .b/e                  : PEF
GR .gAPI                  : GR
DTC .us/ft                : DTC
DTS .us/ft                : DTS
RDEP .ohm.m               : RDEP
RMED .ohm.m               : RMED
~Parameter
#==================================================================
~Ascii
# ...
 1472.6899414 19.000000000 12.488100052 12.250000954 110.48950195 -0.000500000 0.4553000033 2.0975999832 4.9359998703 59.068698883 139.06390381  -999.250000 0.8403999805 0.7579941154
 1472.8424072 19.000000000 12.457599640 12.250000954 117.03510284 0.0018000000 0.4616000056 2.1036000252 4.9045000076 56.309600830 139.59899902  -999.250000 0.9884999990 0.8793027401
 1472.9947510 19.000000000 12.502699852 12.250000954 116.55381012 -0.003900000 0.4603999853 2.0968000889 4.7512001991 55.956798553 138.44590759  -999.250000 0.7379000187 0.6258033514
 1473.1472168 19.000000000 12.524299622 12.250000954 115.71226501 -0.006600000 0.4997000098 2.0924999714 4.8777999878 58.114299774 137.03210449  -999.250000 0.9273999929 0.7978619337
 1473.2995605 19.000000000 12.564499855 12.250000954 116.75492096 -0.010700000 0.4605000019 2.0975000858 4.9356999397 59.581100464 136.65420532  -999.250000 1.0377000570 0.9642666578
 1473.4520264 19.000000000 12.472399712 12.250000954 118.85564423 -0.011100000 0.4993000031 2.1006000042 4.9527001381 60.750900269 138.68029785  -999.250000 0.9581999779 0.7950357199
 1473.6043701 6.0000000000 12.368398666 12.250000954 118.61351776 -0.008400000 0.4670999944 2.0971999168 4.6918997765 65.441001892 139.89669800  -999.250000 0.9045000076 0.8379654884
 1473.7568359 6.0000000000 12.435099602 12.250000954 113.99409485 -0.013600000 0.5231000185 2.1308000088 4.8701000214 70.053199768 137.38789368  -999.250000 0.8052999973 0.6640394330
 1473.9091797 6.0000000000 12.510599136 12.250000954 108.32807922 0.0044000000 0.4469999969 2.2079000473 4.8759999275 67.903099060 132.89700317  -999.250000 1.7346999645 0.8742313385
 1474.0616455 6.0000000000 12.603700638 12.250000954 104.59449005 -0.000400000 0.4158999920 2.2102999687 5.2452001572 60.732299805 127.62969971  -999.250000 1.0410000086 1.0084925890
 1474.2139893 6.0000000000 12.325301170 12.250000954 55.444229126 0.0041999999 0.4140000045 2.1607000828 4.9352998734 55.221500397 126.32759857  -999.250000 0.9653000236 1.1142153740
 1474.3663330 19.000000000 12.349399567 12.250000954 41.404197693 -0.008800000 0.4474999905 2.0959000587 4.5914001465 55.544601440 129.94490051  -999.250000 0.8306000233 0.7382032275
 1474.5187988 19.000000000 12.367500305 12.250000954 41.219158173 -0.006500000 0.4550999999 2.0841000080 4.1515998840 55.254901886 134.49099731  -999.250000 0.9049999714 0.7401978970
 1474.6711426 19.000000000 12.338000298 12.250000954 41.280185699 -0.003600000 0.4819999933 2.0817000866 3.8378999233 53.034198761 138.69569397  -999.250000 0.8109999895 0.6726084352
 1474.8236084 19.000000000 12.300800323 12.250000954 40.728019714 -0.005400000 0.4808000028 2.0796000957 3.9683001041 55.191799164 140.83580017  -999.250000 0.7810999751 0.7075718641
 1474.9759521 19.000000000 12.309300423 12.250000954 40.290679932 -0.005200000 0.5220999718 2.0915999413 4.2364001274 58.935001373 140.37379456  -999.250000 0.7885000110 0.7099961638
 1475.1284180 19.000000000 12.321399689 12.250000954 40.152557373 -0.009400000 0.4932999909 2.0931000710 4.5959000587 60.851200104 138.04809570  -999.250000 0.8233000040 0.6963109970
 1475.2807617 19.000000000 12.427300453 12.250000954 40.175525665 -0.008200000 0.4785000086 2.1001999378 4.9746999741 59.547698975 135.36630249  -999.250000 0.8167999983 0.6417437792
 1475.4332275 19.000000000 12.591000557 12.250000954 40.125328064 -0.007900000 0.4718999863 2.1094000340 5.2758998871 54.122299194 132.65220642  -999.250000 1.2948999405 1.1994531155
 1475.5855713 19.000000000 12.585499763 12.250000954 58.934051514 -0.005500000 0.4632000029 2.1291000843 5.3800001144 47.315498352 129.06430054  -999.250000 1.1283999681 1.0107516050
 1475.7380371 19.000000000 12.581199646 12.250000954 84.972770691 -0.006500000 0.4805999994 2.1275000572 5.3434000015 51.704799652 125.96610260  -999.250000 1.1219999790 0.8067632914
 1475.8903809 19.000000000 12.644900322 12.250000954 84.022636414 -0.010400000 0.4704999924 2.1250000000 5.4228000641 56.116401672 124.96411133  -999.250000 0.9840999842 0.7708286643
 1476.0428467 19.000000000 12.585101128 12.250000954 81.073822021 -0.011200000 0.4961999953 2.1147999763 5.6001000404 52.402999878 125.60800171  -999.250000 1.5552999973 1.3560310602
 1476.1951904 19.000000000 12.450799942 12.250000954 80.121719360 -0.006200000 0.5105999708 2.1289999485 5.4306001663 46.342498779 125.44979858  -999.250000 1.1725000143 0.8046425581
 1476.3475342 19.000000000 12.426300049 12.250000954 79.113517761 0.0030000000 0.5105999708 2.1336998940 5.4046998024 47.241199493 123.84929657  -999.250000 1.2441999912 0.9246068597
 1476.5000000 19.000000000 12.424301147 12.250000954 76.482612610 0.0024000001 0.4905999899 2.1245999336 5.3060002327 51.686199188 120.52390289  -999.250000 1.2523000240 1.1991798878
 1476.6523438 19.000000000 12.433099747 12.250000954 77.166664124 0.0054000001 0.4661000073 2.1082999706 5.8633999825 51.571098328 115.15420532  -999.250000 1.3328000307 1.0989609957
 1476.8048096 19.000000000 12.502800941 12.250000954 76.309387207 0.0043000001 0.4124999940 2.1133999825 6.1722002029 49.008800507 110.29620361  -999.250000 2.2709999084 1.9789941311
 1476.9571533 19.000000000 12.643900871 12.250000954 72.961288452 0.0104000000 0.3648000062 2.1503999233 6.1708002090 44.879398346 109.57790375  -999.250000 1.3811000586 1.4433602095
 1477.1096191 19.000000000 12.582899094 12.250000954 71.130577087 0.0071999999 0.3783999979 2.1619999409 5.4718999863 42.283699036 114.49269867  -999.250000 1.3806999922 1.3458775282
 1477.2619629 19.000000000 12.453701019 12.250000954 72.866142273 0.0074999998 0.4072000086 2.1461000443 5.1978998184 49.862899780 120.65209198  -999.250000 1.0138000250 0.9789999723
 1477.4144287 19.000000000 12.444999695 12.250000954 73.748687744 0.0077000000 0.4469999969 2.1340999603 5.4067001343 57.104198456 124.55718994  -999.250000 1.1859999895 1.1794999838
 1477.5667725 19.000000000 12.433099747 12.250000954 74.792655945 0.0035999999 0.4532000124 2.1317999363 5.7494001389 52.740898132 125.99330139  -999.250000 1.2556999922 1.0575000048
 1477.7192383 19.000000000 12.429900169 12.250000954 74.679786682 -0.003700000 0.4654000103 2.1368000507 5.4366998672 46.658199310 126.43190002  -999.250000 1.0848000050 0.9918000102
 1477.8715820 19.000000000 12.427200317 12.250000954 76.404853821 -0.007600000 0.4801999927 2.1249001026 4.8494000435 46.970100403 128.28230286  -999.250000 0.8497999907 0.7034999728
 1478.0240479 19.000000000 12.406000137 12.250000954 79.546913147 -0.010000000 0.4586000144 2.1131000519 4.4981999397 51.392898560 131.04570007  -999.250000 0.9800999761 0.9318000078
 1478.1763916 19.000000000 12.396900177 12.250000954 78.228347778 -0.010900000 0.4334000051 2.1096000671 4.3039999008 53.420501709 132.47869873  -999.250000 0.9564999938 1.0108000040
 1478.3287354 19.000000000 12.390999794 12.250000954 80.279853821 -0.007600000 0.4350999892 2.1270000935 4.2944002151 51.638000488 131.83020020  -999.250000 0.9351000190 0.8474000096
 1478.4812012 19.000000000 12.418399811 12.250000954 82.624015808 -0.003000000 0.4320000112 2.1540000439 4.5230998993 49.944599152 129.21620178  -999.250000 1.0801000595 0.9441000223
 1478.6335449 19.000000000 12.409000397 12.250000954 84.753936768 0.0035000001 0.4487999976 2.1700997353 4.9478998184 47.482601166 126.65899658  -999.250000 1.1380000114 1.0575000048
 1478.7860107 19.000000000 12.399800301 12.250000954 85.992782593 0.0077000000 0.4492999911 2.1772000790 5.0780000687 47.449100494 125.67269897  -999.250000 1.0657000542 1.0161000490
 1478.9383545 19.000000000 12.313500404 12.250000954 86.391731262 0.0082000000 0.4327999949 2.1561999321 4.8085999489 54.211399078 125.80229950  -999.250000 0.9332000017 0.9000999928
 1479.0908203 6.0000000000 12.285099983 12.250000954 87.374015808 0.0046999999 0.4244000018 2.1387999058 4.3937001228 61.872398376 128.33509827  -999.250000 0.8062000275 0.7946000099
 1479.2431641 6.0000000000 12.309200287 12.250000954 89.214233398 -0.000400000 0.4345000088 2.1166000366 4.1758999825 62.752498627 131.92480469  -999.250000 0.8302999735 0.8202999830
