# LAS format log file from PETREL
# Project units are specified as depth units
#==================================================================
~Version information
VERS.   2.0:
WRAP.   NO:
#==================================================================
~Well
STRT .m      735.07409668 :
STOP .m      2124.0476074 :
STEP .m     0.00000000 :
NULL .        -999.250000 :
COMP.           : COMPANY
WELL.  16/2-6   : WELL
FLD.            : FIELD
LOC.            : LOCATION
SRVC.           : SERVICE COMPANY
DATE.  2018-09-11 14:48:07   : Log Export Date {yyyy-MM-dd HH:mm:ss}
PROV.           : PROVINCE
UWI.   16/2-6   : UNIQUE WELL ID
API.            : API NUMBER
#==================================================================
~Curve
DEPT .m                   : DEPTH
Lithology_geolink ._      : Lithology_geolink
CALI .in                  : CALI
BS .in                    : BS
ROP .m/h                  : ROP
DRHO .g/cm3               : DRHO
NPHI .m3/m3               : NPHI
RHOB .g/cm3               : RHOB
PEF .b/e                  : PEF
GR .gAPI                  : GR
DTC .us/ft                : DTC
DTS .us/ft                : DTS
RDEP .ohm.m               : RDEP
RMED .ohm.m               : RMED
~Parameter
#==================================================================
~Ascii
# ...
 1010.0036011  -999.250000 12.431200027 12.250000954 82.010169983 -0.011999560 0.3273000121 2.0535957813 2.5753610134 60.420398712 136.12179565  -999.250000 0.8590999842 0.5978999734
 1010.1560059  -999.250000 12.437299728 12.250000954 85.357612610 -0.010898799 0.3492999971 2.0429983139 2.7280452251 61.317199707 138.06329346  -999.250000 0.8503999710 0.5921999812
 1010.3084106  -999.250000 12.442900658 12.250000954 82.890090942 -0.007899879 0.3583000004 2.0387959480 2.8409292698 59.700000763 137.59649658  -999.250000 0.8888999820 0.6238999963
 1010.4608154  -999.250000 12.434599876 12.250000954 83.681427002 -0.007598959 0.3646999896 2.0284059048 2.9140288830 60.126998901 132.96350098  -999.250000 0.9377999902 0.6445999742
 1010.6132202  -999.250000 12.419400215 12.250000954 86.637138367 -0.005000921 0.3483000100 2.0434980392 2.9862298965 64.393798828 130.84959412  -999.250000 0.9812999964 0.6618000269
 1010.7656250  -999.250000 12.399800301 12.250000954 88.831367493 -0.007298919 0.3655999899 2.0387046337 3.0607485771 73.918998718 133.33610535  -999.250000 1.0713000298 0.7440999746
 1010.9180298  -999.250000 12.364500046 12.250000954 84.190948486 -0.004599239 0.3860000074 2.0498986244 3.1824285984 84.246200562 135.66279602  -999.250000 1.1490999460 0.8537999988
 1011.0704346  -999.250000 12.382499695 12.250000954 81.188644409 -0.002699319 0.4149000049 2.0465998650 3.2538583279 91.632301331 138.01919556  -999.250000 1.2721999884 0.9577000141
 1011.2228394  -999.250000 12.357600212 12.250000954 79.704399109 -0.000998318 0.4560000002 2.0461030006 3.3995761871 95.074798584 138.59449768  -999.250000 1.3868000507 1.1158000231
 1011.3752441  -999.250000 12.386099815 12.250000954 80.791664124 0.0031998798 0.4785000086 2.0541005135 3.5901699066 100.65450287 138.96150208  -999.250000 1.2515000105 0.9340999722
 1011.5276489  -999.250000 12.369400024 12.250000954 81.873359680 0.0029004004 0.4851000011 2.0555040836 3.7644171715 112.25389862 139.30230713  -999.250000 1.6921999454 1.4128999710
 1011.6800537  -999.250000 12.377901077 12.250000954 78.285758972 0.0034006408 0.5151000023 2.0605957508 3.7858450413 120.20020294 139.30000305  -999.250000 1.6570699215 1.3715000153
 1011.8324585  -999.250000 12.390999794 12.250000954 78.850067139 0.0041981577 0.5437999964 2.0550918579 3.7168016434 123.56020355 138.19590759  -999.250000 1.7444459200 1.3947000504
 1011.9848022  -999.250000 12.388999939 12.250000954 76.309387207 0.0018983181 0.5784000158 2.0449962616 3.4693465233 128.30679321 138.35600281  -999.250000 1.8017003536 1.4381999969
 1012.1372070  -999.250000 12.353699684 12.250000954 73.937339783 -0.002303404 0.5565999746 2.0352962017 3.3361637592 132.19189453 138.80560303  -999.250000 1.8024677038 1.4974000454
 1012.2896118  -999.250000 12.372400284 12.250000954 73.196525574 -0.010801001 0.5223000050 2.0258028507 3.2457232475 134.19869995 138.93829346  -999.250000 1.7218841314 1.4976999760
 1012.4420166  -999.250000 12.347800255 12.250000954 76.131889343 -0.013298558 0.5131000280 2.0331032276 3.3039772511 134.51579285 140.48680115  -999.250000 1.6824090481 1.5083999634
 1012.5944214  -999.250000 12.338998795 12.250000954 78.540679932 -0.009699320 0.4929000139 2.0412032604 3.4965195656 132.72959900 140.11000061  -999.250000 1.7050307989 1.4435000420
 1012.7468262  -999.250000 12.351799965 12.250000954 79.859580994 -0.007999400 0.5056999922 2.0495028496 3.5456185341 132.73179626 139.71919250  -999.250000 1.7817107439 1.4689999819
 1012.8992310  -999.250000 12.404700279 12.250000954 78.539039612 -0.006502083 0.5097000003 2.0566966534 3.5918748379 130.71760559 139.84445190  -999.250000 1.8085775375 1.4937000275
 1013.0516357  -999.250000 12.396900177 12.250000954 76.371391296 -0.011697156 0.5406000018 2.0484998226 3.5290195942 125.01149750 138.73097229  -999.250000 1.7524986267 1.5476000309
 1013.2040405  -999.250000 12.403699875 12.250000954 80.405838013 -0.004601762 0.5522000194 2.0477895737 3.5777113438 124.70010376 138.93298340  -999.250000 1.7489948273 1.5540000200
 1013.3564453  -999.250000 12.407600403 12.250000954 82.129920959 -0.008998998 0.5552999973 2.0218963623 3.3560743332 124.82540131 140.14993286  -999.250000 1.7360391617 1.5858000517
 1013.5088501  -999.250000 12.404700279 12.250000954 84.858596802 -0.006502765 0.5679000020 2.0131945610 3.0420460701 115.20099640 140.71282959  -999.250000 1.3344951868 1.4178999662
 1013.6612549  -999.250000 12.400800705 12.250000954 86.704071045 -0.013395514 0.4745999873 1.9998108149 2.6576592922 96.801498413 145.50163269  -999.250000 0.8233956695 0.8600000143
 1013.8136597  -999.250000 12.416500092 12.250000954 93.180778503 -0.007798078 0.4329999983 2.0133049488 2.6067204475 75.901901245 147.15249634  -999.250000 0.8179804087 0.7698000073
 1013.9660645  -999.250000 12.419400215 12.250000954 100.61679840 -0.005402403 0.3802999854 2.0194926262 2.6323585510 63.528598785 146.76582336  -999.250000 0.7934725881 0.6001999974
 1014.1184082  -999.250000 12.426899910 12.250000954 107.74114227 -0.008401161 0.4022000134 2.0101976395 2.7053892612 61.363601685 142.91368103  -999.250000 0.7593062520 0.5566999912
 1014.2708130  -999.250000 12.432200432 12.250000954 93.384841919 -0.011301482 0.3930999935 2.0044946671 2.6787922382 60.587501526 141.87045288  -999.250000 0.7749218345 0.5806999803
 1014.4232178  -999.250000 12.425299644 12.250000954 91.413391113 -0.014998158 0.3851000071 1.9916071892 2.6591014862 58.786399841 141.77343750  -999.250000 0.8293801546 0.6510999799
 1014.5756226  -999.250000 12.414500237 12.250000954 93.989501953 -0.010400841 0.3650000095 2.0091993809 2.6624956131 56.877700806 141.62522888  -999.250000 0.7799040079 0.6028000116
 1014.7280273  -999.250000 12.414500237 12.250000954 92.601707458 -0.012499760 0.3673999906 2.0076043606 2.6519052982 54.274501801 141.19551086  -999.250000 0.7898190618 0.6204000115
 1014.8804321  -999.250000 12.427300453 12.250000954 85.673225403 -0.011901001 0.3596000075 2.0181982517 2.6646869183 54.244098663 139.46737671  -999.250000 0.8374996185 0.6845999956
 1015.0328369  -999.250000 12.423299789 12.250000954 86.666007996 -0.014398878 0.3659000099 2.0141053200 2.6319866180 55.050998688 139.39614868  -999.250000 0.8366060257 0.6707000136
 1015.1852417  -999.250000 12.439999580 12.250000954 83.887794495 -0.011599960 0.3467000127 2.0271039009 2.5985589027 51.874900818 138.51100159  -999.250000 0.8516009450 0.6933000088
 1015.3376465  -999.250000 12.408598900 12.250000954 74.455047607 -0.011500441 0.3441999853 2.0369031429 2.4961709976 53.167098999 137.75642395  -999.250000 0.8540152311 0.6740999818
 1015.4900513  -999.250000 12.409600258 12.250000954 67.355644226 -0.012600961 0.3411000073 2.0448009968 2.4232790470 59.458900452 135.80661011  -999.250000 0.8921504617 0.7109000087
 1015.6424561  -999.250000 12.411599159 12.250000954 64.783790588 -0.015000560 0.3697000146 2.0474054813 2.3708558083 61.201301575 135.33552551  -999.250000 1.0181016922 0.8155999780
 1015.7948608  -999.250000 12.420900345 12.250000954 70.234252930 -0.015697517 0.3824999928 2.0542054176 2.4405565262 64.109703064 135.11886597  -999.250000 1.0202957392 0.8122000098
 1015.9472656  -999.250000 12.434100151 12.250000954 69.764762878 -0.012596956 0.3887999952 2.0610060692 2.6362335682 73.283996582 135.19180298  -999.250000 1.1397721767 0.9114999771
 1016.0996094  -999.250000 12.452699661 12.250000954 66.170928955 -0.008798718 0.3731999993 2.0683047771 2.9278483391 81.171401978 135.96191406  -999.250000 1.2298383713 0.9488000274
 1016.2520142  -999.250000 12.409600258 12.250000954 62.637794495 -0.005599079 0.3962000012 2.0800046921 3.0488035679 87.536300659 136.00572205  -999.250000 1.3256314993 1.0303000212
 1016.4044189  -999.250000 12.435099602 12.250000954 62.650588989 -0.003300000 0.4029000103 2.0919013023 3.0574753284 95.789596558 135.54573059  -999.250000 1.4040982723 1.0705000162
 1016.5568237  -999.250000 12.408101082 12.250000954 59.236225128 -0.003301241 0.4061999917 2.0947995186 2.9960892200 101.06089783 135.87704468  -999.250000 1.3999744654 1.1471999884
