# LAS format log file from PETREL
# Project units are specified as depth units
#==================================================================
~Version information
VERS.   2.0:
WRAP.   NO:
#==================================================================
~Well
STRT .m      684.17242432 :
STOP .m      2208.3249512 :
STEP .m     0.00000000 :
NULL .        -999.250000 :
COMP.           : COMPANY
WELL.  16/2-16   : WELL
FLD.            : FIELD
LOC.            : LOCATION
SRVC.           : SERVICE COMPANY
DATE.  2018-09-11 14:48:07   : Log Export Date {yyyy-MM-dd HH:mm:ss}
PROV.           : PROVINCE
UWI.   16/2-16   : UNIQUE WELL ID
API.            : API NUMBER
#==================================================================
~Curve
DEPT .m                   : DEPTH
Lithology_geolink ._      : Lithology_geolink
CALI .in                  : CALI
BS .in                    : BS
ROP .m/h                  : ROP
DRHO .g/cm3               : DRHO
THOR .ppm                 : THOR
NPHI .m3/m3               : NPHI
RHOB .g/cm3               : RHOB
PEF .b/e                  : PEF
GR .gAPI                  : GR
URAN .ppm                 : URAN
DTC .us/ft                : DTC
DTS .us/ft                : DTS
RDEP .ohm.m               : RDEP
RMED .ohm.m               : RMED
~Parameter
#==================================================================
~Ascii
# ...
 1189.3785400  -999.250000 12.482099533 12.250000954 100.69362640 -0.001498397  -999.250000 0.5354999900 2.0408961773 3.3886456490 86.993896484  -999.250000 145.09819031  -999.250000 0.9632073641 0.9632046223
 1189.5308838  -999.250000 12.532400131 12.250000954 100.76508331 0.0005004804  -999.250000 0.5375999808 2.0361821651 3.4455952644 86.625198364  -999.250000 144.09658813  -999.250000 0.9723920226 0.9689970016
 1189.6832275  -999.250000 12.522100449 12.250000954 101.57677460 0.0011000000  -999.250000 0.5152999759 2.0139000416 3.6893000603 87.972900391  -999.250000 144.21589661  -999.250000 0.9624000192 0.9653000236
 1189.8356934  -999.250000 12.682399750 12.250000954 97.057792664 -0.002686469  -999.250000 0.5062999725 1.9885106087 4.1600556374 88.892898560  -999.250000 144.16503906  -999.250000 0.9608969688 0.9637994766
 1189.9880371  -999.250000 12.729000092 12.250000954 96.712272644 0.0142000001  -999.250000 0.5174000263 2.0016999245 5.7266998291 90.155700684  -999.250000 143.59959412  -999.250000 0.9570999742 0.9631000161
 1190.1405029  -999.250000 12.627499580 12.250000954 96.444313049 0.0165014416  -999.250000 0.5371999741 1.9750909805 6.2733597755 91.831596375  -999.250000 143.88931274  -999.250000 0.9508894682 0.9562919140
 1190.2928467  -999.250000 12.568499565 12.250000954 101.45767212 0.0183000006  -999.250000 0.5223000050 1.9637999535 6.3477001190 91.307998657  -999.250000 144.27389526  -999.250000 0.9376999736 0.9462000132
 1190.4453125  -999.250000 12.823200226 12.250000954 102.62333679 0.0077971173  -999.250000 0.4821999967 1.9384976625 5.8654794693 89.309501648  -999.250000 144.10220337  -999.250000 0.9376862049 0.9461798668
 1190.5976563  -999.250000 12.720999718 12.250000954 96.452758789 0.0041999999  -999.250000 0.4672999978 1.9355000257 5.5904002190 88.911300659  -999.250000 143.22799683  -999.250000 0.9204999804 0.9210000038
 1190.7501221  -999.250000 12.633900642 12.250000954 91.430030823 -0.003494556  -999.250000 0.4756000042 1.9459177256 4.6934814453 86.964401245  -999.250000 143.10162354  -999.250000 0.9213144779 0.9285119176
 1190.9024658  -999.250000 12.615299225 12.250000954 87.219818115 0.0033000000  -999.250000 0.4970999956 1.9682999849 5.0447998047 79.951301575  -999.250000 142.50239563  -999.250000 0.9394000173 0.9434000254
 1191.0549316  -999.250000 12.606499672 12.250000954 86.769058228 0.0017038431  -999.250000 0.5013999939 1.9926297665 4.8322257996 77.606300354  -999.250000 141.40681458  -999.250000 0.9704210162 0.9719240665
 1191.2072754  -999.250000 12.590000153 12.250000954 85.992782593 0.0065000001  -999.250000 0.4736999869 2.0297999382 4.6149997711 83.122398376  -999.250000 140.05099487  -999.250000 0.9966999888 1.0019999743
 1191.3597412  -999.250000 12.556599617 12.250000954 87.841285706 0.0007980769  -999.250000 0.4850000143 2.0456109047 3.9821918011 86.282302856  -999.250000 139.13760376  -999.250000 0.9691769481 0.9783741832
 1191.5120850  -999.250000 12.645799637 12.250000954 84.253784180 -0.001603763  -999.250000 0.4864000082 2.0592944622 3.7224333286 86.739501953  -999.250000 139.52122498  -999.250000 0.9403908849 0.9461919069
 1191.6645508  -999.250000 12.664999962 12.250000954 83.249023438 -0.006301522  -999.250000 0.4684000015 2.0525016785 3.6391546726 86.333900452  -999.250000 139.56272888  -999.250000 0.9289993644 0.9360986948
 1191.8168945  -999.250000 12.595499992 12.250000954 84.073760986 -0.008206325  -999.250000 0.4512999952 2.0544958115 3.5831182003 82.827400208  -999.250000 139.84902954  -999.250000 0.9282045960 0.9345052838
 1191.9692383  -999.250000 12.486100197 12.250000954 84.817916870 -0.016100001  -999.250000 0.4650000036 2.0492000580 3.9804000854 79.486801147  -999.250000 139.76100159  -999.250000 0.9338999987 0.9411000013
 1192.1217041  -999.250000 12.632399559 12.250000954 88.457099915 -0.010092313  -999.250000 0.5016999841 2.0380103588 4.1979546547 81.289802551  -999.250000 140.06962585  -999.250000 0.9244816303 0.9304813147
 1192.2740479  -999.250000 12.740599632 12.250000954 91.420600891 -0.000500000  -999.250000 0.5328000188 2.0506999493 4.3906998634 89.574996948  -999.250000 140.47549438  -999.250000 0.9016000032 0.9071999788
 1192.4265137  -999.250000 12.576100349 12.250000954 94.357444763 0.0083977580  -999.250000 0.5504000187 2.0552644730 4.1179409027 95.725303650  -999.250000 140.62045288  -999.250000 0.9138222337 0.9146153331
 1192.5788574  -999.250000 12.469300270 12.250000954 91.692253113 0.0055999998  -999.250000 0.6046000123 2.0107998848 4.2932000160 91.732002258  -999.250000 140.67399597  -999.250000 0.9416000247 0.9337000251
 1192.7313232  -999.250000 12.517800331 12.250000954 87.449165344 0.0064996798  -999.250000 0.5848000050 1.9712924957 4.4286866188 90.636901855  -999.250000 140.34442139  -999.250000 0.9633840919 0.9666945934
 1192.8836670  -999.250000 12.564399719 12.250000954 91.969161987 0.0060999999  -999.250000 0.5616000295 1.9618999958 4.2867999077 96.167701721  -999.250000 141.38209534  -999.250000 0.9434999824 0.9599000216
 1193.0361328  -999.250000 12.726300240 12.250000954 87.648841858 0.0019055244  -999.250000 0.5465000272 1.9396989346 4.3450756073 96.631111145  -999.250000 142.84606934  -999.250000 0.9461127520 0.9560065269
 1193.1884766  -999.250000 12.746800423 12.250000954 85.879592896 0.0088000000  -999.250000 0.5454999804 1.9384000301 4.1900000572 95.150001526  -999.250000 144.55419922  -999.250000 0.9620000124 0.9642000198
 1193.3409424  -999.250000 12.704298973 12.250000954 83.628372192 0.0147998398  -999.250000 0.5562000275 1.9630198479 3.7808854580 93.454856873  -999.250000 144.92822266  -999.250000 0.9569929838 0.9561950564
 1193.4932861  -999.250000 12.585399628 12.250000954 83.331611633 0.0145930350  -999.250000 0.5717999935 1.9877094030 3.7626521587 90.026191711  -999.250000 144.84080505  -999.250000 0.9481906891 0.9499953985
 1193.6457520  -999.250000 12.598699570 12.250000954 79.542205811 0.0058957534  -999.250000 0.5985999703 1.9995062351 3.5780780315 87.139602661  -999.250000 144.09516907  -999.250000 0.9366161227 0.9443184137
 1193.7980957  -999.250000 12.634799957 12.250000954 76.530975342 0.0005944756  -999.250000 0.5580000281 2.0072932243 3.3010025024 84.895957947  -999.250000 143.32102966  -999.250000 0.9567086697 0.9673054218
 1193.9504395  -999.250000 12.696000099 12.250000954 75.060699463 -0.006300000  -999.250000 0.5637999773 1.9989000559 3.0545001030 84.973297119  -999.250000 142.73829651  -999.250000 0.9674999714 0.9740999937
 1194.1029053  -999.250000 12.835999489 12.250000954 75.082778931 -0.009701203  -999.250000 0.5386000276 1.9944018126 2.9227085114 88.715347290  -999.250000 142.16732788  -999.250000 0.9679854512 0.9743850827
 1194.2552490  -999.250000 12.726300240 12.250000954 75.208992004 -0.011200000  -999.250000 0.5357000232 1.9967000484 2.9335000515 92.650100708  -999.250000 141.70509338  -999.250000 0.9498000145 0.9557999969
 1194.4077148  -999.250000 12.395299911 12.250000954 72.324783325 -0.001002322  -999.250000 0.4927000105 2.0145785809 3.0904960632 93.807731628  -999.250000 141.86245728  -999.250000 0.9357895255 0.9441860318
 1194.5600586  -999.250000 12.471099854 12.250000954 75.992782593 -0.003900000  -999.250000 0.4575000107 1.9878000021 3.2104001045 88.982101440  -999.250000 141.94380188  -999.250000 0.9226999879 0.9268000126
 1194.7125244  -999.250000 12.512299538 12.250000954 74.720718384 -0.004702562  -999.250000 0.4769999981 1.9887926579 3.1774425507 84.064880371  -999.250000 142.01358032  -999.250000 0.9039004445 0.9141944647
 1194.8648682  -999.250000 12.481199265 12.250000954 73.800201416 -0.007900000  -999.250000 0.4735000134 1.9795000553 3.1057999134 85.033096313  -999.250000 141.86579895  -999.250000 0.9043999910 0.9072999954
 1195.0173340  -999.250000 12.542099953 12.250000954 72.274421692 -0.006705844  -999.250000 0.5126000047 1.9800685644 3.4158902168 83.928359985  -999.250000 141.55815125  -999.250000 0.9138121009 0.9171067476
 1195.1696777  -999.250000 12.601900101 12.250000954 72.865158081 -0.014000000  -999.250000 0.4805000126 1.9408999681 3.0295000076 77.506698608  -999.250000 141.60910034  -999.250000 0.9289000034 0.9254999757
