# LAS format log file from PETREL
# Project units are specified as depth units
#==================================================================
~Version information
VERS.   2.0:
WRAP.   NO:
#==================================================================
~Well
STRT .m      735.07409668 :
STOP .m      2124.0476074 :
STEP .m     0.00000000 :
NULL .        -999.250000 :
COMP.           : COMPANY
WELL.  16/2-6   : WELL
FLD.            : FIELD
LOC.            : LOCATION
SRVC.           : SERVICE COMPANY
DATE.  2018-09-11 14:48:07   : Log Export Date {yyyy-MM-dd HH:mm:ss}
PROV.           : PROVINCE
UWI.   16/2-6   : UNIQUE WELL ID
API.            : API NUMBER
#==================================================================
~Curve
DEPT .m                   : DEPTH
Lithology_geolink ._      : Lithology_geolink
CALI .in                  : CALI
BS .in                    : BS
ROP .m/h                  : ROP
DRHO .g/cm3               : DRHO
NPHI .m3/m3               : NPHI
RHOB .g/cm3               : RHOB
PEF .b/e                  : PEF
GR .gAPI                  : GR
DTC .us/ft                : DTC
DTS .us/ft                : DTS
RDEP .ohm.m               : RDEP
RMED .ohm.m               : RMED
~Parameter
#==================================================================
~Ascii
# ...
 1747.6196289 11.000000000 12.944699287 12.250000954 15.077429771 0.0050989594 0.1416999996 2.4492986202 5.2295708656 19.795009613 76.288513184 151.56607056 4.4579148293 3.7960999012
 1747.7720947 11.000000000 12.720899582 12.250000954 15.128935814 0.0038002403 0.1283999979 2.4474964142 5.1930289268 21.805072784 79.173530579 159.89389038 3.7277114391 3.6881999969
 1747.9244385 11.000000000 12.676600456 12.250000954 15.609908104 0.0040977583 0.1318999976 2.4428935051 5.2289819717 23.517993927 81.569313049 165.48979187 3.3681728840 2.8517999649
 1748.0769043 11.000000000 12.701299667 12.250000954 15.888123512 0.0013023238 0.1447072923 2.4349081516 5.0812020302 23.633792877 82.207916260 169.12176514 3.4581303596 3.0940001011
 1748.2292480 11.000000000 12.692000389 12.250000954 16.166666031 0.0041939151 0.1538044065 2.4450008869 5.0834627151 23.749917984 82.584449768 169.21148682 2.2499060631 2.9226000309
 1748.3817139 11.000000000 12.771900177 12.250000954 16.888452530 -0.003401603 0.1592966318 2.4460995197 4.9118537903 24.149971008 83.398292542 175.19050598 3.2554702759 2.9495000839
 1748.5339355 11.000000000 12.660598755 12.250000954 17.144479752 -0.005400000 0.1551000029 2.4453999996 4.8538999557 27.979299545 84.765800476 175.19050598 2.8443000317 1.3846548796
 1748.6864014 11.000000000 12.703700066 12.250000954 18.154375076 -0.005700000 0.1597999930 2.4516999722 4.7603998184 31.663099289 85.283203125 167.95460510 2.6303999424 2.4489462376
 1748.8387451 11.000000000 12.751800537 12.250000954 19.421884537 -0.000100000 0.1607999951 2.4479000568 5.0482997894 30.383499146 84.085403442 162.36579895 2.5353999138 2.9850709438
 1748.9910889 11.000000000 12.653699875 12.250000954 21.807199478 0.0066999998 0.1625999957 2.4351999760 5.3947000504 26.627000809 82.944900513 160.77908325 2.9619998932 2.7701454163
 1749.1435547 11.000000000 12.699799538 12.250000954 26.655893326 -0.000300000 0.1599999964 2.4040000439 5.4306998253 22.648300171 82.603897095 160.23750305 3.0269999504 2.5652639866
 1749.2958984 11.000000000 12.544899940 12.250000954 27.959859848 -0.004700000 0.1576000005 2.3931000233 5.0661001205 21.094400406 82.699989319 159.50529480 2.9105000496 2.6160182953
 1749.4483643 11.000000000 12.417400360 12.250000954 29.961322784 -0.009100000 0.1642999947 2.3903000355 4.7754998207 22.843500137 82.629699707 155.99909973 2.2140998840 1.9862051010
 1749.6007080 11.000000000 13.068400383 12.250000954 30.673400879 -0.003400000 0.1642999947 2.3966000080 4.8598999977 24.466299057 81.865097046 160.10859680 2.4010000229 2.1696050167
 1749.7531738 11.000000000 13.097800255 12.250000954 30.921062469 -0.003400000 0.1703000069 2.3956999779 5.0288000107 22.620700836 80.295700073 158.36869812 2.2871000767 2.3945198059
 1749.9055176 11.000000000 12.577300072 12.250000954 30.477392197 -0.002100000 0.1661999971 2.4063000679 5.2530999184 19.185699463 79.639701843 154.83560181 2.2771999836 2.0721585751
 1750.0579834 11.000000000 12.609600067 12.250000954 31.231348038 -0.002000000 0.1603000015 2.4168999195 5.2606000900 18.909999847 80.446998596 154.73179626 3.3236999512 2.8740572929
 1750.2103271 11.000000000 12.654701233 12.250000954 31.725326538 -0.001600000 0.1526000053 2.4170999527 5.1244997978 20.116500854 81.262496948 153.29800415 3.1970000267 2.6537771225
 1750.3627930 11.000000000 12.680100441 12.250000954 31.736865997 -0.003000000 0.1500000060 2.4103000164 4.8134999275 21.146600723 82.804702759 167.53770447 2.7058000565 2.5575768948
 1750.5151367 11.000000000 12.671399117 12.250000954 30.671459198 -0.010000000 0.1580999941 2.4098000526 4.6561999321 24.753499985 84.471488953 172.58261108 1.9608999491 1.7929130793
 1750.6676025 11.000000000 12.684101105 12.250000954 30.679126740 -0.012800000 0.1587000042 2.4135000706 4.5191998482 28.251800537 85.651489258 174.80720520 2.1310999393 1.5762730837
 1750.8199463 11.000000000 12.711099625 12.250000954 29.397026062 -0.013900000 0.1634999961 2.4210000038 4.4376001358 29.021999359 88.501007080 179.33709717 3.5378999710 3.7183818817
 1750.9722900 11.000000000 12.644900322 12.250000954 27.469299316 -0.016100001 0.1673000008 2.4114000797 4.3284997940 30.435600281 91.756500244 177.43469238 1.2606999874 0.8286374807
 1751.1247559 11.000000000 12.615500450 12.250000954 28.437870026 -0.008900000 0.1710000038 2.4109001160 4.4760999680 31.947500229 91.331298828 177.24409485 3.4753000736 3.4481954575
 1751.2770996 11.000000000 12.594900131 12.250000954 27.737998962 -0.006000000 0.1777999997 2.3928000927 4.7671999931 30.823999405 86.550910950 162.02949524 2.2734999657 2.7099874020
 1751.4295654 11.000000000 12.588999748 12.250000954 28.392190933 -0.000200000 0.1932000071 2.3717000484 4.9481000900 28.499599457 81.070404053 158.24920654 1.5642000437 1.0870006084
 1751.5819092 11.000000000 12.607700348 12.250000954 29.087141037 -0.004700000 0.1905000061 2.3731000423 4.7713999748 23.659400940 77.450401306 157.49139404 2.4904999733 2.3223166466
 1751.7343750 11.000000000 12.605699539 12.250000954 29.377391815 -0.008400000 0.1812999994 2.3770999908 4.4574999809 19.497299194 77.832496643 149.58670044 2.5606000423 2.0936849117
 1751.8867188 11.000000000 12.604700089 12.250000954 29.219287872 -0.011300000 0.1723999977 2.3870000839 4.3709001541 20.800600052 80.542999268 140.74859619 2.7090001106 2.2668609619
 1752.0391846 11.000000000 12.623299599 12.250000954 29.332912445 -0.012100000 0.1739999950 2.3740000725 4.6746997833 21.780399323 82.467498779 144.47729492 2.2674999237 2.0012128353
 1752.1915283 11.000000000 12.563499451 12.250000954 29.758190155 -0.014000000 0.1773999929 2.3636000156 4.7821002007 22.263700485 83.112503052 152.27380371 2.4382998943 1.9665277004
 1752.3439941 11.000000000 12.575300217 12.250000954 30.610212326 -0.010700000 0.1720999926 2.3629999161 5.0113000870 24.967599869 80.959098816 150.15010071 2.5009999275 2.4408199787
 1752.4963379 11.000000000 12.552699089 12.250000954 32.995136261 -0.010700000 0.1708000004 2.3717000484 4.9036002159 25.714000702 75.614898682 144.57609558 2.3173000813 2.1398417950
 1752.6488037 11.000000000 12.563499451 12.250000954 31.942119598 -0.008200000 0.1650999933 2.3936998844 4.8352999687 24.017000198 70.822898865 152.48750305 2.5416998863 2.3674173355
 1752.8011475 11.000000000 12.580200195 12.250000954 34.334697723 -0.007600000 0.1574999988 2.4268999100 4.5293998718 21.974599838 72.048698425 166.50610352 3.3942000866 2.9874029160
 1752.9534912 11.000000000 12.631699562 12.250000954 33.100738525 -0.010900000 0.1466999948 2.4491999149 4.2459998131 19.739000320 80.139297485 172.41760254 5.5671000481 4.3881540298
 1753.1059570 11.000000000 13.049799919 12.250000954 27.746746063 -0.010100000 0.1453000009 2.4386999607 4.1599998474 19.664699554 88.725502014 163.42219543 4.5406999588 4.9033885002
 1753.2583008 11.000000000 12.595899582 12.250000954 26.168533325 -0.014900000 0.1599999964 2.4042000771 4.1995000839 24.265800476 88.496101379 151.50979614 2.8852000237 1.9447458982
 1753.4107666 11.000000000 12.543899536 12.250000954 25.008476257 -0.010900000 0.1676000059 2.4056000710 4.3857002258 27.875299454 80.024497986 143.38040161 1.5523999929 1.0444182158
 1753.5631104 11.000000000 12.900799751 12.250000954 25.637441635 -0.005000000 0.1388999969 2.4435000420 4.4833002090 27.697099686 75.098709106 143.12319946 7.8987002373 8.2581291199
 1753.7155762 11.000000000 13.073800087 12.250000954 22.705106735 -0.010600000 0.1111000031 2.4767000675 4.0618000031 30.136800766 80.003196716 155.55529785 14.112000465 11.626307487
 1753.8679199 11.000000000 13.080400467 12.250000954 18.698747635 -0.015000000 0.1108999997 2.4158000946 3.4565999508 34.035999298 91.476799011 166.46449280 3.5755000114 1.9394702911
 1754.0203857 11.000000000 13.049799919 12.250000954 15.007877350 -0.019600000 0.1428000033 2.3420000076 3.2530000210 36.475700378 98.715599060 176.30929565 1.5226000547 1.5207293034
 1754.1727295 11.000000000 12.469400406 12.250000954 14.048995018 -0.006700000 0.1908999979 2.2823998928 3.4402000904 37.121898651 98.901901245 180.02149963 1.9675999880 1.9072897434
