# LAS format log file from PETREL
# Project units are specified as depth units
#==================================================================
~Version information
VERS.   2.0:
WRAP.   NO:
#==================================================================
~Well
STRT .m      703.83190918 :
STOP .m      2487.0642090 :
STEP .m     0.00000000 :
NULL .        -999.250000 :
COMP.           : COMPANY
WELL.  16/2-7 Johan Sverdrup Appr   : WELL
FLD.            : FIELD
LOC.            : LOCATION
SRVC.           : SERVICE COMPANY
DATE.  2018-09-11 14:48:07   : Log Export Date {yyyy-MM-dd HH:mm:ss}
PROV.           : PROVINCE
UWI.   16/2-7   : UNIQUE WELL ID
API.            : API NUMBER
#==================================================================
~Curve
DEPT .m                   : DEPTH
Lithology_geolink ._      : Lithology_geolink
CALI .in                  : CALI
BS .in                    : BS
ROP .m/h                  : ROP
DRHO .g/cm3               : DRHO
THOR .ppm                 : THOR
NPHI .m3/m3               : NPHI
RHOB .g/cm3               : RHOB
PEF .b/e                  : PEF
GR .gAPI                  : GR
URAN .ppm                 : URAN
DTC .us/ft                : DTC
DTS .us/ft                : DTS
RDEP .ohm.m               : RDEP
RMIC .ohm.m               : RMIC
RMED .ohm.m               : RMED
~Parameter
#==================================================================
~Ascii
# ...
 2361.6389160  -999.250000 8.6056995392 8.5000000000 43.887313843 0.0889923126 8.8332004547 0.1235999987 2.4986000061 3.2574999332 112.91866302 0.6215999722 67.346199036 121.84390259 4.0524997711  -999.250000 3.9381000996
 2361.7915039  -999.250000 8.6113996506 8.5000000000 50.830711365 0.0832000002 7.9456005096 0.1211000010 2.5049986839 3.1953001022 111.66519928 0.6887999773 67.602470398 121.93239594 4.0998001099  -999.250000 4.0355000496
 2361.9438477  -999.250000 8.6169996262 8.5000000000 48.717624664 0.0854963213 7.8832001686 0.1196999997 2.5040998459 3.1684000492 114.22140503 0.6474999785 67.834724426 121.71890259 4.0949997902  -999.250000 4.0690999031
 2362.0961914  -999.250000 8.6429996490 8.5000000000 47.264141083 0.0893937498 7.7145996094 0.1204999983 2.5039999485 3.0868000984 116.71311188 0.7232999802 67.913002014 121.30729675 4.0609002113  -999.250000 4.0293002129
 2362.2485352  -999.250000 8.6463003159 8.5000000000 48.344062805 0.0907977596 8.0812997818 0.1235999987 2.5000998974 3.2200999260 115.86885834 0.6201000214 67.738502502 121.58580017 4.0454998016  -999.250000 4.0127000809
 2362.4011230  -999.250000 8.6326999664 8.5000000000 54.366146088 0.0834000036 8.1008996964 0.1240999997 2.4926114082 3.1537001133 112.60260010 0.4217999876 67.658309937 122.01140594 3.9992001057  -999.250000 3.9502000809
 2362.5534668  -999.250000 8.6438999176 8.5000000000 54.657478333 0.0834999979 8.5768995285 0.1247000024 2.4996869564 3.1628000736 109.80560303 0.5957000256 67.916030884 122.22509766 3.9435000420  -999.250000 3.8331999779
 2362.7058105  -999.250000 8.6368999481 8.5000000000 59.482093811 0.0832004771 8.0717000961 0.1254000068 2.4914977551 3.0971999168 115.92109680 1.0010999441 68.373710632 122.74620056 3.9500000477  -999.250000 3.8081998825
 2362.8581543  -999.250000 8.6281003952 8.5000000000 62.943275452 0.0810035244 7.9451999664 0.1279000044 2.4900999069 3.0053000450 117.04391479 0.9348000288 68.818603516 123.02079773 3.9565000534  -999.250000 3.7994999886
 2363.0107422  -999.250000 8.6140003204 8.5000000000 58.684379578 0.0764999986 8.0335998535 0.1275999993 2.4814012051 2.9958000183 117.86669922 0.8716999888 69.028968811 123.59230042 3.9414999485  -999.250000 3.7760999203
 2363.1630859  -999.250000 8.6217002869 8.5000000000 57.542980194 0.0798999965 7.8538994789 0.1288000047 2.4822261333 2.9100000858 113.35949707 0.8869000077 68.946289063 124.07769775 3.9094998837  -999.250000 3.7281999588
 2363.3154297  -999.250000 8.6520996094 8.5000000000 60.051094055 0.0933784023 7.5107002258 0.1265999973 2.4985759258 3.1796998978 111.31378174 0.8547999859 68.750930786 123.70369720 3.9305000305  -999.250000 3.7616999149
 2363.4677734  -999.250000 8.6227998734 8.5000000000 57.399280548 0.0819184333 8.4518003464 0.1272000074 2.4835999012 3.1173999310 111.95097351 0.7657999992 68.647697449 123.59020233 3.8961000443  -999.250000 3.7518999577
 2363.6201172  -999.250000 8.6520996094 8.5000000000 64.999275208 0.0885892585 8.5615997314 0.1295000017 2.4981000423 3.2866001129 112.45658875 0.9737000465 68.729103088 124.56400299 3.7964999676  -999.250000 3.6171000004
 2363.7727051  -999.250000 8.6361999512 8.5000000000 72.362533569 0.0773999989 8.8718996048 0.1312000006 2.4850020409 3.0046999454 113.55999756 0.9721999168 68.977119446 125.33699036 3.6389000416  -999.250000 3.3996999264
 2363.9250488  -999.250000 8.5832996368 8.5000000000 73.053359985 0.0757027194 8.1907997131 0.1296000034 2.4863903522 2.9639999866 114.55310822 1.0701999664 69.300445557 125.62370300 3.6665000916  -999.250000 3.3731000423
 2364.0773926  -999.250000 8.5775995255 8.5000000000 67.726722717 0.0796935931 8.0514001846 0.1303000003 2.4804000854 3.1240000725 114.19676971 1.3299000263 69.575302124 125.87808990 3.8378000259  -999.250000 3.5099999905
 2364.2297363  -999.250000 8.6050996780 8.5000000000 62.164421082 0.0849915072 7.9415993690 0.1319999993 2.4749999046 3.2678999901 117.80471039 1.2670999765 69.701400757 125.42999268 4.2319002151  -999.250000 3.8961000443
 2364.3823242  -999.250000 8.6494998932 8.5000000000 55.396652222 0.0930999964 7.7171998024 0.1303000003 2.4816179276 3.2820999622 117.32839966 1.3319000006 69.277732849 124.12059784 4.3797998428  -999.250000 4.0566000938
 2364.5346680  -999.250000 8.6631002426 8.5000000000 50.822834015 0.0886999965 7.9875998497 0.1262000054 2.4927051067 3.2558000088 120.41210175 1.2855999470 68.235336304 122.36730194 4.4342999458  -999.250000 4.1168999672
 2364.6870117  -999.250000 8.6679000854 8.5000000000 42.767829895 0.0878014416 7.8136000633 0.1239999980 2.4958105087 3.2806000710 119.64353180 1.5751999617 67.322944641 120.36090088 4.5634999275  -999.250000 4.2999000549
 2364.8393555  -999.250000 8.6567001343 8.5000000000 35.469371796 0.0859030485 8.2846002579 0.1229000017 2.5023999214 3.1006999016 121.61054230 1.3609999418 66.725601196 119.40470123 4.6105999947  -999.250000 4.4124999046
 2364.9919434  -999.250000 8.6434001923 8.5000000000 31.968505859 0.0844999999 7.8228006363 0.1196999997 2.5150904655 3.1019999981 119.40689850 1.4293999672 66.335426331 119.83969116 4.6689000130  -999.250000 4.5071001053
 2365.1442871  -999.250000 8.6119003296 8.5000000000 30.253608704 0.0754000023 7.1133999825 0.1171000004 2.5092041492 3.1347000599 115.38120270 1.8230999708 66.166000366 120.11900330 4.6845002174  -999.250000 4.6194000244
 2365.2966309  -999.250000 8.6059999466 8.5000000000 31.454767227 0.0732035190 7.0725002289 0.1137000024 2.5118062496 3.1939001083 113.64978027 1.7683000565 66.230445862 120.23970032 4.6598000526  -999.250000 4.6645002365
 2365.4489746  -999.250000 8.5992002487 8.5000000000 34.133171082 0.0806879848 7.1181998253 0.1124000028 2.5155999660 3.1052000523 114.61903381 1.8767999411 66.696998596 120.10749817 4.6220998764  -999.250000 4.6272001266
 2365.6013184  -999.250000 8.5928001404 8.5000000000 30.703018188 0.0807000026 7.4710001945 0.1155999973 2.5081000328 3.0745000839 116.31298065 1.7769999504 67.333503723 119.85990143 4.5518999100  -999.250000 4.4699001312
 2365.7539063  -999.250000 8.5487003326 8.5000000000 28.998689651 0.0904999971 8.3722000122 0.1136000007 2.5146887302 3.2939999104 120.48390198 1.6938999891 67.728271484 120.33640289 4.7224001884  -999.250000 4.6680998802
 2365.9062500  -999.250000 8.5443000793 8.5000000000 30.180849075 0.0895016044 8.3090000153 0.1167000011 2.5076932907 3.4305000305 119.53821564 1.5822999477 67.901283264 120.90789795 4.7084999084  -999.250000 4.6785998344
 2366.0585938  -999.250000 8.6091995239 8.5000000000 31.472339630 0.0831102580 8.6822004318 0.1225999966 2.5035998821 3.2581000328 117.82095337 1.2749999762 68.014198303 121.53470612 4.3969001770  -999.250000 4.2628998756
 2366.2109375  -999.250000 8.5775995255 8.5000000000 31.333229065 0.0804043263 8.1054000854 0.1231999993 2.5004000664 3.2839000225 110.09249878 1.3949999809 68.053802490 121.91570282 4.2789001465  -999.250000 4.0401000977
 2366.3635254  -999.250000 8.6614999771 8.5000000000 34.989173889 0.0844999999 8.3385000229 0.1262000054 2.4932045937 3.1050999165 111.28489685 1.3338999748 68.051879883 121.56970215 4.4045000076  -999.250000 4.1410999298
 2366.5158691  -999.250000 8.7061996460 8.5000000000 43.564632416 0.0839999989 8.3346004486 0.1233000010 2.4960169792 3.2167000771 112.56600189 1.3186000586 67.727661133 121.23101044 4.7671999931  -999.250000 4.6118998528
 2366.6682129  -999.250000 8.6909999847 8.5000000000 38.592285156 0.0828019232 8.9862003326 0.1243000031 2.5066518784 3.3301000595 112.46176910 1.1848000288 66.955802917 120.54570007 4.7862000465  -999.250000 4.6469998360
 2366.8205566  -999.250000 8.6124000549 8.5000000000 33.825225830 0.0982751623 9.0013999939 0.1257999986 2.5390999317 3.4426999092 108.96012115 0.9064999819 66.458900452 119.75159454 4.7666001320  -999.250000 4.6149997711
 2366.9731445  -999.250000 8.6557998657 8.5000000000 30.277885437 0.0697999969 8.6452999115 0.1243999973 2.4984877110 3.1784000397 107.44029999 0.8575000167 66.507568359 118.89250183 4.8000001907  -999.250000 4.6391000748
 2367.1254883  -999.250000 8.6602001190 8.5000000000 24.741798401 0.0900000036 8.5206003189 0.1194999963 2.4908201694 3.3972001076 113.96080017 0.6179999709 66.674026489 118.15660095 4.8192000389  -999.250000 4.6452999115
