# LAS format log file from PETREL
# Project units are specified as depth units
#==================================================================
~Version information
VERS.   2.0:
WRAP.   NO:
#==================================================================
~Well
STRT .m      734.31201172 :
STOP .m      2361.9440918 :
STEP .m     0.00000000 :
NULL .        -999.250000 :
COMP.           : COMPANY
WELL.  16/2-11 A Johan Sverdrup Appr   : WELL
FLD.            : FIELD
LOC.            : LOCATION
SRVC.           : SERVICE COMPANY
DATE.  2018-09-11 14:48:07   : Log Export Date {yyyy-MM-dd HH:mm:ss}
PROV.           : PROVINCE
UWI.   16/2-11 A   : UNIQUE WELL ID
API.            : API NUMBER
#==================================================================
~Curve
DEPT .m                   : DEPTH
Lithology_geolink ._      : Lithology_geolink
CALI .in                  : CALI
BS .in                    : BS
ROP .m/h                  : ROP
DRHO .g/cm3               : DRHO
THOR .ppm                 : THOR
NPHI .m3/m3               : NPHI
RHOB .g/cm3               : RHOB
PEF .b/e                  : PEF
GR .gAPI                  : GR
URAN .ppm                 : URAN
DTC .us/ft                : DTC
DTS .us/ft                : DTS
RDEP .ohm.m               : RDEP
RMIC .ohm.m               : RMIC
RMED .ohm.m               : RMED
~Parameter
#==================================================================
~Ascii
# ...
 1495.5500488  -999.250000 12.380499840 12.250000954 65.634513855 -0.006300000  -999.250000 0.4352999926 2.2074999809 3.5787000656 146.16999817  -999.250000 128.04440308  -999.250000 1.0680999756  -999.250000 1.0224000216
 1495.7023926  -999.250000 12.311500549 12.250000954 70.918304443 -0.009200000  -999.250000 0.4801999927 2.2051999569 3.3838000298 144.63900757  -999.250000 122.72129822  -999.250000 1.0651999712  -999.250000 1.0200999975
 1495.8548584  -999.250000 12.363800049 12.250000954 73.315948486 -0.010700000  -999.250000 0.4463999867 2.1909000874 3.2205998898 145.62939453  -999.250000 119.60350037  -999.250000 1.1076999903  -999.250000 1.0490000248
 1496.0072021  -999.250000 12.385600090 12.250000954 73.857284546 -0.015200000  -999.250000 0.4713999927 2.1686999798 3.0346000195 147.90629578  -999.250000 123.86019897  -999.250000 1.1563999653  -999.250000 1.1079000235
 1496.1596680  -999.250000 12.416899681 12.250000954 74.514762878 -0.011000000  -999.250000 0.4537000060 2.1536002159 3.1703000069 148.85729980  -999.250000 134.17909241  -999.250000 1.2285000086  -999.250000 1.1686999798
 1496.3120117  -999.250000 12.407199860 12.250000954 74.233268738 -0.010700000  -999.250000 0.4866999984 2.1352000237 3.3178999424 147.25520325  -999.250000 144.07670593  -999.250000 1.2523000240  -999.250000 1.1850999594
 1496.4644775  -999.250000 12.395299911 12.250000954 73.277557373 -0.002800000  -999.250000 0.4805999994 2.1345000267 3.7527999878 144.29490662  -999.250000 142.23210144  -999.250000 1.2374999523  -999.250000 1.1698999405
 1496.6168213  -999.250000 12.500499725 12.250000954 71.586944580 -0.006100000  -999.250000 0.4530999959 2.1271998882 4.1121001244 141.39779663  -999.250000 133.14070129  -999.250000 1.1870000362  -999.250000 1.1345000267
 1496.7692871  -999.250000 12.625799179 12.250000954 75.051506042 0.0035000001  -999.250000 0.4379999936 2.1389999390 4.3520998955 139.46490479  -999.250000 124.81749725  -999.250000 1.1891000271  -999.250000 1.1267999411
 1496.9216309  -999.250000 12.665199280 12.250000954 78.571197510 -0.000400000  -999.250000 0.4526000023 2.1519999504 4.0718002319 136.72709656  -999.250000 119.70449066  -999.250000 1.1541999578  -999.250000 1.0877000093
 1497.0739746  -999.250000 12.701401711 12.250000954 82.845474243 -0.001100000  -999.250000 0.5033000112 2.1644001007 3.6926000118 134.02789307  -999.250000 116.12289429  -999.250000 1.1801999807  -999.250000 1.1090999842
 1497.2264404  -999.250000 12.528900146 12.250000954 83.763122559 -0.007100000  -999.250000 0.5084999800 2.1970000267 3.3914999962 135.64579773  -999.250000 114.76760101  -999.250000 1.1407999992  -999.250000 1.0872999430
 1497.3787842  -999.250000 12.430399895 12.250000954 88.554458618 -0.009200000  -999.250000 0.4636999965 2.1960000992 3.3132998943 140.10490417  -999.250000 113.84780121  -999.250000 1.1676000357  -999.250000 1.1145000458
 1497.5312500  -999.250000 12.288999557 12.250000954 91.485565186 -0.007100000  -999.250000 0.4237999916 2.2074999809 3.4022998810 145.32949829  -999.250000 114.04588318  -999.250000 1.1871999502  -999.250000 1.1390999556
 1497.6835938  -999.250000 12.320599556 12.250000954 92.517395020 -0.009300000  -999.250000 0.4205000103 2.1875998974 3.4477999210 148.09179688  -999.250000 118.14009857  -999.250000 1.2489000559  -999.250000 1.1756999493
 1497.8360596  -999.250000 12.350299835 12.250000954 93.872703552 -0.006400000  -999.250000 0.4427999854 2.1909999847 3.4825999737 140.72839355  -999.250000 123.01730347  -999.250000 1.2915999889  -999.250000 1.2044999599
 1497.9884033  -999.250000 12.537500381 12.250000954 94.603347778 -0.004200000  -999.250000 0.4580000043 2.2030999660 3.3519999981 129.57670593  -999.250000 126.34309387  -999.250000 1.2997000217  -999.250000 1.2116999626
 1498.1408691  -999.250000 12.420998573 12.250000954 98.748687744 -0.003600000  -999.250000 0.4869000018 2.2021000385 3.4381000996 125.94239807  -999.250000 129.99740601  -999.250000 1.2576999664  -999.250000 1.1725000143
 1498.2932129  -999.250000 12.335801125 12.250000954 97.130577087 -0.006800000  -999.250000 0.5249999762 2.1998000145 3.4997000694 128.95329285  -999.250000 132.49699402  -999.250000 1.2387000322  -999.250000 1.1526999474
 1498.4456787  -999.250000 12.436400414 12.250000954 95.486877441 -0.010900000  -999.250000 0.5088999867 2.1640000343 3.6719000340 133.96479797  -999.250000 128.66009521  -999.250000 1.2481000423  -999.250000 1.1572999954
 1498.5980225  -999.250000 12.480798721 12.250000954 92.261817932 -0.010400000  -999.250000 0.5009999871 2.1607000828 3.6275000572 136.50610352  -999.250000 123.06729889  -999.250000 1.2365000248  -999.250000 1.1366000175
 1498.7504883  -999.250000 12.543799400 12.250000954 83.243110657 -0.015900001  -999.250000 0.4501999915 2.1540000439 3.3431999683 137.89309692  -999.250000 123.07180023  -999.250000 1.2342000008  -999.250000 1.1167999506
 1498.9028320  -999.250000 12.387200356 12.250000954 79.558074951 -0.014800000  -999.250000 0.4706999958 2.1700000763 3.3059999943 143.32569885  -999.250000 126.67060089  -999.250000 1.2396999598  -999.250000 1.1101000309
 1499.0552979  -999.250000 12.363201141 12.250000954 79.102363586 -0.013000000  -999.250000 0.4677999914 2.1868000031 3.4007999897 148.11109924  -999.250000 130.19099426  -999.250000 1.1895999908  -999.250000 1.0839999914
 1499.2076416  -999.250000 12.324099541 12.250000954 81.404197693 -0.004600000  -999.250000 0.4796999991 2.2132999897 3.6586000919 146.32080078  -999.250000 129.71159363  -999.250000 1.1186000109  -999.250000 1.0377999544
 1499.3599854  -999.250000 12.302300453 12.250000954 83.650588989 -0.000700000  -999.250000 0.4663000107 2.2291998863 3.7808001041 142.45680237  -999.250000 128.63020325  -999.250000 1.1145999432  -999.250000 1.0519000292
 1499.5124512  -999.250000 12.290799141 12.250000954 86.479331970 0.0063999998  -999.250000 0.4650999904 2.2284998894 4.1192998886 142.54359436  -999.250000 128.23680115  -999.250000 1.1124999523  -999.250000 1.0507999659
 1499.6647949  -999.250000 12.467100143 12.250000954 87.687660217 0.0083999997  -999.250000 0.4645000100 2.2077999115 4.3935999870 149.36239624  -999.250000 128.76069641  -999.250000 1.0450999737  -999.250000 1.0132000446
 1499.8172607  -999.250000 12.532999039 12.250000954 92.806427002 0.0060999999  -999.250000 0.4718999863 2.1842999458 4.4155001640 154.90269470  -999.250000 130.55039978  -999.250000 1.0485999584  -999.250000 1.0104000568
 1499.9696045  -999.250000 12.581599236 12.250000954 95.068893433 -0.002000000  -999.250000 0.4778999984 2.1681001186 3.9730000496 147.99319458  -999.250000 130.53109741  -999.250000 1.0585000515  -999.250000 1.0184999704
 1500.1220703  -999.250000 12.567701340 12.250000954 96.038055420 -0.002200000  -999.250000 0.5037999749 2.1644001007 3.7435998917 137.47839355  -999.250000 131.10119629  -999.250000 1.0757999420  -999.250000 1.0234999657
 1500.2744141  -999.250000 12.644699097 12.250000954 107.86515808 -0.003200000  -999.250000 0.5091999769 2.1679999828 3.4821999073 134.60800171  -999.250000 130.98849487  -999.250000 1.1042000055  -999.250000 1.0381000042
 1500.4268799  -999.250000 12.704099655 12.250000954 112.20472717 -0.005100000  -999.250000 0.4966000021 2.1654000282 3.3424000740 136.77760315  -999.250000 130.12730408  -999.250000 1.0887999535  -999.250000 1.0241999626
 1500.5792236  -999.250000 12.388999939 12.250000954 112.90715790 -0.008100000  -999.250000 0.4934999943 2.1640000343 3.2290999889 135.80999756  -999.250000 129.25199890  -999.250000 1.0813000202  -999.250000 1.0147000551
 1500.7316895  -999.250000 12.631200790 12.250000954 111.39304352 -0.008100000  -999.250000 0.5296000242 2.1640000343 3.2107000351 132.56309509  -999.250000 128.45829773  -999.250000 1.0795999765  -999.250000 1.0154000521
 1500.8840332  -999.250000 12.589799881 12.250000954 108.92979431 -0.003000000  -999.250000 0.5659000278 2.1805000305 3.2964000702 135.54479980  -999.250000 127.73290253  -999.250000 1.0592000484  -999.250000 0.9994000196
 1501.0364990  -999.250000 12.546499252 12.250000954 107.10137939 -0.006400000  -999.250000 0.5347999930 2.1868000031 3.2116000652 138.16340637  -999.250000 126.96240234  -999.250000 1.0568000078  -999.250000 1.0011999607
