# LAS format log file from PETREL
# Project units are specified as depth units
#==================================================================
~Version information
VERS.   2.0:
WRAP.   NO:
#==================================================================
~Well
STRT .m      734.31201172 :
STOP .m      2361.9440918 :
STEP .m     0.00000000 :
NULL .        -999.250000 :
COMP.           : COMPANY
WELL.  16/2-11 A Johan Sverdrup Appr   : WELL
FLD.            : FIELD
LOC.            : LOCATION
SRVC.           : SERVICE COMPANY
DATE.  2018-09-11 14:48:07   : Log Export Date {yyyy-MM-dd HH:mm:ss}
PROV.           : PROVINCE
UWI.   16/2-11 A   : UNIQUE WELL ID
API.            : API NUMBER
#==================================================================
~Curve
DEPT .m                   : DEPTH
Lithology_geolink ._      : Lithology_geolink
CALI .in                  : CALI
BS .in                    : BS
ROP .m/h                  : ROP
DRHO .g/cm3               : DRHO
THOR .ppm                 : THOR
NPHI .m3/m3               : NPHI
RHOB .g/cm3               : RHOB
PEF .b/e                  : PEF
GR .gAPI                  : GR
URAN .ppm                 : URAN
DTC .us/ft                : DTC
DTS .us/ft                : DTS
RDEP .ohm.m               : RDEP
RMIC .ohm.m               : RMIC
RMED .ohm.m               : RMED
~Parameter
#==================================================================
~Ascii
# ...
 1822.6004639 11.000000000 13.246101379 12.250000954 20.694574356 -0.002493910  -999.250000 0.2328999937 2.3431999683 6.0141911507 16.879024506  -999.250000 82.969711304 157.01930237 1.4605000019  -999.250000 1.4271999598
 1822.7529297 11.000000000 13.213699341 12.250000954 20.718063354 0.0051033627  -999.250000 0.2354000062 2.3433017731 6.2527847290 17.533731461  -999.250000 82.529296875 156.91099548 1.4584000111  -999.250000 1.4269000292
 1822.9052734 11.000000000 13.204200745 12.250000954 20.852705002 0.0072044069  -999.250000 0.2375999987 2.3442940712 6.4929995537 18.239080429  -999.250000 82.109001160 156.87379456 1.4671000242  -999.250000 1.4336999655
 1823.0577393 11.000000000 13.284399986 12.250000954 20.871299744 0.0126913525  -999.250000 0.2361000031 2.3368909359 6.9906134605 18.711652756  -999.250000 82.120193481 156.03260803 1.4726999998  -999.250000 1.4380999804
 1823.2100830 11.000000000 13.247900963 12.250000954 21.223848343 0.0072960737  -999.250000 0.2358999997 2.3313000202 6.4375982285 18.183145523  -999.250000 81.328994751 156.19610596 1.4603999853  -999.250000 1.4335999489
 1823.3625488 11.000000000 13.249999046 12.250000954 22.162525177 0.0023931146  -999.250000 0.2342000008 2.3313038349 6.1859622002 17.489437103  -999.250000 82.027198792 155.70610046 1.4557000399  -999.250000 1.4283000231
 1823.5148926 11.000000000 13.229598999 12.250000954 23.058256149 -0.001898798  -999.250000 0.2349999994 2.3337028027 5.9755172729 17.075866699  -999.250000 81.706504822 156.79899597 1.4426000118  -999.250000 1.4256000519
 1823.6672363 11.000000000 13.290800095 12.250000954 24.515823364 -0.000399359  -999.250000 0.2337000072 2.3374021053 5.9970464706 17.533493042  -999.250000 82.360290527 156.86669922 1.4498000145  -999.250000 1.4441000223
 1823.8197021 11.000000000 13.363900185 12.250000954 24.199968338 0.0004005609  -999.250000 0.2382999957 2.3400049210 6.0549783707 18.524126053  -999.250000 81.751106262 156.69520569 1.4670000076  -999.250000 1.4512000084
 1823.9720459 11.000000000 13.297900200 12.250000954 23.588748932 0.0011007206  -999.250000 0.2362000048 2.3462991714 6.0284571648 18.557050705  -999.250000 82.495796204 156.98348999 1.4788999557  -999.250000 1.4572999477
 1824.1245117 11.000000000 13.306099892 12.250000954 23.386661530 0.0019990385  -999.250000 0.2422000021 2.3452982903 6.0996456146 18.621864319  -999.250000 82.536796570 157.65162659 1.4804999828  -999.250000 1.4555000067
 1824.2768555 11.000000000 13.405998230 12.250000954 22.382915497 0.0008052842  -999.250000 0.2378000021 2.3430943489 6.1568851471 18.824634552  -999.250000 82.215698242 157.56330872 1.4832999706  -999.250000 1.4569000006
 1824.4293213 11.000000000 13.385399818 12.250000954 21.612537384 0.0074056890  -999.250000 0.2450000048 2.3359949589 6.5127949715 17.492691040  -999.250000 83.271110535 157.54441833 1.4815000296  -999.250000 1.4488999844
 1824.5816650 11.000000000 13.351301193 12.250000954 20.798677444 0.0144902235  -999.250000 0.2428999990 2.3298072815 6.7557640076 16.236913681  -999.250000 82.789703369 157.98860168 1.4903000593  -999.250000 1.4551000595
 1824.7341309 11.000000000 13.324899673 12.250000954 20.539228439 0.0022988792  -999.250000 0.2469999939 2.3389158249 6.2119598389 17.877729416  -999.250000 82.694297791 157.40161133 1.5037000179  -999.250000 1.4677000046
 1824.8864746 11.000000000 13.311200142 12.250000954 19.836204529 0.0016002404  -999.250000 0.2425999939 2.3487989902 6.0620899200 19.391380310  -999.250000 82.042198181 157.19290161 1.5205999613  -999.250000 1.4847999811
 1825.0389404 11.000000000 13.397398949 12.250000954 19.323823929 0.0018975982  -999.250000 0.2395000011 2.3475978374 6.0498161316 18.117593765  -999.250000 82.633796692 156.82429504 1.5306999683  -999.250000 1.4895999432
 1825.1912842 11.000000000 13.394499779 12.250000954 19.122900009 0.0004043269  -999.250000 0.2379000038 2.3462030888 5.9976968765 16.680856705  -999.250000 82.693992615 155.94749451 1.5424000025  -999.250000 1.5069999695
 1825.3437500 11.000000000 13.295901299 12.250000954 19.778543472 0.0058024018  -999.250000 0.2344000041 2.3502116203 6.1188402176 17.502008438  -999.250000 82.119697571 155.73080444 1.5599999428  -999.250000 1.5318000317
 1825.4960938 11.000000000 13.285398483 12.250000954 20.187898636 0.0073097758  -999.250000 0.2328000069 2.3575031757 6.2065010071 18.878894806  -999.250000 81.174201965 155.20790100 1.5836999416  -999.250000 1.5499000549
 1825.6484375 11.000000000 13.293499947 12.250000954 20.890834808 0.0194942355  -999.250000 0.2301999927 2.3612902164 6.4576578140 18.870948792  -999.250000 80.813102722 154.70199585 1.5994000435  -999.250000 1.5714999437
 1825.8009033 11.000000000 13.301799774 12.250000954 22.230699539 0.0123002399  -999.250000 0.2307000011 2.3491015434 6.4050998688 18.681526184  -999.250000 80.100997925 153.17829895 1.6078000069  -999.250000 1.5834000111
 1825.9532471 11.000000000 13.317300797 12.250000954 23.529542923 0.0125971176  -999.250000 0.2285999954 2.3509931564 6.4048690796 18.339759827  -999.250000 79.817993164 152.63009644 1.6136000156  -999.250000 1.5888999701
 1826.1057129 11.000000000 13.248100281 12.250000954 25.186458588 0.0090002399  -999.250000 0.2305999994 2.3425056934 6.3659272194 18.663619995  -999.250000 80.236503601 152.46719360 1.6072000265  -999.250000 1.5829000473
 1826.2580566 11.000000000 13.322099686 12.250000954 26.139177322 0.0092941551  -999.250000 0.2333000004 2.3496956825 6.2749762535 18.811491013  -999.250000 80.582702637 153.14739990 1.5922000408  -999.250000 1.5701999664
 1826.4105225 11.000000000 13.126099586 12.250000954 27.456626892 0.0019983975  -999.250000 0.2370000035 2.3443977833 6.2449431419 17.052753448  -999.250000 81.504798889 154.00929260 1.5852999687  -999.250000 1.5664999485
 1826.5628662 11.000000000 13.150199890 12.250000954 28.192363739 -0.000000401  -999.250000 0.2389999926 2.3416898251 6.0494551659 16.123025894  -999.250000 81.739593506 154.61759949 1.5738999844  -999.250000 1.5594999790
 1826.7153320 11.000000000 13.102099419 12.250000954 28.323274612 -0.000506886  -999.250000 0.2382999957 2.3290092945 5.9929661751 16.404571533  -999.250000 82.224281311 155.51589966 1.5670000315  -999.250000 1.5313999653
 1826.8676758 11.000000000 13.173000336 12.250000954 27.778850555 -0.004790465  -999.250000 0.2361000031 2.3347957134 5.7228236198 17.385082245  -999.250000 81.399299622 155.50459290 1.5626000166  -999.250000 1.5361000299
 1827.0201416 11.000000000 13.054300308 12.250000954 27.747495651 0.0071035228  -999.250000 0.2354000062 2.3294003010 6.2510867119 18.735855103  -999.250000 81.225303650 155.49819946 1.5465999842  -999.250000 1.5169999599
 1827.1724854 11.000000000 13.141499519 12.250000954 24.952726364 0.0093028042  -999.250000 0.2321999967 2.3294956684 6.4922785759 19.705196381  -999.250000 81.623397827 156.09552002 1.5350999832  -999.250000 1.5095000267
 1827.3249512 11.000000000 13.235899925 12.250000954 18.775058746 0.0127863884  -999.250000 0.2353000045 2.3241257668 6.5895156860 19.822162628  -999.250000 81.455802917 155.54379272 1.5489000082  -999.250000 1.5211000443
 1827.4772949 11.000000000 13.282799721 12.250000954 16.192394257 0.0043008015  -999.250000 0.2351000011 2.3402104378 6.2253165245 17.679428101  -999.250000 81.798103333 155.21301270 1.5623999834  -999.250000 1.5312000513
 1827.6296387 11.000000000 13.337300301 12.250000954 14.725738525 0.0053047235  -999.250000 0.2354000062 2.3532955647 6.3704762459 17.589448929  -999.250000 80.952011108 156.28080750 1.5759999752  -999.250000 1.5448000431
 1827.7821045 11.000000000 13.306400299 12.250000954 13.928589821 0.0111997593  -999.250000 0.2334000021 2.3476963043 6.5905561447 19.271579742  -999.250000 82.272491455 156.15119934 1.5796999931  -999.250000 1.5461000204
 1827.9344482 11.000000000 13.243399620 12.250000954 13.249207497 0.0109000001  -999.250000 0.2335000038 2.3430051804 6.6604623795 18.372959137  -999.250000 81.948303223 156.03720093 1.5946999788  -999.250000 1.5645999908
 1828.0869141 11.000000000 13.262001038 12.250000954 13.077428818 0.0109049678  -999.250000 0.2379000038 2.3497006893 6.6137495041 18.323751450  -999.250000 83.933708191 155.79011536 1.6134999990  -999.250000 1.5793999434
