# LAS format log file from PETREL
# Project units are specified as depth units
#==================================================================
~Version information
VERS.   2.0:
WRAP.   NO:
#==================================================================
~Well
STRT .m      735.07409668 :
STOP .m      2124.0476074 :
STEP .m     0.00000000 :
NULL .        -999.250000 :
COMP.           : COMPANY
WELL.  16/2-6   : WELL
FLD.            : FIELD
LOC.            : LOCATION
SRVC.           : SERVICE COMPANY
DATE.  2018-09-11 14:48:07   : Log Export Date {yyyy-MM-dd HH:mm:ss}
PROV.           : PROVINCE
UWI.   16/2-6   : UNIQUE WELL ID
API.            : API NUMBER
#==================================================================
~Curve
DEPT .m                   : DEPTH
Lithology_geolink ._      : Lithology_geolink
CALI .in                  : CALI
BS .in                    : BS
ROP .m/h                  : ROP
DRHO .g/cm3               : DRHO
NPHI .m3/m3               : NPHI
RHOB .g/cm3               : RHOB
PEF .b/e                  : PEF
GR .gAPI                  : GR
DTC .us/ft                : DTC
DTS .us/ft                : DTS
RDEP .ohm.m               : RDEP
RMED .ohm.m               : RMED
~Parameter
#==================================================================
~Ascii
# ...
 1378.8116455  -999.250000 12.461199760 12.250000954 141.42192078 -0.009800000 0.4375999868 2.1121072769 3.8130731583 124.76516724 146.77195740  -999.250000 0.9318956137 0.8116000295
 1378.9641113  -999.250000 12.347800255 12.250000954 148.05380249 -0.009798718 0.4070000052 2.1214046478 3.9043738842 126.09889221 146.22753906  -999.250000 0.9263705015 0.7930999994
 1379.1164551  -999.250000 12.335100174 12.250000954 150.31398010 -0.008192874 0.4226000011 2.1271131039 3.9965572357 123.47028351 146.02279663  -999.250000 0.8895502687 0.7671999931
 1379.2689209  -999.250000 12.337900162 12.250000954 152.01870728 0.0007027243 0.4154999852 2.1434013844 4.0680232048 121.57839203 146.51388550  -999.250000 0.8275368214 0.7426000237
 1379.4212646  -999.250000 12.343899727 12.250000954 154.86056519 0.0040999199 0.4334000051 2.1452062130 4.0968971252 122.06882477 147.23216248  -999.250000 0.8736897111 0.7914999723
 1379.5737305  -999.250000 12.371500015 12.250000954 158.30447388 0.0040012812 0.4307999909 2.1529264450 4.0935444832 122.85469055 147.80871582  -999.250000 1.1101622581 0.9007999897
 1379.7260742  -999.250000 12.407199860 12.250000954 161.53642273 0.0047968752 0.4485999942 2.1695034504 4.2461400032 127.02810669 148.13552856  -999.250000 1.0242081881 0.8332999945
 1379.8785400  -999.250000 12.426300049 12.250000954 163.49574280 0.0009054443 0.4637244940 2.1736330986 4.2956991196 130.02148438 147.79461670  -999.250000 0.9098547697 0.6944000125
 1380.0308838  -999.250000 12.289999962 12.250000954 165.29692078 0.0043004006 0.4789843857 2.1943027973 4.2325315475 129.38954163 147.30911255  -999.250000 0.9440472722 0.7998999953
 1380.1831055  -999.250000 12.286800385 12.250000954 166.96485901 0.0048000002 0.4595000148 2.1977999210 4.0225000381 131.93859863 146.94000244  -999.250000 1.0030000210 0.8607025146
 1380.3355713  -999.250000 12.280199051 12.250000954 167.21961975 0.0114000002 0.4406000078 2.2190001011 3.9419999123 136.90730286 146.64610291  -999.250000 0.9840000272 0.7750687003
 1380.4879150  -999.250000 12.342000961 12.250000954 165.03849792 0.0078999996 0.4277000129 2.2074000835 3.7862999439 137.82080078 146.02969360  -999.250000 1.0973000526 0.9090924859
 1380.6403809  -999.250000 12.348799706 12.250000954 162.96820068 0.0023000001 0.4244000018 2.1881000996 3.6403000355 133.67660522 144.60310364  -999.250000 1.1992000341 0.9744477272
 1380.7927246  -999.250000 12.362499237 12.250000954 163.11537170 0.0010000000 0.4314000010 2.1761000156 3.5901000500 128.42939758 142.40260315  -999.250000 1.2533999681 1.0191642046
 1380.9451904  -999.250000 12.338998795 12.250000954 161.85369873 0.0022000000 0.4515999854 2.1710000038 3.6268999577 125.20980072 140.39070129  -999.250000 1.2811000347 1.0860464573
 1381.0975342  -999.250000 12.334899902 12.250000954 160.51812744 0.0022000000 0.4438000023 2.1735000610 3.6535000801 127.85009766 139.99049377  -999.250000 1.3148000240 1.1204724312
 1381.2500000  -999.250000 12.330599785 12.250000954 159.33560181 0.0007000000 0.4463999867 2.1795001030 3.6394000053 133.96620178 140.81480408  -999.250000 1.2561000586 1.0951204300
 1381.4023438  -999.250000 12.326299667 12.250000954 160.08338928 -0.000900000 0.4490000010 2.1856000423 3.6252999306 135.90460205 142.15249634  -999.250000 1.2544000149 1.1053917408
 1381.5548096  -999.250000 12.330599785 12.250000954 159.89024353 -0.002900000 0.4332999885 2.1879000664 3.5929999352 132.18370056 143.00869751  -999.250000 1.2828999758 1.1054998636
 1381.7071533  -999.250000 12.337100029 12.250000954 159.35081482 0.0024999999 0.4449999928 2.2074999809 3.5574998856 128.68559265 142.39370728  -999.250000 1.3672000170 1.1309796572
 1381.8594971  -999.250000 12.352198601 12.250000954 155.53268433 0.0030000000 0.4415999949 2.1974999905 3.6463999748 129.44320679 140.79400635  -999.250000 1.4800000191 1.1925014257
 1382.0119629  -999.250000 12.371898651 12.250000954 153.40950012 0.0027000001 0.4370999932 2.1960999966 3.7606999874 132.11689758 139.32739258  -999.250000 1.5717999935 1.2484551668
 1382.1643066  -999.250000 12.410599709 12.250000954 150.77946472 -0.001800000 0.4266000092 2.1816999912 3.8675999641 135.30310059 139.37229919  -999.250000 1.5893000364 1.2668704987
 1382.3167725  -999.250000 12.491000175 12.250000954 149.63247681 -0.005200000 0.4205999970 2.1717998981 3.7704000473 136.86270142 140.49270630  -999.250000 1.5803999901 1.2540103197
 1382.4691162  -999.250000 12.469499588 12.250000954 150.01022339 -0.002200000 0.4322000146 2.1635000706 3.8561999798 135.97149658 139.66470337  -999.250000 1.5664999485 1.2760646343
 1382.6215820  -999.250000 12.454700470 12.250000954 151.12574768 0.0063999998 0.4645000100 2.1689000130 4.0862998962 132.47340393 137.61349487  -999.250000 1.5621999502 1.4951244593
 1382.7739258  -999.250000 12.414500237 12.250000954 151.46725464 0.0144999996 0.4365000129 2.1795001030 4.5118999481 126.97000122 137.58270264  -999.250000 1.7506999969 1.7925615311
 1382.9263916  -999.250000 12.500499725 12.250000954 148.55844116 0.0222999994 0.4458999932 2.1944000721 4.7009000778 126.45749664 139.57739258  -999.250000 1.8559000492 2.0644822121
 1383.0787354  -999.250000 12.573300362 12.250000954 142.46026611 0.0187999997 0.4339999855 2.1970999241 4.6494998932 134.34500122 141.90139771  -999.250000 1.5703999996 1.7230739594
 1383.2312012  -999.250000 12.473299980 12.250000954 142.27246094 0.0210999995 0.4348999858 2.2065000534 4.5317001343 145.70829773 143.17039490  -999.250000 1.5396000147 1.6835315228
 1383.3835449  -999.250000 12.423299789 12.250000954 142.53718567 0.0093000000 0.4255999923 2.1965000629 4.3101000786 150.89970398 143.19169617  -999.250000 1.5501999855 1.6602187157
 1383.5360107  -999.250000 12.378199577 12.250000954 144.31355286 0.0066999998 0.4237000048 2.1914999485 4.1985001564 149.40690613 143.15440369  -999.250000 1.5749000311 1.6579017639
 1383.6883545  -999.250000 12.377300262 12.250000954 146.82015991 0.0113000004 0.4603999853 2.1856000423 4.3948001862 147.31250000 143.53219604  -999.250000 1.5703999996 1.6516050100
 1383.8406982  -999.250000 12.328200340 12.250000954 147.87789917 0.0192000009 0.4614999890 2.1842000484 4.7870001793 142.85629272 143.75939941  -999.250000 1.6118999720 1.6759608984
 1383.9931641  -999.250000 12.515700340 12.250000954 147.16528320 0.0093000000 0.4893999994 2.1549999714 4.8578000069 141.60859680 144.04750061  -999.250000 1.6197999716 1.6512199640
 1384.1455078  -999.250000 12.586299896 12.250000954 144.40715027 0.0040000002 0.5027999878 2.1556999683 4.6549000740 143.70300293 143.53259277  -999.250000 1.5095000267 1.5381813049
 1384.2979736  -999.250000 12.599800110 12.250000954 144.22276306 0.0002000000 0.4699000120 2.1619000435 4.2456002235 141.18519592 144.06750488  -999.250000 1.4888999462 1.5401982069
 1384.4503174  -999.250000 12.608599663 12.250000954 144.91207886 0.0086000003 0.4431999922 2.1833999157 4.1279997826 137.01870728 145.37750244  -999.250000 1.5410000086 1.6115856171
 1384.6027832  -999.250000 12.464499474 12.250000954 150.97079468 0.0063999998 0.4429999888 2.1851999760 3.9263999462 136.10519409 145.60180664  -999.250000 1.4517999887 1.5080831051
 1384.7551270  -999.250000 12.549501419 12.250000954 151.30805969 0.0019000000 0.4862999916 2.1826000214 3.8148000240 140.56140137 145.74459839  -999.250000 1.3924000263 1.4584397078
 1384.9075928  -999.250000 12.617400169 12.250000954 152.22572327 0.0026000000 0.5094000101 2.1998999119 3.6993999481 146.68859863 145.77510071  -999.250000 1.4658000469 1.5106581450
 1385.0599365  -999.250000 12.514499664 12.250000954 151.95407104 -0.002600000 0.4562999904 2.2049002647 3.5014998913 147.66900635 145.71919250  -999.250000 1.4780999422 1.5334817171
 1385.2124023  -999.250000 12.413200378 12.250000954 151.15452576 -0.001600000 0.4546999931 2.2114999294 3.4130001068 140.51679993 145.28739929  -999.250000 1.4962999821 1.5354984999
 1385.3647461  -999.250000 12.225299835 12.250000954 150.34382629 -0.008200000 0.4526999891 2.1914000511 3.3491001129 132.58479309 144.83520508  -999.250000 1.5367000103 1.5849603415
