# LAS format log file from PETREL
# Project units are specified as depth units
#==================================================================
~Version information
VERS.   2.0:
WRAP.   NO:
#==================================================================
~Well
STRT .m      734.31201172 :
STOP .m      2361.9440918 :
STEP .m     0.00000000 :
NULL .        -999.250000 :
COMP.           : COMPANY
WELL.  16/2-11 A Johan Sverdrup Appr   : WELL
FLD.            : FIELD
LOC.            : LOCATION
SRVC.           : SERVICE COMPANY
DATE.  2018-09-11 14:48:07   : Log Export Date {yyyy-MM-dd HH:mm:ss}
PROV.           : PROVINCE
UWI.   16/2-11 A   : UNIQUE WELL ID
API.            : API NUMBER
#==================================================================
~Curve
DEPT .m                   : DEPTH
Lithology_geolink ._      : Lithology_geolink
CALI .in                  : CALI
BS .in                    : BS
ROP .m/h                  : ROP
DRHO .g/cm3               : DRHO
THOR .ppm                 : THOR
NPHI .m3/m3               : NPHI
RHOB .g/cm3               : RHOB
PEF .b/e                  : PEF
GR .gAPI                  : GR
URAN .ppm                 : URAN
DTC .us/ft                : DTC
DTS .us/ft                : DTS
RDEP .ohm.m               : RDEP
RMIC .ohm.m               : RMIC
RMED .ohm.m               : RMED
~Parameter
#==================================================================
~Ascii
# ...
 2251.1491699 5.0000000000 8.4323997498 8.5000000000 75.652565002 -0.035700001 2.1752998829 0.1504999995 2.5144999027 4.3421001434 24.175800323 0.3944999874 70.477600098 137.64469910 5.7768001556 3.4483480453 5.6143999100
 2251.3017578 5.0000000000 8.4537000656 8.5000000000 75.684059143 -0.030700000 1.9419001341 0.1621000022 2.5229001045 4.2866001129 24.790897369 0.5013999939 70.953300476 137.73269653 4.2548999786 5.6950001717 4.1331000328
 2251.4541016 5.0000000000 8.4153003693 8.5000000000 74.142387390 -0.016000001 1.6851999760 0.1779000014 2.5436000824 4.2038998604 24.294651031 0.5806999803 71.310302734 137.00740051 4.2435002327 5.4942002296 4.1247000694
 2251.6064453 5.0000000000 8.3959999084 8.5000000000 77.500328064 -0.006600000 1.7455999851 0.1811999977 2.5618999004 4.2031002045 26.756278992 0.7462999821 70.282203674 135.16360474 4.2452001572 4.6783075333 4.1219000816
 2251.7587891 5.0000000000 8.4110002518 8.5000000000 80.624015808 -0.007000000 1.4826999903 0.1802999973 2.5736000538 4.2424998283 26.867900848 0.6836000085 67.512802124 131.37860107 4.9741001129 5.2622604370 4.8874001503
 2251.9111328 5.0000000000 8.4110002518 8.5000000000 81.101707458 -0.009300000 1.5420000553 0.1729999930 2.5796999931 4.3582000732 25.785699844 0.6812999845 65.327796936 125.35990143 5.5282001495 7.0349559784 5.5110001564
 2252.0637207 5.0000000000 8.3859996796 8.5000000000 80.816925049 -0.008200000 1.5058000088 0.1715999991 2.5862998962 4.3937997818 25.406158447 0.4981000125 63.880996704 123.15540314 4.7776999474 10.044699669 4.7898998260
 2252.2160645 5.0000000000 8.3895998001 8.5000000000 82.590881348 -0.007600000 1.7883000374 0.1685999930 2.5959000587 4.3424000740 24.320518494 0.5030999780 64.143798828 125.50009918 3.8675000668 9.7897081375 3.9021000862
 2252.3684082 5.0000000000 8.3982000351 8.5000000000 82.352691650 -0.008900000 1.9955000877 0.1665000021 2.5952999592 4.2483000755 24.020399094 0.3946000040 65.994102478 128.94569397 3.2769000530 8.7198162079 3.3471000195
 2252.5207520 5.0000000000 8.4110002518 8.5000000000 80.920608521 -0.011600000 2.1298000813 0.1617999971 2.5799002647 4.1967000961 24.166400909 0.4390000105 66.558403015 131.37010193 3.2688999176 6.8581852913 3.3447999954
 2252.6733398 5.0000000000 8.4216995239 8.5000000000 78.983268738 -0.011101442 1.8466999531 0.1665000021 2.5518000126 4.2066998482 23.390382767 0.4702999890 65.903198242 134.21150208 3.3046998978 5.7199997902 3.3868999481
 2252.8256836 5.0000000000 8.4216995239 8.5000000000 79.397308350 -0.012015360 2.0090999603 0.1701000035 2.5373001099 4.2644000053 24.684209824 0.3574999869 65.097396851 131.58799744 3.4005999565 5.0820999146 3.4967999458
 2252.9780273 5.0000000000 8.4430999756 8.5000000000 81.923881531 -0.021600001 2.0722000599 0.1685999930 2.5387001038 4.4271001816 22.569400787 0.2876999974 66.227798462 128.54139709 3.6914999485 4.5944814682 3.8826000690
 2253.1303711 5.0000000000 8.4323997498 8.5000000000 81.968833923 -0.043900002 2.3413999081 0.1662999988 2.5225999355 4.6613998413 23.080299377 0.1886000037 67.009002686 126.07969666 3.8092000484 4.4294638634 4.0623002052
 2253.2829590 5.0000000000 8.4110002518 8.5000000000 82.608924866 -0.061209936 2.1468000412 0.1605000049 2.5160148144 4.7883229256 22.976118088 0.1261000037 66.581298828 125.08780670 3.9165000916 4.4359002113 4.1782999039
 2253.4353027 5.0000000000 8.4323997498 8.5000000000 83.209320068 -0.067424998 2.0592999458 0.1643999964 2.5252172947 4.7400431633 24.418998718 0.1666000038 65.989402771 125.07569122 3.9182999134 4.4348998070 4.1827998161
 2253.5876465 5.0000000000 8.4537000656 8.5000000000 86.057418823 -0.083030395 1.9789999723 0.1643999964 2.5360805988 4.6421980858 23.546060562 0.2499000132 67.316101074 125.68699646 4.2108998299 4.4330029488 4.5051999092
 2253.7399902 5.0000000000 8.4323997498 8.5000000000 86.686355591 -0.101999998 2.2181999683 0.1661999971 2.5241000652 4.6409997940 23.895599365 0.2599999905 69.063598633 126.63849640 5.3618001938 4.4290060997 5.7149000168
 2253.8925781 5.0000000000 8.4323997498 8.5000000000 88.498268127 -0.114160262 2.2344999313 0.1592999995 2.4915378094 4.6812772751 24.252531052 0.3905999959 68.267501831 126.33831024 5.0605998039 4.4293999672 5.3857002258
 2254.0449219 3.0000000000 8.4323997498 8.5000000000 67.788833618 -0.089385897 1.9412000179 0.1386999935 2.5152127743 4.6669378281 26.701774597 0.4990999997 65.638801575 125.93959808 4.5920000076 4.4320001602 4.8702998161
 2254.1972656 3.0000000000 8.4537000656 8.5000000000 61.924732208 -0.080601119 2.0771000385 0.1199999973 2.5232996941 4.6904273033 26.626476288 0.5439000130 63.869098663 124.27970123 4.7494997978 4.4326992035 5.0058999062
 2254.3496094 3.0000000000 8.4110002518 8.5000000000 54.881561279 -0.081299998 2.1807999611 0.1045999974 2.5230998993 4.7698001862 28.545700073 0.5103999972 64.686203003 121.31189728 7.6312999725 4.4314017296 8.0448999405
 2254.5019531 3.0000000000 8.4430999756 8.5000000000 48.109909058 -0.090700001 2.3715999126 0.1076999977 2.4867000580 4.8856000900 26.700899124 0.5727000237 67.417297363 119.91748810 6.4689002037 4.4290037155 6.8787999153
 2254.6545410 3.0000000000 8.4323997498 8.5000000000 47.574451447 -0.083074361 2.2639999390 0.1301999986 2.4616091251 4.9002418518 25.799480438 0.6930999756 68.332397461 119.75779724 4.4868001938 4.4351000786 4.8338999748
 2254.8068848 3.0000000000 8.4110002518 8.5000000000 47.549377441 -0.067065120 2.0875999928 0.1536000073 2.4673678875 4.8013429642 23.107078552 0.6546999812 66.480499268 119.87059784 4.2332000732 4.7977185249 4.5820999146
 2254.9592285 3.0000000000 8.4323997498 8.5000000000 41.509513855 -0.045299999 1.8430000544 0.1729000062 2.5097000599 4.6410999298 22.468900681 0.5720999837 63.783901215 119.71240997 4.4731998444 5.7790260315 4.8663001060
 2255.1115723 3.0000000000 8.4270000458 8.5000000000 35.906822205 -0.016000001 1.4103000164 0.1553999931 2.5599999428 4.4663000107 22.031999588 0.5345000029 61.712104797 118.07589722 8.1918001175 5.7141070366 8.9581003189
 2255.2641602 3.0000000000 8.4146003723 8.5000000000 33.083087921 0.0035107373 1.4385999441 0.1325999945 2.5851953030 4.3498349190 21.139703751 0.3725999892 60.546298981 115.21810150 9.0103998184 3.8426001072 9.8488998413
 2255.4165039 3.0000000000 8.4039001465 8.5000000000 32.323463440 0.0101987179 1.2782000303 0.1062999964 2.5823993683 4.3095302582 19.647306442 0.4923000038 58.752399445 113.62719727 7.9675998688 3.2218000889 8.6974000931
 2255.5688477 3.0000000000 8.4048995972 8.5000000000 35.778026581 0.0094047999 1.4333000183 0.0901999995 2.5819072723 4.3908729553 20.025060654 0.4147999883 56.863399506 111.41619110 7.3333001137 3.8999133110 8.0069999695
 2255.7211914 3.0000000000 8.4055995941 8.5000000000 33.815944672 0.0124000004 1.5664999485 0.0820000023 2.5864999294 4.5612001419 20.249700546 0.4392000139 56.366500854 109.15560150 8.8107995987 7.2104878426 9.5118999481
 2255.8737793 3.0000000000 8.4153003693 8.5000000000 36.190963745 0.0135902241 1.8077000380 0.0762000009 2.5876867771 4.7601842880 20.565393448 0.3438000083 56.738498688 108.64289093 12.707300186 12.591699600 13.626700401
 2256.0261230 3.0000000000 8.4153003693 8.5000000000 38.040157318 0.0074729165 2.0162999630 0.0812999979 2.5794732571 4.9373631477 18.315158844 0.3183000088 56.514503479 106.11560059 12.560299873 8.5020999908 13.428799629
 2256.1784668 3.0000000000 8.4189996719 8.5000000000 37.301658630 -0.009429600 1.7886999846 0.0857999995 2.5627713203 5.0389661789 16.358283997 0.3729999959 55.286899567 104.55930328 12.153699875 4.0875744820 12.978799820
 2256.3308105 3.0000000000 8.4323997498 8.5000000000 36.575786591 -0.027899999 1.5680999756 0.0908999965 2.5448999405 5.0802998543 16.722900391 0.2694000006 54.330696106 104.02819824 20.125200272 3.1691629887 21.697399139
 2256.4831543 3.0000000000 8.4139995575 8.5000000000 40.426837921 -0.039500002 1.2934999466 0.0944999978 2.5343000889 5.0777997971 17.917499542 0.2691999972 54.858798981 103.58029938 19.793800354 3.0237309933 21.428199768
 2256.6357422 3.0000000000 8.4089002609 8.5000000000 45.657733917 -0.035183012 1.1529999971 0.0992999971 2.5391187668 5.0542969704 19.755142212 0.2109999955 57.127403259 104.27860260 16.038400650 3.4702000618 17.479499817
