# LAS format log file from PETREL
# Project units are specified as depth units
#==================================================================
~Version information
VERS.   2.0:
WRAP.   NO:
#==================================================================
~Well
STRT .m      735.07409668 :
STOP .m      2124.0476074 :
STEP .m     0.00000000 :
NULL .        -999.250000 :
COMP.           : COMPANY
WELL.  16/2-6   : WELL
FLD.            : FIELD
LOC.            : LOCATION
SRVC.           : SERVICE COMPANY
DATE.  2018-09-11 14:48:07   : Log Export Date {yyyy-MM-dd HH:mm:ss}
PROV.           : PROVINCE
UWI.   16/2-6   : UNIQUE WELL ID
API.            : API NUMBER
#==================================================================
~Curve
DEPT .m                   : DEPTH
Lithology_geolink ._      : Lithology_geolink
CALI .in                  : CALI
BS .in                    : BS
ROP .m/h                  : ROP
DRHO .g/cm3               : DRHO
NPHI .m3/m3               : NPHI
RHOB .g/cm3               : RHOB
PEF .b/e                  : PEF
GR .gAPI                  : GR
DTC .us/ft                : DTC
DTS .us/ft                : DTS
RDEP .ohm.m               : RDEP
RMED .ohm.m               : RMED
~Parameter
#==================================================================
~Ascii
# ...
 2022.5491943 3.0000000000 8.5542001724 8.5000000000 53.322509766 0.1013943180 0.2816999853 2.3362967968 4.9412269592 56.230400085 99.579399109  -999.250000 1.3299000263 1.4776999950
 2022.7016602 3.0000000000 8.5408000946 8.5000000000 56.314304352 0.0942963958 0.2667999864 2.3324928284 4.7250261307 56.675899506 99.869400024  -999.250000 1.4664000273 1.5614000559
 2022.8540039 3.0000000000 8.5174999237 8.5000000000 57.748363495 0.0898059234 0.2852999866 2.3235964775 4.6331892014 56.000301361 100.15789795  -999.250000 1.2439999580 1.2897000313
 2023.0064697 3.0000000000 8.5408000946 8.5000000000 61.425201416 0.0972084925 0.2721999884 2.3192081451 4.7448449135 55.244098663 100.62090302  -999.250000 1.7073999643 1.7293000221
 2023.1588135 3.0000000000 8.5495996475 8.5000000000 61.927494049 0.1077935919 0.2660999894 2.3291976452 4.9254565239 54.220001221 100.31250000  -999.250000 1.4178999662 1.5458999872
 2023.3112793 3.0000000000 8.5687999725 8.5000000000 59.710956573 0.0997860655 0.2682000101 2.3263108730 4.8709249496 52.550800323 98.674102783  -999.250000 1.3564000130 1.4744000435
 2023.4636230 3.0000000000 8.5391998291 8.5000000000 62.540027618 0.0910895020 0.3063000143 2.3330979347 4.6991863251 53.497600555 97.629096985  -999.250000 1.2599999905 1.3752000332
 2023.6160889 3.0000000000 8.5235004425 8.5000000000 66.080047607 0.0780068859 0.2754999995 2.3303236961 4.5578374863 55.425399780 98.109596252  -999.250000 1.2904000282 1.3925000429
 2023.7684326 3.0000000000 8.5296001434 8.5000000000 69.038711548 0.0822994411 0.2777000070 2.3451013565 4.6435360909 58.846599579 100.40799713  -999.250000 1.4629000425 1.5778000355
 2023.9208984 3.0000000000 8.5157003403 8.5000000000 69.077430725 0.0816009641 0.2743999958 2.3469910622 4.6887984276 59.691299438 101.60729980  -999.250000 1.3444000483 1.4183000326
 2024.0732422 3.0000000000 8.5109996796 8.5000000000 68.930770874 0.0821959898 0.2897999883 2.3415007591 4.6252079010 59.739700317 100.69539642  -999.250000 1.4065999985 1.4318000078
 2024.2255859 3.0000000000 8.5249996185 8.5000000000 67.541671753 0.0771974400 0.2910000086 2.3423051834 4.3856101036 60.297500610 98.771301270  -999.250000 1.5072000027 1.5676000118
 2024.3780518 5.0000000000 8.5411996841 8.5000000000 66.384185791 0.0740012825 0.2887000144 2.3489100933 4.3979811668 61.733600616 97.394203186  -999.250000 1.4517999887 1.5382000208
 2024.5303955 5.0000000000 8.5579004288 8.5000000000 62.690940857 0.0756023228 0.2730000019 2.3614010811 4.3749065399 64.644401550 96.484199524  -999.250000 1.3743000031 1.4823000431
 2024.6828613 5.0000000000 8.5500001907 8.5000000000 54.169620514 0.0785098597 0.2757000029 2.3629052639 4.6326079369 68.521598816 97.368598938  -999.250000 1.3624000549 1.4694999456
 2024.8352051 5.0000000000 8.5355997086 8.5000000000 52.082023621 0.0908060893 0.2745999992 2.3693001270 4.7673721313 69.405502319 97.994697571  -999.250000 1.3811999559 1.4888000488
 2024.9876709 5.0000000000 8.5141000748 8.5000000000 47.739501953 0.0984032825 0.2818000019 2.3694953918 5.1073598862 68.931297302 98.747596741  -999.250000 1.4422999620 1.4961999655
 2025.1400146 5.0000000000 8.5349998474 8.5000000000 46.412399292 0.1024959981 0.2838000059 2.3638882637 5.1823272705 65.304397583 99.896896362  -999.250000 1.3344000578 1.5118000507
 2025.2924805 5.0000000000 8.5249996185 8.5000000000 44.673885345 0.0974947885 0.2843999863 2.3493874073 5.2161870003 62.081199646 99.998100281 212.22790527 1.5586999655 1.5439000130
 2025.4448242 5.0000000000 8.5514001846 8.5000000000 41.699474335 0.0909923837 0.3025999963 2.3335940838 4.9503688812 57.808399200 99.781700134 202.91969299 1.5448000431 1.6419999599
 2025.5972900 3.0000000000 8.5509004593 8.5000000000 41.391075134 0.0815028846 0.3111999929 2.3262093067 4.7867898941 55.645500183 99.445098877 197.73159790 1.4201999903 1.5369000435
 2025.7496338 3.0000000000 8.4805002213 8.5000000000 40.794948578 0.0832968801 0.2791999876 2.3319971561 4.7179713249 55.014999390 98.421501160 195.85670471 1.3933999538 1.5618000031
 2025.9020996 3.0000000000 8.5200004578 8.5000000000 40.090549469 0.0794172958 0.2892999947 2.3284177780 4.6821837425 54.443298340 98.841499329 195.71652222 1.3595000505 1.5514999628
 2026.0544434 3.0000000000 8.4959001541 8.5000000000 40.780513763 0.0901988000 0.2879999876 2.3395998478 4.7344202995 55.080200195 98.839797974 194.96000671 1.4715000391 1.5715999603
 2026.2069092 3.0000000000 8.5438003540 8.5000000000 44.366470337 0.0887129679 0.2890000045 2.3393890858 4.7599978447 58.267200470 99.467597961 194.73449707 1.3464000225 1.4881999493
 2026.3592529 3.0000000000 8.5521001816 8.5000000000 46.408466339 0.0967985541 0.2743999958 2.3324706554 4.8207745552 61.369598389 99.692390442 195.34390259 1.2661000490 1.4046000242
 2026.5115967 3.0000000000 8.5086002350 8.5000000000 51.656494141 0.0950048864 0.2885000110 2.2957904339 4.7893052101 61.176898956 100.65200043 195.59959412 1.2689000368 1.3406000137
 2026.6640625 3.0000000000 8.5474996567 8.5000000000 50.877624512 0.1011044830 0.2802999914 2.2840068340 4.7958393097 57.821201324 100.13549805 194.45770264 1.5530999899 1.5211000443
 2026.8164063 3.0000000000 8.5675001144 8.5000000000 33.204067230 0.1066999212 0.2869000137 2.2926192284 4.9692339897 55.961200714 98.721603394 193.62019348 1.5879000425 1.7331999540
 2026.9688721 3.0000000000 8.5635004044 8.5000000000 35.151576996 0.1065993607 0.2694999874 2.3168041706 5.0112953186 56.697101593 98.366203308 192.98088074 1.3487000465 1.4235999584
 2027.1212158 3.0000000000 8.5455999374 8.5000000000 35.756561279 0.1057960764 0.2707999945 2.3217897415 5.0055394173 57.905498505 99.191596985 193.38969421 1.2829999924 1.4133000374
 2027.2736816 3.0000000000 8.5299997330 8.5000000000 36.086284637 0.1009034440 0.3095999956 2.3090937138 4.9299149513 58.015098572 101.51260376 194.35060120 1.3425999880 1.4345999956
 2027.4260254 3.0000000000 8.5076999664 8.5000000000 37.371719360 0.1051900610 0.2926000059 2.3013961315 4.9483399391 58.473499298 103.67610168 195.34280396 1.3640999794 1.4096000195
 2027.5784912 3.0000000000 8.4979000092 8.5000000000 37.632545471 0.0927996784 0.2908999920 2.2967348099 4.8733067513 59.836399078 102.67590332 193.95239258 1.5202000141 1.5354000330
 2027.7308350 3.0000000000 8.5312004089 8.5000000000 38.016078949 0.0925947130 0.2831999958 2.3185129166 4.7529082298 63.339698792 100.64160156 191.38018799 1.4733999968 1.5326999426
 2027.8833008 3.0000000000 8.5333995819 8.5000000000 38.099411011 0.0860235393 0.2836000025 2.3345260620 4.7630438805 62.416500092 98.819198608 188.74848938 1.4042999744 1.4860999584
 2028.0356445 5.0000000000 8.5111999512 8.5000000000 36.823818207 0.1006951109 0.2820999920 2.3507919312 4.8527235985 63.153598785 98.290290833 190.29747009 1.4479999542 1.5415999889
 2028.1881104 5.0000000000 8.5225000381 8.5000000000 37.543964386 0.0945958346 0.2781000137 2.3406023979 4.8815922737 61.736000061 97.931900024 192.11871338 1.4689999819 1.5413000584
 2028.3404541 5.0000000000 8.5658998489 8.5000000000 63.343173981 0.0919927880 0.2705999911 2.3420970440 4.6899280548 65.121299744 98.636398315 193.93336487 1.4297000170 1.5017000437
 2028.4927979 5.0000000000 8.5452003479 8.5000000000 61.133861542 0.0830044821 0.2698999941 2.3384089470 4.7252187729 63.562000275 97.811500549 191.27189636 1.4922000170 1.6167000532
 2028.6452637 5.0000000000 8.5101003647 8.5000000000 58.312007904 0.0886007175 0.2653000057 2.3497016430 4.8736944199 60.669101715 97.652702332 192.26890564 1.4861999750 1.6312999725
 2028.7976074 5.0000000000 8.5232000351 8.5000000000 56.265743256 0.0895012021 0.2608999908 2.3516991138 4.9913530350 56.932201385 97.869598389 193.27986145 1.4709000587 1.5875999928
 2028.9500732 3.0000000000 8.5286998749 8.5000000000 54.001316071 0.0910006389 0.2739999890 2.3503890038 4.8080677986 55.868801117 98.311996460 192.97166443 1.4598000050 1.5511000156
 2029.1024170 3.0000000000 8.5163002014 8.5000000000 52.408794403 0.0918004736 0.2734999955 2.3366889954 4.6430559158 55.033000946 98.899398804 193.27099609 1.4141999483 1.4952000380
