# LAS format log file from PETREL
# Project units are specified as depth units
#==================================================================
~Version information
VERS.   2.0:
WRAP.   NO:
#==================================================================
~Well
STRT .m      684.17242432 :
STOP .m      2208.3249512 :
STEP .m     0.00000000 :
NULL .        -999.250000 :
COMP.           : COMPANY
WELL.  16/2-16   : WELL
FLD.            : FIELD
LOC.            : LOCATION
SRVC.           : SERVICE COMPANY
DATE.  2018-09-11 14:48:07   : Log Export Date {yyyy-MM-dd HH:mm:ss}
PROV.           : PROVINCE
UWI.   16/2-16   : UNIQUE WELL ID
API.            : API NUMBER
#==================================================================
~Curve
DEPT .m                   : DEPTH
Lithology_geolink ._      : Lithology_geolink
CALI .in                  : CALI
BS .in                    : BS
ROP .m/h                  : ROP
DRHO .g/cm3               : DRHO
THOR .ppm                 : THOR
NPHI .m3/m3               : NPHI
RHOB .g/cm3               : RHOB
PEF .b/e                  : PEF
GR .gAPI                  : GR
URAN .ppm                 : URAN
DTC .us/ft                : DTC
DTS .us/ft                : DTS
RDEP .ohm.m               : RDEP
RMED .ohm.m               : RMED
~Parameter
#==================================================================
~Ascii
# ...
 1694.5844727 11.000000000 12.461999893 12.250000954 137.35525513 0.0051951162  -999.250000 0.2363000065 2.3480000496 5.5430998802 16.339500427  -999.250000 81.935043335 158.51942444 1.1610231400 1.1499999762
 1694.7369385 11.000000000 12.449199677 12.250000954 135.21049500 -0.000891506  -999.250000 0.2389999926 2.3234999180 5.5416002274 16.110900879  -999.250000 83.737205505 162.66586304 1.1898583174 1.1814999580
 1694.8892822 11.000000000 12.483899117 12.250000954 130.95483398 0.0097032841  -999.250000 0.2342000008 2.3299002647 5.7751998901 14.964200020  -999.250000 85.363121033 164.99359131 1.1378360987 1.1318999529
 1695.0417480 11.000000000 12.494899750 12.250000954 133.95907593 0.0138056092  -999.250000 0.2322999984 2.3164999485 5.9100999832 16.147800446  -999.250000 86.012023926 165.37623596 1.0580770969 1.0511000156
 1695.1940918 11.000000000 12.471099854 12.250000954 138.16996765 0.0207966380  -999.250000 0.2354999930 2.3231000900 6.0335998535 18.006099701  -999.250000 86.152297974 164.41471863 1.0294731855 1.0260000229
 1695.3465576 11.000000000 12.510299683 12.250000954 134.90780640 0.0165993590  -999.250000 0.2347999960 2.3131000996 5.8737998009 16.258399963  -999.250000 85.145263672 163.06918335 0.9959962964 0.9987999797
 1695.4989014 11.000000000 12.512700081 12.250000954 132.45756531 0.0157939103  -999.250000 0.2395000011 2.3148000240 5.8505997658 14.720800400  -999.250000 83.727981567 161.19233704 0.9914183021 0.9860000014
 1695.6513672 11.000000000 12.502400398 12.250000954 129.88693237 0.0081918333  -999.250000 0.2287999988 2.3057999611 5.8611998558 14.621299744  -999.250000 82.078460693 159.98252869 1.0143307447 1.0104999542
 1695.8037109 11.000000000 12.522399902 12.250000954 134.66755676 0.0031012821  -999.250000 0.2222000062 2.3141000271 5.8274002075 13.271800041  -999.250000 81.243728638 158.93315125 1.0959713459 1.0765999556
 1695.9561768 11.000000000 12.483899117 12.250000954 136.16569519 0.0047032023  -999.250000 0.2213999927 2.3366000652 5.7954001427 12.851400375  -999.250000 81.412940979 158.74325562 1.1849831343 1.1605000496
 1696.1085205 11.000000000 12.505900383 12.250000954 126.35256958 0.0066988780  -999.250000 0.2281000018 2.3282001019 5.9310002327 15.815899849  -999.250000 82.814903259 159.52746582 1.2367858887 1.2158000469
 1696.2609863 11.000000000 12.457400322 12.250000954 122.10021210 0.0053120092  -999.250000 0.2312999964 2.3182001114 5.9531998634 19.333499908  -999.250000 84.940368652 160.47814941 1.2191081047 1.1931999922
 1696.4133301 11.000000000 12.510499954 12.250000954 121.97492218 0.0128052076  -999.250000 0.2266999930 2.3131999969 6.0128002167 21.059200287  -999.250000 86.106292725 161.31967163 1.1617723703 1.1432000399
 1696.5656738 11.000000000 12.553400040 12.250000954 113.19810486 0.0192987993  -999.250000 0.2289000005 2.3213999271 6.0487999916 21.132900238  -999.250000 85.474227905 161.52062988 1.1273038387 1.1184999943
 1696.7181396 11.000000000 12.567199707 12.250000954 110.66941071 0.0177935101  -999.250000 0.2337000072 2.3210999966 6.0349998474 19.093900681  -999.250000 84.003005981 161.17489624 1.1320424080 1.1111999750
 1696.8704834 11.000000000 12.585399628 12.250000954 109.59943390 0.0096969586  -999.250000 0.2322999984 2.3136000633 5.8968000412 16.420600891  -999.250000 82.267601013 160.42060852 1.1850260496 1.1414999962
 1697.0229492 11.000000000 12.479399681 12.250000954 113.31620026 0.0058998400  -999.250000 0.2233999968 2.3189001083 5.7746000290 15.860199928  -999.250000 81.267997742 159.42042542 1.2176438570 1.1931999922
 1697.1752930 11.000000000 12.571700096 12.250000954 111.58065033 0.0057011209  -999.250000 0.2178000063 2.3248000145 5.7810001373 17.674299240  -999.250000 79.764526367 158.09111023 1.2723217010 1.2329000235
 1697.3277588 11.000000000 12.488499641 12.250000954 109.45969391 0.0071016829  -999.250000 0.2120999992 2.3492000103 5.7525000572 18.599800110  -999.250000 79.425743103 156.46279907 1.2994514704 1.2628999949
 1697.4801025 11.000000000 12.474800110 12.250000954 108.71325684 0.0092030428  -999.250000 0.2087000012 2.3666000366 5.8695001602 17.191299438  -999.250000 79.482978821 155.44425964 1.3636635542 1.3178000450
 1697.6325684 11.000000000 12.480799675 12.250000954 109.93174744 0.0130052883  -999.250000 0.2067999989 2.3754999638 6.0262999535 17.069599152  -999.250000 79.083633423 154.75311279 1.4429005384 1.4016000032
 1697.7849121 11.000000000 12.450099945 12.250000954 111.54643250 0.0196042471  -999.250000 0.2041999996 2.3908998966 6.0584001541 18.938999176  -999.250000 79.237251282 154.39376831 1.4435929060 1.4179999828
 1697.9373779 11.000000000 12.458299637 12.250000954 112.17928314 0.0248823874  -999.250000 0.2022999972 2.4049000740 6.1094999313 19.396200180  -999.250000 78.676834106 153.47700500 1.4346860647 1.4054000378
 1698.0897217 11.000000000 12.454700470 12.250000954 115.14177704 0.0139013622  -999.250000 0.1984000057 2.3880000114 6.0366997719 17.923200607  -999.250000 77.884658813 152.22779846 1.4260296822 1.4071999788
 1698.2421875 11.000000000 12.462900162 12.250000954 121.35189056 0.0156036830  -999.250000 0.1968999952 2.3894999027 6.0655999184 16.424299240  -999.250000 77.697700500 151.84533691 1.4631851912 1.4553999901
 1698.3945313 11.000000000 12.439100266 12.250000954 132.72523499 0.0178977549  -999.250000 0.1898999959 2.4036002159 5.9844999313 15.616800308  -999.250000 77.575546265 152.12435913 1.5163617134 1.5031000376
 1698.5469971 11.000000000 12.440999031 12.250000954 139.90469360 0.0151084876  -999.250000 0.1854999959 2.4082000256 5.7596001625 17.209699631  -999.250000 76.754180908 152.19625854 1.5933595896 1.5580999851
 1698.6993408 11.000000000 12.427300453 12.250000954 146.54579163 0.0203944724  -999.250000 0.1834000051 2.4189999104 5.7350001335 21.149499893  -999.250000 77.047859192 151.11181641 1.6305168867 1.6002000570
 1698.8516846 11.000000000 12.448699951 12.250000954 147.20390320 0.0134986397  -999.250000 0.1805000007 2.4189000130 5.5290999413 22.943300247  -999.250000 75.247604370 148.63168335 1.6515917778 1.6196000576
 1699.0041504 11.000000000 12.444600105 12.250000954 159.71681213 0.0118021639  -999.250000 0.1738000065 2.4314000607 5.4932999611 21.663900375  -999.250000 74.632888794 147.25099182 1.6413427591 1.6239000559
 1699.1564941 11.000000000 12.441900253 12.250000954 175.19483948 0.0145029621  -999.250000 0.1713999957 2.4549002647 5.5071001053 20.362300873  -999.250000 74.488655090 147.49754333 1.6947555542 1.6814999580
 1699.3089600 11.000000000 12.436400414 12.250000954 169.82215881 0.0182041675  -999.250000 0.1724999994 2.4407000542 5.7859001160 18.891099930  -999.250000 74.672683716 148.93321228 1.7641723156 1.7510000467
 1699.4613037 11.000000000 12.451499939 12.250000954 164.88839722 0.0234010406  -999.250000 0.1694999933 2.4421000481 6.0057997704 18.426500320  -999.250000 74.411415100 149.93196106 1.8544225693 1.8131999969
 1699.6137695 11.000000000 12.430899620 12.250000954 164.40657043 0.0247026458  -999.250000 0.1694999933 2.4430000782 6.2073998451 19.239500046  -999.250000 75.057212830 149.62113953 1.8825659752 1.8589999676
 1699.7661133 11.000000000 12.435500145 12.250000954 153.86453247 0.0279950332  -999.250000 0.1659000069 2.4505999088 6.1862001419 17.165399551  -999.250000 75.333160400 149.42094421 1.8401207924 1.8414000273
 1699.9185791 11.000000000 12.444600105 12.250000954 141.18545532 0.0218014419  -999.250000 0.1727000028 2.4256999493 6.2060999870 14.460900307  -999.250000 76.407730103 150.85887146 1.7412543297 1.7425999641
 1700.0709229 11.000000000 12.419500351 12.250000954 125.28364563 0.0226931889  -999.250000 0.1727000028 2.4110000134 6.1501002312 13.729700089  -999.250000 77.674118042 152.65354919 1.6503450871 1.6404999495
 1700.2233887 11.000000000 12.451999664 12.250000954 119.35749817 0.0141915129  -999.250000 0.1772000045 2.3959000111 5.8404998779 14.532799721  -999.250000 78.815345764 155.35557556 1.5816982985 1.5726000071
 1700.3757324 11.000000000 12.456199646 12.250000954 121.72365570 0.0088930288  -999.250000 0.1784999967 2.3914999962 5.4668998718 16.569599152  -999.250000 79.714920044 155.90058899 1.5182441473 1.5125000477
