# LAS format log file from PETREL
# Project units are specified as depth units
#==================================================================
~Version information
VERS.   2.0:
WRAP.   NO:
#==================================================================
~Well
STRT .m      734.31201172 :
STOP .m      2361.9440918 :
STEP .m     0.00000000 :
NULL .        -999.250000 :
COMP.           : COMPANY
WELL.  16/2-11 A Johan Sverdrup Appr   : WELL
FLD.            : FIELD
LOC.            : LOCATION
SRVC.           : SERVICE COMPANY
DATE.  2018-09-11 14:48:07   : Log Export Date {yyyy-MM-dd HH:mm:ss}
PROV.           : PROVINCE
UWI.   16/2-11 A   : UNIQUE WELL ID
API.            : API NUMBER
#==================================================================
~Curve
DEPT .m                   : DEPTH
Lithology_geolink ._      : Lithology_geolink
CALI .in                  : CALI
BS .in                    : BS
ROP .m/h                  : ROP
DRHO .g/cm3               : DRHO
THOR .ppm                 : THOR
NPHI .m3/m3               : NPHI
RHOB .g/cm3               : RHOB
PEF .b/e                  : PEF
GR .gAPI                  : GR
URAN .ppm                 : URAN
DTC .us/ft                : DTC
DTS .us/ft                : DTS
RDEP .ohm.m               : RDEP
RMIC .ohm.m               : RMIC
RMED .ohm.m               : RMED
~Parameter
#==================================================================
~Ascii
# ...
 959.86401367  -999.250000 12.364898682 12.250000954 147.53610229 -0.013700000  -999.250000 0.5216000080 1.9164999723 2.4577000141 112.19029999  -999.250000 142.92619324  -999.250000 1.0989038944  -999.250000 1.0911083221
 960.01641846  -999.250000 12.346899986 12.250000954 150.09448242 -0.016000001  -999.250000 0.5286999941 1.9228999615 2.4177999496 102.35260010  -999.250000 140.35260010  -999.250000 1.0502195358  -999.250000 1.0497165918
 960.16882324  -999.250000 12.320500374 12.250000954 151.77854919 -0.024599999  -999.250000 0.5314000249 1.9411000013 2.1754000187 88.508201599  -999.250000 139.58399963  -999.250000 0.9334467649  -999.250000 0.9266492724
 960.32122803  -999.250000 12.355899811 12.250000954 158.87007141 -0.026400000  -999.250000 0.5655999780 1.9859999418 2.0000998974 71.125900269  -999.250000 140.30839539  -999.250000 0.7128883600  -999.250000 0.7180835605
 960.47357178  -999.250000 12.421999931 12.250000954 145.93371582 -0.027600000  -999.250000 0.4884999990 2.0260999203 1.8600000143 56.488201141  -999.250000 140.96969604  -999.250000 0.7404778004  -999.250000 0.7402821183
 960.62597656  -999.250000 12.495200157 12.250000954 139.19848633 -0.023499999  -999.250000 0.3806000054 2.0357000828 1.9524999857 48.891399384  -999.250000 141.24569702  -999.250000 0.7125223875  -999.250000 0.7094247341
 960.77838135  -999.250000 12.467599869 12.250000954 120.50984192 -0.022700001  -999.250000 0.3398999870 2.0183999538 1.9822000265 47.397499084  -999.250000 140.89360046  -999.250000 0.7155975103  -999.250000 0.7111985683
 960.93078613  -999.250000 12.438499451 12.250000954 86.189964294 -0.018400000  -999.250000 0.3352000117 2.0220999718 2.0576000214 44.930900574  -999.250000 141.29980469  -999.250000 0.7210977674  -999.250000 0.7083011270
 961.08319092  -999.250000 12.443900108 12.250000954 88.140747070 -0.022000000  -999.250000 0.3422999978 2.0186998844 1.9767999649 38.839500427  -999.250000 140.68910217  -999.250000 0.7218996882  -999.250000 0.7073004246
 961.23559570  -999.250000 12.408300400 12.250000954 56.989505768 -0.023800001  -999.250000 0.3303999901 2.0311999321 1.8868999481 34.971599579  -999.250000 140.12289429  -999.250000 0.7137032747  -999.250000 0.7111984491
 961.38800049  -999.250000 12.364700317 12.250000954 45.834316254 -0.028600000  -999.250000 0.3255000114 2.0201001167 1.9606000185 35.156898499  -999.250000 139.81910706  -999.250000 0.7095016837  -999.250000 0.7091008425
 961.54040527  -999.250000 12.400099754 12.250000954 46.954395294 -0.023900000  -999.250000 0.3235999942 2.0211000443 2.1886000633 37.033000946  -999.250000 139.62289429  -999.250000 0.7158974409  -999.250000 0.7158972621
 961.69281006  -999.250000 12.423200607 12.250000954 46.317913055 -0.024499999  -999.250000 0.3276000023 1.9989999533 2.3708000183 39.256401062  -999.250000 139.82620239  -999.250000 0.7217976451  -999.250000 0.7117016912
 961.84521484  -999.250000 12.436700821 12.250000954 45.063976288 -0.021500001  -999.250000 0.3407000005 2.0102000237 2.2950999737 42.522098541  -999.250000 139.90950012  -999.250000 0.7186012864  -999.250000 0.7104005218
 961.99761963  -999.250000 12.401101112 12.250000954 45.836284637 -0.020400001  -999.250000 0.3438000083 2.0160999298 2.1628000736 44.131801605  -999.250000 139.34240723  -999.250000 0.7131022215  -999.250000 0.7054020166
 962.15002441  -999.250000 12.311500549 12.250000954 42.320537567 -0.019500000  -999.250000 0.3449000120 2.0267000198 2.0529999733 41.456699371  -999.250000 140.34120178  -999.250000 0.7107009292  -999.250000 0.7010017633
 962.30242920  -999.250000 12.357500076 12.250000954 44.710300446 -0.022700001  -999.250000 0.3407999873 2.0116000175 1.9785000086 39.048000336  -999.250000 140.52830505  -999.250000 0.7065016627  -999.250000 0.7009999752
 962.45483398  -999.250000 12.428298950 12.250000954 53.018703461 -0.025500000  -999.250000 0.3433000147 2.0150001049 1.8668999672 40.298698425  -999.250000 140.71879578  -999.250000 0.6973000169  -999.250000 0.6916000247
 962.60717773  -999.250000 12.485300064 12.250000954 51.407150269 -0.030500000  -999.250000 0.3569000065 2.0141000748 1.7610000372 42.510501862  -999.250000 139.83580017  -999.250000 0.7077999711  -999.250000 0.6998999715
 962.75958252  -999.250000 12.307000160 12.250000954 66.009513855 -0.035799999  -999.250000 0.3420000076 2.0158998966 1.7063000202 40.530300140  -999.250000 139.32679749  -999.250000 0.7049999833  -999.250000 0.6926000118
 962.91198730  -999.250000 12.324199677 12.250000954 73.042984009 -0.030200001  -999.250000 0.3402999938 2.0197000504 1.9291000366 36.824501038  -999.250000 138.82150269  -999.250000 0.7077999711  -999.250000 0.7016000152
 963.06439209  -999.250000 12.345700264 12.250000954 69.972114563 -0.024499999  -999.250000 0.3195999861 2.0165998936 2.1370999813 36.523399353  -999.250000 139.29440308  -999.250000 0.7012000084  -999.250000 0.6869000196
 963.21679688  -999.250000 12.444799423 12.250000954 53.273624420 -0.010600000  -999.250000 0.3142000139 2.0211999416 2.4735999107 36.662399292  -999.250000 140.17080688  -999.250000 0.7012000084  -999.250000 0.6869000196
 963.36920166  -999.250000 12.519900322 12.250000954 54.687664032 -0.016600000  -999.250000 0.3201999962 2.0078999996 2.3127999306 35.481201172  -999.250000 141.25990295  -999.250000 0.6923999786  -999.250000 0.6840000153
 963.52160645  -999.250000 12.554600716 12.250000954 55.132545471 -0.020199999  -999.250000 0.3355000019 2.0129001141 2.2560000420 35.249599457  -999.250000 141.22579956  -999.250000 0.6977999806  -999.250000 0.6866999865
 963.67401123  -999.250000 12.476301193 12.250000954 50.384841919 -0.024900001  -999.250000 0.3431000113 2.0116000175 2.1703000069 36.778198242  -999.250000 140.87289429  -999.250000 0.7006999850  -999.250000 0.6913999915
 963.82641602  -999.250000 12.457698822 12.250000954 48.110565186 -0.019400002  -999.250000 0.3393999934 2.0144999027 2.4158999920 38.677398682  -999.250000 140.97880554  -999.250000 0.7056000233  -999.250000 0.7013999820
 963.97882080  -999.250000 12.441799164 12.250000954 46.660762787 -0.015400000  -999.250000 0.3375999928 2.0209000111 2.5248999596 40.206001282  -999.250000 141.10339355  -999.250000 0.7020000219  -999.250000 0.6959000230
 964.13122559  -999.250000 12.448400497 12.250000954 47.532810211 -0.014700000  -999.250000 0.3438999951 2.0197000504 2.6730000973 42.522098541  -999.250000 141.17439270  -999.250000 0.7003999949  -999.250000 0.6916999817
 964.28363037  -999.250000 12.454700470 12.250000954 48.883861542 -0.011700000  -999.250000 0.3508999944 2.0239999294 2.9151000977 42.499000549  -999.250000 140.68299866  -999.250000 0.7006999850  -999.250000 0.6930000186
 964.43603516  -999.250000 12.482600212 12.250000954 53.910434723 -0.005500000  -999.250000 0.3429999948 2.0206000805 3.3706998825 36.685600281  -999.250000 140.63369751  -999.250000 0.6987000108  -999.250000 0.6941000223
 964.58843994  -999.250000 12.492100716 12.250000954 52.908462524 -0.009800000  -999.250000 0.3470999897 2.0132000446 3.3719000816 34.987098694  -999.250000 141.01719666  -999.250000 0.7013000250  -999.250000 0.6967999935
 964.74078369  -999.250000 12.466401100 12.250000954 66.900917053 -0.011300000  -999.250000 0.3350000083 2.0146999359 3.3203001022 42.993000031  -999.250000 140.91200256  -999.250000 0.7081999779  -999.250000 0.7010999918
 964.89318848  -999.250000 12.459500313 12.250000954 64.185363770 -0.014700000  -999.250000 0.3382000029 2.0201001167 2.9212000370 46.567600250  -999.250000 140.39129639  -999.250000 0.7123000026  -999.250000 0.7032999992
 965.04559326  -999.250000 12.452899933 12.250000954 64.609252930 -0.008100000  -999.250000 0.3113000095 2.0267999172 2.9844999313 42.360000610  -999.250000 140.13800049  -999.250000 0.7145000100  -999.250000 0.7063999772
 965.19799805  -999.250000 12.398899078 12.250000954 86.609909058 -0.008700000  -999.250000 0.3018999994 2.0304999352 2.9289999008 41.456699371  -999.250000 140.37890625  -999.250000 0.7161999941  -999.250000 0.7082999945
 965.35040283  -999.250000 12.371898651 12.250000954 89.589241028 -0.009100000  -999.250000 0.2899999917 2.0236999989 2.8475000858 43.471698761  -999.250000 140.08039856  -999.250000 0.7063000202  -999.250000 0.7042000294
