# LAS format log file from PETREL
# Project units are specified as depth units
#==================================================================
~Version information
VERS.   2.0:
WRAP.   NO:
#==================================================================
~Well
STRT .m      684.17242432 :
STOP .m      2208.3249512 :
STEP .m     0.00000000 :
NULL .        -999.250000 :
COMP.           : COMPANY
WELL.  16/2-16   : WELL
FLD.            : FIELD
LOC.            : LOCATION
SRVC.           : SERVICE COMPANY
DATE.  2018-09-11 14:48:07   : Log Export Date {yyyy-MM-dd HH:mm:ss}
PROV.           : PROVINCE
UWI.   16/2-16   : UNIQUE WELL ID
API.            : API NUMBER
#==================================================================
~Curve
DEPT .m                   : DEPTH
Lithology_geolink ._      : Lithology_geolink
CALI .in                  : CALI
BS .in                    : BS
ROP .m/h                  : ROP
DRHO .g/cm3               : DRHO
THOR .ppm                 : THOR
NPHI .m3/m3               : NPHI
RHOB .g/cm3               : RHOB
PEF .b/e                  : PEF
GR .gAPI                  : GR
URAN .ppm                 : URAN
DTC .us/ft                : DTC
DTS .us/ft                : DTS
RDEP .ohm.m               : RDEP
RMED .ohm.m               : RMED
~Parameter
#==================================================================
~Ascii
# ...
 1795.6257324 13.000000000 12.491299629 12.250000954 106.60180664 -0.009106405  -999.250000 0.2425999939 2.3490839005 4.0092883110 63.714172363  -999.250000 113.34249878 264.04379272 0.9530464411 0.9566405416
 1795.7781982 13.000000000 12.415399551 12.250000954 98.950187683 -0.017092789  -999.250000 0.2777999938 2.3289256096 3.9946570396 65.424911499  -999.250000 110.09826660 255.94158936 1.0110718012 1.0072805882
 1795.9305420 13.000000000 12.438199997 12.250000954 95.741142273 -0.008089752  -999.250000 0.2788999975 2.3606326580 4.1906781197 62.316402435  -999.250000 112.31050873 254.43972778 1.1004822254 1.1077791452
 1796.0830078 13.000000000 12.441599846 12.250000954 92.465011597 0.0046991184  -999.250000 0.2347999960 2.4014136791 4.2883424759 58.950973511  -999.250000 113.07579041 249.84342957 1.0782743692 1.0816631317
 1796.2353516 13.000000000 12.444600105 12.250000954 90.974807739 0.0035941552  -999.250000 0.2099000067 2.4184951782 4.2162942886 61.411933899  -999.250000 111.81951904 245.24711609 1.0463925600 1.0358926058
 1796.3878174 13.000000000 12.479399681 12.250000954 93.510864258 -0.003700561  -999.250000 0.2065999955 2.4125962257 4.0839595795 65.819267273  -999.250000 105.72396851 240.65272522 1.1618169546 1.1515074968
 1796.5401611 13.000000000 12.461999893 12.250000954 89.475425720 -0.004390705  -999.250000 0.2123000026 2.4077057838 4.1584782600 67.022712708  -999.250000 99.820205688 238.44610596 1.1829276085 1.1608362198
 1796.6926270 13.000000000 12.350500107 12.250000954 94.838722229 0.0072060847  -999.250000 0.2243999988 2.4147872925 4.5060958862 65.407020569  -999.250000 98.094413757 238.44338989 1.2174530029 1.2060555220
 1796.8449707 13.000000000 12.300199509 12.250000954 98.401130676 0.0109991990  -999.250000 0.2135999948 2.4068083763 4.8152065277 61.866722107  -999.250000 102.15605164 236.74980164 1.2504292727 1.2406382561
 1796.9974365 13.000000000 12.380599976 12.250000954 99.901390076 0.0099764606  -999.250000 0.2166000009 2.4173018932 4.8226962090 58.646793365  -999.250000 102.95907593 234.97561646 1.1624959707 1.1637884378
 1797.1497803 13.000000000 12.377300262 12.250000954 101.42742920 -0.004699118  -999.250000 0.2053000033 2.4185283184 4.4462165833 55.336311340  -999.250000 96.766517639 225.95117188 1.2849808931 1.2815485001
 1797.3022461 13.000000000 12.374199867 12.250000954 107.48822784 -0.003601121  -999.250000 0.1905000061 2.4539465904 4.3419675827 51.733066559  -999.250000 91.169891357 226.69285583 1.6349598169 1.5913161039
 1797.4545898 13.000000000 12.401700020 12.250000954 110.98880005 -0.004306811  -999.250000 0.1665000021 2.4828872681 4.3216648102 51.711769104  -999.250000 89.978797913 234.97709656 1.4851578474 1.4765198231
 1797.6069336 13.000000000 12.380599976 12.250000954 109.70755768 -0.012797838  -999.250000 0.1580000073 2.4670872688 4.2775759697 52.668018341  -999.250000 91.478126526 247.68066406 1.4324343204 1.3764548302
 1797.7593994 13.000000000 12.360500336 12.250000954 112.83497620 -0.010089743  -999.250000 0.1656000018 2.4512000084 4.3725037575 48.320053101  -999.250000 95.648498535 241.64105225 1.3503134251 1.3199359179
 1797.9117432 12.000000000 12.363299370 12.250000954 110.39791107 0.0027022418  -999.250000 0.1915999949 2.4510996342 4.5022063255 45.400707245  -999.250000 103.00701904 237.47616577 1.2422944307 1.2399256229
 1798.0642090 12.000000000 12.366900444 12.250000954 117.28440094 0.0054967948  -999.250000 0.2231999934 2.4504063129 4.3852834702 52.782562256  -999.250000 105.02565765 231.43466187 1.1104567051 1.1470423937
 1798.2165527 12.000000000 12.373299599 12.250000954 113.95494843 0.0015015212  -999.250000 0.2337999940 2.4581401348 4.2403149605 60.214859009  -999.250000 102.86157227 224.50721741 1.0568447113 1.0755757093
 1798.3690186 12.000000000 12.340399742 12.250000954 114.65995789 0.0033994392  -999.250000 0.1974000037 2.5080215931 4.3837141991 57.039356232  -999.250000 93.585906982 205.06530762 1.4876102209 1.4201442003
 1798.5213623 12.000000000 12.393400192 12.250000954 112.83822632 0.0027017628  -999.250000 0.1633999944 2.5351073742 4.5256595612 48.251781464  -999.250000 88.864311218 195.45092773 2.1240386963 1.9741359949
 1798.6738281 12.000000000 12.426300049 12.250000954 109.12802124 0.0048819054  -999.250000 0.1548999995 2.5443384647 4.5999212265 42.992671967  -999.250000 87.132019043 198.88088989 2.2967848778 2.1434986591
 1798.8261719 12.000000000 12.441900253 12.250000954 108.75158691 -0.006397836  -999.250000 0.1779000014 2.5059840679 4.4881935120 44.225017548  -999.250000 84.035781860 208.95938110 2.1000165939 2.0180277824
 1798.9786377 12.000000000 12.458399773 12.250000954 102.56271362 -0.003702082  -999.250000 0.1994999945 2.4860229492 4.3551802635 47.743164063  -999.250000 93.613197327 205.58850098 1.8709112406 1.9274010658
 1799.1309814 12.000000000 12.485800743 12.250000954 103.00196075 -0.004995753  -999.250000 0.2029891759 2.5003025532 4.2805724144 49.842075348  -999.250000 92.428474426 216.06564331 1.6284533739 1.6785353422
 1799.2834473 12.000000000 12.513199806 12.250000954 102.58828735 0.0003041633  -999.250000 0.1895065755 2.5037212372 4.3711194992 50.559146881  -999.250000 92.773094177 218.09808350 1.5706737041 1.5982037783
 1799.4357910 12.000000000 12.533301353 12.250000954 105.87420654 0.0029031250  -999.250000 0.1936036050 2.5169723034 4.4458522797 49.651752472  -999.250000 95.696357727 221.46141052 1.7411609888 1.7250505686
 1799.5880127 12.000000000 12.455599785 12.250000954 101.20538330 0.0068000001  -999.250000 0.1981000006 2.4825997353 4.5114998817 47.474399567  -999.250000 92.649299622 233.06770325 1.5678000450 1.5385999680
 1799.7404785 12.000000000 12.380599976 12.250000954 101.02263641 0.0063999998  -999.250000 0.1963000000 2.4632000923 4.5451998711 45.317298889  -999.250000 94.776290894 233.21459961 1.3346999884 1.3336000443
 1799.8928223 12.000000000 12.402099609 12.250000954 101.10564423 0.0098999999  -999.250000 0.1914999932 2.4616000652 4.7669000626 44.012100220  -999.250000 96.339996338 234.37300110 1.3314000368 1.3216999769
 1800.0452881 12.000000000 12.406200409 12.250000954 100.74442291 0.0073000002  -999.250000 0.1897000074 2.4669001102 4.8625001907 44.609401703  -999.250000 93.572311401 233.89019775 1.4105000496 1.3834999800
 1800.1976318 12.000000000 12.409899712 12.250000954 105.32217407 0.0091000004  -999.250000 0.1966000050 2.4784998894 4.8392000198 46.213298798  -999.250000 91.665702820 227.26800537 1.4615999460 1.4520000219
 1800.3500977 12.000000000 12.436400414 12.250000954 105.89894867 0.0071999999  -999.250000 0.2006999999 2.4863998890 4.4453001022 46.666900635  -999.250000 90.206092834 223.35139465 1.4968999624 1.4735000134
 1800.5024414 12.000000000 12.482600212 12.250000954 111.04363251 0.0051000002  -999.250000 0.1996999979 2.4535999298 4.5216999054 46.445598602  -999.250000 93.901397705 218.91819763 1.4546999931 1.4390000105
 1800.6547852 12.000000000 12.455599785 12.250000954 113.46029663 0.0051000002  -999.250000 0.1905000061 2.4428999424 4.6182999611 49.133598328  -999.250000 93.574401855 216.77272034 1.3919999599 1.3924000263
 1800.8072510 13.000000000 12.425399780 12.250000954 115.25392914 0.0077000000  -999.250000 0.1872999966 2.4532001019 4.7663998604 53.989700317  -999.250000 88.728897095 209.44140625 1.4448000193 1.4476000071
 1800.9595947 13.000000000 12.471499443 12.250000954 114.34219360 0.0051000002  -999.250000 0.1825000048 2.4535999298 4.7351999283 53.193199158  -999.250000 86.580497742 207.35810852 1.6140999794 1.6046999693
 1801.1120605 13.000000000 12.481199265 12.250000954 119.39008331 0.0055000000  -999.250000 0.1841000021 2.4651999474 4.5812997818 48.314998627  -999.250000 87.001998901 205.51249695 1.7222000360 1.6796000004
 1801.2644043 13.000000000 12.328500748 12.250000954 117.59416199 0.0066000000  -999.250000 0.1872999966 2.4633998871 4.6146998405 49.388000488  -999.250000 89.411697388 202.03399658 1.8338999748 1.7927999496
 1801.4168701 13.000000000 12.394300461 12.250000954 111.17584991 0.0096000005  -999.250000 0.1950999945 2.4628999233 4.8565998077 54.553798676  -999.250000 92.331306458 207.90539551 1.7479000092 1.7422000170
