# LAS format log file from PETREL
# Project units are specified as depth units
#==================================================================
~Version information
VERS.   2.0:
WRAP.   NO:
#==================================================================
~Well
STRT .m      735.07409668 :
STOP .m      2124.0476074 :
STEP .m     0.00000000 :
NULL .        -999.250000 :
COMP.           : COMPANY
WELL.  16/2-6   : WELL
FLD.            : FIELD
LOC.            : LOCATION
SRVC.           : SERVICE COMPANY
DATE.  2018-09-11 14:48:07   : Log Export Date {yyyy-MM-dd HH:mm:ss}
PROV.           : PROVINCE
UWI.   16/2-6   : UNIQUE WELL ID
API.            : API NUMBER
#==================================================================
~Curve
DEPT .m                   : DEPTH
Lithology_geolink ._      : Lithology_geolink
CALI .in                  : CALI
BS .in                    : BS
ROP .m/h                  : ROP
DRHO .g/cm3               : DRHO
NPHI .m3/m3               : NPHI
RHOB .g/cm3               : RHOB
PEF .b/e                  : PEF
GR .gAPI                  : GR
DTC .us/ft                : DTC
DTS .us/ft                : DTS
RDEP .ohm.m               : RDEP
RMED .ohm.m               : RMED
~Parameter
#==================================================================
~Ascii
# ...
 1935.3764648 2.0000000000 8.4724998474 8.5000000000 51.453411102 0.0156999994 0.2410999984 2.1512000561 3.6877999306 40.884799957 101.89739990  -999.250000 12.786600113 5.5044007301
 1935.5288086 2.0000000000 8.4531002045 8.5000000000 48.735565186 0.0318999998 0.2267999947 2.1710999012 3.7198998928 38.648399353 97.732002258  -999.250000 13.102299690 5.5847358704
 1935.6812744 2.0000000000 8.3750000000 8.5000000000 48.851051331 0.0551000014 0.2069000006 2.1882998943 4.0067000389 38.096099854 91.017196655  -999.250000 10.918600082 5.4469108582
 1935.8336182 2.0000000000 8.3887996674 8.5000000000 47.824474335 0.0644000024 0.2328000069 2.1881000996 4.2014999390 40.921298981 88.595596313  -999.250000 8.4643001556 5.2267765999
 1935.9859619 2.0000000000 8.4078998566 8.5000000000 47.488517761 0.0511999987 0.2106000036 2.1844000816 4.0879998207 53.678199768 87.167297363  -999.250000 6.0144000053 4.7146210670
 1936.1384277 2.0000000000 8.4449996948 8.5000000000 48.879596710 0.0428000018 0.1967000067 2.2049002647 3.9962999821 65.137702942 92.484298706  -999.250000 4.9496998787 4.1136813164
 1936.2907715 5.0000000000 8.4618997574 8.5000000000 49.819881439 0.0432999991 0.1906999946 2.2376000881 4.0966000557 69.323402405 97.662200928  -999.250000 2.7469000816 2.7729496956
 1936.4432373 5.0000000000 8.4906997681 8.5000000000 52.778213501 0.0538000017 0.2014999986 2.2623999119 4.5088000298 66.995399475 98.939193726  -999.250000 3.7620000839 3.7368254662
 1936.5955811 5.0000000000 8.5426998138 8.5000000000 56.701114655 0.0694999993 0.2026000023 2.2641999722 4.8400998116 63.760101318 96.067199707  -999.250000 3.6719999313 2.9948000908
 1936.7480469 5.0000000000 8.5762996674 8.5000000000 63.205055237 0.0908999965 0.1853999943 2.2739999294 5.1128997803 64.226196289 89.892601013  -999.250000 2.7504999638 2.7755999565
 1936.9003906 5.0000000000 8.5733003616 8.5000000000 64.631233215 0.0939000025 0.1863999963 2.2966001034 5.0795998573 60.535900116 85.629806519  -999.250000 2.3764998913 2.4086000919
 1937.0528564 2.0000000000 8.5574998856 8.5000000000 68.836288452 0.0976999998 0.1705999970 2.3448998928 5.2347998619 60.802600861 85.770202637  -999.250000 2.5250999928 2.4124999046
 1937.2052002 2.0000000000 8.5712003708 8.5000000000 67.040359497 0.0904999971 0.1856999993 2.3794999123 5.6040000916 57.120700836 84.852096558  -999.250000 2.1463000774 1.9126000404
 1937.3576660 2.0000000000 8.5733995438 8.5000000000 66.107940674 0.1023999974 0.1909999996 2.3943998814 6.2223000526 57.570701599 86.775993347  -999.250000 2.2597000599 1.7272000313
 1937.5100098 2.0000000000 8.5597000122 8.5000000000 71.671920776 0.0904999971 0.2163999975 2.3366000652 7.0336999893 55.105300903 88.084396362  -999.250000 2.3961999416 1.8983000517
 1937.6624756 2.0000000000 8.5916996002 8.5000000000 76.017387390 0.1133999974 0.2255000025 2.3081998825 8.0368003845 57.935199738 90.884696960  -999.250000 1.8901000023 1.7207000256
 1937.8148193 2.0000000000 8.6724996567 8.5000000000 74.851707458 0.1295000017 0.2459000051 2.2688000202 9.4608001709 61.446201324 93.984802246  -999.250000 1.6944999695 1.5752999783
 1937.9671631 2.0000000000 8.7110996246 8.5000000000 65.755577087 0.1687999964 0.2415000051 2.3053998947 9.9904003143 61.687099457 94.932098389  -999.250000 1.1670999527 0.7996000051
 1938.1196289 2.0000000000 8.7030000687 8.5000000000 67.807411194 0.1631000042 0.2596000135 2.2471001148 11.540200233 63.211700439 94.981010437  -999.250000 5.5232000351 7.6061000824
 1938.2719727 2.0000000000 8.8093004227 8.5000000000 64.939956665 0.1638000011 0.5322999954 2.0508999825 15.563699722 63.579399109  -999.250000  -999.250000 1.0066000223 1.0106999874
 1938.4244385 2.0000000000 8.8346004486 8.5000000000 67.453086853 0.1515000015 0.4964999855 1.8291000128 21.749500275 71.467300415  -999.250000  -999.250000 0.8741000295 0.9168999791
 1938.5767822 5.0000000000 9.0539999008 8.5000000000 63.319557190 0.1708000004 0.5755000114 1.7094999552 26.349899292 74.828201294  -999.250000  -999.250000 0.9496999979 0.7828999758
 1938.7292480 5.0000000000 9.7174997330 8.5000000000 63.660755157 0.1450999975 0.5220999718 1.6764999628 25.411199570 78.416801453  -999.250000  -999.250000 1.0346000195 0.7705000043
 1938.8815918 5.0000000000 9.7362003326 8.5000000000 61.644359589 0.1381999999 0.5339999795 1.6699999571 25.406499863 80.961700439  -999.250000  -999.250000 1.0731999874 0.8026000261
 1939.0340576 5.0000000000 9.8254003525 8.5000000000 60.005577087 0.1184000000 0.5627999902 1.6409000158 25.988800049 83.868896484  -999.250000  -999.250000 0.8084999919 0.6797000170
 1939.1864014 5.0000000000 10.501000404 8.5000000000 54.481300354 0.1172999963 0.5346000195 1.6146999598 27.440099716 86.787200928  -999.250000  -999.250000 0.8903999925 0.6881999969
 1939.3388672 5.0000000000 11.176699638 8.5000000000 49.997375488 0.1286000013 0.5277000070 1.6202000380 27.557899475 87.056503296  -999.250000  -999.250000 0.9006999731 0.7218000293
 1939.4912109 5.0000000000 10.053299904 8.5000000000 53.151248932 0.1275999993 0.5824999809 1.6238000393 27.050600052 89.222900391  -999.250000  -999.250000 0.8640000224 0.7132999897
 1939.6436768 5.0000000000 9.9457006454 8.5000000000 49.870407104 0.1098000035 0.5843999982 1.5951999426 27.589300156 88.262603760  -999.250000  -999.250000 0.8762999773 0.7150999904
 1939.7960205 5.0000000000 9.8380002975 8.5000000000 48.012138367 0.0996999964 0.5878000259 1.5721000433 28.251800537 87.099403381  -999.250000  -999.250000 0.9020000100 0.6906999946
 1939.9484863 5.0000000000 9.7302999496 8.5000000000 49.498687744 0.0979999974 0.6524000168 1.5556000471 29.167499542 84.752296448  -999.250000  -999.250000 0.9071999788 0.6866000295
 1940.1008301 5.0000000000 9.6226997375 8.5000000000 51.214565277 0.1140000001 0.5498999953 1.5786999464 28.912700653 85.842498779  -999.250000  -999.250000 0.9580000043 0.6890000105
 1940.2531738 5.0000000000 9.5150003433 8.5000000000 49.747703552 0.1120000035 0.6546999812 1.5802999735 28.902500153 87.776000977  -999.250000  -999.250000 0.9793000221 0.7785000205
 1940.4056396 5.0000000000 9.2152996063 8.5000000000 49.294616699 0.1142000034 0.5734000206 1.5937999487 28.323999405 87.735099792  -999.250000  -999.250000 0.9018999934 0.7541999817
 1940.5579834 5.0000000000 8.9154996872 8.5000000000 41.786746979 0.1040999964 0.5975999832 1.5795999765 28.333000183 85.859397888  -999.250000  -999.250000 0.8458999991 0.6707000136
 1940.7104492 5.0000000000 8.6157999039 8.5000000000 34.761482239 0.1098999903 0.5659000278 1.5875999928 28.128499985 85.347198486  -999.250000  -999.250000 0.8320000172 0.6715999842
 1940.8627930 5.0000000000 8.3159999847 8.5000000000 38.009841919 0.1098000035 0.6610000134 1.5810999870 28.792699814 90.421302795  -999.250000  -999.250000 0.8170999885 0.6922000051
 1941.0152588 5.0000000000 8.5614004135 8.5000000000 38.312992096 0.1129999980 0.6129999757 1.5835000277 28.870899200 96.761199951  -999.250000  -999.250000 0.8517000079 0.7102000117
 1941.1676025 6.0000000000 8.8811998367 8.5000000000 40.160762787 0.1211000010 0.5798000097 1.5992000103 28.620800018 104.38520050  -999.250000  -999.250000 0.8558999896 0.7807000279
 1941.3200684 6.0000000000 9.3137998581 8.5000000000 41.331035614 0.1412000060 0.5760999918 1.6620999575 26.122200012 108.70020294  -999.250000  -999.250000 1.0577000380 0.9039999843
 1941.4724121 6.0000000000 9.7336997986 8.5000000000 39.640750885 0.1525000036 0.5483000278 1.7156000137 24.097099304 116.22010040  -999.250000  -999.250000 1.2730000019 1.2251000404
 1941.6248779 6.0000000000 9.7517995834 8.5000000000 40.042652130 0.1548999995 0.5116999745 1.7648999691 21.808200836 125.99859619  -999.250000  -999.250000 1.1292999983 1.0491000414
 1941.7772217 6.0000000000 10.284300804 8.5000000000 39.652885437 0.1562999934 0.5762000084 1.8030999899 20.225200653 140.71159363  -999.250000  -999.250000 1.2633999586 1.2539000511
 1941.9296875 6.0000000000 10.029101372 8.5000000000 41.313320160 0.1703000069 0.4909000099 1.8500810862 19.186553955 165.91909790  -999.250000  -999.250000 1.2412999868 1.2862000465
