# LAS format log file from PETREL
# Project units are specified as depth units
#==================================================================
~Version information
VERS.   2.0:
WRAP.   NO:
#==================================================================
~Well
STRT .m      119.98761749 :
STOP .m      3119.6767578 :
STEP .m     0.00000000 :
NULL .        -999.250000 :
COMP.           : COMPANY
WELL.  16/4-2   : WELL
FLD.            : FIELD
LOC.            : LOCATION
SRVC.           : SERVICE COMPANY
DATE.  2018-09-11 14:48:08   : Log Export Date {yyyy-MM-dd HH:mm:ss}
PROV.           : PROVINCE
UWI.   16/4-2   : UNIQUE WELL ID
API.            : API NUMBER
#==================================================================
~Curve
DEPT .m                   : DEPTH
Lithology_geolink ._      : Lithology_geolink
CALI .in                  : CALI
DRHO .g/cm3               : DRHO
CGR .gAPI                 : CGR
RHOB .g/cm3               : RHOB
GR .gAPI                  : GR
DTC .us/ft                : DTC
RDEP .ohm.m               : RDEP
SP .mV                    : SP
RMED .ohm.m               : RMED
~Parameter
#==================================================================
~Ascii
# ...
 990.45220947  -999.250000 19.078125000 -0.010513067  -999.250000 2.0763585567 63.187500000 149.29560852 0.8463897705 46.242389679 0.5574682951
 990.60461426  -999.250000 19.437500000 -0.007206857  -999.250000 2.0785813332 64.562500000 148.65710449 0.9318108559 45.992389679 0.6103110313
 990.75689697  -999.250000 19.218750000 0.0036727190  -999.250000 2.0785999298 71.625000000 148.65000916 1.0421528816 45.735183716 0.8722008467
 990.90930176  -999.250000 18.890625000 0.0042058229  -999.250000 2.0785999298 81.250000000 148.64999390 1.1459245682 45.242591858 1.3215806484
 991.06170654  -999.250000 18.593750000 0.0019595027  -999.250000 2.0802843571 93.125000000 148.17918396 1.3150887489 45.007408142 1.6666002274
 991.21411133  -999.250000 18.625000000 -0.000609517  -999.250000 2.0841639042 101.50000000 147.08422852 1.5541098118 45.272228241 1.7175319195
 991.36651611  -999.250000 18.171875000 0.0002509356  -999.250000 2.0881631374 100.37500000 145.97035217 1.7061667442 46.044452667 1.5614449978
 991.51892090  -999.250000 17.531250000 -0.008254587  -999.250000 2.0954327583 95.750000000 143.94770813 1.6796073914 47.522235870 1.3187737465
 991.67132568  -999.250000 17.359375000 -0.021161187  -999.250000 2.1087765694 90.937500000 140.34809875 1.6031727791 48.250000000 1.0852298737
 991.82373047  -999.250000 17.359375000 -0.027077094  -999.250000 2.1246535778 86.375000000 136.22640991 1.4854254723 48.257507324 0.9453387260
 991.97613525  -999.250000 17.296875000 -0.028164104  -999.250000 2.1388690472 80.062500000 132.65464783 1.3550703526 48.515018463 0.8651999235
 992.12841797  -999.250000 17.265625000 -0.028348397  -999.250000 2.1473157406 79.375000000 130.57955933 1.2016603947 49.007308960 0.8539229631
 992.28082275  -999.250000 17.265625000 -0.026865784  -999.250000 2.1486868858 80.187500000 129.51495361 1.1145331860 49.250000000 0.9078065157
 992.43322754  -999.250000 17.296875000 -0.020155575  -999.250000 2.1417701244 87.250000000 128.69113159 1.0617737770 49.242691040 0.9763422012
 992.58563232  -999.250000 17.296875000 -0.018146630  -999.250000 2.1279392242 89.062500000 129.57518005 1.0340194702 49.000000000 1.0205287933
 992.73803711  -999.250000 17.281250000 -0.012577176  -999.250000 2.1067047119 90.625000000 132.30834961 1.0567729473 49.000000000 1.0152420998
 992.89044189  -999.250000 17.343750000 -0.011701107  -999.250000 2.0853056908 87.250000000 135.06411743 1.1030352116 48.992691040 0.9736547470
 993.04284668  -999.250000 17.218750000 -0.010871410  -999.250000 2.0730173588 84.437500000 136.69848633 1.1372008324 48.735382080 0.9249815941
 993.19525146  -999.250000 17.218750000 -0.009835482  -999.250000 2.0738904476 83.000000000 136.68151855 1.1172459126 48.242691040 0.9397791624
 993.34765625  -999.250000 17.281250000 -0.008681536  -999.250000 2.0769701004 80.500000000 136.40419006 1.0837326050 48.000000000 0.9576834440
 993.50006104  -999.250000 17.343750000 -0.008068264  -999.250000 2.0792775154 76.375000000 136.14785767 1.0308892727 48.007312775 0.9425234795
 993.65234375  -999.250000 17.312500000 -0.008190573  -999.250000 2.0799925327 69.250000000 135.94055176 0.9916197062 48.242790222 0.9030851126
 993.80474854  -999.250000 17.343750000 -0.008832097  -999.250000 2.0799999237 62.562500000 135.75640869 0.9468109608 47.992790222 0.8735212088
 993.95715332  -999.250000 17.359375000 -0.010853648  -999.250000 2.0815832615 57.468750000 135.72570801 0.8941606283 47.735584259 0.8305705786
 994.10955811  -999.250000 17.437500000 -0.008480191  -999.250000 2.0888240337 54.031250000 136.25799561 0.8684812784 47.264415741 0.7889456749
 994.26196289  -999.250000 17.625000000 -0.010290265  -999.250000 2.1009728909 55.093750000 137.26783752 0.8321312666 47.757209778 0.7635540962
 994.41436768  -999.250000 17.828125000 -0.010333419  -999.250000 2.1129751205 54.843750000 138.29142761 0.8149018288 48.007209778 0.7416571379
 994.56677246  -999.250000 18.015625000 -0.009708463  -999.250000 2.1158709526 55.625000000 139.79707336 0.7948257923 48.235584259 0.7318193913
 994.71917725  -999.250000 17.812500000 -0.010988892  -999.250000 2.1068911552 57.500000000 141.92126465 0.7790910006 47.757209778 0.7292457819
 994.87158203  -999.250000 17.671875000 -0.014990622  -999.250000 2.0976920128 56.031250000 144.05274963 0.7733448744 48.021625519 0.7283161879
 995.02392578  -999.250000 17.671875000 -0.017140415  -999.250000 2.0876052380 54.562500000 145.72898865 0.7772710323 48.778434753 0.7247632742
 995.17626953  -999.250000 17.390625000 -0.018717658  -999.250000 2.0759265423 51.656250000 146.64695740 0.7836449146 49.757007599 0.7166445255
 995.32867432  -999.250000 17.234375000 -0.019273095  -999.250000 2.0637319088 52.125000000 147.34309387 0.7875027657 50.000000000 0.7159620523
 995.48107910  -999.250000 17.218750000 -0.020496599  -999.250000 2.0544993877 56.187500000 147.77090454 0.7920308113 49.992992401 0.7171617746
 995.63348389  -999.250000 17.296875000 -0.017312650  -999.250000 2.0527184010 59.250000000 147.53353882 0.7902786732 49.757011414 0.7214592695
 995.78588867  -999.250000 17.250000000 -0.008587779  -999.250000 2.0557663441 60.156250000 146.87437439 0.7874361277 50.007106781 0.7199907303
 995.93829346  -999.250000 17.187500000 -0.001432538  -999.250000 2.0587675571 61.156250000 146.23916626 0.7893414497 50.257106781 0.7181851864
 996.09069824  -999.250000 17.218750000 0.0067677498  -999.250000 2.0617675781 59.156250000 145.78547668 0.7960518599 50.492893219 0.7109148502
 996.24310303  -999.250000 17.375000000 0.0131997764  -999.250000 2.0648663044 59.906250000 145.51895142 0.7951600552 50.235782623 0.7031533718
 996.39544678  -999.250000 17.765625000 0.0149565041  -999.250000 2.0678663254 58.875000000 145.25506592 0.7844429016 49.742992401 0.7005321980
 996.54785156  -999.250000 17.890625000 0.0135605037  -999.250000 2.0697786808 61.125000000 145.26515198 0.7707102299 49.500000000 0.7131600380
 996.70019531  -999.250000 17.812500000 0.0137256384  -999.250000 2.0699975491 65.000000000 145.66677856 0.7548885345 49.493091583 0.7110918760
 996.85260010  -999.250000 17.984375000 0.0063916445  -999.250000 2.0699999332 66.500000000 146.11714172 0.7417918444 49.243091583 0.6947857141
 997.00500488  -999.250000 18.359375000 0.0019738078  -999.250000 2.0692090988 69.000000000 146.40232849 0.7480341196 48.986183167 0.6689708233
 997.15740967  -999.250000 18.812500000 -0.002580881  -999.250000 2.0668270588 70.687500000 146.36555481 0.7592623234 48.506908417 0.6584726572
 997.30981445  -999.250000 19.515625000 -0.002909005  -999.250000 2.0638337135 71.062500000 146.18791199 0.7689737082 48.743091583 0.6703128815
 997.46221924  -999.250000 19.671875000 -0.004931271  -999.250000 2.0616245270 70.062500000 146.04243469 0.7777028084 48.500000000 0.6975257397
 997.61462402  -999.250000 19.062500000 -0.005799711  -999.250000 2.0622920990 67.562500000 146.00975037 0.7822535038 48.493087769 0.7134897709
 997.76696777  -999.250000 18.421875000 -0.004697084  -999.250000 2.0653638840 65.562500000 146.06761169 0.7830492258 48.256908417 0.7128219604
 997.91937256  -999.250000 17.468750000 -0.003741682  -999.250000 2.0683650970 61.937500000 146.12878418 0.7879208326 48.500000000 0.7095415592
 998.07177734  -999.250000 17.328125000 -0.010214149  -999.250000 2.0699813366 58.812500000 146.23307800 0.8055596352 48.500000000 0.7176122665
 998.22418213  -999.250000 17.343750000 -0.011542262  -999.250000 2.0699999332 57.218750000 146.39027405 0.8239418268 48.506908417 0.7290689945
 998.37652588  -999.250000 17.359375000 -0.009221911  -999.250000 2.0699999332 55.625000000 146.54811096 0.8389221430 48.770423889 0.7302198410
 998.52893066  -999.250000 17.359375000 -0.005257308  -999.250000 2.0709881783 54.625000000 146.52697754 0.8504641056 49.520423889 0.7272174358
 998.68133545  -999.250000 17.296875000 -0.005373597  -999.250000 2.0736675262 52.625000000 146.21755981 0.8517874479 50.256809235 0.7217828035
 998.83374023  -999.250000 17.609375000 -0.002394199  -999.250000 2.0766639709 52.906250000 145.83430481 0.8399164677 50.493190765 0.7189577818
