# LAS format log file from PETREL
# Project units are specified as depth units
#==================================================================
~Version information
VERS.   2.0:
WRAP.   NO:
#==================================================================
~Well
STRT .m      119.98761749 :
STOP .m      3119.6767578 :
STEP .m     0.00000000 :
NULL .        -999.250000 :
COMP.           : COMPANY
WELL.  16/4-2   : WELL
FLD.            : FIELD
LOC.            : LOCATION
SRVC.           : SERVICE COMPANY
DATE.  2018-09-11 14:48:08   : Log Export Date {yyyy-MM-dd HH:mm:ss}
PROV.           : PROVINCE
UWI.   16/4-2   : UNIQUE WELL ID
API.            : API NUMBER
#==================================================================
~Curve
DEPT .m                   : DEPTH
Lithology_geolink ._      : Lithology_geolink
CALI .in                  : CALI
DRHO .g/cm3               : DRHO
CGR .gAPI                 : CGR
RHOB .g/cm3               : RHOB
GR .gAPI                  : GR
DTC .us/ft                : DTC
RDEP .ohm.m               : RDEP
SP .mV                    : SP
RMED .ohm.m               : RMED
~Parameter
#==================================================================
~Ascii
# ...
 1698.7713623  -999.250000 21.234375000 0.0104811490 101.40678406 2.0787734985 100.50495911 129.17057800 0.7557013035 19.987899780 0.9135644436
 1698.9238281  -999.250000 19.453125000 0.0097467601 100.67481232 2.0759065151 97.709167480 129.87498474 0.7337956429 19.392223358 0.8933318853
 1699.0761719  -999.250000 20.125000000 0.0008640587 100.25438690 2.0632250309 96.872528076 132.99162292 0.7330602407 19.039382935 0.8815888166
 1699.2285156  -999.250000 20.703125000 -0.001763791 100.03487396 2.0411338806 96.304367065 138.63246155 0.7360777855 18.591182709 0.9303718805
 1699.3809814  -999.250000 19.687501907 0.0035178363 101.36847687 2.0181369781 98.686553955 144.79402161 0.7376353741 18.289382935 0.9316090345
 1699.5333252  -999.250000 19.531250000 0.0026164949 102.10177612 2.0041460991 99.107513428 148.68611145 0.7458692789 17.642824173 0.9276570082
 1699.6857910  -999.250000 20.390625000 0.0043887496 101.04484558 2.0028345585 97.116363525 149.04769897 0.7517763376 17.686416626 0.8942172527
 1699.8381348  -999.250000 20.015625000 0.0004678965 99.971168518 2.0048096180 95.737487793 148.49211121 0.7561178207 17.539541245 0.9014110565
 1699.9904785  -999.250000 19.937500000 -0.003546983 100.26721191 2.0075626373 96.557510376 147.71626282 0.7782617807 17.487899780 0.8968849182
 1700.1428223  -999.250000 19.578125000 -0.002456397 98.709533691 2.0118439198 93.576538086 146.51263428 0.7854243517 16.496313095 0.9255154133
 1700.2951660  -999.250000 21.062500000 0.0014953613 97.677543640 2.0169177055 93.304489136 145.09909058 0.7795687914 17.228693008 0.9701204300
 1700.4476318  -999.250000 22.265625000 0.0045882170 97.154441833 2.0212914944 92.833770752 143.90341187 0.7758654356 19.074438095 0.9974761009
 1700.5999756  -999.250000 20.890625000 0.0087745488 96.916061401 2.0231287479 92.596023560 143.39768982 0.7977509499 19.487899780 1.0474863052
 1700.7524414  -999.250000 20.859375000 0.0129165351 100.27986145 2.0228722095 98.188018799 143.45782471 0.8100541830 20.479486465 1.0003798008
 1700.9047852  -999.250000 20.218750000 0.0042193835 102.46414185 2.0227000713 100.97894287 143.50160217 0.8063609600 21.332374573 0.9679735899
 1701.0572510  -999.250000 19.140625000 0.0017357171 104.13972473 2.0255651474 102.96826172 142.73095703 0.8104169369 21.884534836 0.9272994995
 1701.2095947  -999.250000 20.156250000 -0.001110345 103.51177216 2.0322258472 100.82968140 140.94190979 0.8002007008 21.987899780 0.9330544472
 1701.3620605  -999.250000 20.875000000 -0.000577897 103.79542542 2.0399811268 100.32408142 138.89846802 0.7819619179 21.789583206 0.9325330257
 1701.5144043  -999.250000 20.531250000 0.0013407469 103.82707214 2.0428802967 99.373672485 138.13647461 0.7912288904 21.737899780 0.9052555561
 1701.6668701  -999.250000 21.125000000 0.0071654026 103.46408081 2.0373170376 98.316589355 139.58593750 0.7878985405 21.737899780 0.8841089010
 1701.8192139  -999.250000 20.671875000 0.0067752600 104.92745209 2.0290663242 101.18829346 141.79342651 0.7873511314 21.341583252 0.9187709093
 1701.9716797  -999.250000 20.203125000 0.0073841517 102.93940735 2.0224747658 95.260528564 143.57049561 0.7964123487 21.237899780 0.9576326609
 1702.1240234  -999.250000 19.984375000 0.0018804073 102.91570282 2.0199441910 96.204132080 144.26705933 0.7965896130 21.039741516 0.9962368011
 1702.2764893  -999.250000 18.953125000 -0.004966646 102.28038025 2.0199017525 94.189300537 144.28578186 0.7935432196 20.591264725 0.9354532957
 1702.4288330  -999.250000 20.046875000 -0.003381312 100.04836273 2.0209047794 90.951156616 144.01181030 0.7887289524 20.289583206 0.9812452793
 1702.5811768  -999.250000 19.218750000 -0.001828104 100.52096558 2.0240628719 92.180252075 143.14642334 0.7850296497 19.643424988 0.9629055262
 1702.7335205  -999.250000 20.500000000 -0.004800320 101.50709534 2.0294439793 94.127593994 141.69354248 0.7784653902 19.487899780 0.9641151428
 1702.8858643  -999.250000 21.031250000 -0.002650738 100.66876221 2.0350394249 92.831451416 140.19731140 0.7719600201 19.289941788 0.9168107510
 1703.0383301  -999.250000 21.312500000 -0.001242489 102.06521606 2.0351195335 96.522964478 140.17784119 0.7645368576 19.039783478 0.8848316669
 1703.1906738  -999.250000 21.609375000 -0.007381945 99.332786560 2.0269482136 90.091629028 142.35531616 0.7607249022 18.789941788 0.8843437433
 1703.3431396  -999.250000 22.609375000 -0.014522290 98.211082458 2.0168678761 90.027755737 145.10458374 0.7525069714 18.936016083 0.9374178648
 1703.4954834  -999.250000 22.640625000 -0.020805985 98.605613708 2.0094289780 89.833984375 147.19337463 0.7628333569 19.383815765 0.9377833605
 1703.6478271  -999.250000 22.640625000 -0.017396335 99.354064941 2.0064454079 89.615036011 148.02458191 0.7693943977 19.685815811 0.9604367018
 1703.8002930  -999.250000 22.609375000 -0.017421860 100.58937836 2.0055480003 90.490890503 148.27778625 0.7773683071 19.935857773 0.9871875048
 1703.9526367  -999.250000 21.031250000 -0.015841424 101.37954712 2.0057010651 91.301101685 148.23896790 0.7814508677 20.185815811 0.9709037542
 1704.1051025  -999.250000 21.781250000 -0.017559893 102.27308655 2.0078337193 92.308395386 147.64341736 0.7710565329 20.633815765 0.9133908749
 1704.2574463  -999.250000 21.906251907 -0.010611445 102.18257904 2.0114350319 91.906234741 146.61645508 0.7625682354 21.133733749 0.9633601904
 1704.4099121  -999.250000 21.031250000 -0.010828823 105.24651337 2.0149607658 97.772079468 145.62855530 0.7627822161 21.039783478 0.9770162106
 1704.5622559  -999.250000 22.421875000 -0.008368701 103.78810120 2.0161762238 93.932037354 145.30644226 0.7640995979 20.394023895 0.9328736067
 1704.7147217  -999.250000 22.640625000 -0.003798455 102.02603149 2.0144922733 92.491241455 145.77770996 0.7555350065 20.039783478 0.8598446846
 1704.8670654  -999.250000 20.531250000 0.0061396956 101.59617615 2.0120937824 92.210754395 146.44398499 0.7377667427 20.383815765 0.9099127054
 1705.0195313  -999.250000 20.109375000 0.0168888383 104.16835785 2.0127050877 97.783081055 146.27195740 0.7341921329 20.686016083 0.8729505539
 1705.1718750  -999.250000 19.781250000 0.0159893781 103.82082367 2.0184433460 95.547698975 144.68370056 0.7278800011 20.737899780 0.9265848398
 1705.3243408  -999.250000 18.031250000 0.0082547665 105.05373383 2.0258491039 98.586257935 142.64991760 0.7156385183 20.341665268 0.8717482090
 1705.4765625  -999.250000 19.421875000 0.0106318891 103.33156586 2.0318381786 95.841674805 141.03433228 0.7170733213 19.842382431 0.8796544075
 1705.6289063  -999.250000 19.781250000 0.0074206884 99.797760010 2.0344028473 90.393768311 140.35729980 0.7293651104 19.342466354 0.9065064192
 1705.7813721  -999.250000 18.718750000 0.0043499176 97.957046509 2.0348751545 88.339233398 140.23471069 0.7357907295 19.040142059 0.9483202696
 1705.9337158  -999.250000 19.281250000 0.0078242123 98.448905945 2.0345990658 89.412368774 140.30273438 0.7375614643 18.790184021 0.9617167711
 1706.0861816  -999.250000 20.921875000 0.0063387449 100.25878906 2.0332207680 92.111190796 140.67407227 0.7396330833 18.935657501 0.9606287479
 1706.2385254  -999.250000 20.515625000 0.0051314831 101.85793304 2.0307703018 93.231781006 141.33129883 0.7519634962 19.383333206 0.9943835735
 1706.3909912  -999.250000 21.515625000 0.0150821079 103.04988098 2.0283696651 94.323867798 141.97476196 0.7728199959 19.092065811 1.0101161003
 1706.5433350  -999.250000 21.234375000 0.0202130191 104.65029144 2.0291531086 96.232528687 141.77076721 0.7883017063 18.592382431 1.0216236115
 1706.6958008  -999.250000 20.187500000 0.0116941035 105.31057739 2.0344154835 97.003875732 140.36398315 0.7895569801 18.289983749 1.0526201725
 1706.8481445  -999.250000 19.625000000 0.0107292235 103.84557343 2.0408866405 93.937927246 138.64776611 0.7903658152 18.831174850 1.0488197803
 1707.0004883  -999.250000 18.093750000 -0.000365317 102.72024536 2.0418236256 92.587905884 138.39790344 0.7950347662 19.581048965 0.9332972765
 1707.1529541  -999.250000 18.640625000 -0.006293744 102.81899261 2.0325031281 92.859222412 140.86393738 0.7991739511 20.133417130 0.9320729971
