# LAS format log file from PETREL
# Project units are specified as depth units
#==================================================================
~Version information
VERS.   2.0:
WRAP.   NO:
#==================================================================
~Well
STRT .m      119.98761749 :
STOP .m      3119.6767578 :
STEP .m     0.00000000 :
NULL .        -999.250000 :
COMP.           : COMPANY
WELL.  16/4-2   : WELL
FLD.            : FIELD
LOC.            : LOCATION
SRVC.           : SERVICE COMPANY
DATE.  2018-09-11 14:48:08   : Log Export Date {yyyy-MM-dd HH:mm:ss}
PROV.           : PROVINCE
UWI.   16/4-2   : UNIQUE WELL ID
API.            : API NUMBER
#==================================================================
~Curve
DEPT .m                   : DEPTH
Lithology_geolink ._      : Lithology_geolink
CALI .in                  : CALI
DRHO .g/cm3               : DRHO
CGR .gAPI                 : CGR
RHOB .g/cm3               : RHOB
GR .gAPI                  : GR
DTC .us/ft                : DTC
RDEP .ohm.m               : RDEP
SP .mV                    : SP
RMED .ohm.m               : RMED
~Parameter
#==================================================================
~Ascii
# ...
 2227.8771973 19.000000000 12.867187500 0.0024971962 82.056579590 2.2909817696 63.722808838 122.72142792 0.6761742830 30.513200760 0.9230241776
 2228.0295410 19.000000000 12.867187500 0.0040275455 82.600883484 2.2983345985 66.963073730 121.50354004 0.6541905403 30.050460815 0.9994323254
 2228.1821289 19.000000000 12.718750000 0.0029338598 84.547088623 2.3155226707 69.382019043 119.85404205 0.6295582056 29.763200760 0.9143319130
 2228.3344727 19.000000000 12.742187500 0.0015359521 87.381401062 2.3368225098 74.387161255 118.02497864 0.6096187830 30.225940704 0.7668368816
 2228.4868164 19.000000000 12.601562500 0.0010637045 85.916061401 2.3526263237 68.487243652 117.20693970 0.5588227510 30.050460815 0.6985234022
 2228.6391602 19.000000000 12.609375954 -0.002346396 83.856002808 2.3566179276 68.156280518 118.54806519 0.4875405431 30.071693420 0.6857051849
 2228.7917480 19.000000000 12.554687500 -0.004829884 82.320838928 2.3541643620 65.687271118 121.07526398 0.4475504756 29.645601273 0.7222363949
 2228.9440918 19.000000000 12.523438454 0.0024349689 86.089721680 2.3516271114 76.586608887 123.35544586 0.4328784347 29.263200760 0.6596974134
 2229.0964355 19.000000000 12.546875000 0.0022382736 89.708328247 2.3502948284 78.324584961 124.71530914 0.4290193319 29.571693420 0.5505119562
 2229.2487793 19.000000000 12.585937500 -0.000642300 89.973281860 2.3499999046 78.279357910 125.30936432 0.4450737238 29.608953476 0.5061817169
 2229.4013672 19.000000000 12.624999046 0.0019247532 88.778068542 2.3476281166 75.838272095 125.70522308 0.4625704885 28.585315704 0.5634953976
 2229.5534668 19.000000000 12.531250000 0.0040293932 87.582572937 2.3359770775 75.083633423 126.12052155 0.4742454290 28.629199982 0.7339096069
 2229.7058105 19.000000000 12.531250000 0.0073652864 85.954360962 2.3129498959 72.168823242 126.56138611 0.4966856241 29.320892334 0.8672333956
 2229.8583984 19.000000000 12.570312500 0.0093281269 85.842308044 2.2858624458 73.711791992 127.00292206 0.5290474892 29.667448044 0.9012405872
 2230.0107422 19.000000000 12.578125000 0.0066640377 85.731544495 2.2652692795 72.854568481 127.27777100 0.5867403746 30.071693420 0.8747239113
 2230.1630859 19.000000000 12.687500000 0.0059022903 85.346138000 2.2567114830 72.927627563 127.24564362 0.6562955379 30.109201431 0.8195558786
 2230.3154297 19.000000000 12.953125000 0.0042808056 86.455802917 2.2536692619 75.950897217 127.07330322 0.6807901859 29.551662445 0.8266352415
 2230.4680176 19.000000000 12.562500000 0.0062698722 86.619308472 2.2542483807 74.404663086 126.79272461 0.6757496595 29.571693420 0.8717166185
 2230.6203613 19.000000000 12.445312500 0.0038917661 88.634468079 2.2630424500 80.561538696 126.26559448 0.6271322966 30.225940704 0.8740720749
 2230.7727051 19.000000000 12.523438454 0.0040332675 91.548667908 2.2772693634 84.145401001 125.57508850 0.6259602308 29.589200974 0.8316065073
 2230.9250488 19.000000000 12.539061546 0.0017818809 92.669288635 2.2875654697 84.492630005 125.13761139 0.6310164928 28.551662445 0.7549127340
 2231.0773926 19.000000000 12.578125000 0.0048004389 92.307235718 2.2827847004 83.297943115 125.55944061 0.6360181570 28.570892334 0.7096574306
 2231.2299805 19.000000000 12.695312500 0.0060710907 92.072715759 2.2631642818 83.091979980 126.82865143 0.6465132236 28.917448044 0.7261906862
 2231.3823242 19.000000000 12.578125000 0.0047259331 91.284545898 2.2413039207 80.852615356 128.18710327 0.6510980129 29.321201324 0.7662575245
 2231.5346680 19.000000000 12.578125000 0.0041733384 90.043678284 2.2334346771 79.555191040 128.53646851 0.6499642134 29.359354019 0.8373281956
 2231.6870117 19.000000000 12.539061546 0.0024054646 86.838088989 2.2461884022 73.567764282 127.40251923 0.6694711447 29.263200760 0.8537945747
 2231.8395996 19.000000000 12.539061546 0.0021638274 84.563323975 2.2675604820 72.363769531 125.64821625 0.6964229345 29.571693420 0.8798680305
 2231.9919434 19.000000000 12.531250000 0.0039308667 85.245117188 2.2874460220 74.854522705 123.79126740 0.7087140083 30.225940704 0.9248946905
 2232.1442871 19.000000000 12.437499046 0.0093976865 86.626968384 2.3043422699 77.106430054 121.71730042 0.7180019617 30.975202560 0.9247775078
 2232.2966309 19.000000000 12.429687500 0.0074842572 87.988227844 2.3196692467 79.963836670 119.53050232 0.7306642532 31.417045593 0.9024549723
 2232.4489746 19.000000000 12.585937500 0.0039504170 89.083396912 2.3313992023 81.400100708 117.74905396 0.7362670898 30.897815704 0.8835302591
 2232.6013184 19.000000000 12.664062500 0.0003235936 88.127548218 2.3341493607 78.905838013 117.02499390 0.7369900942 30.974740982 0.8701373339
 2232.7536621 19.000000000 12.429687500 0.0000524521 88.892585754 2.3298480511 82.116699219 117.13842010 0.7365285158 31.570400238 0.8780637980
 2232.9062500 19.000000000 12.429687500 0.0009297132 91.556030273 2.3243577480 96.066482544 117.42803955 0.7303928137 31.763198853 0.9084167480
 2233.0585938 19.000000000 12.429687500 0.0043078661 91.822021484 2.3209307194 94.409515381 117.59983826 0.7223582268 31.609352112 0.9295219183
 2233.2109375 19.000000000 12.296875000 0.0077731013 89.027870178 2.3199999332 80.857742310 117.63265991 0.7034139633 31.667045593 0.9684689045
 2233.3632813 19.000000000 12.289062500 0.0126415491 84.007171631 2.3196547031 71.885330200 117.65579224 0.6971497536 31.763198853 0.9873869419
 2233.5158691 19.000000000 12.289062500 0.0125057111 82.535354614 2.3150730133 73.834213257 118.16102600 0.7008533478 31.609352112 0.9233040810
 2233.6682129 19.000000000 12.289062500 0.0075293183 84.046905518 2.3031306267 76.612915039 119.51316071 0.6942453384 31.974737167 0.8832497597
 2233.8205566 19.000000000 12.320312500 0.0059192777 85.580223083 2.2879447937 79.039047241 121.24529266 0.6886160374 31.032430649 0.8267102242
 2233.9729004 19.000000000 12.289062500 0.0111513725 85.247268677 2.2726976871 76.716888428 122.80928802 0.6902084351 29.955509186 0.8219869137
 2234.1252441 19.000000000 12.289062500 0.0073525906 85.511283875 2.2574551105 78.412292480 123.98996735 0.6862463951 29.609600067 0.8235026598
 2234.2778320 19.000000000 12.656250000 0.0040308833 85.320442200 2.2422306538 76.394332886 124.93054962 0.6866173744 29.051662445 0.8005447388
 2234.4301758 19.000000000 12.414062500 0.0053570271 87.033126831 2.2310769558 81.069152832 125.37570190 0.7229857445 29.686277390 0.8074032068
 2234.5825195 19.000000000 12.281250000 0.0009793043 87.366279602 2.2316846848 78.442077637 124.49575806 0.7365233898 29.647815704 0.8785128593
 2234.7348633 19.000000000 12.164061546 -0.000443161 84.902351379 2.2435023785 73.237960815 122.36617279 0.7408170700 28.648799896 1.0239918232
 2234.8874512 19.000000000 12.210937500 -0.001073599 84.548805237 2.2576153278 74.936965942 120.05772400 0.7607624531 28.417047501 1.1224288940
 2235.0397949 19.000000000 12.320312500 -0.000201166 84.514122009 2.2659115791 73.479782104 118.80109406 0.7987357378 29.897815704 1.0462954044
 2235.1921387 19.000000000 12.289062500 -0.003208637 83.525947571 2.2661719322 71.961364746 119.01058960 0.8167902231 30.763200760 0.9692919254
 2235.3444824 19.000000000 12.375000000 0.0032370687 81.793601990 2.2631165981 68.716140747 119.81644440 0.8176527023 29.995201111 0.9003850222
 2235.4968262 19.000000000 12.289062500 0.0085827112 79.879661560 2.2652521133 66.086639404 120.27617645 0.7901448011 29.359754562 0.9790652990
 2235.6491699 19.000000000 12.296875000 0.0115968594 82.495819092 2.2780983448 75.229934692 120.01710510 0.7492535114 30.490766525 0.9964725971
 2235.8015137 19.000000000 12.398437500 0.0066154003 83.299812317 2.2962114811 71.411315918 119.40232086 0.7234358788 32.030426025 0.9491322041
 2235.9541016 19.000000000 12.414062500 0.0003095865 89.253524780 2.3071641922 85.678741455 119.21234131 0.7107880116 31.897813797 0.8535373211
 2236.1064453 19.000000000 12.429687500 0.0006073117 93.684539795 2.2997770309 86.172058105 120.10804749 0.7064672709 30.591600418 0.8622459173
 2236.2587891 19.000000000 12.429687500 -0.001149893 87.603965759 2.2785620689 70.102203369 121.82194519 0.7040184736 31.240764618 0.8731811047
