# LAS format log file from PETREL
# Project units are specified as depth units
#==================================================================
~Version information
VERS.   2.0:
WRAP.   NO:
#==================================================================
~Well
STRT .m      119.98761749 :
STOP .m      3119.6767578 :
STEP .m     0.00000000 :
NULL .        -999.250000 :
COMP.           : COMPANY
WELL.  16/4-2   : WELL
FLD.            : FIELD
LOC.            : LOCATION
SRVC.           : SERVICE COMPANY
DATE.  2018-09-11 14:48:08   : Log Export Date {yyyy-MM-dd HH:mm:ss}
PROV.           : PROVINCE
UWI.   16/4-2   : UNIQUE WELL ID
API.            : API NUMBER
#==================================================================
~Curve
DEPT .m                   : DEPTH
Lithology_geolink ._      : Lithology_geolink
CALI .in                  : CALI
DRHO .g/cm3               : DRHO
CGR .gAPI                 : CGR
RHOB .g/cm3               : RHOB
GR .gAPI                  : GR
DTC .us/ft                : DTC
RDEP .ohm.m               : RDEP
SP .mV                    : SP
RMED .ohm.m               : RMED
~Parameter
#==================================================================
~Ascii
# ...
 640.55957031  -999.250000 18.093750000 -0.002365083  -999.250000 2.0559458733 92.750000000 151.67854309 1.6096863747 26.036643982 1.2883329391
 640.71191406  -999.250000 18.093750000 -0.000022709  -999.250000 2.0515429974 94.000000000 152.37431335 1.6332864761 26.213455200 1.3059499264
 640.86431885  -999.250000 18.187500000 0.0008265972  -999.250000 2.0453565121 86.312500000 153.15904236 1.6659810543 25.926912308 1.3412880898
 641.01672363  -999.250000 18.312500000 0.0032610297  -999.250000 2.0382950306 90.437500000 153.66893005 1.6790926456 25.390323639 1.3719558716
 641.16912842  -999.250000 18.343750000 0.0067490046  -999.250000 2.0298197269 90.500000000 153.69958496 1.6755518913 24.676712036 1.3895487785
 641.32153320  -999.250000 18.406250000 0.0099418461  -999.250000 2.0209565163 92.875000000 153.51567078 1.6687021255 24.213356018 1.3964631557
 641.47387695  -999.250000 18.421875000 0.0084116757  -999.250000 2.0149931908 89.312500000 153.36270142 1.6644332409 24.000000000 1.3880331516
 641.62628174  -999.250000 18.406250000 0.0090949237  -999.250000 2.0175769329 89.187500000 153.29922485 1.6607189178 23.963455200 1.3599207401
 641.77868652  -999.250000 18.406250000 0.0110767474  -999.250000 2.0266804695 91.062500000 153.30503845 1.6579899788 23.713455200 1.3496909142
 641.93109131  -999.250000 18.406250000 0.0073733330  -999.250000 2.0346276760 93.062500000 153.29707336 1.6487636566 23.390367508 1.3665428162
 642.08349609  -999.250000 18.406250000 0.0037533045  -999.250000 2.0315625668 93.562500000 153.16397095 1.6621034145 22.676912308 1.3816549778
 642.23583984  -999.250000 18.375000000 0.0022239089  -999.250000 2.0163683891 89.375000000 152.89172363 1.7035450935 22.104225159 1.3786265850
 642.38824463  -999.250000 18.406250000 0.0014713407  -999.250000 2.0024027824 89.000000000 152.60305786 1.7154026031 21.213556290 1.3623921871
 642.54064941  -999.250000 18.281250000 -0.000344515  -999.250000 2.0007851124 90.375000000 152.15592957 1.7079763412 21.036443710 1.3564150333
 642.69305420  -999.250000 18.093750000 0.0053904057  -999.250000 2.0170862675 90.312500000 151.48031616 1.6980290413 21.395774841 1.3705127239
 642.84539795  -999.250000 18.281250000 0.0077244337  -999.250000 2.0377466679 94.125000000 150.77059937 1.6767272949 22.322687149 1.3822481632
 642.99780273  -999.250000 18.359375000 0.0084141493  -999.250000 2.0515427589 93.375000000 150.39379883 1.6244108677 22.822715759 1.3676354885
 643.15020752  -999.250000 18.281250000 0.0125157535  -999.250000 2.0509269238 96.750000000 150.71530151 1.5784978867 23.213556290 1.3311088085
 643.30261230  -999.250000 18.187500000 0.0106319189  -999.250000 2.0418910980 95.687500000 151.44422913 1.5253174305 23.036443710 1.3151776791
 643.45501709  -999.250000 18.062500000 0.0057995915  -999.250000 2.0338401794 95.125000000 152.09483337 1.4617810249 23.322887421 1.2962672710
 643.60742188  -999.250000 18.046875000 0.0050174897  -999.250000 2.0299999714 89.000000000 152.42446899 1.4027853012 23.895774841 1.2657747269
 643.75982666  -999.250000 18.218750000 0.0055201952  -999.250000 2.0299999714 90.687500000 152.45864868 1.3631801605 24.786443710 1.2093801498
 643.91217041  -999.250000 18.265625000 0.0003459156  -999.250000 2.0289947987 87.062500000 152.51069641 1.3200061321 25.036344528 1.1662600040
 644.06457520  -999.250000 18.250000000 -0.002386570  -999.250000 2.0181727409 93.875000000 152.74713135 1.3130607605 25.250000000 1.1776797771
 644.21691895  -999.250000 18.265625000 0.0016597509  -999.250000 1.9953007698 87.437500000 153.21150208 1.3132498264 25.286243439 1.2372145653
 644.36932373  -999.250000 18.093750000 -0.002316236  -999.250000 1.9720938206 91.375000000 153.67494202 1.3039498329 25.463756561 1.2711255550
 644.52172852  -999.250000 17.968750000 -0.002338320  -999.250000 1.9612268209 89.812500000 153.84387207 1.3133170605 25.213756561 1.2696805000
 644.67413330  -999.250000 17.937500000 0.0016233325  -999.250000 1.9709388018 93.000000000 153.52169800 1.3268866539 24.891269684 1.2727811337
 644.82653809  -999.250000 18.078125000 0.0106097162  -999.250000 1.9886062145 89.437500000 152.99833679 1.3203072548 24.177513123 1.2812743187
 644.97894287  -999.250000 18.156250000 0.0099258721  -999.250000 1.9999419451 87.562500000 152.51445007 1.3179621696 23.713756561 1.2495884895
 645.13134766  -999.250000 18.437500000 0.0210024081  -999.250000 1.9941611290 86.812500000 152.13653564 1.3546032906 23.536258698 1.1957442760
 645.28375244  -999.250000 18.375000000 0.0139695108  -999.250000 1.9760144949 86.437500000 151.83843994 1.3869104385 23.713655472 1.0982651711
 645.43615723  -999.250000 18.468750000 0.0110102287  -999.250000 1.9598909616 87.875000000 151.60501099 1.4143311977 23.463642120 1.0881757736
 645.58850098  -999.250000 18.265625000 0.0086601973  -999.250000 1.9589130878 88.875000000 151.83061218 1.4326081276 23.177312851 1.1741421223
 645.74084473  -999.250000 18.062500000 0.0080450475  -999.250000 1.9741076231 89.437500000 152.54875183 1.4441232681 22.713756561 1.3298473358
 645.89324951  -999.250000 18.093750000 0.0036813915  -999.250000 1.9886763096 87.812500000 153.22317505 1.4752359390 22.355026245 1.4364929199
 646.04565430  -999.250000 18.093750000 0.0038694739  -999.250000 1.9968467951 88.312500000 153.43737793 1.5538554192 21.463756561 1.4872453213
 646.19805908  -999.250000 18.234375000 0.0026181340  -999.250000 1.9960709810 89.187500000 153.01046753 1.6049115658 21.213756561 1.4941482544
 646.35046387  -999.250000 18.109375000 0.0021472871  -999.250000 1.9932469130 91.250000000 152.42608643 1.5753226280 21.108730316 1.4799249172
 646.50286865  -999.250000 18.718750000 0.0000622272  -999.250000 1.9933942556 91.750000000 151.85386658 1.4939484596 21.858730316 1.4492754936
 646.65527344  -999.250000 18.359375000 0.0006036758  -999.250000 1.9993656874 95.937500000 151.30694580 1.3610241413 22.572486877 1.3750240803
 646.80767822  -999.250000 18.281250000 0.0053066015  -999.250000 2.0083277225 98.687500000 150.78053284 1.2558984756 22.963741302 1.2686502934
 646.96008301  -999.250000 18.328125000 0.0039817095  -999.250000 2.0153849125 100.81250000 150.34156799 1.1085939407 22.859031677 1.1947262287
 647.11236572  -999.250000 18.265625000 0.0057275891  -999.250000 2.0154573917 94.250000000 150.22062683 0.9869396687 23.572286606 1.1063473225
 647.26477051  -999.250000 18.296875000 0.0033518076  -999.250000 2.0093679428 94.750000000 150.37950134 0.8831267357 24.144573212 0.9809149504
 647.41717529  -999.250000 18.390625000 0.0014384389  -999.250000 2.0039894581 88.000000000 150.53988647 0.8287322521 25.000000000 0.8569933176
 647.56958008  -999.250000 18.390625000 -0.000653714  -999.250000 2.0047953129 94.562500000 150.70681763 0.8309746981 25.036144257 0.7615693808
 647.72198486  -999.250000 18.281250000 -0.000032008  -999.250000 2.0133583546 87.000000000 150.88169861 0.8483232260 25.213855743 0.7560454607
 647.87438965  -999.250000 18.500000000 -0.002323002  -999.250000 2.0216581821 93.875000000 151.08462524 0.8615051508 25.072286606 0.8469134569
 648.02679443  -999.250000 18.187500000 -0.001592457  -999.250000 2.0216679573 91.000000000 151.57055664 0.8794361353 25.500000000 1.0218908787
 648.17919922  -999.250000 18.125000000 -0.001329929  -999.250000 2.0084652901 98.312500000 152.50897217 0.9317721128 25.536144257 1.2267582417
 648.33160400  -999.250000 18.078125000 -0.003293186  -999.250000 1.9905669689 97.500000000 153.60588074 1.0659344196 25.641569138 1.3524928093
 648.48388672  -999.250000 18.093750000 0.0020262301  -999.250000 1.9773062468 99.375000000 154.54983521 1.2464513779 24.964056015 1.3890902996
 648.63629150  -999.250000 18.250000000 0.0088234842  -999.250000 1.9754400253 95.812500000 155.11604309 1.4346334934 24.642169952 1.3974616528
 648.78869629  -999.250000 18.500000000 0.0101455748  -999.250000 1.9814981222 92.500000000 155.41572571 1.5334522724 23.964042664 1.3950748444
 648.94110107  -999.250000 18.625000000 0.0094891489  -999.250000 1.9866315126 90.500000000 155.63270569 1.5722007751 23.641870499 1.3924834728
