# LAS format log file from PETREL
# Project units are specified as depth units
#==================================================================
~Version information
VERS.   2.0:
WRAP.   NO:
#==================================================================
~Well
STRT .m      119.98761749 :
STOP .m      3119.6767578 :
STEP .m     0.00000000 :
NULL .        -999.250000 :
COMP.           : COMPANY
WELL.  16/4-2   : WELL
FLD.            : FIELD
LOC.            : LOCATION
SRVC.           : SERVICE COMPANY
DATE.  2018-09-11 14:48:08   : Log Export Date {yyyy-MM-dd HH:mm:ss}
PROV.           : PROVINCE
UWI.   16/4-2   : UNIQUE WELL ID
API.            : API NUMBER
#==================================================================
~Curve
DEPT .m                   : DEPTH
Lithology_geolink ._      : Lithology_geolink
CALI .in                  : CALI
DRHO .g/cm3               : DRHO
CGR .gAPI                 : CGR
RHOB .g/cm3               : RHOB
GR .gAPI                  : GR
DTC .us/ft                : DTC
RDEP .ohm.m               : RDEP
SP .mV                    : SP
RMED .ohm.m               : RMED
~Parameter
#==================================================================
~Ascii
# ...
 2765.5173340 12.000000000 12.023437500 -0.003293574 66.043289185 2.5532634258 46.514724731 71.442382813 2.4688057899 50.343200684 3.1720199585
 2765.6696777 12.000000000 12.023437500 0.0000681281 66.862335205 2.5601859093 48.642578125 71.333000183 2.4875879288 51.312076569 3.2751502991
 2765.8220215 12.000000000 12.023437500 -0.000846803 67.605018616 2.5693459511 48.318916321 71.185386658 2.5279932022 52.013198853 3.3117852211
 2765.9743652 12.000000000 12.023437500 -0.003327847 67.454460144 2.5763599873 47.610420227 71.055442810 2.5833382607 52.122974396 3.2320604324
 2766.1264648 12.000000000 12.031250000 -0.000394106 67.761444092 2.5774679184 48.735366821 70.975158691 2.6199970245 51.825698853 3.1989779472
 2766.2790527 12.000000000 12.031250000 0.0004414320 67.671195984 2.5744028091 45.776832581 70.929229736 2.6420321465 51.811199188 3.2292776108
 2766.4313965 12.000000000 12.023437500 -0.003460050 66.717704773 2.5710036755 45.829399109 70.866149902 2.6482772827 52.622573853 3.2810721397
 2766.5837402 12.000000000 12.023437500 -0.003819942 67.224365234 2.5663688183 46.471138000 70.747901917 2.6478004456 52.872573853 3.2447600365
 2766.7360840 12.000000000 12.023437500 -0.004259050 67.770477295 2.5605754852 45.481056213 70.576835632 2.6268463135 53.013198853 3.2108454704
 2766.8886719 12.000000000 12.023437500 -0.001556873 67.349288940 2.5547051430 44.026481628 70.407463074 2.5995073318 52.684398651 3.2622361183
 2767.0410156 12.000000000 12.023437500 -0.003427386 68.195884705 2.5497639179 48.629875183 70.302619934 2.5731225014 53.356948853 3.2688703537
 2767.1933594 12.000000000 12.000000000 -0.000102401 69.657119751 2.5461030006 47.487274170 70.285377502 2.5349168777 55.419448853 3.1100215912
 2767.3457031 12.000000000 12.007812500 0.0004667044 68.932106018 2.5430650711 46.425872803 70.308799744 2.4937782288 55.825698853 2.9410862923
 2767.4980469 12.000000000 12.007812500 0.0025915504 68.133644104 2.5400075912 45.341491699 70.343399048 2.4493608475 54.280399323 2.8877916336
 2767.6506348 12.000000000 12.007812500 0.0001339912 67.106224060 2.5370028019 43.867118835 70.400993347 2.4072275162 53.341323853 2.8686480522
 2767.8029785 12.000000000 12.007812500 -0.000869274 67.260673523 2.5339629650 47.855651855 70.472473145 2.3498077393 53.216323853 2.8106026649
 2767.9553223 12.000000000 12.007812500 -0.000986814 67.428314209 2.5309047699 45.197624207 70.469604492 2.3086380959 52.622573853 2.7359676361
 2768.1076660 12.000000000 12.007812500 -0.000343621 66.117599487 2.5278680325 45.145698547 70.247726440 2.2854933739 52.653823853 2.7453141212
 2768.2602539 12.000000000 12.007812500 -0.000397146 64.862426758 2.5248029232 42.534599304 69.849006653 2.2613506317 52.841999054 2.7843108177
 2768.4125977 12.000000000 12.007812500 -0.002506435 64.267601013 2.5220820904 45.271697998 69.571281433 2.2224006653 53.481948853 2.7916345596
 2768.5649414 12.000000000 12.015625000 -0.002180696 64.286262512 2.5204210281 42.643005371 69.786361694 2.1756615639 53.544448853 2.7632498741
 2768.7172852 12.000000000 12.007812500 -0.002285779 63.171379089 2.5199999809 42.808441162 70.546928406 2.1258983612 53.372573853 2.6670904160
 2768.8698730 12.000000000 12.000000000 -0.002426267 63.711502075 2.5193216801 45.546615601 71.440010071 2.0770931244 53.622798920 2.5165805817
 2769.0222168 12.000000000 12.000000000 -0.006870151 63.979770660 2.5153472424 45.020065308 72.034767151 2.0459952354 53.653823853 2.4287028313
 2769.1745605 12.000000000 12.000000000 -0.008049547 62.736530304 2.5060393810 43.381118774 72.146965027 2.0291976929 53.513198853 2.3667135239
 2769.3269043 12.000000000 12.000000000 -0.009831071 60.966217041 2.4939703941 41.513351440 72.001792908 2.0228695869 54.716323853 2.2791180611
 2769.4792480 12.000000000 12.000000000 -0.010231913 59.544967651 2.4852499962 40.803344727 71.733497620 2.0312161446 55.826400757 2.2551150322
 2769.6318359 12.000000000 12.000000000 -0.011640131 58.641571045 2.4852941036 39.206756592 71.144531250 2.0296587944 54.606948853 2.3513565063
 2769.7841797 12.000000000 12.039062500 -0.009948850 57.917606354 2.4913339615 39.411231995 70.339416504 2.0136179924 54.747573853 2.5941209793
 2769.9365234 12.000000000 12.000000000 -0.006455183 58.467536926 2.4966332912 42.119728088 69.707572937 2.0104866028 55.794448853 2.7532410622
 2770.0888672 12.000000000 12.000000000 -0.002733052 59.116992950 2.4994575977 42.002433777 69.619018555 2.0238261223 55.840797424 2.5694293976
 2770.2414551 12.000000000 12.000000000 -0.001311719 59.030330658 2.5000000000 42.526176453 70.032196045 2.0387783051 56.700698853 2.2725210190
 2770.3937988 12.000000000 12.000000000 0.0020070076 59.467685699 2.5005187988 43.956329346 70.517555237 2.0367884636 57.372573853 2.2508053780
 2770.5461426 12.000000000 12.000000000 0.0012300611 59.839851379 2.5029733181 43.799026489 70.845687866 2.0046038628 57.622573853 2.3596010208
 2770.6984863 12.000000000 12.000000000 0.0021279454 59.954914093 2.5079243183 44.776184082 70.970344543 1.9846553802 57.325698853 2.5535798073
 2770.8510742 12.000000000 12.000000000 -0.001955152 60.104957581 2.5137548447 44.367492676 70.983245850 2.0034470558 56.434398651 2.3591380119
 2771.0034180 12.000000000 12.000000000 -0.004226327 58.535274506 2.5174388885 39.967132568 70.827423096 2.0600771904 55.685073853 2.2060079575
 2771.1557617 12.000000000 12.000000000 -0.003689826 57.492160797 2.5168650150 43.050231934 70.342010498 2.1069784164 55.481948853 2.2747163773
 2771.3081055 12.000000000 12.000000000 0.0008586645 58.576625824 2.5138077736 43.423095703 69.658996582 2.1378221512 55.763198853 2.5865364075
 2771.4604492 12.000000000 12.000000000 0.0014044046 58.621322632 2.5131924152 42.679130554 69.183845520 2.1587433815 55.872398376 2.8632459641
 2771.6130371 12.000000000 12.000000000 0.0020877123 58.695854187 2.5195491314 43.232818604 69.319938660 2.2069015503 55.466323853 2.8985042572
 2771.7651367 12.000000000 12.000000000 0.0029773712 58.948936462 2.5312488079 42.350387573 69.925537109 2.2788257599 55.308071136 2.8026213646
 2771.9174805 12.000000000 12.000000000 0.0020515323 60.874885559 2.5424489975 47.424598694 70.512191772 2.3084568977 55.577301025 2.8136954308
 2772.0698242 12.000000000 12.000000000 0.0015042424 63.189144135 2.5502395630 45.192230225 70.893035889 2.3118000031 54.360397339 2.9139685631
 2772.2221680 12.000000000 12.000000000 0.0015237927 62.394138336 2.5544269085 44.284767151 71.054306030 2.2943410873 53.621772766 2.9478201866
 2772.3747559 12.000000000 12.000000000 -0.000207126 61.858379364 2.5567767620 43.692176819 71.136520386 2.2809324265 53.545249939 2.8509120941
 2772.5270996 12.000000000 12.000000000 -0.001337826 61.793838501 2.5556349754 44.124366760 71.178855896 2.2749772072 53.372173309 2.6895322800
 2772.6794434 12.000000000 12.000000000 -0.000833333 62.179039001 2.5491979122 44.597145081 71.160408020 2.2620496750 52.968326569 2.6858081818
 2772.8317871 12.000000000 12.000000000 0.0004172325 62.151546478 2.5402166843 44.392456055 71.114311218 2.2485442162 52.154399872 2.7400984764
 2772.9843750 12.000000000 12.000000000 -0.000215530 61.095813751 2.5335488319 41.833007813 71.126083374 2.2448096275 52.013198853 2.7587766647
 2773.1367188 12.000000000 12.000000000 -0.002686858 60.244922638 2.5327301025 43.842864990 71.279960632 2.2446660995 52.231147766 2.6933951378
 2773.2890625 12.000000000 12.000000000 -0.000979602 60.869556427 2.5357875824 45.525810242 71.528327942 2.2463264465 52.295249939 2.7178592682
 2773.4414063 12.000000000 12.000000000 0.0031344891 60.845424652 2.5388271809 44.489791870 71.741836548 2.2795295715 51.686798096 2.8510565758
 2773.5937500 12.000000000 12.000000000 0.0004419684 60.212291718 2.5418875217 44.054336548 71.845169067 2.2984051704 52.348934174 2.8880877495
 2773.7463379 12.000000000 12.000000000 -0.001712859 60.146152496 2.5449318886 45.005218506 71.850273132 2.3301815987 53.218326569 2.8452882767
 2773.8986816 12.000000000 12.000000000 -0.000329018 59.757171631 2.5485458374 43.371978760 71.833686829 2.4053368568 52.295249939 2.8523578644
