# LAS format log file from PETREL
# Project units are specified as depth units
#==================================================================
~Version information
VERS.   2.0:
WRAP.   NO:
#==================================================================
~Well
STRT .m      119.98761749 :
STOP .m      3119.6767578 :
STEP .m     0.00000000 :
NULL .        -999.250000 :
COMP.           : COMPANY
WELL.  16/4-2   : WELL
FLD.            : FIELD
LOC.            : LOCATION
SRVC.           : SERVICE COMPANY
DATE.  2018-09-11 14:48:08   : Log Export Date {yyyy-MM-dd HH:mm:ss}
PROV.           : PROVINCE
UWI.   16/4-2   : UNIQUE WELL ID
API.            : API NUMBER
#==================================================================
~Curve
DEPT .m                   : DEPTH
Lithology_geolink ._      : Lithology_geolink
CALI .in                  : CALI
DRHO .g/cm3               : DRHO
CGR .gAPI                 : CGR
RHOB .g/cm3               : RHOB
GR .gAPI                  : GR
DTC .us/ft                : DTC
RDEP .ohm.m               : RDEP
SP .mV                    : SP
RMED .ohm.m               : RMED
~Parameter
#==================================================================
~Ascii
# ...
 3115.4096680  -999.250000 11.851562500 0.0323064700 121.04498291  -999.250000 131.52236938  -999.250000 2.7062735558 172.96832275 4.9735708237
 3115.5620117  -999.250000 11.851562500 0.0323064700 121.00656128  -999.250000 131.44174194  -999.250000 2.7062849998 172.69749451 4.9809913635
 3115.7143555  -999.250000 11.851562500 0.0323064700 120.90708923  -999.250000 131.18896484  -999.250000 2.7066206932 172.12377930 4.9784288406
 3115.8666992  -999.250000 11.851562500 0.0323064700 117.48230743  -999.250000 108.39306641  -999.250000 2.7054281235 172.64819336 4.9816799164
 3116.0192871  -999.250000 11.851562500 0.0323064700 110.45874786  -999.250000 108.39297485  -999.250000 2.7061142921 172.33851624 4.9820899963
 3116.1716309  -999.250000 11.851562500 0.0323064700 110.44834137  -999.250000 108.39273071  -999.250000 2.7060623169 172.84332275 4.9834346771
 3116.3239746  -999.250000 11.851562500 0.0323064700 110.44078064  -999.250000 108.39201355  -999.250000 2.7057390213 173.33370972 4.9807004929
 3116.4763184  -999.250000 11.851562500 0.0323064700 110.43525696  -999.250000 108.39001465  -999.250000 2.7059836388 173.65319824 4.9822692871
 3116.6289063  -999.250000 11.851562500 0.0323064700 110.43040466  -999.250000 108.38333130  -999.250000 2.7072701454 172.68788147 4.9841661453
 3116.7812500  -999.250000 11.851562500 0.0323064700 75.033454895  -999.250000 0.0000000000  -999.250000 2.7061395645 172.50358582 4.9839162827
 3116.9335938  -999.250000 11.851562500 0.0323064700 0.0000000000  -999.250000 0.0000000000  -999.250000 2.7058038712 173.25358582 4.9830856323
 3117.0859375  -999.250000 11.851562500 0.0323064700 0.0000000000  -999.250000 0.0000000000  -999.250000 2.7057967186 173.92320251 4.9842376709
 3117.2382813  -999.250000 11.851562500 0.0323064700 0.0000000000  -999.250000 0.0000000000  -999.250000 2.7057085037 173.74496460 4.9837541580
 3117.3908691  -999.250000 11.851562500 0.0323064700 0.0000000000  -999.250000 0.0000000000  -999.250000 2.7062897682 173.07890320 4.9835643768
 3117.5432129  -999.250000 11.851562500 0.0323064700 0.0000000000  -999.250000 0.0000000000  -999.250000 2.7060704231 174.25358582 4.9838409424
 3117.6955566  -999.250000 11.851562500 0.0323064700 0.0000000000  -999.250000 0.0000000000  -999.250000 2.7060551643 174.72312927 4.9847831726
 3117.8479004  -999.250000 11.851562500 0.0323064700 0.0000000000  -999.250000 0.0000000000  -999.250000 2.7061076164 174.83819580 4.9843549728
 3118.0004883  -999.250000 11.851562500 0.0323064700 0.0000000000  -999.250000 0.0000000000  -999.250000 2.7060770988 175.62377930 4.9843740463
 3118.1528320  -999.250000 11.851562500 0.0323064700 0.0000000000  -999.250000 0.0000000000  -999.250000 2.7060799599 176.18788147 4.9841785431
 3118.3051758  -999.250000 11.851562500 0.0323064700 0.0000000000  -999.250000 0.0000000000  -999.250000 2.7060966492 175.64300537 4.9835128784
 3118.4575195  -999.250000 11.851562500 0.0323064700 0.0000000000  -999.250000 0.0000000000  -999.250000 2.7060861588 175.50819397 4.9858694077
 3118.6101074  -999.250000 11.851562500 0.0323064700 0.0000000000  -999.250000 0.0000000000  -999.250000 2.7060232162 175.76319885 4.9858694077
 3118.7624512  -999.250000 11.851562500 0.0323064700 0.0000000000  -999.250000 0.0000000000  -999.250000 2.7060790062 175.28242493 4.9858694077
 3118.9147949  -999.250000 11.851562500 0.0323064700 0.0000000000  -999.250000 0.0000000000  -999.250000 2.7060918808 174.42346191 4.9858694077
 3119.0671387  -999.250000 11.851562500 0.0323064700 0.0000000000  -999.250000 0.0000000000  -999.250000 2.7060942650 174.48320007 4.9858694077
 3119.2194824  -999.250000 11.851562500 0.0323064700 0.0000000000  -999.250000 0.0000000000  -999.250000 2.7060952187 173.76860046 4.9858694077
 3119.3720703  -999.250000 11.851562500 0.0323064700 0.0000000000  -999.250000 0.0000000000  -999.250000 2.7060699463 173.27281189 4.9858694077
 3119.5244141  -999.250000 11.851562500 0.0323064700 0.0000000000  -999.250000 0.0000000000  -999.250000 2.7060799599 171.35671997 4.9858694077
 3119.6767578  -999.250000 12.250000954 0.0323064700 0.0000000000  -999.250000  -999.250000  -999.250000  -999.250000 169.25640869 4.9858694077
