# LAS format log file from PETREL
# Project units are specified as depth units
#==================================================================
~Version information
VERS.   2.0:
WRAP.   NO:
#==================================================================
~Well
STRT .m      119.98761749 :
STOP .m      3119.6767578 :
STEP .m     0.00000000 :
NULL .        -999.250000 :
COMP.           : COMPANY
WELL.  16/4-2   : WELL
FLD.            : FIELD
LOC.            : LOCATION
SRVC.           : SERVICE COMPANY
DATE.  2018-09-11 14:48:08   : Log Export Date {yyyy-MM-dd HH:mm:ss}
PROV.           : PROVINCE
UWI.   16/4-2   : UNIQUE WELL ID
API.            : API NUMBER
#==================================================================
~Curve
DEPT .m                   : DEPTH
Lithology_geolink ._      : Lithology_geolink
CALI .in                  : CALI
DRHO .g/cm3               : DRHO
CGR .gAPI                 : CGR
RHOB .g/cm3               : RHOB
GR .gAPI                  : GR
DTC .us/ft                : DTC
RDEP .ohm.m               : RDEP
SP .mV                    : SP
RMED .ohm.m               : RMED
~Parameter
#==================================================================
~Ascii
# ...
 1348.8787842  -999.250000 17.515625000 -0.020122807  -999.250000 2.0876026154 57.937500000 144.04295349 0.6972606182 70.294837952 0.6535968781
 1349.0311279  -999.250000 17.515625000 -0.019854441  -999.250000 2.0885226727 56.343750000 143.83500671 0.6956086159 70.022438049 0.6499861479
 1349.1834717  -999.250000 17.515625000 -0.020884834  -999.250000 2.0862483978 56.906250000 143.94876099 0.6926498413 69.772621155 0.6494678259
 1349.3359375  -999.250000 17.515625000 -0.025854297  -999.250000 2.0832867622 58.437500000 144.13624573 0.6902673244 70.432693481 0.6526511908
 1349.4882813  -999.250000 17.531250000 -0.024104998  -999.250000 2.0816807747 58.437500000 144.35601807 0.6871414185 70.727378845 0.6570087671
 1349.6407471  -999.250000 17.515625000 -0.020397577  -999.250000 2.0829808712 59.437500000 144.63325500 0.6859217882 70.750000000 0.6591691971
 1349.7930908  -999.250000 17.515625000 -0.018419866  -999.250000 2.0859000683 57.062500000 144.94035339 0.6882655621 70.522438049 0.6580801010
 1349.9455566  -999.250000 17.515625000 -0.019472387  -999.250000 2.0889132023 57.687500000 145.21124268 0.6914974451 70.955162048 0.6580470800
 1350.0979004  -999.250000 17.515625000 -0.019890573  -999.250000 2.0920002460 56.875000000 145.34661865 0.6938993931 71.682693481 0.6663925648
 1350.2503662  -999.250000 17.515625000 -0.026719898  -999.250000 2.0950133801 55.312500000 145.36195374 0.6945617199 72.432746887 0.6713522673
 1350.4027100  -999.250000 17.546875000 -0.026918679  -999.250000 2.0980131626 55.187500000 145.35398865 0.6934214830 72.727561951 0.6737761497
 1350.5549316  -999.250000 17.578125000 -0.026356913  -999.250000 2.1010954380 56.406250000 145.20463562 0.6930601597 72.750000000 0.6711272001
 1350.7073975  -999.250000 17.515625000 -0.025554344  -999.250000 2.1041107178 57.656250000 144.86505127 0.6909649372 72.750000000 0.6668852568
 1350.8597412  -999.250000 17.515625000 -0.021381605  -999.250000 2.1071972847 56.968750000 144.50007629 0.6907645464 72.750000000 0.6659826040
 1351.0122070  -999.250000 17.515625000 -0.015152052  -999.250000 2.1084702015 56.843750000 144.21040344 0.6884856224 72.522636414 0.6645922661
 1351.1645508  -999.250000 17.484375000 -0.016975090  -999.250000 2.1065986156 54.968750000 144.05221558 0.6880117655 72.500000000 0.6569805145
 1351.3170166  -999.250000 17.515625000 -0.015919406  -999.250000 2.1036891937 51.343750000 143.94017029 0.6892931461 72.500000000 0.6520220041
 1351.4693604  -999.250000 17.515625000 -0.013712697  -999.250000 2.1017336845 49.406250000 143.85328674 0.6866734028 72.045639038 0.6539129019
 1351.6218262  -999.250000 17.515625000 -0.019070957  -999.250000 2.1026313305 48.781250000 143.81716919 0.6866592169 71.772636414 0.6596938372
 1351.7741699  -999.250000 17.515625000 -0.021718465  -999.250000 2.1054975986 52.750000000 143.81539917 0.6849480867 71.522636414 0.6623961926
 1351.9266357  -999.250000 17.515625000 -0.017882530  -999.250000 2.1078145504 52.625000000 143.81744385 0.6822848320 71.045234680 0.6686979532
 1352.0789795  -999.250000 17.484375000 -0.017329555  -999.250000 2.1062724590 55.125000000 143.81761169 0.6795309782 70.545272827 0.6703543663
 1352.2314453  -999.250000 17.484375000 -0.017214496  -999.250000 2.1007781029 57.906250000 143.81578064 0.6772863865 70.500000000 0.6720193624
 1352.3837891  -999.250000 17.484375000 -0.013509750  -999.250000 2.0946917534 57.343750000 143.81358337 0.6766701937 70.272636414 0.6710194349
 1352.5361328  -999.250000 17.515625000 -0.012757243  -999.250000 2.0906827450 55.687500000 143.71920776 0.6729494333 70.250000000 0.6689312458
 1352.6885986  -999.250000 17.515625000 -0.012018383  -999.250000 2.0900259018 54.000000000 143.48432922 0.6671583652 70.250000000 0.6691112518
 1352.8409424  -999.250000 17.515625000 -0.012954116  -999.250000 2.0899999142 54.968750000 143.22229004 0.6607921124 70.477180481 0.6686153412
 1352.9934082  -999.250000 17.500000000 -0.017160505  -999.250000 2.0899999142 53.093750000 142.99636841 0.6535693407 70.500000000 0.6668852568
 1353.1457520  -999.250000 17.406250000 -0.021252822  -999.250000 2.0899999142 51.906250000 142.84580994 0.6520149708 70.727180481 0.6659005880
 1353.2982178  -999.250000 17.359375000 -0.020779099  -999.250000 2.0899999142 53.062500000 142.73170471 0.6526137590 71.432090759 0.6632031202
 1353.4504395  -999.250000 17.359375000 -0.021172006  -999.250000 2.0899999142 54.187500000 142.63758850 0.6430068016 71.953964233 0.6608594656
 1353.6027832  -999.250000 17.375000000 -0.025175914  -999.250000 2.0899999142 55.187500000 142.59294128 0.6441708803 72.453926086 0.6553380489
 1353.7552490  -999.250000 17.359375000 -0.024543900  -999.250000 2.0899999142 55.625000000 142.59007263 0.6435589790 72.726982117 0.6547038555
 1353.9075928  -999.250000 17.359375000 -0.020707248  -999.250000 2.0899131298 56.281250000 142.59255981 0.6414294243 72.750000000 0.6576473713
 1354.0600586  -999.250000 17.359375000 -0.020048931  -999.250000 2.0885958672 56.406250000 142.59507751 0.6409193277 72.750000000 0.6656550169
 1354.2124023  -999.250000 17.359375000 -0.020838279  -999.250000 2.0857939720 57.125000000 142.59774780 0.6398645639 72.750000000 0.6660549641
 1354.3648682  -999.250000 17.343750000 -0.018051803  -999.250000 2.0827047825 57.906250000 142.60054016 0.6440713406 72.977165222 0.6644290686
 1354.5172119  -999.250000 17.359375000 -0.014804766  -999.250000 2.0805625916 54.593750000 142.60325623 0.6474213600 73.453964233 0.6578872204
 1354.6696777  -999.250000 17.250000000 -0.013299774  -999.250000 2.0800390244 50.781250000 142.60603333 0.6469602585 73.045669556 0.6515511274
 1354.8220215  -999.250000 17.281250000 -0.012481786  -999.250000 2.0799999237 49.968750000 142.60874939 0.6400845051 72.546035767 0.6471652985
 1354.9744873  -999.250000 17.359375000 -0.010944366  -999.250000 2.0787827969 51.562500000 142.60188293 0.6417911053 72.272834778 0.6586879492
 1355.1268311  -999.250000 17.359375000 -0.010894834  -999.250000 2.0746877193 53.312500000 142.57246399 0.6532610655 72.023017883 0.6635330915
 1355.2792969  -999.250000 17.359375000 -0.010428021  -999.250000 2.0687961578 54.343750000 142.52871704 0.6517035961 71.545669556 0.6597316265
 1355.4316406  -999.250000 17.328125000 -0.008864284  -999.250000 2.0644354820 56.062500000 142.48785400 0.6478526592 71.046035767 0.6601339579
 1355.5839844  -999.250000 17.359375000 -0.006551087  -999.250000 2.0677223206 57.281250000 142.46705627 0.6681241989 70.773033142 0.6620006561
 1355.7364502  -999.250000 17.359375000 -0.007535219  -999.250000 2.0789065361 60.937500000 142.46678162 0.6761145592 70.750000000 0.6752051115
 1355.8887939  -999.250000 17.359375000 -0.004083693  -999.250000 2.0910980701 60.750000000 142.46917725 0.6586402655 70.976966858 0.6589283943
 1356.0412598  -999.250000 17.359375000 -0.005151391  -999.250000 2.0977425575 61.187500000 142.49288940 0.6725250483 70.772834778 0.6326626539
 1356.1934814  -999.250000 17.421875000 -0.010538637  -999.250000 2.0960698128 57.687500000 142.54803467 0.6761227846 70.523216248 0.6318849325
 1356.3459473  -999.250000 17.515625000 -0.015806511  -999.250000 2.0930943489 58.406250000 142.60861206 0.6639600992 70.500000000 0.6517865658
 1356.4982910  -999.250000 17.468750000 -0.017066207  -999.250000 2.0924396515 59.250000000 142.66415405 0.6736592054 70.500000000 0.6574875116
 1356.6506348  -999.250000 17.343750000 -0.021786999  -999.250000 2.0962183475 58.062500000 142.70983887 0.6955765486 70.726760864 0.6524938345
 1356.8031006  -999.250000 17.484375000 -0.025160342  -999.250000 2.1020941734 57.812500000 142.75120544 0.6737257242 71.203559875 0.6512053013
 1356.9554443  -999.250000 17.515625000 -0.026698727  -999.250000 2.1072387695 56.562500000 142.76884460 0.6722068787 71.703529358 0.6709362268
 1357.1079102  -999.250000 17.515625000 -0.026851222  -999.250000 2.1097240448 58.000000000 142.71902466 0.6855244637 72.430343628 0.6649188995
 1357.2602539  -999.250000 17.515625000 -0.029543631  -999.250000 2.1099998951 58.031250000 142.61555481 0.6723515987 72.726760864 0.6685327291
