# LAS format log file from PETREL
# Project units are specified as depth units
#==================================================================
~Version information
VERS.   2.0:
WRAP.   NO:
#==================================================================
~Well
STRT .m      119.98761749 :
STOP .m      3119.6767578 :
STEP .m     0.00000000 :
NULL .        -999.250000 :
COMP.           : COMPANY
WELL.  16/4-2   : WELL
FLD.            : FIELD
LOC.            : LOCATION
SRVC.           : SERVICE COMPANY
DATE.  2018-09-11 14:48:08   : Log Export Date {yyyy-MM-dd HH:mm:ss}
PROV.           : PROVINCE
UWI.   16/4-2   : UNIQUE WELL ID
API.            : API NUMBER
#==================================================================
~Curve
DEPT .m                   : DEPTH
Lithology_geolink ._      : Lithology_geolink
CALI .in                  : CALI
DRHO .g/cm3               : DRHO
CGR .gAPI                 : CGR
RHOB .g/cm3               : RHOB
GR .gAPI                  : GR
DTC .us/ft                : DTC
RDEP .ohm.m               : RDEP
SP .mV                    : SP
RMED .ohm.m               : RMED
~Parameter
#==================================================================
~Ascii
# ...
 2586.3037109 13.000000000 12.140625000 0.0020574927 67.480049133 2.3896119595 47.403160095 83.145584106 0.9196158648 53.013198853 1.0017392635
 2586.4560547 13.000000000 12.140625000 0.0044342875 67.574562073 2.3788337708 49.254203796 83.471298218 0.8955087662 52.641803741 1.0359635353
 2586.6083984 13.000000000 12.140625000 0.0072686672 67.169723511 2.3801932335 46.410079956 83.562995911 0.8891361952 51.644207001 1.1011762619
 2586.7609863 13.000000000 12.140625000 0.0129920850 67.670684814 2.3908827305 51.439300537 83.475013733 0.9066689014 51.013198853 1.1414227486
 2586.9133301 13.000000000 12.140625000 0.0173959918 69.269775391 2.4021129608 52.177307129 83.468910217 0.9413799047 51.385200500 1.0940814018
 2587.0656738 13.000000000 12.140625000 0.0059928894 70.262344360 2.4100663662 55.470542908 83.832336426 1.0086328983 51.763198853 1.0956575871
 2587.2180176 13.000000000 12.179687500 0.0085309139 71.378631592 2.4143702984 56.637001038 84.600906372 1.1113548279 51.268005371 1.1463284492
 2587.3706055 13.000000000 12.171875000 0.0088181496 69.876991272 2.4176928997 52.476509094 85.438827515 1.1958703995 50.018005371 1.3145298958
 2587.5229492 13.000000000 12.179687500 0.0068804622 67.430061340 2.4227144718 50.283859253 85.863769531 1.2717516422 49.511596680 1.4581806660
 2587.6752930 13.000000000 12.257812500 0.0055205226 66.958160400 2.4305019379 50.401054382 85.622001648 1.3409008980 50.135200500 1.5285105705
 2587.8276367 13.000000000 12.265624046 0.0075485706 66.978164673 2.4396562576 49.429267883 85.039146423 1.4268009663 50.884593964 1.5364871025
 2587.9802246 13.000000000 12.218750000 0.0094580650 67.119186401 2.4458355904 50.074981689 84.572471619 1.5305466652 50.890602112 1.5245528221
 2588.1325684 13.000000000 12.250000954 0.0085646519 67.856338501 2.4446053505 51.138237000 84.399887085 1.5786161423 50.016403198 1.4983980656
 2588.2849121 13.000000000 12.289062500 0.0085758576 68.675842285 2.4386141300 52.329887390 84.414329529 1.6327562332 49.637199402 1.5262105465
 2588.4372559 13.000000000 12.140625000 0.0079286098 68.258659363 2.4346148968 49.585647583 84.421218872 1.6780505180 50.258392334 1.6034300327
 2588.5898438 13.000000000 12.140625000 0.0053789616 67.144790649 2.4368250370 49.070198059 84.392997742 1.6903474331 50.638999939 1.6371433735
 2588.7421875 13.000000000 12.140625000 0.0014830828 67.876678467 2.4445641041 52.404418945 84.333465576 1.6975417137 50.264801025 1.7002053261
 2588.8945313 13.000000000 12.140625000 0.0052729249 68.212417603 2.4529254436 51.245094299 84.184173584 1.7169246674 49.765197754 1.7930610180
 2589.0468750 13.000000000 12.140625000 0.0059129000 65.764892578 2.4583702087 46.561225891 83.718750000 1.6655092239 49.513198853 1.9007079601
 2589.1992188 13.000000000 12.140625000 0.0140967956 63.387741089 2.4600000381 45.979293823 82.845436096 1.6179409027 50.751178741 1.9484741688
 2589.3518066 13.000000000 12.140625000 0.0233624801 62.972400665 2.4596796036 46.839820862 81.809898376 1.5774888992 51.888999939 1.8616478443
 2589.5041504 13.000000000 12.210937500 0.0344746038 63.514366150 2.4564225674 48.195510864 80.905624390 1.5398592949 51.763198853 1.5914082527
 2589.6564941 13.000000000 12.234375000 0.0341428667 64.148567200 2.4474735260 49.082756042 80.255271912 1.4988029003 52.135200500 1.3940379620
 2589.8088379 13.000000000 12.140625000 0.0450001359 64.291999817 2.4353280067 49.302055359 79.749496460 1.4560573101 52.141803741 1.2726862431
 2589.9614258 13.000000000 12.140625000 0.0270728841 63.897769928 2.4262290001 49.102439880 79.369537354 1.3527560234 51.763198853 1.2206499577
 2590.1137695 13.000000000 12.140625000 0.0285531990 62.963081360 2.4254009724 46.950828552 79.322219849 1.2938389778 51.887397766 1.2611291409
 2590.2661133 13.000000000 12.218750000 0.0256820358 62.325492859 2.4306859970 46.606582642 79.521087646 1.2446827888 51.641197205 1.3313131332
 2590.4184570 13.000000000 12.179687500 0.0243476070 62.860946655 2.4360551834 47.925949097 79.686264038 1.2270083427 50.768005371 1.3409895897
 2590.5710449 13.000000000 12.164061546 0.0120791197 63.281204224 2.4391875267 46.813308716 79.635238647 1.2434296608 50.511596680 1.3277246952
 2590.7233887 13.000000000 12.171875000 0.0136200190 63.075809479 2.4400000572 45.993728638 79.358764648 1.2752618790 50.763198853 1.3208615780
 2590.8757324 13.000000000 12.171875000 0.0134484768 63.689720154 2.4401826859 47.742576599 79.085815430 1.2709603310 51.011199951 1.3053181171
 2591.0280762 13.000000000 12.179687500 0.0096029043 62.473167419 2.4412219524 40.531982422 79.202873230 1.2596728802 51.015602112 1.3028953075
 2591.1804199 13.000000000 12.257812500 0.0061693788 62.618667603 2.4436159134 46.314086914 79.920295715 1.2318694592 51.258392334 1.3720273972
 2591.3330078 13.000000000 12.250000954 0.0070259571 64.186904907 2.4466729164 44.642356873 80.933631897 1.2048273087 51.390602112 1.4647328854
 2591.4851074 13.000000000 12.250000954 0.0043343902 65.413627625 2.4484364986 49.993888855 81.802742004 1.1639399529 50.394207001 1.4537680149
 2591.6374512 13.000000000 12.265624046 0.0038316250 66.054962158 2.4472346306 47.013923645 82.329238892 1.1310327053 50.504798889 1.2820322514
 2591.7897949 13.000000000 12.289062500 0.0024286509 64.727409363 2.4441890717 46.608100891 82.641860962 1.1143467426 51.633392334 1.1083006859
 2591.9421387 13.000000000 12.289062500 -0.000377715 64.674636841 2.4398190975 46.680717468 82.910346985 1.0692021847 52.136596680 1.0537850857
 2592.0947266 13.000000000 12.289062500 -0.004683137 64.840637207 2.4316847324 46.711174011 83.055969238 1.0274832249 51.891803741 1.0551249981
 2592.2470703 13.000000000 12.289062500 -0.006047308 65.922203064 2.4202475548 49.356414795 83.095100403 1.0008218288 51.389598846 1.0890839100
 2592.3994141 13.000000000 12.289062500 -0.002795756 67.417297363 2.4099590778 50.672920227 83.145782471 0.9723334312 51.016403198 1.1309564114
 2592.5517578 13.000000000 12.289062500 -0.001945734 70.008506775 2.4067378044 56.607765198 83.330718994 0.9524354935 50.393005371 1.1395699978
 2592.7043457 13.000000000 12.289062500 0.0001797676 71.093612671 2.4122495651 53.267410278 83.682090759 0.9375783205 50.384593964 1.1567568779
 2592.8566895 13.000000000 12.289062500 0.0003191829 69.845436096 2.4208409786 52.639244080 84.059036255 0.9198539257 50.639598846 1.1484241486
 2593.0090332 13.000000000 12.289062500 0.0024669766 69.121086121 2.4257006645 50.302574158 84.126136780 0.8986546993 50.019607544 1.1032061577
 2593.1613770 13.000000000 12.289062500 0.0029727817 67.920501709 2.4235239029 47.883781433 83.616134644 0.8904240131 49.636596680 1.0504689217
 2593.3137207 13.000000000 12.289062500 0.0044158697 66.675949097 2.4174282551 45.899955750 82.787170410 0.8919093609 50.009994507 0.9859402180
 2593.4663086 13.000000000 12.289062500 0.0052039623 65.760017395 2.4118697643 44.618835449 82.131790161 0.8936307430 51.377380371 0.9591059685
 2593.6186523 13.000000000 12.289062500 0.0061600208 66.029861450 2.4077434540 46.383262634 81.937446594 0.8994945288 52.265998840 0.9774926901
 2593.7709961 13.000000000 12.289062500 0.0047726035 67.341835022 2.4045889378 49.034248352 82.071334839 0.9009875059 51.766403198 1.0471994877
 2593.9233398 13.000000000 12.289062500 0.0003576875 66.822906494 2.4022617340 45.763504028 82.183349609 0.9058761597 51.636596680 1.1477382183
 2594.0759277 13.000000000 12.289062500 -0.001170993 65.727066040 2.4022779465 46.630668640 82.116981506 0.9183096886 52.382190704 1.2245805264
 2594.2282715 13.000000000 12.289062500 -0.005417228 66.055915833 2.4045701027 47.319198608 81.871459961 0.9391723871 52.765998840 1.1852996349
 2594.3806152 13.000000000 12.289062500 -0.013162017 66.633338928 2.4073874950 49.593391418 81.640716553 0.9637151957 52.389801025 1.1075191498
 2594.5329590 13.000000000 12.289062500 -0.013490438 66.453254700 2.4093480110 48.389373779 81.734916687 0.9820994139 52.386596680 1.0659694672
 2594.6855469 13.000000000 12.289062500 -0.009802283 67.403915405 2.4100000858 54.107940674 82.305015564 0.9877763987 52.884593964 1.1032061577
