# LAS format log file from PETREL
# Project units are specified as depth units
#==================================================================
~Version information
VERS.   2.0:
WRAP.   NO:
#==================================================================
~Well
STRT .m      119.98761749 :
STOP .m      3119.6767578 :
STEP .m     0.00000000 :
NULL .        -999.250000 :
COMP.           : COMPANY
WELL.  16/4-2   : WELL
FLD.            : FIELD
LOC.            : LOCATION
SRVC.           : SERVICE COMPANY
DATE.  2018-09-11 14:48:08   : Log Export Date {yyyy-MM-dd HH:mm:ss}
PROV.           : PROVINCE
UWI.   16/4-2   : UNIQUE WELL ID
API.            : API NUMBER
#==================================================================
~Curve
DEPT .m                   : DEPTH
Lithology_geolink ._      : Lithology_geolink
CALI .in                  : CALI
DRHO .g/cm3               : DRHO
CGR .gAPI                 : CGR
RHOB .g/cm3               : RHOB
GR .gAPI                  : GR
DTC .us/ft                : DTC
RDEP .ohm.m               : RDEP
SP .mV                    : SP
RMED .ohm.m               : RMED
~Parameter
#==================================================================
~Ascii
# ...
 2057.1979980  -999.250000 13.507812500 -0.018508375 90.601821899 2.0899999142 78.626983643 143.99568176 0.4605698586 21.088521957 0.5963727236
 2057.3503418  -999.250000 13.203125000 -0.020228334 90.742828369 2.0899999142 79.060089111 143.85623169 0.4575158358 22.449899673 0.5930042267
 2057.5026855  -999.250000 13.078125000 -0.019610982 91.356521606 2.0899999142 80.761734009 143.76290894 0.4533483982 21.913841248 0.5849844217
 2057.6550293  -999.250000 12.976562500 -0.020172860 92.424766541 2.0899999142 83.082580566 143.75874329 0.4491153359 21.263200760 0.5821820498
 2057.8073730  -999.250000 13.132812500 -0.018975783 89.955261230 2.0899999142 77.365509033 143.79406738 0.4473126531 22.777624130 0.5707899332
 2057.9599609  -999.250000 13.046875000 -0.021058444 89.795944214 2.0899999142 79.788421631 144.00976563 0.4458795786 21.995172501 0.5646457672
 2058.1123047  -999.250000 12.937500000 -0.017680846 90.275688171 2.0899999142 79.233459473 144.64604187 0.4486979842 20.925861359 0.5599631071
 2058.2646484  -999.250000 12.710938454 -0.015134389 89.485885620 2.0899999142 77.944732666 145.57997131 0.4579949975 23.120800018 0.5638086796
 2058.4169922  -999.250000 12.757812500 -0.012178510 87.351966858 2.0896825790 74.401428223 146.37316895 0.4737246633 23.085315704 0.5701127052
 2058.5693359  -999.250000 12.726561546 -0.007775186 86.391235352 2.0882308483 74.534606934 146.45199585 0.4964569211 22.513200760 0.5823742151
 2058.7219238  -999.250000 12.882813454 0.0003536940 85.232688904 2.0855307579 72.380294800 145.76339722 0.5428211689 23.862560272 0.5935055017
 2058.8742676  -999.250000 12.968750000 0.0013881326 84.527694702 2.0830671787 71.562225342 144.66334534 0.5643907785 23.839601517 0.6072376966
 2059.0266113  -999.250000 12.945312500 0.0038814545 84.366432190 2.0861077309 72.160385132 141.86160278 0.5800828934 24.522815704 0.6309659481
 2059.1789551  -999.250000 12.523438454 0.0057833791 83.898765564 2.0979461670 70.955886841 136.32183838 0.5983421803 25.518009186 0.6780766249
 2059.3315430  -999.250000 12.289062500 0.0042217970 86.138755798 2.1131551266 76.947509766 129.74787903 0.6175886393 25.257190704 0.7457101345
 2059.4838867  -999.250000 12.179687500 -0.005628824 88.723655701 2.1290442944 79.390380859 126.11310577 0.6238546371 25.519210815 0.7514322996
 2059.6362305  -999.250000 12.226562500 -0.019199707 90.085517883 2.1464231014 81.172500610 128.57205200 0.6275762320 24.921201706 0.7105560303
 2059.7885742  -999.250000 12.289062500 -0.030057821 91.705894470 2.1646769047 84.120147705 134.39321899 0.6314773560 25.018009186 0.6889271736
 2059.9411621  -999.250000 12.187500000 -0.035977617 90.358245850 2.1783871651 79.365005493 139.58282471 0.6190028191 25.769210815 0.6807112694
 2060.0935059  -999.250000 12.148438454 -0.035898201 87.569084167 2.1796076298 74.680709839 141.81774902 0.5739445686 24.832511902 0.6784799099
 2060.2458496  -999.250000 12.273437500 -0.033538818 85.178092957 2.1703212261 71.349090576 141.54588318 0.5466609001 23.758001328 0.6685518026
 2060.3981934  -999.250000 12.281250000 -0.011758863 83.135398865 2.1583480835 68.532394409 140.79597473 0.5302931070 24.859354019 0.6403955221
 2060.5505371  -999.250000 12.382812500 -0.005971491 86.211708069 2.1473999023 76.349014282 140.99018860 0.5100829601 24.671854019 0.5870163441
 2060.7028809  -999.250000 12.640625000 -0.003866255 87.971382141 2.1378343105 76.524353027 142.39283752 0.5071797371 23.758392334 0.5558763742
 2060.8552246  -999.250000 13.070313454 -0.001217186 88.124145508 2.1286761761 76.732086182 144.22064209 0.5185022354 22.841199875 0.5579822063
 2061.0078125  -999.250000 13.156250000 0.0035793185 88.445228577 2.1236500740 76.691223145 145.85450745 0.5025225878 20.157430649 0.5966091156
 2061.1601563  -999.250000 13.093750000 -0.008745790 89.005111694 2.1265077591 77.554000854 147.11114502 0.4979096651 19.854547501 0.6186485291
 2061.3125000  -999.250000 13.093750000 -0.014512487 88.625320435 2.1325016022 75.791976929 148.20880127 0.4976115227 22.114162445 0.6309221983
 2061.4648438  -999.250000 12.945312500 -0.017282687 89.897438049 2.1391942501 78.527084351 148.81045532 0.5050996542 20.657430649 0.6336363554
 2061.6171875  -999.250000 12.859375000 -0.029124476 91.905731201 2.1472437382 80.445144653 148.28091431 0.5091825724 19.513200760 0.6425597668
 2061.7697754  -999.250000 12.875000000 -0.017667096 91.816261292 2.1562385559 78.910461426 146.98373413 0.5202623606 20.018009186 0.6489098072
 2061.9221191  -999.250000 12.898436546 -0.007120848 90.693801880 2.1685338020 77.045211792 145.59713745 0.5270624161 19.758392334 0.6288992167
 2062.0744629  -999.250000 12.843750000 -0.029069152 91.251533508 2.1911711693 78.615066528 144.41200256 0.5302875042 19.849739075 0.6128740311
 2062.2268066  -999.250000 12.882813454 -0.044010781 91.663253784 2.2244682312 78.109008789 143.43161011 0.5306925774 19.509201050 0.5885834694
 2062.3793945  -999.250000 12.726561546 -0.027979083 92.754150391 2.2578268051 80.242828369 142.62886047 0.5241183043 18.421854019 0.5749611855
 2062.5317383  -999.250000 12.718750000 -0.018564828 93.281387329 2.2656826973 80.122528076 142.73358154 0.5041651726 18.686277390 0.5874695778
 2062.6840820  -999.250000 12.718750000 -0.016613681 93.423500061 2.2347078323 80.746902466 144.21766663 0.4950703382 19.349739075 0.5969773531
 2062.8364258  -999.250000 12.640625000 -0.014222611 93.934066772 2.1890714169 82.353469849 146.22242737 0.4835295677 19.345201492 0.5952087641
 2062.9890137  -999.250000 12.624999046 -0.017330848 94.783653259 2.1541500092 83.809478760 147.56391907 0.4763508439 18.590124130 0.5849095583
 2063.1413574  -999.250000 12.687500000 -0.016170416 94.895805359 2.1413519382 84.028366089 147.53894043 0.4752614498 18.263200760 0.5903193951
 2063.2934570  -999.250000 12.601562500 -0.020867143 95.353752136 2.1400001049 85.687744141 146.81117249 0.4754465222 18.263200760 0.6044120789
 2063.4460449  -999.250000 12.578125000 -0.024942281 94.071029663 2.1405065060 82.635787964 146.27961731 0.4779348969 19.441085815 0.6006532907
 2063.5983887  -999.250000 12.703125000 -0.023726773 89.770423889 2.1422560215 75.238937378 146.48098755 0.4843110442 18.333200455 0.5856602192
 2063.7507324  -999.250000 12.718750000 -0.024050802 87.256072998 2.1449990273 73.513671875 147.28001404 0.4818779826 17.177463531 0.5841460228
 2063.9030762  -999.250000 12.679687500 -0.028234288 87.657661438 2.1483120918 75.399322510 147.78656006 0.4766322970 17.181068420 0.6336379051
 2064.0556641  -999.250000 12.492187500 -0.016417719 87.685287476 2.1527018547 74.280563354 146.41667175 0.4689982533 17.936277390 0.6870602369
 2064.2080078  -999.250000 12.429687500 -0.011911988 87.357307434 2.1583614349 74.850128174 142.75671387 0.4664881825 18.263200760 0.6856787205
 2064.3603516  -999.250000 12.500000000 -0.012498219 87.073158264 2.1643347740 74.259170532 138.35223389 0.4639335871 17.591726303 0.6459248066
 2064.5126953  -999.250000 12.882813454 -0.010740161 88.469375610 2.1652340889 77.292785645 136.24816895 0.4620650411 17.431068420 0.5904722214
 2064.6650391  -999.250000 12.992187500 -0.004699469 88.630012512 2.1567895412 76.338378906 138.35240173 0.4559350610 16.673858643 0.5668632984
 2064.8176270  -999.250000 13.367187500 -0.007197976 89.342941284 2.1445772648 78.594909668 142.14997864 0.4524112344 15.927199364 0.5680192709
 2064.9699707  -999.250000 13.382812500 -0.011228999 90.991882324 2.1330103874 81.202224731 145.17883301 0.4426069260 16.938280106 0.5727242231
 2065.1223145  -999.250000 13.109375000 -0.007306516 91.972091675 2.1228230000 82.248291016 146.48826599 0.4386869669 17.177463531 0.5874695778
 2065.2746582  -999.250000 13.070313454 -0.001782954 90.457687378 2.1135487556 78.761444092 146.69799805 0.4343152046 15.334514618 0.6133944988
 2065.4272461  -999.250000 13.007812500 0.0014204979 88.508804321 2.1043763161 76.678207397 146.70223999 0.4332503080 15.522815704 0.6415209770
 2065.5795898  -999.250000 13.304687500 0.0031952262 88.429794312 2.0952396393 78.350234985 146.71951294 0.4332799315 17.357200623 0.6517299414
