# LAS format log file from PETREL
# Project units are specified as depth units
#==================================================================
~Version information
VERS.   2.0:
WRAP.   NO:
#==================================================================
~Well
STRT .m      119.98761749 :
STOP .m      3119.6767578 :
STEP .m     0.00000000 :
NULL .        -999.250000 :
COMP.           : COMPANY
WELL.  16/4-2   : WELL
FLD.            : FIELD
LOC.            : LOCATION
SRVC.           : SERVICE COMPANY
DATE.  2018-09-11 14:48:08   : Log Export Date {yyyy-MM-dd HH:mm:ss}
PROV.           : PROVINCE
UWI.   16/4-2   : UNIQUE WELL ID
API.            : API NUMBER
#==================================================================
~Curve
DEPT .m                   : DEPTH
Lithology_geolink ._      : Lithology_geolink
CALI .in                  : CALI
DRHO .g/cm3               : DRHO
CGR .gAPI                 : CGR
RHOB .g/cm3               : RHOB
GR .gAPI                  : GR
DTC .us/ft                : DTC
RDEP .ohm.m               : RDEP
SP .mV                    : SP
RMED .ohm.m               : RMED
~Parameter
#==================================================================
~Ascii
# ...
 2407.0905762 5.0000000000 12.000000000 -0.005159259 97.819763184 2.2621405125 72.233566284 102.38324738 0.4439467788 50.513198853 0.5686264038
 2407.2429199 5.0000000000 11.914062500 -0.003938496 96.467842102 2.2505652905 73.830047607 102.35021973 0.4348898530 50.234798431 0.5380249023
 2407.3952637 5.0000000000 11.921875000 -0.006545424 96.383316040 2.2396197319 72.412078857 101.96039581 0.4248490930 49.874176025 0.5235655308
 2407.5476074 5.0000000000 12.000000000 -0.004462421 96.237609863 2.2336058617 73.440353394 100.64577484 0.4133811593 50.319290161 0.5263148546
 2407.7001953 5.0000000000 12.000000000 -0.006399751 96.419891357 2.2340097427 73.212875366 98.129554749 0.4104698300 50.344928741 0.5461777449
 2407.8525391 5.0000000000 12.000000000 -0.005977571 95.887763977 2.2371096611 71.461120605 95.165214539 0.4063276052 49.595600128 0.5661321878
 2408.0048828 5.0000000000 12.000000000 -0.007127166 94.532241821 2.2409327030 68.868988037 92.749305725 0.4285354018 49.263198853 0.5650795698
 2408.1572266 5.0000000000 12.039062500 -0.003133655 92.872673035 2.2462575436 66.404739380 91.387420654 0.4336425066 49.541244507 0.5529413223
 2408.3095703 5.0000000000 12.117187500 -0.007411063 93.094635010 2.2523577213 69.196624756 90.573333740 0.4436776042 49.207107544 0.5284996033
 2408.4621582 5.0000000000 12.125000000 -0.010651285 95.622772217 2.2579481602 74.008346558 90.171325684 0.4702480435 49.739158630 0.4910385609
 2408.6145020 5.0000000000 12.015625000 -0.016662957 99.106224060 2.2621653080 79.196044922 90.789543152 0.5342631340 49.956398010 0.4814530611
 2408.7668457 5.0000000000 12.000000000 -0.013486559 101.44851685 2.2653551102 81.008438110 92.131393433 0.5980241299 48.818088531 0.5792770386
 2408.9191895 5.0000000000 12.000000000 -0.011410477 104.68545532 2.2705266476 88.262817383 93.531929016 0.6354649067 48.124176025 0.9259592295
 2409.0717773 5.0000000000 12.000000000 -0.004711807 109.26747894 2.2825152874 94.361541748 94.728988647 0.6878243685 48.570892334 0.9543799162
 2409.2241211 5.0000000000 11.960938454 -0.002491832 112.43247223 2.3014597893 97.582092285 95.706375122 0.7521530390 47.621200562 0.9818301201
 2409.3764648 5.0000000000 11.953125000 0.0020790696 113.05622864 2.3217570782 96.741790771 96.725189209 0.8681848049 47.069290161 0.9934253693
 2409.5288086 5.0000000000 11.960938454 0.0027762055 111.84519196 2.3367421627 93.606719971 98.383178711 0.8952150345 47.235153198 0.9361718893
 2409.6813965 5.0000000000 11.890624046 -0.002195716 109.99869537 2.3436095715 90.498046875 101.03311157 0.8826881647 46.873775482 0.9297053814
 2409.8334961 5.0000000000 11.859375000 -0.001030922 108.29412079 2.3466527462 88.391708374 104.12662506 0.8582785130 46.208000183 0.9435791969
 2409.9858398 5.0000000000 11.851562500 -0.001378298 108.24448395 2.3490302563 90.462753296 106.61463165 0.7889713049 45.485954285 0.9317280054
 2410.1384277 5.0000000000 11.851562500 -0.000653505 107.95269012 2.3499517441 89.189437866 107.73152161 0.7456995249 44.985153198 0.9130373001
 2410.2907715 5.0000000000 11.851562500 -0.001752436 107.72175598 2.3499999046 90.166000366 108.05327606 0.7425605059 44.902221680 0.8392677307
 2410.4431152 5.0000000000 11.851562500 0.0017703176 107.83950806 2.3490681648 90.031585693 108.14723206 0.7339721918 44.735153198 0.8108100891
 2410.5954590 5.0000000000 11.851562500 0.0006576777 106.51345062 2.3456118107 87.138397217 107.71717834 0.7210242748 45.207199097 0.7972929478
 2410.7480469 5.0000000000 11.851562500 0.0019471049 106.07970428 2.3400378227 88.127517700 106.84597015 0.7296617031 46.041244507 0.8074744940
 2410.9003906 5.0000000000 11.859375000 -0.002600968 104.16204071 2.3353400230 82.954360962 106.09804535 0.7397260666 45.707107544 0.8416666985
 2411.0527344 5.0000000000 11.945312500 -0.002414107 102.51261902 2.3357186317 84.011291504 106.22981262 0.7673920393 45.124176025 0.8673129082
 2411.2050781 6.0000000000 12.351561546 -0.000043750 104.82968140 2.3423104286 97.135116577 107.44258881 0.8188149929 44.735599518 0.8622332811
 2411.3574219 6.0000000000 12.570312500 0.0002483130 107.74590302 2.3512995243 100.52182007 108.98969269 0.9038593769 45.067684174 0.8686726093
 2411.5100098 6.0000000000 12.039062500 0.0017378926 107.52414703 2.3587577343 97.731231689 109.57202911 0.9382511377 45.235153198 1.0280034542
 2411.6623535 6.0000000000 11.960938454 0.0062449574 106.31355286 2.3632528782 96.984909058 108.35835266 0.9490429163 45.430267334 1.1261858940
 2411.8146973 6.0000000000 11.953125000 0.0081704855 105.77586365 2.3663046360 96.223953247 106.23607635 0.9601154327 45.346797943 1.1251180172
 2411.9670410 6.0000000000 11.953125000 0.0081847301 105.49992371 2.3682134151 95.824035645 104.62482452 0.9735764265 46.538040161 1.1222953796
 2412.1196289 6.0000000000 11.945312500 0.0081544509 104.71137238 2.3673059940 94.125045776 104.24743652 0.9276396036 47.485153198 1.1149899960
 2412.2719727 6.0000000000 11.968750000 0.0053027272 104.36972809 2.3645472527 94.939849854 104.71421814 0.8410195112 46.707107544 1.0997622013
 2412.4243164 6.0000000000 11.945312500 0.0034876466 108.07929230 2.3607707024 105.89646912 105.25548553 0.8316938877 46.819290161 0.9908133745
 2412.5766602 6.0000000000 11.984375000 0.0030353069 109.81892395 2.3546659946 102.65455627 105.64477539 0.8041851521 48.096000671 0.8340666294
 2412.7290039 6.0000000000 12.000000000 0.0014537573 105.47585297 2.3462455273 93.738983154 105.88252258 0.7654439211 49.317684174 0.7689850330
 2412.8813477 6.0000000000 12.000000000 0.0009461640 101.37281036 2.3371040821 90.025436401 105.96879578 0.6776214838 49.208713531 0.7067449093
 2413.0336914 5.0000000000 11.859375000 0.0005019307 97.435478210 2.3279526234 77.472229004 105.55184937 0.6519380808 49.040443420 0.6566938162
 2413.1862793 5.0000000000 11.968750000 -0.002948642 95.773727417 2.3187894821 79.303710938 104.39708710 0.6291897297 49.957199097 0.6712446213
 2413.3386230 5.0000000000 12.000000000 -0.002617657 98.203308105 2.3096971512 85.879470825 102.91323090 0.6140557528 51.483551025 0.6825259924
 2413.4909668 5.0000000000 12.000000000 -0.003430665 99.982345581 2.3026165962 87.060165405 101.74977112 0.6199771166 52.956306458 0.7173986435
 2413.6433105 5.0000000000 12.000000000 -0.005963683 96.775421143 2.3000483513 79.846542358 101.30655670 0.6281745434 53.235954285 0.7332501411
 2413.7958984 5.0000000000 11.898437500 -0.011639775 93.010307312 2.2999999523 77.710647583 101.26178741 0.6342439651 52.735599518 0.7471876144
 2413.9482422 5.0000000000 11.851562500 -0.009615541 92.948753357 2.3004651070 80.119842529 100.98213959 0.6766735315 52.929065704 0.7620192766
 2414.1005859 5.0000000000 11.851562500 -0.009514093 93.702255249 2.3022415638 81.292831421 100.07183838 0.6847676039 53.540443420 0.7709987164
 2414.2529297 5.0000000000 11.851562500 -0.008724631 93.307350159 2.3050479889 80.369918823 98.652542114 0.6810003519 53.901821136 0.7685458660
 2414.4055176 5.0000000000 11.851562500 -0.003981173 92.541870117 2.3072247505 80.025680542 97.091590881 0.6718258858 53.457107544 0.7680448294
 2414.5578613 5.0000000000 11.851562500 0.0007429123 92.531425476 2.3062462807 80.839508057 95.468162537 0.5995187759 53.429599762 0.7637488842
 2414.7102051 5.0000000000 11.851562500 0.0010020137 88.678115845 2.3015520573 70.505371094 93.768562317 0.5415853262 53.624576569 0.7463837862
 2414.8625488 5.0000000000 11.851562500 0.0019998550 85.811798096 2.2954006195 71.421905518 92.104385376 0.5080090761 53.651821136 0.5998710394
 2415.0148926 5.0000000000 11.851562500 0.0005187988 82.636611938 2.2884263992 62.492889404 90.968757629 0.4639561772 53.901821136 0.4582467079
 2415.1674805 2.0000000000 11.851562500 -0.008322239 78.804313660 2.2799377441 59.941360474 90.767349243 0.4434209466 53.735599518 0.4519812465
 2415.3198242 2.0000000000 11.851562500 -0.009357988 77.272438049 2.2707972527 58.356216431 91.031394958 0.3969416022 53.513198853 0.4511789083
 2415.4721680 2.0000000000 11.851562500 -0.006305218 76.707649231 2.2622718811 58.606323242 91.405761719 0.3687357903 53.790443420 0.4580016136
