# LAS format log file from PETREL
# Project units are specified as depth units
#==================================================================
~Version information
VERS.   2.0:
WRAP.   NO:
#==================================================================
~Well
STRT .m      119.98761749 :
STOP .m      3119.6767578 :
STEP .m     0.00000000 :
NULL .        -999.250000 :
COMP.           : COMPANY
WELL.  16/4-2   : WELL
FLD.            : FIELD
LOC.            : LOCATION
SRVC.           : SERVICE COMPANY
DATE.  2018-09-11 14:48:08   : Log Export Date {yyyy-MM-dd HH:mm:ss}
PROV.           : PROVINCE
UWI.   16/4-2   : UNIQUE WELL ID
API.            : API NUMBER
#==================================================================
~Curve
DEPT .m                   : DEPTH
Lithology_geolink ._      : Lithology_geolink
CALI .in                  : CALI
DRHO .g/cm3               : DRHO
CGR .gAPI                 : CGR
RHOB .g/cm3               : RHOB
GR .gAPI                  : GR
DTC .us/ft                : DTC
RDEP .ohm.m               : RDEP
SP .mV                    : SP
RMED .ohm.m               : RMED
~Parameter
#==================================================================
~Ascii
# ...
 811.23889160  -999.250000 17.359375000 -0.016084082  -999.250000 2.0852425098 54.875000000 148.38551331 0.8105150461 40.704944611 0.7044229507
 811.39129639  -999.250000 17.359375000 -0.011813461  -999.250000 2.0820405483 57.312500000 148.88400269 0.8026770353 40.204944611 0.7153657675
 811.54370117  -999.250000 17.359375000 -0.011454940  -999.250000 2.0767676830 57.750000000 149.20039368 0.8000320196 39.750000000 0.7182494402
 811.69610596  -999.250000 17.359375000 -0.011523665  -999.250000 2.0682375431 59.937500000 149.25447083 0.8052126169 39.817581177 0.7104935646
 811.84838867  -999.250000 17.359375000 -0.015173133  -999.250000 2.0592796803 54.593750000 149.25326538 0.8193675280 40.522327423 0.7012878656
 812.00079346  -999.250000 17.359375000 -0.013599493  -999.250000 2.0531849861 53.843750000 149.23042297 0.8352178335 40.727672577 0.6984372139
 812.15319824  -999.250000 17.359375000 -0.016786877  -999.250000 2.0530552864 54.687500000 149.16381836 0.8382843733 40.410694122 0.7080330849
 812.30560303  -999.250000 17.359375000 -0.013478070  -999.250000 2.0561361313 61.000000000 149.07498169 0.8288108110 39.455345154 0.7255065441
 812.45800781  -999.250000 17.359375000 -0.010168611  -999.250000 2.0587656498 63.375000000 149.00238037 0.8135471344 38.955345154 0.7516583204
 812.61041260  -999.250000 17.359375000 -0.004478037  -999.250000 2.0599999428 63.500000000 148.99105835 0.8098446131 38.477672577 0.7665444613
 812.76281738  -999.250000 17.359375000 -0.008750319  -999.250000 2.0599999428 56.718750000 149.03355408 0.8269650936 38.250000000 0.7485349178
 812.91522217  -999.250000 17.359375000 -0.010928154  -999.250000 2.0599343777 57.875000000 149.08135986 0.8547903299 38.272327423 0.7059795856
 813.06762695  -999.250000 17.359375000 -0.014391162  -999.250000 2.0585536957 57.375000000 149.23197937 0.8684645891 38.455329895 0.6802651882
 813.22003174  -999.250000 17.359375000 -0.021595784  -999.250000 2.0556435585 59.437500000 149.51147461 0.8628277779 37.977573395 0.6971215010
 813.37231445  -999.250000 17.359375000 -0.028982483  -999.250000 2.0526404381 57.125000000 149.79136658 0.8406779766 37.705547333 0.7411545515
 813.52471924  -999.250000 17.359375000 -0.026710667  -999.250000 2.0515944958 56.625000000 149.96943665 0.8224380016 37.294452667 0.7664223909
 813.67712402  -999.250000 17.359375000 -0.025881980  -999.250000 2.0535490513 56.093750000 149.97923279 0.8093222380 37.750000000 0.7703495026
 813.82952881  -999.250000 17.359375000 -0.026421119  -999.250000 2.0564994812 56.218750000 149.93103027 0.8003174067 37.794452667 0.7656904459
 813.98193359  -999.250000 17.359375000 -0.028000362  -999.250000 2.0583553314 54.031250000 149.87184143 0.8026434183 38.272228241 0.7348017693
 814.13433838  -999.250000 17.359375000 -0.020852800  -999.250000 2.0573458672 59.375000000 149.78529358 0.8237240314 38.522228241 0.6832603216
 814.28674316  -999.250000 17.359375000 -0.019183688  -999.250000 2.0542559624 62.375000000 149.67758179 0.8420249224 38.772228241 0.6323392391
 814.43914795  -999.250000 17.359375000 -0.019469000  -999.250000 2.0514249802 68.375000000 149.49992371 0.8432705402 39.111133575 0.6221935749
 814.59155273  -999.250000 17.359375000 -0.015785564  -999.250000 2.0499999523 61.781250000 148.87834167 0.8331776857 40.227771759 0.6681717634
 814.74383545  -999.250000 17.359375000 -0.014030875  -999.250000 2.0499999523 55.531250000 147.79344177 0.8221079111 40.022026062 0.7485760450
 814.89624023  -999.250000 17.359375000 -0.019042928  -999.250000 2.0501084328 48.968750000 146.72868347 0.8447452784 40.250000000 0.8028758764
 815.04864502  -999.250000 17.359375000 -0.018876966  -999.250000 2.0524709225 51.531250000 146.13047791 0.8816504478 40.294052124 0.8056997061
 815.20104980  -999.250000 17.359375000 -0.016582787  -999.250000 2.0580003262 51.562500000 146.18463135 0.9126217365 40.727966309 0.8005104065
 815.35345459  -999.250000 17.359375000 -0.018203318  -999.250000 2.0639922619 54.437500000 146.36445618 0.9368220568 40.500000000 0.7995400429
 815.50585938  -999.250000 17.359375000 -0.018868145  -999.250000 2.0676653385 52.406250000 146.85700989 0.9442759752 40.433620453 0.7976372242
 815.65826416  -999.250000 17.359375000 -0.013923360  -999.250000 2.0668458939 55.750000000 147.95661926 0.9330301285 39.750000000 0.7924283743
 815.81066895  -999.250000 17.406250000 -0.015213614  -999.250000 2.0637857914 53.750000000 149.33471680 0.9143159389 39.727874756 0.7885318995
 815.96307373  -999.250000 17.453125000 -0.016185433  -999.250000 2.0616300106 55.468750000 150.39604187 0.9084872007 39.477874756 0.7865903378
 816.11541748  -999.250000 17.515625000 -0.015735544  -999.250000 2.0623490810 55.812500000 150.37579346 0.9103044271 39.205947876 0.7839063406
 816.26776123  -999.250000 17.515625000 -0.020160813  -999.250000 2.0653526783 58.875000000 149.45573425 0.9132592678 38.728073120 0.7790377140
 816.42016602  -999.250000 17.515625000 -0.021808501  -999.250000 2.0685758591 58.031250000 148.54598999 0.9092587233 38.478073120 0.7800930738
 816.57257080  -999.250000 17.500000000 -0.020655245  -999.250000 2.0743532181 57.750000000 147.90942383 0.8940260410 38.250000000 0.7807036638
 816.72497559  -999.250000 17.515625000 -0.016678184  -999.250000 2.0835483074 55.843750000 147.60578918 0.8704086542 38.206146240 0.7753155231
 816.87738037  -999.250000 17.515625000 -0.017109521  -999.250000 2.0923724174 57.125000000 147.31292725 0.8271020651 37.728073120 0.7648383379
 817.02978516  -999.250000 17.500000000 -0.015552808  -999.250000 2.0953946114 56.187500000 147.18920898 0.7940015793 37.478073120 0.7435669899
 817.18218994  -999.250000 17.375000000 -0.020194348  -999.250000 2.0890517235 55.468750000 147.33372498 0.7785259485 37.293853760 0.7034412622
 817.33459473  -999.250000 17.359375000 -0.023023352  -999.250000 2.0800304413 54.625000000 147.55348206 0.8033565283 37.750000000 0.6305987835
 817.48693848  -999.250000 17.359375000 -0.026380656  -999.250000 2.0727584362 58.531250000 147.63896179 0.8251664639 37.815780640 0.5909736156
 817.63934326  -999.250000 17.359375000 -0.023538437  -999.250000 2.0699999332 63.093750000 147.40457153 0.8390401602 38.521926880 0.5985863209
 817.79174805  -999.250000 17.359375000 -0.023269281  -999.250000 2.0699803829 63.937500000 146.96804810 0.8339068890 38.750000000 0.7228518724
 817.94409180  -999.250000 17.375000000 -0.023955457  -999.250000 2.0694448948 60.000000000 146.53121948 0.8206154108 38.793651581 0.8422323465
 818.09649658  -999.250000 17.390625000 -0.020903237  -999.250000 2.0661020279 57.656250000 146.09426880 0.8527276516 39.293651581 0.8952928782
 818.24890137  -999.250000 17.390625000 -0.018604241  -999.250000 2.0600020885 54.406250000 145.65776062 0.9161971807 39.771827698 0.8607677221
 818.40130615  -999.250000 17.406250000 -0.023087136  -999.250000 2.0540728569 55.093750000 145.24166870 0.9623531103 40.021827698 0.8390009403
 818.55371094  -999.250000 17.421875000 -0.024764955  -999.250000 2.0517172813 53.843750000 145.25201416 0.9766931534 40.315479279 0.8228027821
 818.70611572  -999.250000 17.406250000 -0.023318250  -999.250000 2.0541465282 57.281250000 145.83981323 0.9655860662 41.021827698 0.8125032187
 818.85845947  -999.250000 17.437500000 -0.028638851  -999.250000 2.0571112633 60.406250000 146.50076294 0.9348641634 41.228275299 0.7876813412
 819.01086426  -999.250000 17.437500000 -0.033423364  -999.250000 2.0593338013 59.937500000 147.07150269 0.8933449984 40.934822083 0.7650816441
 819.16326904  -999.250000 17.453125000 -0.028594777  -999.250000 2.0599999428 59.562500000 147.47421265 0.8764566183 40.184822083 0.7565532923
 819.31567383  -999.250000 17.468750000 -0.023394603  -999.250000 2.0599806309 55.281250000 147.80052185 0.8696296215 39.521736145 0.7541673183
 819.46801758  -999.250000 17.484375000 -0.020170398  -999.250000 2.0595088005 57.687500000 148.08082581 0.8698744774 39.771724701 0.7540491819
 819.62042236  -999.250000 17.515625000 -0.015311345  -999.250000 2.0575556755 56.000000000 148.21916199 0.8706272840 39.978275299 0.7522112131
