# LAS format log file from PETREL
# Project units are specified as depth units
#==================================================================
~Version information
VERS.   2.0:
WRAP.   NO:
#==================================================================
~Well
STRT .m      119.98761749 :
STOP .m      3119.6767578 :
STEP .m     0.00000000 :
NULL .        -999.250000 :
COMP.           : COMPANY
WELL.  16/4-2   : WELL
FLD.            : FIELD
LOC.            : LOCATION
SRVC.           : SERVICE COMPANY
DATE.  2018-09-11 14:48:08   : Log Export Date {yyyy-MM-dd HH:mm:ss}
PROV.           : PROVINCE
UWI.   16/4-2   : UNIQUE WELL ID
API.            : API NUMBER
#==================================================================
~Curve
DEPT .m                   : DEPTH
Lithology_geolink ._      : Lithology_geolink
CALI .in                  : CALI
DRHO .g/cm3               : DRHO
CGR .gAPI                 : CGR
RHOB .g/cm3               : RHOB
GR .gAPI                  : GR
DTC .us/ft                : DTC
RDEP .ohm.m               : RDEP
SP .mV                    : SP
RMED .ohm.m               : RMED
~Parameter
#==================================================================
~Ascii
# ...
 1877.9846191  -999.250000 16.562500000 0.0163769163 93.656723022 2.0815873146 77.808364868 144.33610535 0.5821412802 18.013200760 0.6457562447
 1878.1369629  -999.250000 15.523437500 0.0175362788 94.690452576 2.0639648438 80.083679199 144.71759033 0.5591616631 18.746374130 0.6362129450
 1878.2894287  -999.250000 15.812500000 0.0242584124 96.921348572 2.0378649235 83.826583862 145.49493408 0.5363321304 20.113281250 0.6331707239
 1878.4417725  -999.250000 15.703125000 0.0312768817 96.620483398 2.0154087543 81.881637573 146.19262695 0.5320150852 19.230148315 0.6412942410
 1878.5942383  -999.250000 15.156250000 0.0284764543 96.477447510 2.0067687035 82.343826294 146.49829102 0.5275276899 18.213161469 0.6410983801
 1878.7465820  -999.250000 15.226562500 0.0139584541 96.786636353 2.0098648071 82.702926636 146.46726990 0.5373493433 20.029426575 0.6541610956
 1878.8990479  -999.250000 14.796875000 0.0122691998 95.341926575 2.0153818130 80.484344482 146.36520386 0.5553195477 20.763200760 0.6629320383
 1879.0513916  -999.250000 14.664062500 0.0138243139 95.025108337 2.0176939964 80.976516724 146.33746338 0.5676604509 19.663440704 0.6683871746
 1879.2038574  -999.250000 14.843749046 0.0157496668 96.452438354 2.0159158707 83.850234985 146.40592957 0.5743622780 19.813680649 0.6711983681
 1879.3562012  -999.250000 14.703125000 0.0133179426 97.264701843 2.0128481388 84.506851196 146.50358582 0.5775084496 19.829854965 0.6605614424
 1879.5086670  -999.250000 14.921875000 0.0131213078 94.660354614 2.0123863220 79.062789917 146.53302002 0.5662311316 20.864162445 0.6564595699
 1879.6610107  -999.250000 15.304686546 0.0203506798 92.889038086 2.0165567398 78.080718994 146.43832397 0.5636851788 20.529813766 0.6529614925
 1879.8133545  -999.250000 15.132812500 0.0208516084 92.289810181 2.0225329399 77.845031738 146.29518127 0.5611398220 19.346735001 0.6579320431
 1879.9658203  -999.250000 14.750000000 0.0139177144 91.795822144 2.0244693756 77.335617065 146.23248291 0.5556473732 20.846668243 0.6442282200
 1880.1181641  -999.250000 14.382811546 0.0220560506 93.522186279 2.0168669224 81.070327759 146.36053467 0.5570755005 20.780027390 0.6407933235
 1880.2705078  -999.250000 14.437500000 0.0275133811 96.448272705 2.0029525757 86.457214355 146.61541748 0.5613321066 19.780614853 0.6339298487
 1880.4228516  -999.250000 14.601562500 0.0162285380 96.775085449 1.9921292067 85.659164429 146.87902832 0.5551611185 19.513200760 0.6480659246
 1880.5753174  -999.250000 14.851562500 0.0163814798 95.080955505 1.9964779615 82.698760986 147.08215332 0.5552351475 19.146907806 0.6554600000
 1880.7276611  -999.250000 15.226562500 0.0240742899 95.395889282 2.0164484978 85.279251099 147.22244263 0.5498939753 20.477943420 0.6628187895
 1880.8800049  -999.250000 15.132812500 0.0137118101 94.493743896 2.0399801731 83.344787598 147.33415222 0.5426719189 19.549629211 0.6547311544
 1881.0324707  -999.250000 15.078125000 0.0154964030 94.050338745 2.0538253784 83.330856323 147.30873108 0.5445054770 18.830108643 0.6580239534
 1881.1848145  -999.250000 15.507812500 0.0112611353 94.020401001 2.0525720119 82.841171265 147.07221985 0.5493041277 19.495573044 0.6455348730
 1881.3372803  -999.250000 15.601562500 0.0079449415 92.390571594 2.0464706421 79.356811523 146.76762390 0.5482283831 19.396907806 0.6344679594
 1881.4896240  -999.250000 15.531250000 0.0055320263 94.783042908 2.0418968201 85.144454956 146.58547974 0.5594598055 19.629386902 0.6283985376
 1881.6420898  -999.250000 14.851562500 0.0009372234 94.051841736 2.0402145386 80.463348389 146.64625549 0.5658003092 19.763200760 0.6455980539
 1881.7944336  -999.250000 15.328125000 -0.002368867 92.793411255 2.0399999619 79.667236328 146.82946777 0.5612860918 19.946292877 0.6573351622
 1881.9468994  -999.250000 15.132812500 0.0041425824 92.647270203 2.0385439396 79.360809326 147.01878357 0.5597918034 19.097467422 0.6670509577
 1882.0992432  -999.250000 15.156250000 0.0042694807 92.591957092 2.0332560539 79.222030640 147.17843628 0.5631612539 19.495573044 0.6697176695
 1882.2517090  -999.250000 15.046875000 0.0032644272 93.199066162 2.0248854160 80.276168823 147.31396484 0.5597625971 19.763200760 0.6682450771
 1882.4040527  -999.250000 15.109375000 0.0037644506 92.328399658 2.0168998241 78.568588257 147.38230896 0.5616302490 19.397014618 0.6518784761
 1882.5565186  -999.250000 15.156250000 0.0032528639 94.368919373 2.0142531395 84.469406128 147.15490723 0.5634999275 18.713760376 0.6328730583
 1882.7088623  -999.250000 15.312500000 0.0019104481 94.372680664 2.0183329582 83.362075806 146.56263733 0.5521174669 18.879386902 0.6253954172
 1882.8612061  -999.250000 14.625000000 0.0008296371 92.973541260 2.0244328976 82.200103760 145.86138916 0.5392887592 19.927932739 0.6259255409
 1883.0135498  -999.250000 14.710937500 -0.002268672 92.269515991 2.0269932747 81.488754272 145.56820679 0.5363398790 18.800060272 0.6366363764
 1883.1658936  -999.250000 14.460937500 0.0021698773 92.511024475 2.0232799053 81.767120361 145.99995422 0.5263215303 17.714523315 0.6310081482
 1883.3183594  -999.250000 14.500000000 0.0076653957 90.895576477 2.0172672272 78.423645020 146.69502258 0.5217123032 19.159717560 0.6379675865
 1883.4707031  -999.250000 14.710937500 0.0104238093 91.178726196 2.0142905712 81.072952271 147.29772949 0.5288956165 18.665845871 0.6361712217
 1883.6231689  -999.250000 14.781250000 0.0082448116 92.555290222 2.0182409286 83.188278198 147.67730713 0.5318928957 17.897308350 0.6412730217
 1883.7755127  -999.250000 14.914063454 0.0112371445 91.216949463 2.0265095234 80.050506592 147.91590881 0.5323555470 18.311878204 0.6375073195
 1883.9279785  -999.250000 14.796875000 0.0071695447 90.735809326 2.0345737934 80.476654053 148.06747437 0.5288228989 17.598468781 0.6377568245
 1884.0803223  -999.250000 14.812500000 0.0070643718 91.767395020 2.0390493870 82.182098389 148.02561951 0.5264620781 18.909235001 0.6329798698
 1884.2326660  -999.250000 15.101563454 0.0027779937 92.249191284 2.0399999619 81.980911255 147.79432678 0.5266301632 18.782215118 0.6276450157
 1884.3851318  -999.250000 14.867187500 0.0019645691 92.232048035 2.0398612022 81.829711914 147.51574707 0.5280817747 17.050060272 0.6119098663
 1884.5374756  -999.250000 14.679687500 -0.000696361 92.461509705 2.0387604237 82.221496582 147.27848816 0.5334610939 17.609678268 0.6053724289
 1884.6899414  -999.250000 14.296874046 0.0006302595 92.150939941 2.0362200737 81.105148315 147.10151672 0.5413125753 19.476341248 0.6095347404
 1884.8422852  -999.250000 14.382811546 -0.002925456 91.602027893 2.0331513882 80.812500000 146.94393921 0.5444040298 18.733978271 0.6283135414
 1884.9947510  -999.250000 14.656249046 -0.003165841 89.325408936 2.0301201344 76.038162231 146.52444458 0.5400100946 18.263200760 0.6733555794
 1885.1470947  -999.250000 14.875000000 -0.001671374 89.745429993 2.0270514488 79.039962769 145.60009766 0.5417426825 18.994186401 0.7153272629
 1885.2995605  -999.250000 14.492187500 0.0064726775 89.720611572 2.0240199566 78.283401489 144.43743896 0.5528618097 19.446092606 0.7156959772
 1885.4519043  -999.250000 14.648437500 0.0121139288 89.413307190 2.0204660892 78.390808105 143.46369934 0.5560423136 20.610555649 0.6508866549
 1885.6043701  -999.250000 14.789062500 0.0150301792 89.772171021 2.0156221390 79.581604004 143.04129028 0.5610457659 20.098468781 0.6246904135
 1885.7565918  -999.250000 14.640625954 0.0235911980 90.485641479 2.0097754002 82.000061035 143.04486084 0.5651839972 19.580509186 0.6224367619
 1885.9089355  -999.250000 14.359375000 0.0323181525 89.576919556 2.0046463013 79.702011108 143.15733337 0.5567907095 20.791023254 0.6390546560
 1886.0614014  -999.250000 14.304687500 0.0263442695 88.970451355 2.0039618015 78.901351929 143.31021118 0.5449211597 20.715124130 0.6601616144
 1886.2137451  -999.250000 14.265625954 0.0206883661 90.109642029 2.0085232258 81.671005249 143.50984192 0.5519673824 20.330654144 0.6576563120
 1886.3662109  -999.250000 13.828125000 0.0209329203 90.161727905 2.0146245956 81.083160400 143.72357178 0.5572061539 19.349739075 0.6872452497
