# LAS format log file from PETREL
# Project units are specified as depth units
#==================================================================
~Version information
VERS.   2.0:
WRAP.   NO:
#==================================================================
~Well
STRT .m      119.98761749 :
STOP .m      3119.6767578 :
STEP .m     0.00000000 :
NULL .        -999.250000 :
COMP.           : COMPANY
WELL.  16/4-2   : WELL
FLD.            : FIELD
LOC.            : LOCATION
SRVC.           : SERVICE COMPANY
DATE.  2018-09-11 14:48:08   : Log Export Date {yyyy-MM-dd HH:mm:ss}
PROV.           : PROVINCE
UWI.   16/4-2   : UNIQUE WELL ID
API.            : API NUMBER
#==================================================================
~Curve
DEPT .m                   : DEPTH
Lithology_geolink ._      : Lithology_geolink
CALI .in                  : CALI
DRHO .g/cm3               : DRHO
CGR .gAPI                 : CGR
RHOB .g/cm3               : RHOB
GR .gAPI                  : GR
DTC .us/ft                : DTC
RDEP .ohm.m               : RDEP
SP .mV                    : SP
RMED .ohm.m               : RMED
~Parameter
#==================================================================
~Ascii
# ...
 2936.1962891 13.000000000 12.289062500 0.0013257265 90.515747070 2.5778820515 67.059951782 90.290451050 1.4911274910 77.465721130 2.0973572731
 2936.3488770 13.000000000 12.289062500 0.0011796355 88.345977783 2.5838890076 66.851547241 88.941986084 1.5169084072 77.674255371 2.0982632637
 2936.5012207 13.000000000 12.250000954 0.0007545352 88.188293457 2.5891723633 66.789566040 87.607635498 1.5280501842 78.185874939 2.1651287079
 2936.6535645 13.000000000 12.078124046 0.0015762448 88.891479492 2.5930581093 69.735610962 86.287551880 1.5687258244 78.215522766 2.2677149773
 2936.8059082 13.000000000 12.023437500 0.0016406178 89.258010864 2.5961239338 66.627975464 84.974128723 1.6039991379 78.328598022 2.3931651115
 2936.9582520 13.000000000 12.007812500 -0.000720441 88.313919067 2.5983047485 67.261489868 84.036849976 1.6137638092 78.448295593 2.4324150085
 2937.1108398 13.000000000 12.031250000 -0.000223756 88.731147766 2.5977070332 66.761398315 84.338554382 1.6297752857 77.518409729 2.6114401817
 2937.2631836 13.000000000 12.015625000 -0.002023757 89.379333496 2.5947418213 69.041336060 85.640167236 1.6621103287 76.703903198 2.6899027824
 2937.4155273 13.000000000 12.015625000 -0.003874838 91.793800354 2.5916759968 76.613159180 86.897651672 1.6779580116 76.917999268 2.5841832161
 2937.5678711 13.000000000 12.015625000 -0.002714932 94.025772095 2.5886418819 77.499252319 87.804527283 1.6990034580 77.048057556 2.2394876480
 2937.7204590 13.000000000 12.015625000 -0.000251114 94.653015137 2.5855712891 78.164749146 88.326454163 1.7319569588 77.274818420 2.1177439690
 2937.8728027 13.000000000 12.078124046 0.0003685951 94.098266602 2.5830864906 75.871032715 88.583648682 1.7715723515 76.506790161 2.1211676598
 2938.0251465 13.000000000 12.140625000 -0.001032054 92.892120361 2.5830898285 76.298492432 88.141510010 1.8111226559 76.649795532 2.1905126572
 2938.1774902 13.000000000 12.140625000 -0.000127971 91.736740112 2.5870823860 67.427932739 86.595397949 1.8563303947 78.457908630 2.4592304230
 2938.3300781 13.000000000 12.140625000 -0.000113010 89.392333984 2.5931577682 65.015441895 84.528396606 1.9000265598 78.530029297 2.9545755386
 2938.4824219 13.000000000 12.140625000 -0.000662804 87.482185364 2.5986406803 61.666297913 83.096618652 1.9519834518 77.185874939 3.3549070358
 2938.6347656 13.000000000 12.140625000 -0.000130832 85.491157532 2.6026582718 59.219795227 83.240577698 1.9913797379 77.882987976 3.6426630020
 2938.7871094 13.000000000 12.140625000 0.0067427158 88.867568970 2.6057581902 72.732131958 84.505554199 2.0157003403 78.888198853 3.4175591469
 2938.9394531 13.000000000 12.140625000 0.0060189366 94.740547180 2.6076977253 69.394897461 85.681243896 2.0041089058 79.220527649 2.8810639381
 2939.0920410 13.000000000 12.140625000 0.0019174814 95.126754761 2.6057195663 75.974380493 86.533271790 1.9898753166 79.572494507 2.4453134537
 2939.2443848 13.000000000 12.140625000 -0.001640499 99.536735535 2.6002178192 82.528701782 87.089134216 1.9300503731 78.929466248 2.2740836143
 2939.3967285 13.000000000 12.140625000 -0.002234578 102.78578186 2.5943567753 85.226837158 87.508415222 1.8669965267 79.197395325 2.3333044052
 2939.5490723 13.000000000 12.140625000 -0.007952929 98.591804504 2.5895028114 74.064224243 87.569458008 1.8274152279 80.608154297 2.5561122894
 2939.7016602 13.000000000 12.140625000 -0.008542895 89.731300354 2.5859711170 73.126373291 87.173179626 1.8408193588 80.286437988 2.5575604439
 2939.8540039 13.000000000 12.140625000 -0.008309960 88.928955078 2.5830755234 72.108718872 86.544029236 1.8881027699 79.560874939 2.5304522514
 2940.0063477 13.000000000 12.140625000 -0.006411552 85.702964783 2.5808563232 62.873199463 85.610839844 2.0728411674 80.637802124 2.6451439857
 2940.1586914 13.000000000 12.140625000 -0.005912006 80.878379822 2.5799999237 61.907348633 84.096733093 2.1779193878 81.788436890 3.0091342926
 2940.3112793 13.000000000 12.140625000 -0.005300760 79.580604553 2.5799999237 59.371124268 82.228446960 2.2475876808 80.774818420 3.3199639320
 2940.4636230 13.000000000 12.140625000 -0.003011882 78.099296570 2.5804450512 58.096649170 80.754913330 2.3330063820 80.960311890 3.4939212799
 2940.6159668 13.000000000 12.140625000 -0.000370145 78.019309998 2.5823240280 60.249618530 80.527786255 2.3930792809 81.983398438 3.5367341042
 2940.7680664 13.000000000 12.140625000 0.0013406277 81.633865356 2.5853531361 72.294403076 81.282821655 2.3465404510 82.516403198 3.4682288170
 2940.9204102 13.000000000 12.218750000 0.0035399199 86.744682312 2.5865166187 75.076828003 82.140037537 2.1946487427 82.901817322 3.0601139069
 2941.0727539 13.000000000 12.289062500 0.0080664158 88.084220886 2.5806617737 76.187896729 83.304702759 2.1642379761 82.465919495 2.7373719215
 2941.2253418 13.000000000 12.328125000 0.0138379335 89.021148682 2.5674357414 77.968734741 84.800254822 1.9119586945 83.432670593 2.6167407036
 2941.3776855 13.000000000 12.429687500 0.0200890489 89.509063721 2.5543422699 77.357681274 86.374427795 1.6126720905 85.707000732 2.5343208313
 2941.5300293 13.000000000 12.390625000 0.0351061448 90.304855347 2.5508801937 82.919265747 87.902671814 1.5915374756 86.023612976 2.4505400658
 2941.6823730 13.000000000 12.109375000 0.0385000184 91.775062561 2.5619072914 80.905120850 89.360305786 1.5921945572 85.627784729 2.0474147797
 2941.8349609 13.000000000 12.000000000 0.0427627191 90.477218628 2.5796058178 79.506958008 90.728317261 1.5882632732 86.400817871 1.8483779430
 2941.9873047 13.000000000 12.000000000 0.0273966007 89.638366699 2.5919270515 79.367446899 91.594871521 1.5941767693 86.487197876 1.8347651958
 2942.1396484 13.000000000 12.000000000 0.0139578581 89.957107544 2.5916082859 81.483917236 91.273452759 1.5500390530 87.830505371 2.1234865189
 2942.2919922 13.000000000 12.000000000 0.0072937608 89.906097412 2.5824742317 78.504653931 90.133529663 1.5482378006 87.864959717 2.6863603592
 2942.4445801 13.000000000 12.000000000 0.0073214769 87.746826172 2.5744574070 75.634658813 88.971588135 1.6963706017 86.245773315 2.7760128975
 2942.5969238 13.000000000 12.000000000 0.0048336983 85.416793823 2.5704622269 72.219100952 87.739341736 1.8635845184 86.582000732 2.7778739929
 2942.7492676 13.000000000 12.000000000 0.0048125386 83.745674133 2.5699999332 72.065872192 86.440330505 1.9816150665 88.033233643 2.7800455093
 2942.9016113 13.000000000 12.000000000 0.0027751327 81.269950867 2.5707814693 63.519050598 85.177429199 2.0998101234 88.509994507 2.9799203873
 2943.0541992 13.000000000 12.000000000 0.0023385882 77.070556641 2.5746855736 63.039222717 84.096046448 2.2795248032 87.603340149 3.1404252052
 2943.2065430 13.000000000 12.000000000 0.0018188357 76.544075012 2.5823915005 61.924163818 83.234367371 2.3665952682 87.138198853 3.3180651665
 2943.3588867 13.000000000 12.000000000 0.0032948852 76.290794373 2.5912537575 62.474655151 82.535812378 2.3378701210 87.612197876 3.4011297226
 2943.5112305 13.000000000 12.000000000 0.0017713904 77.088470459 2.5986347198 63.738494873 82.292388916 2.3693771362 88.246368408 3.3042702675
 2943.6635742 13.000000000 12.000000000 0.0040236115 83.311676025 2.6032514572 82.409286499 82.868522644 2.3754596710 87.587715149 3.1221718788
 2943.8161621 13.000000000 12.000000000 0.0040037036 92.624549866 2.6063191891 82.202224731 83.924270630 2.3563385010 86.698295593 2.9575886726
 2943.9685059 13.000000000 12.000000000 0.0041540861 93.028846741 2.6084017754 82.952636719 84.968574524 2.2302131653 86.767402649 2.8954439163
 2944.1208496 13.000000000 12.000000000 0.0043048263 93.779716492 2.6075806618 83.510742188 85.975578308 2.1743574142 87.151817322 2.8735008240
 2944.2731934 13.000000000 12.000000000 0.0068187714 94.490974426 2.6045467854 84.020660400 86.953750610 2.1232700348 87.046852112 2.9159641266
 2944.4257813 13.000000000 12.000000000 0.0045180917 95.582038879 2.6018183231 86.740356445 87.673194885 2.1086349487 86.990966797 2.7336316109
 2944.5781250 13.000000000 12.015625000 0.0017351508 95.921897888 2.6003301144 83.279495239 87.472648621 2.1114668846 85.806396484 2.6005535126
