# LAS format log file from PETREL
# Project units are specified as depth units
#==================================================================
~Version information
VERS.   2.0:
WRAP.   NO:
#==================================================================
~Well
STRT .m      119.98761749 :
STOP .m      3119.6767578 :
STEP .m     0.00000000 :
NULL .        -999.250000 :
COMP.           : COMPANY
WELL.  16/4-2   : WELL
FLD.            : FIELD
LOC.            : LOCATION
SRVC.           : SERVICE COMPANY
DATE.  2018-09-11 14:48:08   : Log Export Date {yyyy-MM-dd HH:mm:ss}
PROV.           : PROVINCE
UWI.   16/4-2   : UNIQUE WELL ID
API.            : API NUMBER
#==================================================================
~Curve
DEPT .m                   : DEPTH
Lithology_geolink ._      : Lithology_geolink
CALI .in                  : CALI
DRHO .g/cm3               : DRHO
CGR .gAPI                 : CGR
RHOB .g/cm3               : RHOB
GR .gAPI                  : GR
DTC .us/ft                : DTC
RDEP .ohm.m               : RDEP
SP .mV                    : SP
RMED .ohm.m               : RMED
~Parameter
#==================================================================
~Ascii
# ...
 461.34628296  -999.250000  -999.250000  -999.250000  -999.250000 2.0000000000 47.756126404 164.40130615 1.5518839359  -999.250000  -999.250000
 461.49862671  -999.250000  -999.250000  -999.250000  -999.250000 2.0000000000 48.237426758 164.40130615 1.5368688107  -999.250000  -999.250000
 461.65103149  -999.250000  -999.250000  -999.250000  -999.250000 2.0000000000 49.623260498 164.40130615 1.5218505859  -999.250000  -999.250000
 461.80343628  -999.250000  -999.250000  -999.250000  -999.250000 2.0000000000 53.629722595 164.40130615 1.5068325996  -999.250000  -999.250000
 461.95584106  -999.250000  -999.250000  -999.250000  -999.250000 2.0000000000 54.512390137 164.40130615 1.4925715923  -999.250000  -999.250000
 462.10824585  -999.250000  -999.250000  -999.250000  -999.250000 2.0000000000 50.966766357 164.40130615 1.4794256687  -999.250000  -999.250000
 462.26058960  -999.250000  -999.250000  -999.250000  -999.250000 2.0000000000 50.444824219 164.40130615 1.4761829376  -999.250000  -999.250000
 462.41299438  -999.250000  -999.250000  -999.250000  -999.250000 2.0000000000 50.925964355 164.40130615 1.4927203655  -999.250000  -999.250000
 462.56539917  -999.250000  -999.250000  -999.250000  -999.250000 2.0000000000 51.606636047 164.40130615 1.5092608929  -999.250000  -999.250000
 462.71780396  -999.250000  -999.250000  -999.250000  -999.250000 2.0000000000 52.522483826 164.40130615 1.5349905491  -999.250000  -999.250000
 462.87020874  -999.250000  -999.250000  -999.250000  -999.250000 2.0000000000 52.530654907 164.40130615 1.5623388290  -999.250000  -999.250000
 463.02255249  -999.250000  -999.250000  -999.250000  -999.250000 2.0000000000 51.642684937 164.40130615 1.5896871090  -999.250000  -999.250000
 463.17495728  -999.250000  -999.250000  -999.250000  -999.250000 2.0000000000 50.394012451 164.40130615 1.6170356274  -999.250000  -999.250000
 463.32736206  -999.250000  -999.250000  -999.250000  -999.250000 2.0000000000 49.286888123 164.40130615 1.6443839073  -999.250000  -999.250000
 463.47976685  -999.250000  -999.250000  -999.250000  -999.250000 2.0000000000 49.203262329 164.40130615 1.6717267036  -999.250000  -999.250000
 463.63211060  -999.250000  -999.250000  -999.250000  -999.250000 2.0000000000 49.456237793 164.40130615 1.6990752220  -999.250000  -999.250000
 463.78451538  -999.250000  -999.250000  -999.250000  -999.250000 2.0000000000 49.455741882 164.40130615 1.7264235020  -999.250000  -999.250000
 463.93692017  -999.250000  -999.250000  -999.250000  -999.250000 2.0000000000 48.848007202 164.40130615 1.7537717819  -999.250000  -999.250000
 464.08932495  -999.250000  -999.250000  -999.250000  -999.250000 2.0000000000 48.021972656 164.40130615 1.7811203003  -999.250000  -999.250000
 464.24172974  -999.250000  -999.250000  -999.250000  -999.250000 2.0000000000 42.480819702 164.40130615 1.7742474079  -999.250000  -999.250000
 464.39410400  -999.250000  -999.250000  -999.250000  -999.250000 2.0000000000 41.277915955 164.40130615 1.7516629696  -999.250000  -999.250000
 464.54647827  -999.250000  -999.250000  -999.250000  -999.250000 2.0000000000 42.718780518 164.40130615 1.6934924126  -999.250000  -999.250000
 464.69888306  -999.250000  -999.250000  -999.250000  -999.250000 2.0000000000 44.637115479 164.40130615 1.6353216171  -999.250000  -999.250000
 464.85128784  -999.250000  -999.250000  -999.250000  -999.250000 2.0000000000 45.869125366 164.40130615 1.5771510601  -999.250000  -999.250000
 465.00366211  -999.250000  -999.250000  -999.250000  -999.250000 2.0000000000 46.549652100 164.40130615 1.5258071423  -999.250000  -999.250000
 465.15606689  -999.250000 17.671875000 -1.009215355  -999.250000 2.0000000000 47.401718140 164.40130615 1.5258154869 62.102622986 3.2916936874
 465.30844116  -999.250000 17.734375000 -0.998359680  -999.250000 2.0000000000 48.364013672 164.40130615 1.5462508202 62.448738098 3.0943531990
 465.46084595  -999.250000 17.718750000 -0.927838206  -999.250000 2.0000000000 51.444190979 164.40130615 1.5905740261 62.301261902 2.7947292328
 465.61325073  -999.250000 17.703125000 -0.917915463  -999.250000 2.0000000000 61.343750000 164.40130615 1.6348969936 62.653781891 2.6335811615
 465.76562500  -999.250000 17.687500000 -0.923334002  -999.250000 2.0000000000 58.437500000 164.40130615 1.6690742970 63.249996185 2.5246291161
 465.91802979  -999.250000 17.687500000 -0.920545459  -999.250000 2.0000000000 55.906250000 164.40130615 1.6471645832 63.198783875 2.5710148811
 466.07040405  -999.250000 17.718750000 -0.929692507  -999.250000 2.0000000000 54.968750000 164.40130615 1.6246562004 63.153514862 2.7313580513
 466.22280884  -999.250000 17.781250000 -0.926626682  -999.250000 2.0000000000 56.062500000 164.40130615 1.5954360962 63.801212311 2.9799709320
 466.37521362  -999.250000 17.765625000 -0.925525784  -999.250000 2.0000000000 56.875000000 164.40130615 1.5662217140 64.051208496 3.0618338585
 466.52758789  -999.250000 17.718750000 -0.915926337  -999.250000 2.0000000000 58.343750000 164.40130615 1.5370013714 64.403480530 2.9417557716
 466.67999268  -999.250000 17.703125000 -0.914282918  -999.250000 2.0000000000 60.000000000 164.40130615 1.5077810287 65.000000000 2.6279206276
 466.83239746  -999.250000 17.687500000 -0.917261600  -999.250000 2.0000000000 60.812500000 164.40130615 1.4785606861 65.000000000 2.3568315506
 466.98477173  -999.250000 17.687500000 -0.955047011  -999.250000 2.0000000000 60.187500000 164.40130615 1.4545390606 65.051109314 2.1830172539
 467.13714600  -999.250000 17.703125000 -0.955673337  -999.250000 2.0000000000 59.343750000 164.40130615 1.4438891411 65.454284668 1.9605174065
 467.28955078  -999.250000 17.703125000 -1.001064062  -999.250000 2.0000000000 60.687500000 164.40130615 1.4332416058 66.198890686 1.7488455772
 467.44195557  -999.250000 17.703125000 -1.017366886  -999.250000 2.0000000000 59.843750000 164.40130615 1.4352786541 66.051109314 1.6471467018
 467.59436035  -999.250000 17.718750000 -1.015181780  -999.250000 2.0000000000 59.156250000 164.40130615 1.4405963421 66.250000000 1.6855189800
 467.74673462  -999.250000 17.703125000 -0.988560438  -999.250000 2.0000000000 58.843750000 164.40130615 1.4402179718 66.198890686 1.8587441444
 467.89910889  -999.250000 17.671875000 -1.009520054  -999.250000 2.0000000000 63.687500000 164.40130615 1.4272074699 66.102142334 2.0856127739
 468.05151367  -999.250000 17.687500000 -0.969444871  -999.250000 2.0000000000 70.937500000 164.40130615 1.4141967297 66.500000000 2.1859202385
 468.20391846  -999.250000 17.718750000 -0.957937479  -999.250000 2.0000000000 75.062500000 164.40130615 1.4011886120 66.397773743 2.1291632652
 468.35632324  -999.250000 17.781250000 -0.957499027  -999.250000 2.0000000000 75.000000000 164.40130615 1.3881781101 66.051109314 2.0851778984
 468.50866699  -999.250000 17.703125000 -0.967427731  -999.250000 2.0000000000 68.500000000 164.40130615 1.3795895576 66.147979736 2.0036649704
 468.66107178  -999.250000 17.671875000 -0.942059755  -999.250000 2.0000000000 65.375000000 164.40130615 1.3795998096 65.698989868 1.8844380379
 468.81347656  -999.250000 17.703125000 -0.943593740  -999.250000 2.0000000000 64.687500000 164.40130615 1.3844060898 65.551010132 1.7569115162
 468.96588135  -999.250000 17.718750000 -0.936462402  -999.250000 2.0000000000 66.937500000 164.40130615 1.4022104740 65.596939087 1.6346135139
 469.11828613  -999.250000 17.671875000 -0.919458270  -999.250000 2.0000000000 65.750000000 164.40130615 1.4200148582 64.948936462 1.6538641453
 469.27062988  -999.250000 17.671875000 -0.890462279  -999.250000 2.0000000000 64.687500000 164.40130615 1.4430732727 64.750000000 1.8792202473
 469.42303467  -999.250000 17.671875000 -0.873486876  -999.250000 2.0000000000 63.781250000 164.40130615 1.4749710560 64.597114563 1.9914994240
 469.57543945  -999.250000 17.671875000 -0.848035574  -999.250000 2.0000000000 68.125000000 164.40130615 1.5068690777 64.050964355 2.0974507332
 469.72784424  -999.250000 17.625000000 -0.831029296  -999.250000 2.0000000000 68.687500000 164.40130615 1.5387668610 64.199035645 2.2765870094
