# LAS format log file from PETREL
# Project units are specified as depth units
#==================================================================
~Version information
VERS.   2.0:
WRAP.   NO:
#==================================================================
~Well
STRT .m      119.98761749 :
STOP .m      3119.6767578 :
STEP .m     0.00000000 :
NULL .        -999.250000 :
COMP.           : COMPANY
WELL.  16/4-2   : WELL
FLD.            : FIELD
LOC.            : LOCATION
SRVC.           : SERVICE COMPANY
DATE.  2018-09-11 14:48:08   : Log Export Date {yyyy-MM-dd HH:mm:ss}
PROV.           : PROVINCE
UWI.   16/4-2   : UNIQUE WELL ID
API.            : API NUMBER
#==================================================================
~Curve
DEPT .m                   : DEPTH
Lithology_geolink ._      : Lithology_geolink
CALI .in                  : CALI
DRHO .g/cm3               : DRHO
CGR .gAPI                 : CGR
RHOB .g/cm3               : RHOB
GR .gAPI                  : GR
DTC .us/ft                : DTC
RDEP .ohm.m               : RDEP
SP .mV                    : SP
RMED .ohm.m               : RMED
~Parameter
#==================================================================
~Ascii
# ...
 1519.5581055  -999.250000 17.890625000 0.0107126236  -999.250000 2.0825324059 85.500000000 139.82888794 1.0218338966 57.500000000 1.3398051262
 1519.7104492  -999.250000 17.875000000 0.0134161711  -999.250000 2.0842261314 86.312500000 140.11376953 1.0214610100 57.500000000 1.3070902824
 1519.8627930  -999.250000 17.531250000 0.0131276548  -999.250000 2.0872428417 91.312500000 140.40211487 1.0112445354 57.286857605 1.2723672390
 1520.0151367  -999.250000 17.437500000 0.0113570690  -999.250000 2.0875558853 88.187500000 140.88195801 0.9960706234 57.462970734 1.2543780804
 1520.1676025  -999.250000 17.656250000 0.0113913715  -999.250000 2.0831844807 86.875000000 141.68623352 1.0135190487 57.926280975 1.2425706387
 1520.3199463  -999.250000 17.937500000 0.0086142430  -999.250000 2.0772340298 88.687500000 142.59826660 1.0349547863 58.213142395 1.2385895252
 1520.4724121  -999.250000 17.765625000 0.0039067864  -999.250000 2.0711290836 86.375000000 143.39358521 1.0635931492 58.250000000 1.2511882782
 1520.6247559  -999.250000 17.890625000 0.0000727773  -999.250000 2.0650329590 87.750000000 143.89901733 1.1097042561 58.463142395 1.2801921368
 1520.7772217  -999.250000 17.781250000 -0.000700772  -999.250000 2.0589292049 81.500000000 144.22164917 1.1527652740 58.926342010 1.3363578320
 1520.9295654  -999.250000 17.671875000 -0.005251646  -999.250000 2.0540544987 80.812500000 144.28497314 1.1959166527 59.852565765 1.4562044144
 1521.0820313  -999.250000 17.734375000 -0.006807029  -999.250000 2.0541777611 73.750000000 143.43615723 1.2349839211 59.786830902 1.5576248169
 1521.2343750  -999.250000 17.781250000 -0.006015718  -999.250000 2.0593669415 76.562500000 141.66439819 1.2777881622 59.536857605 1.6447210312
 1521.3868408  -999.250000 17.812500000 -0.002708912  -999.250000 2.0654709339 72.875000000 139.72460938 1.3299937248 59.073657990 1.6841289997
 1521.5391846  -999.250000 17.718750000 -0.001260579  -999.250000 2.0682284832 73.375000000 137.90422058 1.3567535877 59.426280975 1.6402349472
 1521.6916504  -999.250000 17.812500000 -0.005057216  -999.250000 2.0661551952 69.187500000 136.25651550 1.3635628223 59.713169098 1.5829694271
 1521.8439941  -999.250000 17.812500000 -0.003474653  -999.250000 2.0631570816 69.250000000 134.64633179 1.3501572609 60.176280975 1.5311844349
 1521.9963379  -999.250000 17.843750000 -0.007571161  -999.250000 2.0616230965 70.500000000 133.54740906 1.3204860687 59.611087799 1.5022835732
 1522.1488037  -999.250000 17.843750000 -0.010414182  -999.250000 2.0631098747 74.500000000 133.42115784 1.2623751163 59.073719025 1.4849720001
 1522.3011475  -999.250000 17.812500000 -0.013094902  -999.250000 2.0660238266 76.125000000 133.73880005 1.2260000706 58.360576630 1.4805035591
 1522.4534912  -999.250000 17.812500000 -0.009638548  -999.250000 2.0680642128 82.062500000 134.13809204 1.2057368755 58.462970734 1.4664633274
 1522.6058350  -999.250000 17.812500000 -0.014443100  -999.250000 2.0675053596 82.375000000 134.60578918 1.1962492466 58.287059784 1.4503512383
 1522.7583008  -999.250000 17.812500000 -0.014336705  -999.250000 2.0648577213 82.187500000 135.12736511 1.1904087067 57.611087799 1.4315536022
 1522.9106445  -999.250000 17.750000000 -0.014534892  -999.250000 2.0625102520 81.437500000 135.66906738 1.1808135509 57.287059784 1.4128677845
 1523.0629883  -999.250000 17.671875000 -0.016500473  -999.250000 2.0648651123 79.125000000 136.28608704 1.1800308228 56.824459076 1.4154541492
 1523.2154541  -999.250000 17.671875000 -0.016643407  -999.250000 2.0729024410 80.875000000 136.99504089 1.1653316021 56.750000000 1.4058945179
 1523.3677979  -999.250000 17.671875000 -0.010953546  -999.250000 2.0820825100 76.625000000 137.72077942 1.1453375816 56.750000000 1.3917944431
 1523.5202637  -999.250000 17.687500000 -0.005264223  -999.250000 2.0883553028 77.062500000 137.87322998 1.1370511055 57.175880432 1.3875129223
 1523.6726074  -999.250000 18.046875000 -0.002797425  -999.250000 2.0898878574 77.875000000 137.07681274 1.1275787354 57.675540924 1.3947582245
 1523.8250732  -999.250000 17.734375000 -0.000033975  -999.250000 2.0899999142 76.437500000 135.99618530 1.1076498032 57.962940216 1.3850271702
 1523.9774170  -999.250000 17.796875000 0.0004044175  -999.250000 2.0913012028 74.875000000 135.38116455 1.0746216774 57.574459076 1.3804349899
 1524.1298828  -999.250000 17.812500000 -0.000888526  -999.250000 2.0954232216 71.875000000 135.82896423 1.0216336250 57.712940216 1.3706459999
 1524.2822266  -999.250000 17.703125000 -0.001329422  -999.250000 2.1012611389 74.187500000 136.90867615 1.0070304871 57.962768555 1.3112068176
 1524.4346924  -999.250000 17.718750000 -0.001780748  -999.250000 2.1056537628 80.250000000 138.08787537 1.0142803192 59.064704895 1.2771711349
 1524.5870361  -999.250000 17.656250000 0.0017113090  -999.250000 2.1036348343 82.500000000 139.28070068 1.0204522610 59.462940216 1.2532162666
 1524.7395020  -999.250000 17.359375000 0.0057287510  -999.250000 2.0955915451 84.187500000 140.48678589 1.0261316299 59.074058533 1.2163212299
 1524.8918457  -999.250000 17.796875000 0.0086489022  -999.250000 2.0864975452 81.000000000 141.67416382 1.0176351070 58.787059784 1.2414307594
 1525.0443115  -999.250000 17.812500000 0.0063252449  -999.250000 2.0785315037 80.062500000 142.41073608 1.0069522858 58.324058533 1.3616805077
 1525.1965332  -999.250000 17.562500000 0.0026962161  -999.250000 2.0721428394 79.562500000 142.49729919 1.0253212452 58.675479889 1.4300405979
 1525.3488770  -999.250000 17.671875000 -0.003603160  -999.250000 2.0660436153 77.937500000 142.45719910 1.0719854832 58.324520111 1.4300208092
 1525.5013428  -999.250000 17.671875000 -0.006909668  -999.250000 2.0689632893 76.312500000 142.14469910 1.1140499115 58.037059784 1.4414668083
 1525.6536865  -999.250000 17.671875000 -0.008713007  -999.250000 2.0885062218 73.000000000 141.33235168 1.1430120468 57.361179352 1.4585590363
 1525.8061523  -999.250000 17.671875000 -0.012057066  -999.250000 2.1150665283 72.937500000 140.30918884 1.1584711075 57.037029266 1.4919307232
 1525.9584961  -999.250000 17.671875000 -0.009825527  -999.250000 2.1394562721 76.500000000 139.35612488 1.1643474102 56.574119568 1.5571768284
 1526.1109619  -999.250000 17.671875000 -0.005115330  -999.250000 2.1556835175 78.875000000 138.65287781 1.1502501965 55.648117065 1.5513739586
 1526.2633057  -999.250000 17.656250000 -0.006158352  -999.250000 2.1657938957 77.750000000 138.13587952 1.1012103558 55.925880432 1.4660658836
 1526.4156494  -999.250000 17.609375000 -0.010911523  -999.250000 2.1743195057 76.312500000 137.69081116 1.0763061047 56.212768555 1.4099042416
 1526.5681152  -999.250000 17.671875000 -0.005334139  -999.250000 2.1792314053 76.625000000 137.46563721 1.0579624176 56.462940216 1.3727319241
 1526.7204590  -999.250000 17.671875000 -0.007600486  -999.250000 2.1800000668 77.562500000 137.49589539 1.0284240246 56.500000000 1.3471066952
 1526.8729248  -999.250000 17.593750000 -0.001356244  -999.250000 2.1800000668 78.000000000 137.57446289 1.0107867718 56.074119568 1.3055138588
 1527.0252686  -999.250000 17.531250000 0.0055345297  -999.250000 2.1750435829 80.000000000 137.69311523 0.9945933819 56.212768555 1.2899560928
 1527.1777344  -999.250000 17.531250000 0.0099288225  -999.250000 2.1621165276 82.500000000 137.87654114 0.9854855537 56.675880432 1.2667086124
 1527.3300781  -999.250000 17.921875000 0.0097466102  -999.250000 2.1469686031 83.250000000 138.07717896 0.9819492102 57.601081848 1.2468645573
 1527.4825439  -999.250000 17.437500000 0.0141183436  -999.250000 2.1289846897 78.625000000 138.38862610 0.9928244352 58.388820648 1.2693824768
 1527.6348877  -999.250000 17.718750000 0.0060459375  -999.250000 2.1051876545 79.937500000 138.92945862 1.0000233650 58.712940216 1.3175914288
 1527.7873535  -999.250000 18.625000000 0.0035223961  -999.250000 2.0782334805 77.562500000 139.59757996 1.0038545132 58.750000000 1.3401196003
 1527.9396973  -999.250000 17.703125000 0.0057190657  -999.250000 2.0578250885 81.437500000 140.19573975 1.0061414242 59.175880432 1.3957428932
