# LAS format log file from PETREL
# Project units are specified as depth units
#==================================================================
~Version information
VERS.   2.0:
WRAP.   NO:
#==================================================================
~Well
STRT .m      119.98761749 :
STOP .m      3119.6767578 :
STEP .m     0.00000000 :
NULL .        -999.250000 :
COMP.           : COMPANY
WELL.  16/4-2   : WELL
FLD.            : FIELD
LOC.            : LOCATION
SRVC.           : SERVICE COMPANY
DATE.  2018-09-11 14:48:08   : Log Export Date {yyyy-MM-dd HH:mm:ss}
PROV.           : PROVINCE
UWI.   16/4-2   : UNIQUE WELL ID
API.            : API NUMBER
#==================================================================
~Curve
DEPT .m                   : DEPTH
Lithology_geolink ._      : Lithology_geolink
CALI .in                  : CALI
DRHO .g/cm3               : DRHO
CGR .gAPI                 : CGR
RHOB .g/cm3               : RHOB
GR .gAPI                  : GR
DTC .us/ft                : DTC
RDEP .ohm.m               : RDEP
SP .mV                    : SP
RMED .ohm.m               : RMED
~Parameter
#==================================================================
~Ascii
# ...
 1169.6654053  -999.250000 18.796875000 -0.012171388  -999.250000 1.9511175156 78.187500000 142.75453186 1.3642098904 46.000000000 1.2829234600
 1169.8178711  -999.250000 17.984375000 -0.012352377  -999.250000 1.9555901289 78.687500000 141.55972290 1.4313263893 46.000000000 1.2890522480
 1169.9702148  -999.250000 17.171875000 -0.018620815  -999.250000 1.9586932659 77.750000000 140.73297119 1.4982707500 46.000000000 1.2520570755
 1170.1226807  -999.250000 17.843750000 -0.022728052  -999.250000 1.9580612183 78.875000000 140.88906860 1.4995923042 46.485187531 1.2271578312
 1170.2750244  -999.250000 18.062500000 -0.020325352  -999.250000 1.9549272060 79.562500000 141.72958374 1.5458574295 46.742588043 1.2480146885
 1170.4273682  -999.250000 18.234375000 -0.012201251  -999.250000 1.9515342712 81.812500000 142.63612366 1.4388532639 46.507606506 1.3436052799
 1170.5798340  -999.250000 18.796875000 -0.010022968  -999.250000 1.9477616549 82.062500000 143.66113281 1.1441388130 45.529647827 1.4158027172
 1170.7321777  -999.250000 18.171875000 -0.003476173  -999.250000 1.9435894489 83.937500000 144.81758118 1.1522419453 45.500000000 1.3961026669
 1170.8846436  -999.250000 17.640625000 -0.005143762  -999.250000 1.9393892288 82.437500000 145.98278809 1.2298729420 45.500000000 1.3149170876
 1171.0369873  -999.250000 18.156250000 -0.012184440  -999.250000 1.9393793344 80.937500000 145.99111938 1.3726046085 45.500000000 1.1851582527
 1171.1893311  -999.250000 19.328125000 -0.017453946  -999.250000 1.9456332922 80.125000000 144.25451660 1.4396655560 44.772819519 1.1032063961
 1171.3417969  -999.250000 19.921873093 -0.014133811  -999.250000 1.9532693624 79.562500000 142.18078613 1.3865842819 44.264823914 1.1123290062
 1171.4941406  -999.250000 18.375000000 -0.015479499  -999.250000 1.9530556202 82.125000000 142.22491455 1.1743283272 44.007606506 1.2120270729
 1171.6466064  -999.250000 17.718750000 -0.009607583  -999.250000 1.9370783567 83.625000000 146.62210083 1.1308255196 44.242588043 1.2579627037
 1171.7989502  -999.250000 17.734375000 0.0005533993  -999.250000 1.9143160582 84.187500000 153.19311523 1.2056221962 44.250000000 1.2646365166
 1171.9512939  -999.250000 17.812500000 0.0021137297  -999.250000 1.8976293802 87.437500000 158.23577881 1.3413255215 44.007610321 1.2673192024
 1172.1037598  -999.250000 17.609375000 -0.002493531  -999.250000 1.9003174305 89.437500000 157.39639282 1.4556677341 44.242393494 1.2696802616
 1172.2561035  -999.250000 17.703125000 -0.002634406  -999.250000 1.9202302694 91.000000000 151.46261597 1.5426554680 44.492389679 1.2644977570
 1172.4084473  -999.250000 17.593750000 -0.005990028  -999.250000 1.9420733452 88.125000000 145.25692749 1.5398576260 44.984386444 1.2539508343
 1172.5609131  -999.250000 17.484375000 -0.013371229  -999.250000 1.9549502134 83.500000000 141.73707581 1.4681062698 44.515224457 1.2546689510
 1172.7132568  -999.250000 17.468750000 -0.013327956  -999.250000 1.9549627304 83.687500000 141.72610474 1.4194784164 44.500000000 1.2730002403
 1172.8657227  -999.250000 17.375000000 -0.011414558  -999.250000 1.9540627003 84.625000000 141.97341919 1.4221251011 44.742389679 1.2933468819
 1173.0180664  -999.250000 17.515625000 -0.007482619  -999.250000 1.9530696869 89.125000000 142.22169495 1.4512445927 46.446716309 1.2900283337
 1173.1705322  -999.250000 17.515625000 -0.006824106  -999.250000 1.9521627426 86.312500000 142.47000122 1.4237124920 46.742393494 1.2518012524
 1173.3228760  -999.250000 17.515625000 -0.006893873  -999.250000 1.9512627125 83.687500000 142.71829224 1.3693718910 46.507610321 1.2223646641
 1173.4752197  -999.250000 17.437500000 -0.006915302  -999.250000 1.9498057365 81.375000000 143.12228394 1.2845246792 45.773418427 1.2336738110
 1173.6276855  -999.250000 17.359375000 -0.008446366  -999.250000 1.9469090700 77.500000000 143.91247559 1.2180957794 45.507610321 1.2765681744
 1173.7800293  -999.250000 17.421875000 -0.009804040  -999.250000 1.9430748224 78.250000000 144.95436096 1.1854033470 45.500000000 1.3142411709
 1173.9323730  -999.250000 17.562500000 -0.011692344  -999.250000 1.9396396875 77.062500000 145.91992188 1.2661306858 45.984375000 1.2699785233
 1174.0848389  -999.250000 19.375000000 -0.013610363  -999.250000 1.9380056858 81.375000000 146.36917114 1.3397889137 46.000000000 1.1858763695
 1174.2371826  -999.250000 21.015623093 -0.016130477  -999.250000 1.9383647442 83.437500000 146.27511597 1.4055533409 45.757812500 1.1817641258
 1174.3896484  -999.250000 22.484373093 -0.014283806  -999.250000 1.9387720823 84.000000000 146.14105225 1.4011905193 45.023418427 1.2936558723
 1174.5419922  -999.250000 19.296875000 -0.014701425  -999.250000 1.9365690947 87.062500000 146.76220703 1.3481130600 44.757812500 1.3596882820
 1174.6944580  -999.250000 17.515625000 -0.016463339  -999.250000 1.9304461479 84.812500000 148.49447632 1.3441429138 44.023418427 1.3953828812
 1174.8468018  -999.250000 17.500000000 -0.019313723  -999.250000 1.9238650799 85.125000000 150.39854431 1.4637124538 44.000000000 1.3918998241
 1174.9991455  -999.250000 17.484375000 -0.020640850  -999.250000 1.9213551283 83.812500000 151.12753296 1.6084253788 44.000000000 1.3907217979
 1175.1516113  -999.250000 17.500000000 -0.016536474  -999.250000 1.9267772436 81.437500000 149.54069519 1.5685570240 43.757812500 1.4425737858
 1175.3039551  -999.250000 17.453125000 -0.017842144  -999.250000 1.9361231327 80.187500000 146.88888550 1.5534074306 43.023437500 1.4874925613
 1175.4562988  -999.250000 17.421875000 -0.013457894  -999.250000 1.9446014166 79.187500000 144.54594421 1.5683774948 42.516014099 1.4708471298
 1175.6087646  -999.250000 17.609375000 -0.014773666  -999.250000 1.9486390352 82.625000000 143.42390442 1.5334038734 42.500000000 1.3546431065
 1175.7611084  -999.250000 19.515625000 -0.009003639  -999.250000 1.9490857124 82.250000000 143.30476379 1.5001134872 43.225982666 1.2442848682
 1175.9135742  -999.250000 20.625000000 -0.007206469  -999.250000 1.9491000175 82.875000000 143.29571533 1.4578204155 43.734375000 1.2245121002
 1176.0659180  -999.250000 20.015625000 -0.005687594  -999.250000 1.9471496344 79.437500000 143.83619690 1.2996664047 43.750000000 1.2786796093
 1176.2183838  -999.250000 17.640625000 -0.008189975  -999.250000 1.9427243471 77.500000000 145.06428528 1.2101907730 43.992187500 1.3115437031
 1176.3707275  -999.250000 18.328125000 -0.005375653  -999.250000 1.9381244183 75.187500000 146.34385681 1.3234114647 44.483985901 1.3183085918
 1176.5231934  -999.250000 17.718750000 -0.013726653  -999.250000 1.9357550144 76.687500000 147.00279236 1.5034937859 45.468750000 1.3008072376
 1176.6754150  -999.250000 18.578125000 -0.020159747  -999.250000 1.9369931221 80.687500000 146.64581299 1.5523509979 45.983585358 1.3230860233
 1176.8278809  -999.250000 19.187500000 -0.018761337  -999.250000 1.9393289089 84.500000000 145.99897766 1.5525200367 46.241985321 1.3818449974
 1176.9802246  -999.250000 17.484375000 -0.015258312  -999.250000 1.9421931505 83.812500000 145.18869019 1.4437174797 46.250000000 1.4332704544
 1177.1326904  -999.250000 17.421875000 -0.013300031  -999.250000 1.9463936090 77.937500000 144.03761292 1.4082636833 46.250000000 1.4405415058
 1177.2850342  -999.250000 17.468750000 -0.017968863  -999.250000 1.9514364004 73.875000000 142.67852783 1.4518253803 46.250000000 1.3414304256
 1177.4375000  -999.250000 17.531250000 -0.019873828  -999.250000 1.9560722113 73.875000000 141.42729187 1.4996228218 46.250000000 1.3078522682
 1177.5898438  -999.250000 17.718750000 -0.013719589  -999.250000 1.9585359097 78.375000000 140.76515198 1.4747059345 46.008014679 1.3045699596
 1177.7423096  -999.250000 17.515625000 -0.009023070  -999.250000 1.9587928057 80.187500000 140.69017029 1.4834222794 45.758007050 1.3051805496
 1177.8946533  -999.250000 17.515625000 -0.015200401  -999.250000 1.9588928223 81.062500000 140.65872192 1.4746284485 45.750000000 1.2988791466
 1178.0469971  -999.250000 17.515625000 -0.014469415  -999.250000 1.9581576586 80.312500000 140.85191345 1.4533507824 45.266414642 1.2655239105
