# LAS format log file from PETREL
# Project units are specified as depth units
#==================================================================
~Version information
VERS.   2.0:
WRAP.   NO:
#==================================================================
~Well
STRT .m      1508.9610596 :
STOP .m      1968.9045410 :
STEP .m     0.00000000 :
NULL .        -999.250000 :
COMP.           : COMPANY
WELL.  16/5-3 Johan Sverdrup Appr   : WELL
FLD.            : FIELD
LOC.            : LOCATION
SRVC.           : SERVICE COMPANY
DATE.  2018-09-11 14:48:08   : Log Export Date {yyyy-MM-dd HH:mm:ss}
PROV.           : PROVINCE
UWI.   16/5-3   : UNIQUE WELL ID
API.            : API NUMBER
#==================================================================
~Curve
DEPT .m                   : DEPTH
Lithology_geolink ._      : Lithology_geolink
CALI .in                  : CALI
BS .in                    : BS
ROP .m/h                  : ROP
DRHO .g/cm3               : DRHO
THOR .ppm                 : THOR
NPHI .m3/m3               : NPHI
RHOB .g/cm3               : RHOB
PEF .b/e                  : PEF
GR .gAPI                  : GR
URAN .ppm                 : URAN
DTC .us/ft                : DTC
DTS .us/ft                : DTS
RDEP .ohm.m               : RDEP
RMIC .ohm.m               : RMIC
RMED .ohm.m               : RMED
~Parameter
#==================================================================
~Ascii
# ...
 1875.4832764 13.000000000 8.4984998703 8.5000000000 220690.15625 -0.006500000 8.8996000290 0.3346999884 2.3670001030 3.5348999500 82.338699341 1.3157999516 117.27050018 294.58480835 1.3734999895 1.6911000013 1.4172999859
 1875.6356201 13.000000000 8.4993000031 8.5000000000 231235.04688 -0.008200000 9.2594003677 0.3440999985 2.3540999889 3.5060000420 85.726799011 1.2060999870 118.71430206 303.34451294 1.3293000460 1.5982999802 1.3740999699
 1875.7880859 13.000000000 8.5022001266 8.5000000000 241227.15625 -0.009000000 9.6142997742 0.3479999900 2.3450000286 3.4649000168 88.944396973 1.1852999926 119.68730164 309.67788696 1.2877999544 1.5364999771 1.3336000443
 1875.9404297 13.000000000 8.4948997498 8.5000000000 242094.09375 -0.009200000 9.7615003586 0.3463999927 2.3422999382 3.4203999043 86.259597778 1.1104999781 119.88659668 313.15270996 1.2602000237 1.5252000093 1.3050999641
 1876.0928955 13.000000000 8.4993000031 8.5000000000 246925.98438 -0.010000000 9.8915996552 0.3662999868 2.3401999474 3.3958001137 83.794296265 1.1002000570 119.44730377 313.72698975 1.2461999655 1.5263999701 1.2862999439
 1876.2452393 13.000000000 8.5130996704 8.5000000000 256067.71875 -0.010000000 10.020299911 0.3709999919 2.3405001163 3.3828999996 83.229698181 1.0599000454 119.13339996 312.01440430 1.2445000410 1.5367000103 1.2829999924
 1876.3977051 13.000000000 8.4948997498 8.5000000000 267460.65625 -0.010100000 9.9455003738 0.3732999861 2.3389000893 3.3961000443 82.064102173 1.1734000444 119.06649017 308.30010986 1.2833000422 1.5518000126 1.3164999485
 1876.5500488 13.000000000 8.4993000031 8.5000000000 279454.71875 -0.008500000 9.5188999176 0.3465000093 2.3454000950 3.4080998898 79.054397583 1.2977000475 118.87010193 301.40359497 1.3662999868 1.6060999632 1.3906999826
 1876.7023926 13.000000000 8.5036001205 8.5000000000 289061.81250 -0.007600000 9.0774002075 0.3418999910 2.3527998924 3.4261999130 78.189201355 1.3562999964 118.09010315 295.34500122 1.3876999617 1.6391999722 1.4098000526
 1876.8548584 13.000000000 8.5080003738 8.5000000000 259169.29688 -0.007700000 8.7314996719 0.3321999907 2.3603000641 3.4433999062 79.069099426 1.3715000153 116.74289703 288.65051270 1.3962999582 1.7190999985 1.4132000208
 1877.0072021 13.000000000 8.5036001205 8.5000000000 259286.21875 -0.009400000 7.9460005760 0.3310000002 2.3622000217 3.4676001072 80.132598877 1.6407999992 115.22059631 281.55010986 1.5557999611 1.7725000381 1.5579999685
 1877.1596680 13.000000000 8.4993000031 8.5000000000 250534.26563 -0.010300000 6.9334998131 0.3359999955 2.3649001122 3.4909000397 77.709503174 1.9884998798 113.24130249 273.36090088 1.6570999622 1.8568999767 1.6474000216
 1877.3120117 13.000000000 8.5022001266 8.5000000000 246563.39063 -0.009900000 6.6665000916 0.3314000070 2.3710000515 3.4972000122 78.492202759 1.9817998409 111.56468964 265.81369019 1.6749999523 1.9484000206 1.6632000208
 1877.4644775 13.000000000 8.4993000031 8.5000000000 242936.21875 -0.008400000 6.3488001823 0.3203000128 2.3801000118 3.4774000645 79.586097717 2.0153000355 110.56670380 258.67831421 1.7194999456 2.0508999825 1.7044999599
 1877.6168213 13.000000000 8.5036001205 8.5000000000 239754.34375 -0.006700000 5.9609999657 0.2984000146 2.3870000839 3.4544000626 77.020896912 2.2330999374 109.68289948 252.75990295 1.8243999481 2.1579999924 1.8003000021
 1877.7692871 13.000000000 8.4948997498 8.5000000000 238388.98438 -0.006000000 5.9018001556 0.2928999960 2.3882999420 3.4386000633 75.483299255 2.3017001152 109.09829712 250.34150696 1.8674999475 2.2051999569 1.8403999805
 1877.9216309 13.000000000 8.5036001205 8.5000000000 233003.15625 -0.006600000 5.7070999146 0.2930000126 2.3833999634 3.4495000839 72.897399902 2.3847000599 108.90450287 250.27270508 1.7869999409 2.2179999352 1.7577999830
 1878.0740967 13.000000000 8.5036001205 8.5000000000 187354.73438 -0.008500000 5.6628999710 0.2978000045 2.3750998974 3.4763000011 75.708297729 2.4295001030 109.59249878 253.68989563 1.7218999863 2.1245000362 1.6960999966
 1878.2264404 13.000000000 8.4984998703 8.5000000000 196919.29688 -0.009500000 5.6233000755 0.2971000075 2.3705000877 3.4899001122 80.162101746 2.4279999733 111.55699921 259.38339233 1.7109999657 2.0130000114 1.6847000122
 1878.3789063 13.000000000 8.4905004501 8.5000000000 224387.01563 -0.009200000 5.7378997803 0.3125000000 2.3699998856 3.4695000648 80.458999634 2.4086999893 113.57279205 264.34201050 1.5652999878 1.9364000559 1.5556000471
 1878.5312500 13.000000000 8.4905004501 8.5000000000 221630.31250 -0.007300000 5.7104001045 0.3222999871 2.3731000423 3.4209001064 80.134902954 2.6268000603 114.71050262 271.89559937 1.4862999916 1.8639999628 1.4871000051
 1878.6835938 13.000000000 8.4984998703 8.5000000000 221801.57813 -0.007300000 5.9120001793 0.3454999924 2.3693997860 3.3791999817 76.455596924 2.3935999870 115.06478882 277.65930176 1.4788000584 1.7611999512 1.4824999571
 1878.8360596 13.000000000 8.4948997498 8.5000000000 219164.18750 -0.007900000 6.7828998566 0.3375000060 2.3626000881 3.3568999767 81.202102661 2.2202000618 115.32219696 282.35189819 1.4322999716 1.7020000219 1.4469000101
 1878.9884033 13.000000000 8.4948997498 8.5000000000 217659.43750 -0.009400000 6.8229999542 0.3357000053 2.3527998924 3.3436000347 80.393096924 2.1668000221 116.59359741 287.42138672 1.4163999557 1.6549999714 1.4426000118
 1879.1408691 13.000000000 8.4876003265 8.5000000000 213044.89063 -0.008700000 6.9539999962 0.3073000014 2.3487999439 3.3290998936 81.487503052 2.1291999817 118.71150208 294.68881226 1.3549000025 1.5944999456 1.3831000328
 1879.2932129 13.000000000 8.4984998703 8.5000000000 205398.42188 -0.007300000 7.0802998543 0.3104000092 2.3461999893 3.3289999962 78.850799561 2.1717998981 120.86859894 306.98779297 1.2395000458 1.4722000360 1.2683999538
 1879.4456787 13.000000000 8.5036001205 8.5000000000 202404.34375 -0.007500000 7.2470002174 0.3240999877 2.3389000893 3.3491001129 85.302001953 2.2504999638 122.58760071 311.92810059 1.0951000452 1.3572000265 1.1211999655
 1879.5980225 13.000000000 8.4984998703 8.5000000000 245446.04688 -0.007700000 7.4920997620 0.3718000054 2.3318998814 3.3692998886 86.877197266 2.3473999500 123.13330078 316.86840820 1.0563000441 1.2764999866 1.0815999508
 1879.7504883 13.000000000 8.4993000031 8.5000000000 223968.89063 -0.007600000 7.7070999146 0.4025999904 2.3311998844 3.3592998981 90.919898987 2.3217999935 121.66940308 321.80868530 1.0489000082 1.2726000547 1.0737999678
 1879.9028320 13.000000000 8.5036001205 8.5000000000 218027.95313 -0.005100000 7.5012998581 0.4072999954 2.3478999138 3.2974998951 86.102203369 2.0309998989 118.10810852 309.99377441 1.1418000460 1.4815000296 1.1705000401
 1880.0552979 13.000000000 8.5022001266 8.5000000000 212085.82813 -0.003600000 7.1167001724 0.3671000004 2.3664000034 3.2483000755 83.823799133 1.9012000561 113.95320129 283.83139038 1.8977999687 1.8321000338 1.9457000494
 1880.2076416 13.000000000 8.4993000031 8.5000000000 195402.75000 -0.003500000 6.9966001511 0.3328000009 2.3806002140 3.2130000591 78.619003296 1.7766000032 110.81079865 264.14089966 1.9119000435 2.2291998863 1.9621000290
 1880.3601074 13.000000000 8.4984998703 8.5000000000 183004.71875 -0.006500000 6.9141001701 0.3068000078 2.3761999607 3.2314999104 77.948799133 1.9173001051 109.27220154 251.94670105 1.9074000120 2.2218000889 1.9572999477
 1880.5124512 13.000000000 8.4948997498 8.5000000000 172510.64063 -0.008300000 6.9001002312 0.3019999862 2.3705000877 3.2406001091 77.279502869 2.0541000366 109.61039734 245.84930420 1.8852000237 2.2160000801 1.9286999702
 1880.6649170 13.000000000 8.5022001266 8.5000000000 166697.25000 -0.009600000 6.8928999901 0.3005000055 2.3617999554 3.2534999847 75.692596436 2.0797998905 110.92179871 245.71240234 1.7994999886 2.1686000824 1.8187999725
 1880.8172607 13.000000000 8.4984998703 8.5000000000 164969.28125 -0.009200000 6.9074001312 0.3014000058 2.3584001064 3.2523999214 75.902900696 2.0436999798 111.28029633 248.47650146 1.7446000576 2.0634999275 1.7513999939
 1880.9696045 13.000000000 8.4839000702 8.5000000000 164872.43750 -0.009400000 6.7645001411 0.3185000122 2.3547000885 3.2548000813 73.832397461 1.8418999910 110.80709839 250.31849670 1.7274999619 2.0076000690 1.7299000025
