# LAS format log file from PETREL
# Project units are specified as depth units
#==================================================================
~Version information
VERS.   2.0:
WRAP.   NO:
#==================================================================
~Well
STRT .m      1508.9610596 :
STOP .m      1968.9045410 :
STEP .m     0.00000000 :
NULL .        -999.250000 :
COMP.           : COMPANY
WELL.  16/5-3 Johan Sverdrup Appr   : WELL
FLD.            : FIELD
LOC.            : LOCATION
SRVC.           : SERVICE COMPANY
DATE.  2018-09-11 14:48:08   : Log Export Date {yyyy-MM-dd HH:mm:ss}
PROV.           : PROVINCE
UWI.   16/5-3   : UNIQUE WELL ID
API.            : API NUMBER
#==================================================================
~Curve
DEPT .m                   : DEPTH
Lithology_geolink ._      : Lithology_geolink
CALI .in                  : CALI
BS .in                    : BS
ROP .m/h                  : ROP
DRHO .g/cm3               : DRHO
THOR .ppm                 : THOR
NPHI .m3/m3               : NPHI
RHOB .g/cm3               : RHOB
PEF .b/e                  : PEF
GR .gAPI                  : GR
URAN .ppm                 : URAN
DTC .us/ft                : DTC
DTS .us/ft                : DTS
RDEP .ohm.m               : RDEP
RMIC .ohm.m               : RMIC
RMED .ohm.m               : RMED
~Parameter
#==================================================================
~Ascii
# ...
 1937.5100098 6.0000000000 8.3522996902 8.5000000000 138774.81250 0.0544000007 5.7304000854 0.2538999915 2.4203000069 3.6598999500 110.91259766 2.9765999317 94.092697144 189.63009644 2.7876000404 1.0726000071 2.7216999531
 1937.6624756 6.0000000000 8.3633003235 8.5000000000 159777.15625 0.0461999997 5.6420001984 0.2666999996 2.4114000797 3.6833000183 103.88220215 2.9786999226 92.890403748 189.80799866 2.7588000298 1.1931999922 2.6932001114
 1937.8148193 6.0000000000 8.3577995300 8.5000000000 158474.40625 0.0251000002 5.5472002029 0.2849999964 2.3826000690 3.6524000168 104.37889862 3.0406000614 93.109306335 189.30459595 2.3171999454 1.3382999897 2.2613000870
 1937.9671631 6.0000000000 8.3282003403 8.5000000000 156748.82813 0.0066000000 5.6675000191 0.3048000038 2.3668999672 3.6549999714 105.45590210 3.2962000370 93.563796997 190.16090393 2.8491001129 1.6654000282 2.7946999073
 1938.1196289 6.0000000000 8.3238000870 8.5000000000 161528.73438 0.0019000000 6.5675997734 0.3109000027 2.3740000725 3.7293999195 116.29389954 3.6001000404 94.654602051 191.01712036 3.1108999252 1.7926000357 3.0541000366
 1938.2719727 6.0000000000 8.3282003403 8.5000000000 156172.43750 0.0060000001 6.9738998413 0.3012999892 2.3989999294 3.8663001060 121.50920105 4.0208001137 96.575401306 191.47109985 3.0801000595 2.1073999405 3.0218999386
 1938.4244385 6.0000000000 8.3669004440 8.5000000000 151761.03125 0.0070000002 7.2680997849 0.2847999930 2.4184999466 3.9553000927 125.56340027 4.1423997879 98.393501282 192.69270325 3.0037999153 2.1438000202 2.9453001022
 1938.5767822 6.0000000000 8.4202995300 8.5000000000 148605.10938 0.0048000002 7.3758997917 0.2863000035 2.4258000851 3.9337000847 127.11470032 4.0557999611 99.132698059 196.29969788 2.8048999310 2.3563001156 2.7428998947
 1938.7292480 6.0000000000 8.4554004669 8.5000000000 154496.46875 -0.000400000 6.6433000565 0.3019999862 2.4214999676 3.8578999043 126.37539673 4.1374001503 98.419700623 196.80270386 3.1387000084 2.5578999519 3.0566000938
 1938.8815918 6.0000000000 8.4554004669 8.5000000000 169921.65625 -0.002600000 6.0715999603 0.3106000125 2.4138000011 3.7678000927 124.16560364 4.0243000984 96.448501587 195.76559448 3.0957000256 2.7386999130 3.0139999390
 1939.0340576 6.0000000000 8.4642000198 8.5000000000 173013.78125 -0.003700000 6.0085000992 0.3097999990 2.3996000290 3.6677999496 122.42800140 3.8606998920 94.391403198 188.50950623 3.0947999954 2.8996999264 3.0083000660
 1939.1864014 6.0000000000 8.3808002472 8.5000000000 179995.28125 -0.002900000 5.3638000488 0.2919000089 2.3791999817 3.4925999641 119.89710236 3.7272000313 92.862602234 185.42671204 3.0118000507 2.5676999092 2.9173998833
 1939.3388672 6.0000000000 8.3325996399 8.5000000000 181084.25000 -0.001500000 5.1768999100 0.2770000100 2.3548998833 3.3055999279 109.49279785 3.3417000771 91.822998047 181.96589661 2.6882998943 2.3343000412 2.6140999794
 1939.4912109 5.0000000000 8.3282003403 8.5000000000 180174.81250 0.0024000001 4.8453998566 0.2660999894 2.3482999802 3.1738998890 102.43750000 3.0592999458 91.257896423 180.26719666 2.7936000824 2.3538999557 2.7169001102
 1939.6436768 5.0000000000 8.3544998169 8.5000000000 178159.84375 0.0033000000 4.3253998756 0.2770999968 2.3484001160 3.0852000713 95.561302185 2.9865000248 91.190597534 179.30969238 2.9279000759 2.6847999096 2.8492000103
 1939.7960205 5.0000000000 8.4510002136 8.5000000000 190158.65625 0.0007000000 3.8309998512 0.2863000035 2.3499000072 3.0246999264 94.720298767 3.2664999962 91.708602905 178.60670471 2.7955999374 2.9298000336 2.7118000984
 1939.9484863 5.0000000000 8.5130996704 8.5000000000 202218.90625 -0.004300000 3.7458000183 0.2881000042 2.3464999199 2.9474000931 92.478599548 3.2172000408 92.150299072 177.45578003 2.8429999352 3.0381000042 2.7541999817
 1940.1008301 5.0000000000 8.5212001801 8.5000000000 205333.45313 -0.005900000 3.8929002285 0.2854000032 2.3510999680 2.9107000828 89.825202942 3.1879000664 92.275199890 177.30670166 2.8659999371 3.0462000370 2.7744998932
 1940.2531738 5.0000000000 8.5167999268 8.5000000000 199459.84375 -0.005100000 3.8956999779 0.2768000066 2.3617000580 2.8938000202 88.140296936 3.1865000725 92.287803650 177.66780090 2.8822000027 3.1607999802 2.7874000072
 1940.4056396 5.0000000000 8.4948997498 8.5000000000 180011.81250 -0.005100000 4.1339998245 0.2728999853 2.3645999432 2.9072000980 87.183799744 3.1609001160 92.345199585 177.49420166 3.0541000366 3.1702001095 2.9433999062
 1940.5579834 5.0000000000 8.5080003738 8.5000000000 181164.56250 -0.006500000 4.3348999023 0.2669000030 2.3577001095 2.9172000885 89.992897034 3.0850000381 92.691299438 176.15769958 3.0030999184 3.2348001003 2.8875000477
 1940.7104492 5.0000000000 8.5080003738 8.5000000000 180902.35938 -0.008500000 4.0261001587 0.2800999880 2.3450999260 2.9284999371 92.015098572 3.2655000687 92.987289429 174.60090637 2.9932999611 3.1054000854 2.8710999489
 1940.8627930 5.0000000000 8.4948997498 8.5000000000 188466.14063 -0.008700000 3.9430000782 0.2940999866 2.3417000771 2.9479000568 92.138702393 3.2750999928 93.433700562 175.37590027 2.9828000069 2.9263999462 2.8596000671
 1941.0152588 5.0000000000 8.4765996933 8.5000000000 195115.75000 -0.009400000 4.0401000977 0.2942999899 2.3443999290 3.0018000603 91.732597351 3.3362998962 94.034896851 179.92208862 3.0304000378 2.7974998951 2.9022998810
 1941.1676025 5.0000000000 8.4861001968 8.5000000000 193350.01563 -0.010700000 3.9348001480 0.2899000049 2.3485999107 3.0771000385 94.234497070 3.5471000671 94.106994629 184.16659546 3.0139000416 2.9719998837 2.8894999027
 1941.3200684 5.0000000000 8.4801998138 8.5000000000 187574.40625 -0.010500000 4.2312002182 0.2881999910 2.3552999496 3.1256000996 95.092498779 3.3875999451 93.321502686 184.39410400 3.0352001190 3.2184998989 2.9119000435
 1941.4724121 5.0000000000 8.4876003265 8.5000000000 180133.46875 -0.009100000 4.5356001854 0.2973999977 2.3577001095 3.1856000423 95.215599060 3.1275000572 92.316299438 182.18769836 3.1250000000 3.3210000992 2.9978001118
 1941.6248779 5.0000000000 8.4876003265 8.5000000000 181817.71875 -0.006600000 4.2860999107 0.2933999896 2.3608000278 3.3073999882 95.503601074 3.1856999397 91.954200745 178.08909607 2.7844998837 2.9558999538 2.6726000309
 1941.7772217 5.0000000000 8.4554004669 8.5000000000 185092.92188 -0.004900000 3.9611001015 0.2953999937 2.3617000580 3.4825000763 96.292800903 3.4530999660 92.661903381 178.79420471 2.7142000198 2.6059000492 2.5994000435
 1941.9296875 5.0000000000 8.4948997498 8.5000000000 201327.17188 -0.003200000 4.1389999390 0.2815000117 2.3647999763 3.5573000908 97.920600891 3.5546998978 94.043998718 181.09269714 2.7395999432 2.5348999500 2.6266999245
 1942.0820313 5.0000000000 8.5080003738 8.5000000000 200430.71875 -0.002000000 4.0086002350 0.2770000100 2.3643999100 3.4317998886 98.592903137 3.6805000305 93.951599121 182.01840210 2.7534999847 2.7295999527 2.6387999058
 1942.2343750 5.0000000000 8.4948997498 8.5000000000 189654.32813 -0.001700000 3.8067998886 0.2716000080 2.3596999645 3.1965999603 97.693801880 3.5587000847 92.541397095 181.46629333 2.8877999783 3.0466001034 2.7746999264
 1942.3868408 5.0000000000 8.4905004501 8.5000000000 190064.17188 -0.002200000 3.9931001663 0.2745999992 2.3541998863 3.0559000969 95.596801758 3.1403999329 91.779502869 179.19799805 2.7874000072 2.8719999790 2.7102999687
 1942.5391846 5.0000000000 8.4686002731 8.5000000000 187152.76563 -0.002500000 4.3860001564 0.2770999968 2.3559999466 3.0680999756 90.392997742 3.1013998985 92.075202942 176.65010071 2.8076000214 2.9814999104 2.7314999104
 1942.6916504 5.0000000000 8.4597997665 8.5000000000 188318.50000 -0.002200000 4.3639001846 0.2764999866 2.3643999100 3.1565999985 93.811401367 3.3203999996 92.996391296 177.55360413 2.8203999996 3.0452001095 2.7448999882
 1942.8439941 6.0000000000 8.4619998932 8.5000000000 190052.35938 -0.003800000 4.4591999054 0.2904999852 2.3643000126 3.2537999153 96.620101929 3.2725000381 92.618606567 178.79490662 2.9370999336 3.1559000015 2.8617999554
 1942.9964600 6.0000000000 8.5080003738 8.5000000000 194007.89063 -0.006700000 4.5083999634 0.2926000059 2.3585000038 3.3397998810 101.51139832 3.3217999935 91.280899048 178.85539246 3.2323999405 2.4653999805 3.1514000893
