# LAS format log file from PETREL
# Project units are specified as depth units
#==================================================================
~Version information
VERS.   2.0:
WRAP.   NO:
#==================================================================
~Well
STRT .m      1508.9610596 :
STOP .m      1968.9045410 :
STEP .m     0.00000000 :
NULL .        -999.250000 :
COMP.           : COMPANY
WELL.  16/5-3 Johan Sverdrup Appr   : WELL
FLD.            : FIELD
LOC.            : LOCATION
SRVC.           : SERVICE COMPANY
DATE.  2018-09-11 14:48:08   : Log Export Date {yyyy-MM-dd HH:mm:ss}
PROV.           : PROVINCE
UWI.   16/5-3   : UNIQUE WELL ID
API.            : API NUMBER
#==================================================================
~Curve
DEPT .m                   : DEPTH
Lithology_geolink ._      : Lithology_geolink
CALI .in                  : CALI
BS .in                    : BS
ROP .m/h                  : ROP
DRHO .g/cm3               : DRHO
THOR .ppm                 : THOR
NPHI .m3/m3               : NPHI
RHOB .g/cm3               : RHOB
PEF .b/e                  : PEF
GR .gAPI                  : GR
URAN .ppm                 : URAN
DTC .us/ft                : DTC
DTS .us/ft                : DTS
RDEP .ohm.m               : RDEP
RMIC .ohm.m               : RMIC
RMED .ohm.m               : RMED
~Parameter
#==================================================================
~Ascii
 1508.9610596 12.000000000 10.977400780 12.250000954 118068.11719 0.0637999997 0.4413000047  -999.250000  -999.250000  -999.250000 30.958524704 0.5191000104 72.377365112 135.43063354  -999.250000  -999.250000  -999.250000
 1509.1135254 12.000000000 11.661601067 12.250000954 129262.67969 0.0597000010 0.3441999853  -999.250000  -999.250000  -999.250000 35.382339478 0.4781999886 71.731719971 135.74343872  -999.250000  -999.250000  -999.250000
 1509.2658691 12.000000000 11.692299843 12.250000954 136745.50000 0.0560999997 0.3298999965  -999.250000  -999.250000  -999.250000 38.169338226 0.3167000115 69.694068909 135.35522461  -999.250000  -999.250000  -999.250000
 1509.4183350 12.000000000 11.883099556 12.250000954 136135.53125 0.0324000008 0.3291000128  -999.250000  -999.250000  -999.250000 37.034812927 0.1436000019 67.670715332 130.64857483  -999.250000  -999.250000  -999.250000
 1509.5706787 12.000000000 12.030098915 12.250000954 136361.62500 0.0225000009 0.2614000142  -999.250000  -999.250000  -999.250000 35.548690796 0.0103000002 66.475059509 127.23873138  -999.250000  -999.250000  -999.250000
 1509.7231445 12.000000000 12.043199539 12.250000954 132390.59375 0.0092000002 0.3946000040  -999.250000  -999.250000  -999.250000 37.553295135 -0.020199999 67.554634094 126.99758911  -999.250000  -999.250000  -999.250000
 1509.8754883 12.000000000 12.117800713 12.250000954 122940.26563 0.0034000000 0.4102999866  -999.250000  -999.250000  -999.250000 37.019130707 -0.059900004 72.481246948 131.27906799 2.4113070965  -999.250000 2.3817334175
 1510.0279541 12.000000000 12.113400459 12.250000954 115809.25781 -0.000500000 0.4591000080  -999.250000  -999.250000  -999.250000 39.237522125 -0.034699999 76.332923889 136.98912048 2.1805844307  -999.250000 2.1962482929
 1510.1802979 12.000000000 12.130900383 8.5030050278 110884.65625 -0.002700000 0.4435000122  -999.250000  -999.250000  -999.250000 38.456428528 -0.051199999 76.507362366 141.57421875 2.1697084904  -999.250000 2.1399450302
 1510.3327637 12.000000000 12.160900116 8.5000000000 13040.995117 -0.003400000 0.4826000035  -999.250000  -999.250000  -999.250000 39.871368408 -0.056299999 77.413871765 145.26394653 2.1431212425  -999.250000 2.0666587353
 1510.4851074 12.000000000 12.183600426 8.5000000000 13697.835938 -0.003400000 0.4217999876  -999.250000  -999.250000  -999.250000 37.662773132 -0.084700003 80.318771362 147.31875610 2.0969369411  -999.250000 2.0210363865
 1510.6374512 12.000000000 12.122200012 8.5000000000 41597.382813 -0.002800000 0.5753999949  -999.250000  -999.250000  -999.250000 36.076339722 -0.065499999 82.244018555 147.81130981 2.0829224586  -999.250000 2.0183043480
 1510.7899170 12.000000000 12.034399986 8.5000000000 37898.671875 0.0005000000 0.6062999964  -999.250000  -999.250000  -999.250000 36.783332825 -0.095899999 79.282981873 144.74165344 2.2407734394  -999.250000 2.1729760170
 1510.9422607 12.000000000 11.981800079 8.5000000000 39245.867188 0.0026000000 0.6937999725  -999.250000  -999.250000  -999.250000 39.255237579 -0.071800001 75.970611572 139.76327515 2.2428967953  -999.250000 2.1898729801
 1511.0947266 12.000000000 11.994999886 8.5000000000 39874.691406 0.0163000003 0.6658999920  -999.250000  -999.250000  -999.250000 39.586135864 0.1427000016 76.798728943 139.68826294 2.1995348930  -999.250000 2.0495126247
 1511.2470703 12.000000000 11.376500130 8.5000000000 37231.406250 0.0310999993 0.5665000081  -999.250000  -999.250000  -999.250000 36.930957794 0.1949999928 79.306777954 147.24966431 1.9461064339  -999.250000 1.8600037098
 1511.3995361 11.000000000 11.095800400 8.5000000000 42412.769531 0.0403999984 0.2192000002  -999.250000  -999.250000  -999.250000 32.289421082 0.1764000058 79.346168518 150.33494568 2.3240964413  -999.250000 2.4526245594
 1511.5518799 11.000000000 8.6440000534 8.5000000000 40952.355469 0.0272999983 0.1764000058  -999.250000  -999.250000  -999.250000 23.837175369 0.1535000056 76.513984680 151.57420349 2.0405275822  -999.250000 2.0946874619
 1511.7043457 11.000000000 8.6337995529 8.5000000000 40888.632813 0.0093000000 0.1559000015  -999.250000  -999.250000  -999.250000 20.602987289 0.1974000037 75.323455811 149.29592896 1.7528302670  -999.250000 1.8449997902
 1511.8566895 11.000000000 8.6447000504 8.5000000000 47315.714844 -0.001900000 0.1920000017 0.2389084250 2.3166153431 5.0565662384 18.837512970 0.2117000073 77.914123535 149.83078003 1.7843744755 2.0180225372 1.8541924953
 1512.0091553 11.000000000 8.6089000702 8.5000000000 46117.105469 -0.002600000 0.1887000054 0.2419975102 2.3081068993 4.9940500259 22.261455536 0.2446999997 80.458465576 149.88706970 1.7425334454 1.7351266146 1.7526812553
 1512.1614990 11.000000000 8.5869998932 8.5000000000 46176.332031 -0.002100000 0.2260999978 0.2509927750 2.2994070053 4.9398431778 21.443357468 0.4410000145 80.698608398 152.53327942 1.5976161957 1.6079018116 1.5511615276
 1512.3139648 11.000000000 8.5869998932 8.5000000000 84785.203125 -0.004400000 0.1636999995 0.2658880651 2.2818140984 4.9303078651 22.622354507 0.3716999888 80.285728455 153.74401855 1.4987791777 1.4538233280 1.4347931147
 1512.4663086 11.000000000 8.6044998169 8.5000000000 88101.695313 -0.006700000 0.2361000031 0.2919790745 2.2700095177 4.9112153053 22.507793427 0.3503000140 81.037895203 154.88977051 1.4376490116 1.4575968981 1.3631573915
 1512.6187744 11.000000000 8.5869998932 8.5000000000 89601.953125 -0.009400000 0.3601000011 0.3027913570 2.2625060081 4.9196934700 24.625303268 0.1609999985 82.919090271 156.13290405 1.3577640057 1.3211092949 1.2791671753
 1512.7711182 11.000000000 8.6447000504 8.5000000000 106504.17188 -0.009800000 0.3573000133 0.2959055305 2.2669963837 4.9191002846 24.640588760 0.0974000022 83.902114868 157.82714844 1.3181316853 1.3997367620 1.2394318581
 1512.9234619 11.000000000 8.6775999069 8.5000000000 114980.92188 -0.008300000 0.3497999907 0.2789272070 2.2733898163 4.9306812286 23.425748825 0.1054000035 83.736770630 159.05622864 1.3099131584 1.3959062099 1.2279183865
 1513.0759277 11.000000000 8.6775999069 8.5000000000 122096.67188 -0.005800000 0.4789000154 0.2806985676 2.2761979103 4.9544811249 23.206172943 0.1165999994 82.605110168 160.08247375 1.5094400644 1.6189211607 1.4030596018
 1513.2282715 11.000000000 8.6965999603 8.5000000000 122822.85938 -0.003200000 0.4463999867 0.2861911654 2.2818908691 4.9673795700 22.469182968 0.1228000000 82.986991882 159.75154114 1.5825829506 1.6433610916 1.4652005434
 1513.3807373 11.000000000 8.6527996063 8.5000000000 128499.38281 -0.002300000 0.4291000068 0.2878986299 2.2902932167 4.9721961021 21.710409164 0.1389999986 84.454421997 159.39668274 1.6161731482 1.7394230366 1.4888809919
 1513.5330811 11.000000000 8.6044998169 8.5000000000 130692.55469 -0.002500000 0.4365000129 0.2786149085 2.3000843525 4.9578227997 19.813640594 0.1297000051 83.618041992 159.49853516 1.6536399126 1.7652586699 1.5166555643
 1513.6855469 11.000000000 8.5957002640 8.5000000000 126053.32813 -0.001900000 0.4535999894 0.2813977599 2.3089928627 4.9072403908 19.110260010 0.2210000008 82.436744690 159.29846191 1.8023808002 1.8587251902 1.6397013664
 1513.8378906 11.000000000 8.5914001465 8.5000000000 119271.96875 -0.002400000 0.5260000229 0.2865958214 2.3021054268 4.9013047218 19.096710205 0.1597999930 82.179107666 158.70137024 1.8138908148 1.8770853281 1.6389007568
 1513.9903564 11.000000000 8.5861997604 8.5000000000 77755.710938 -0.003400000 0.6126999855 0.2975911796 2.2879114151 4.9154887199 19.975296021 0.2700000107 83.011833191 157.91592407 1.7195755243 1.7505013943 1.5540679693
 1514.1427002 11.000000000 8.5869998932 8.5000000000 76863.281250 -0.004000000 0.4415999949 0.2978997529 2.2764093876 4.9324860573 19.251682281 0.2475000024 84.122306824 157.97715759 1.6336687803 1.5960237980 1.4772615433
 1514.2951660 11.000000000 8.5869998932 8.5000000000 78324.812500 -0.003400000 0.1680999994 0.2872085571 2.2786982059 4.9145145416 19.634693146 0.3463999927 83.933853149 159.33181763 1.5398751497 1.5168633461 1.3915686607
 1514.4475098 11.000000000 8.5957002640 8.5000000000 79360.976563 -0.002400000 0.1676999927 0.2767083943 2.2880923748 4.8899197578 19.893991470 0.2820999920 83.287315369 160.06141663 1.6682970524 1.5979349613 1.5147011280
