# LAS format log file from PETREL
# Project units are specified as depth units
#==================================================================
~Version information
VERS.   2.0:
WRAP.   NO:
#==================================================================
~Well
STRT .m      1508.9610596 :
STOP .m      1968.9045410 :
STEP .m     0.00000000 :
NULL .        -999.250000 :
COMP.           : COMPANY
WELL.  16/5-3 Johan Sverdrup Appr   : WELL
FLD.            : FIELD
LOC.            : LOCATION
SRVC.           : SERVICE COMPANY
DATE.  2018-09-11 14:48:08   : Log Export Date {yyyy-MM-dd HH:mm:ss}
PROV.           : PROVINCE
UWI.   16/5-3   : UNIQUE WELL ID
API.            : API NUMBER
#==================================================================
~Curve
DEPT .m                   : DEPTH
Lithology_geolink ._      : Lithology_geolink
CALI .in                  : CALI
BS .in                    : BS
ROP .m/h                  : ROP
DRHO .g/cm3               : DRHO
THOR .ppm                 : THOR
NPHI .m3/m3               : NPHI
RHOB .g/cm3               : RHOB
PEF .b/e                  : PEF
GR .gAPI                  : GR
URAN .ppm                 : URAN
DTC .us/ft                : DTC
DTS .us/ft                : DTS
RDEP .ohm.m               : RDEP
RMIC .ohm.m               : RMIC
RMED .ohm.m               : RMED
~Parameter
#==================================================================
~Ascii
# ...
 1633.0147705 11.000000000 8.6133003235 8.5000000000 204777.15625 -0.001900000 0.6130999923 0.2162999958 2.3807001114 4.9421000481 22.834199905 0.2215999961 78.417694092 147.38510132 2.1925001144 2.6008000374 2.1981999874
 1633.1672363 11.000000000 8.6308002472 8.5000000000 205064.18750 -0.001800000 0.6794000268 0.2240999937 2.3822000027 4.9412999153 25.104999542 0.1620000005 78.349098206 148.23080444 2.2783999443 2.6847999096 2.2967998981
 1633.3195801 11.000000000 8.6220998764 8.5000000000 206553.53125 -0.001800000 0.6833000183 0.2294999957 2.3828001022 4.9218001366 23.068599701 0.1374000013 79.088096619 147.56539917 2.3461999893 2.7009000778 2.3715000153
 1633.4720459 11.000000000 8.6133003235 8.5000000000 214653.54688 -0.003200000 0.8719999790 0.2345000058 2.3714001179 4.9215002060 23.213800430 0.1032999977 80.029296875 147.65480042 2.2548999786 2.5334000587 2.2815001011
 1633.6243896 11.000000000 8.6308002472 8.5000000000 224188.59375 -0.004300000 0.7874000072 0.2439000010 2.3573000431 4.9141001701 21.877300262 0.0966000035 80.619400024 148.83940125 1.9479999542 2.2936000824 1.9713000059
 1633.7768555 11.000000000 8.6220998764 8.5000000000 231014.18750 -0.004300000 0.7778000236 0.2524000108 2.3512001038 4.8889999390 22.736099243 0.1618999988 80.752998352 150.28999329 1.8463000059 2.1826000214 1.8665000200
 1633.9291992 11.000000000 8.6263999939 8.5000000000 237035.43750 -0.002900000 0.6973000169 0.2529000044 2.3580000401 4.8531999588 22.548999786 0.1351999938 80.576301575 152.06559753 1.9937000275 2.2506000996 2.0076999664
 1634.0816650 11.000000000 8.6263999939 8.5000000000 240477.15625 -0.003500000 0.6388999820 0.2450000048 2.3629000187 4.8719000816 23.255599976 0.0812000036 80.444198608 151.32560730 2.1159000397 2.4244000912 2.1215999126
 1634.2340088 11.000000000 8.6440000534 8.5000000000 243820.87500 -0.005300000 0.5766999722 0.2382999957 2.3643000126 4.9299001694 23.627599716 0.0842999965 80.067596436 150.49360657 2.1624000072 2.4756000042 2.1563000679
 1634.3863525 11.000000000 8.6176996231 8.5000000000 241200.00000 -0.007000000 0.5881000161 0.2313999981 2.3670001030 4.9815998077 24.029199600 0.0929000005 79.250099182 148.95249939 2.1923999786 2.6210999489 2.1817998886
 1634.5388184 11.000000000 8.6308002472 8.5000000000 238866.14063 -0.006200000 0.6603000164 0.2276999950 2.3789000511 4.9927000999 23.624599457 0.1269000024 78.233901978 146.71629333 2.3868000507 2.7290999889 2.3636999130
 1634.6911621 11.000000000 8.6440000534 8.5000000000 235077.18750 -0.005400000 0.6123999953 0.2180999964 2.3917000294 4.9946999550 22.755100250 0.1208999977 77.411697388 145.24090576 2.5064001083 3.0164999962 2.4721000195
 1634.8436279 11.000000000 8.6447000504 8.5000000000 231015.34375 -0.005900000 0.6941000223 0.2099999934 2.4007999897 5.0069999695 22.488000870 0.2022999972 76.891296387 143.67610168 2.7404000759 3.0964999199 2.6747999191
 1634.9959717 11.000000000 8.6484003067 8.5000000000 224440.15625 -0.006200000 0.8410000205 0.1953999996 2.4100000858 5.0054001808 21.533100128 0.2075999975 76.444198608 143.87179565 2.8743999004 3.1317999363 2.7966001034
 1635.1484375 11.000000000 8.6484003067 8.5000000000 205501.17188 -0.004500000 0.7566999793 0.1905999929 2.4221000671 4.9800000191 20.969800949 0.2779999971 76.213096619 143.44960022 3.2836999893 3.3654999733 3.1705999374
 1635.3007813 11.000000000 8.6440000534 8.5000000000 195320.07813 -0.002100000 0.7581999898 0.1917999983 2.4284999371 4.9600000381 20.341400146 0.2662999928 76.244789124 142.73249817 3.2832999229 3.4030001163 3.1566998959
 1635.4532471 11.000000000 8.6351995468 8.5000000000 185588.98438 -0.001000000 0.7512999773 0.2027000040 2.4226000309 4.9485001564 20.261299133 0.1380999982 76.735298157 142.41279602 3.0048000813 3.3220999241 2.8796999454
 1635.6055908 11.000000000 8.6571998596 8.5000000000 180964.95313 -0.001300000 0.6269000173 0.2087000012 2.4093999863 4.9338002205 19.965499878 0.1765999943 77.329200745 142.29539490 2.7169001102 2.9126000404 2.5978999138
 1635.7580566 11.000000000 8.6527996063 8.5000000000 179528.73438 -0.001600000 0.5275999904 0.2117000073 2.3998000622 4.9254999161 20.083700180 0.1846999973 77.451301575 143.65119934 2.2969999313 2.6868000031 2.2040998936
 1635.9104004 11.000000000 8.6520004272 8.5000000000 180213.78125 -0.001400000 0.5095000267 0.2071000040 2.4017999172 4.9307999611 21.213600159 0.1820999980 77.101600647 143.89700317 2.6637001038 2.7000000477 2.5622000694
 1636.0628662 11.000000000 8.6614999771 8.5000000000 178704.32813 -0.001400000 0.4241000116 0.2084999979 2.4059000015 4.9643001556 23.670900345 0.2493000031 76.519203186 143.69039917 2.7627999783 2.9683001041 2.6663999557
 1636.2152100 11.000000000 8.6527996063 8.5000000000 176826.37500 -0.001300000 0.3467999995 0.2025000006 2.4059000015 4.9727001190 22.247800827 0.2827999890 76.378402710 142.63819885 2.6721999645 3.0652999878 2.5813999176
 1636.3675537 11.000000000 8.6614999771 8.5000000000 179670.48438 -0.002100000 0.2851999998 0.2045000046 2.3921999931 4.9670000076 20.164899826 0.3673000038 77.082496643 142.31889343 2.4049000740 2.8066999912 2.3280999660
 1636.5200195 11.000000000 8.6571998596 8.5000000000 185696.45313 -0.003200000 0.1706999987 0.2164999992 2.3721001148 4.9361000061 16.313800812 0.3738999963 78.352401733 144.07870483 2.0028998852 2.4591000080 1.9484000206
 1636.6723633 11.000000000 8.6614999771 8.5000000000 199756.29688 -0.003700000 0.1115999967 0.2363000065 2.3543000221 4.8955998421 18.096099854 0.3285000026 79.736701965 146.77819824 1.8421000242 2.2084999084 1.7913000584
 1636.8248291 11.000000000 8.6571998596 8.5000000000 210683.85938 -0.004300000 0.1312000006 0.2522000074 2.3403999805 4.8687000275 19.603500366 0.3125000000 80.718902588 149.08679199 1.7596000433 2.0710999966 1.7094000578
 1636.9771729 11.000000000 8.6527996063 8.5000000000 225167.70313 -0.004300000 0.1226999983 0.2451000065 2.3334999084 4.8572001457 20.420600891 0.2531000078 81.034194946 150.57060242 1.7375999689 2.0438001156 1.6871999502
 1637.1296387 11.000000000 8.6440000534 8.5000000000 236294.87500 -0.004300000 0.0684999973 0.2483000010 2.3315000534 4.8508000374 19.465499878 0.3623999953 81.127502441 151.50810242 1.8279000521 2.0518999100 1.7753000259
 1637.2819824 11.000000000 8.6410999298 8.5000000000 240192.53125 -0.003800000 0.1134999990 0.2442999929 2.3359999657 4.8315000534 19.502300262 0.3641999960 81.302101135 151.74470520 1.8846999407 2.0329000950 1.8295999765
 1637.4344482 11.000000000 8.6263999939 8.5000000000 249204.34375 -0.003700000 0.2207999974 0.2495999932 2.3406999111 4.8192000389 20.304000854 0.4612999856 81.482589722 151.65209961 1.8818000555 1.9507999420 1.8226000071
 1637.5867920 11.000000000 8.6395998001 8.5000000000 261426.37500 -0.003900000 0.2330999970 0.2483000010 2.3427000046 4.8337998390 21.438800812 0.4557999969 81.557296753 151.56469727 1.7384999990 1.9754999876 1.6978000402
 1637.7392578 11.000000000 8.6351995468 8.5000000000 278906.68750 -0.003800000 0.2951999903 0.2433999926 2.3426001072 4.8639998436 20.859899521 0.4792000353 81.401496887 151.00238037 1.8054000139 2.0209999084 1.7627999783
 1637.8916016 11.000000000 8.6351995468 8.5000000000 289987.78125 -0.005000000 0.4329999983 0.2416000068 2.3341999054 4.9204998016 19.768899918 0.4058000147 81.386596680 151.02380371 1.7551000118 2.0197999477 1.7153999805
 1638.0440674 11.000000000 8.6220998764 8.5000000000 295015.75000 -0.005800000 0.4472999871 0.2486999929 2.3250999451 4.9654002190 17.467300415 0.4438000023 82.074302673 152.23609924 1.7323000431 1.9154000282 1.6926000118
 1638.1964111 11.000000000 8.6308002472 8.5000000000 303320.06250 -0.005800000 0.4905999601 0.2578999996 2.3190000057 4.9773001671 18.631599426 0.3907999992 83.587196350 154.57678223 1.6387000084 1.8335000277 1.5975999832
 1638.3488770 11.000000000 8.6220998764 8.5000000000 304414.96875 -0.004600000 0.4465999901 0.2691000104 2.3173999786 4.9723000526 20.094900131 0.3912999928 85.341598511 157.21870422 1.5917999744 1.7917000055 1.5491000414
 1638.5012207 11.000000000 8.6351995468 8.5000000000 311251.18750 -0.004100000 0.5820999742 0.2752999961 2.3145999908 4.9692997932 21.236200333 0.4338999987 86.345901489 159.01899719 1.5012999773 1.7870999575 1.4611999989
