# LAS format log file from PETREL
# Project units are specified as depth units
#==================================================================
~Version information
VERS.   2.0:
WRAP.   NO:
#==================================================================
~Well
STRT .m      1508.9610596 :
STOP .m      1968.9045410 :
STEP .m     0.00000000 :
NULL .        -999.250000 :
COMP.           : COMPANY
WELL.  16/5-3 Johan Sverdrup Appr   : WELL
FLD.            : FIELD
LOC.            : LOCATION
SRVC.           : SERVICE COMPANY
DATE.  2018-09-11 14:48:08   : Log Export Date {yyyy-MM-dd HH:mm:ss}
PROV.           : PROVINCE
UWI.   16/5-3   : UNIQUE WELL ID
API.            : API NUMBER
#==================================================================
~Curve
DEPT .m                   : DEPTH
Lithology_geolink ._      : Lithology_geolink
CALI .in                  : CALI
BS .in                    : BS
ROP .m/h                  : ROP
DRHO .g/cm3               : DRHO
THOR .ppm                 : THOR
NPHI .m3/m3               : NPHI
RHOB .g/cm3               : RHOB
PEF .b/e                  : PEF
GR .gAPI                  : GR
URAN .ppm                 : URAN
DTC .us/ft                : DTC
DTS .us/ft                : DTS
RDEP .ohm.m               : RDEP
RMIC .ohm.m               : RMIC
RMED .ohm.m               : RMED
~Parameter
#==================================================================
~Ascii
# ...
 1723.2355957 11.000000000 8.6301002502 8.5000000000 213486.60938 -0.000200000 0.9021999836 0.1694000065 2.4686000347 4.8498997688 27.795700073 -0.032099999 80.608108521 159.52021790 3.8547000885 3.6786000729 3.7537000179
 1723.3880615 11.000000000 8.6659002304 8.5000000000 219245.65625 -0.001800000 0.9880000353 0.1867000014 2.4458000660 4.8783001900 28.273000717 0.0002000000 81.683998108 162.80909729 2.8845000267 3.0652000904 2.8329000473
 1723.5404053 11.000000000 8.6484003067 8.5000000000 225924.79688 -0.003000000 0.9501000047 0.2083999962 2.4275000095 4.8895001411 30.754999161 0.0480000004 82.933799744 167.64999390 2.6970000267 2.9158000946 2.6538000107
 1723.6928711 11.000000000 8.6440000534 8.5000000000 237681.48438 -0.004500000 1.1042000055 0.2072000057 2.4156000614 4.8892998695 29.563800812 0.0908999965 83.693489075 166.50120544 2.6768999100 2.8854999542 2.6426999569
 1723.8452148 11.000000000 8.6484003067 8.5000000000 246738.18750 -0.004600000 0.9745999575 0.2057999969 2.4142999649 4.8836998940 28.654199600 0.0174000002 83.858802795 164.03851318 2.7283000946 2.8515000343 2.6910998821
 1723.9976807 11.000000000 8.6527996063 8.5000000000 250234.25000 -0.004700000 1.0362999439 0.2041999996 2.4195001125 4.8873000145 26.804000854 0.0557999983 83.341201782 164.89720154 2.6352999210 3.1047000885 2.5901999474
 1724.1500244 11.000000000 8.6630001068 8.5000000000 259974.81250 -0.002800000 1.1417000294 0.1949999928 2.4391000271 4.8590998650 29.212999344 -0.016300000 83.286399841 165.21820068 3.1222000122 3.2272999287 3.0453000069
 1724.3024902 11.000000000 8.6410999298 8.5000000000 260674.01563 -0.001800000 1.2620999813 0.1780000031 2.4612998962 4.8414998055 27.753700256 -0.051899999 83.455299377 167.24951172 3.4107000828 3.5817000866 3.3313999176
 1724.4548340 11.000000000 8.6527996063 8.5000000000 268498.81250 -0.000300000 1.3641999960 0.1556999981 2.4855000973 4.8298997879 27.721300125 -0.073200002 82.640998840 165.89450073 3.4960000515 3.9407999516 3.4191000462
 1724.6072998 11.000000000 8.6484003067 8.5000000000 276088.56250 0.0002000000 1.3076000214 0.1455000043 2.5023000240 4.8445000648 25.971300125 -0.075300001 81.299797058 163.32629395 3.6577999592 4.3853001595 3.5806000233
 1724.7596436 11.000000000 8.6527996063 8.5000000000 273729.93750 0.0001000000 1.3302999735 0.1455000043 2.5113000870 4.8720998764 27.138299942 -0.037400000 80.339996338 163.52749634 4.0583000183 4.7030000687 3.9551999569
 1724.9119873 11.000000000 8.6301002502 8.5000000000 272336.21875 0.0011000000 1.3673000336 0.1467999965 2.5169999599 4.8856000900 27.485399246 -0.041700002 80.732994080 164.05709839 4.6862001419 4.8766999245 4.5146999359
 1725.0644531 11.000000000 8.6220998764 8.5000000000 264511.43750 0.0034000000 1.4815000296 0.1574999988 2.5153999329 4.9120998383 27.734699249 -0.062100001 81.501602173 164.61900330 4.4780001640 5.0183000565 4.3109998703
 1725.2167969 11.000000000 8.6263999939 8.5000000000 257303.15625 0.0041999999 1.5338000059 0.1639000028 2.4999001026 4.8505997658 27.944299698 -0.022500001 81.781799316 166.09509277 3.6228001118 4.1877999306 3.4976000786
 1725.3692627 11.000000000 8.6337995529 8.5000000000 256416.14063 0.0034000000 1.5846999884 0.1829999983 2.4776999950 4.7709999084 27.047100067 0.0608999990 82.839599609 167.80020142 2.9900000095 3.5104000568 2.9105999470
 1725.5216064 11.000000000 8.6308002472 8.5000000000 257730.71875 0.0013000000 1.4871000051 0.1899999976 2.4577999115 4.6519999504 26.413900375 0.1187999994 85.311500549 171.65750122 2.7032001019 3.5392999649 2.6489999294
 1725.6740723 11.000000000 8.6395998001 8.5000000000 253407.87500 0.0011000000 1.3930000067 0.1923000067 2.4502000809 4.5782999992 27.545499802 0.0822999999 88.269096375 175.90719604 3.1538000107 3.3366000652 3.1219999790
 1725.8264160 11.000000000 8.6527996063 8.5000000000 249055.53125 0.0030000000 1.2782000303 0.1908999979 2.4518001080 4.5412998199 29.218999863 0.2069000006 89.911201477 179.14199829 2.8422000408 3.1535000801 2.8206000328
 1725.9788818 11.000000000 8.6571998596 8.5000000000 253905.10938 0.0046999999 1.0709999800 0.1949999928 2.4509999752 4.5180997849 29.252099991 0.2734999955 88.827598572 180.94909668 2.4841001034 2.6993999481 2.4763000011
 1726.1312256 11.000000000 8.6614999771 8.5000000000 268727.93750 0.0004000000 1.0514999628 0.2137999982 2.4230999947 4.5109000206 27.817899704 0.2295999974 86.972702026 179.95680237 2.3076999187 2.2781999111 2.3078999519
 1726.2836914 11.000000000 8.6592998505 8.5000000000 285812.59375 -0.011300000 1.0664000511 0.2222000062 2.3785998821 4.5170001984 27.107999802 0.2815999985 88.134399414 178.81120300 1.9320000410 2.2439000607 1.9435000420
 1726.4360352 11.000000000 8.6089000702 8.5000000000 301387.81250 -0.030600000 1.0515999794 0.2400999963 2.3313999176 4.6121001244 28.214099884 0.2377000004 90.572601318 178.65750122 1.7206000090 2.3970000744 1.7338000536
 1726.5885010 11.000000000 8.6155004501 8.5000000000 323851.15625 -0.044100001 1.2305999994 0.2296999991 2.3108999729 4.7919001579 27.490200043 0.3014999926 91.144302368 181.08410645 2.5346999168 3.1152999401 2.5378999710
 1726.7408447 11.000000000 8.6118001938 8.5000000000 332059.84375 -0.041600000 1.3167999983 0.2255000025 2.3227999210 4.8741002083 27.998699188 0.2788000107 89.744796753 181.87660217 2.6868000031 3.0023000240 2.6847000122
 1726.8931885 11.000000000 8.6133003235 8.5000000000 333126.40625 -0.025500000 1.4571000338 0.2071000040 2.3698000908 4.7971000671 27.996500015 0.1836999953 87.042999268 178.61019897 2.7293000221 3.0460999012 2.7219998837
 1727.0456543 11.000000000 8.6155004501 8.5000000000 329319.68750 -0.008200000 1.6341999769 0.1972000003 2.4307000637 4.6505999565 29.206699371 0.1193000004 85.396400452 175.70010376 3.1598000526 3.2676000595 3.1528000832
 1727.1979980 11.000000000 8.6351995468 8.5000000000 323528.75000 -0.001200000 1.8823000193 0.1854999959 2.4765000343 4.5906000137 28.595100403 0.0399000011 85.880203247 178.70210266 3.2869000435 3.5048000813 3.2602000237
 1727.3504639 11.000000000 8.6440000534 8.5000000000 315440.56250 -0.000400000 2.0371999741 0.1750999987 2.4948999882 4.6159000397 28.694700241 0.0834000036 87.468597412 182.75970459 3.1015999317 3.2825999260 3.0724999905
 1727.5028076 11.000000000 8.6484003067 8.5000000000 309486.62500 -0.000800000 2.4054000378 0.1732999980 2.5013000965 4.6357002258 31.603599548 0.0540999994 89.168899536 188.73449707 2.8340001106 3.3208999634 2.8004000187
 1727.6552734 12.000000000 8.6702995300 8.5000000000 299273.62500 -0.000800000 2.6812999249 0.1694000065 2.5039999485 4.6161999702 34.683898926 0.0710000023 91.033699036 192.09330750 2.9030001163 3.3842000961 2.8596999645
 1727.8076172 12.000000000 8.6659002304 8.5000000000 288388.59375 -0.001200000 3.1761999130 0.1733999997 2.4990999699 4.5914998055 38.090000153 -0.002400000 92.559700012 196.97889709 2.9323999882 3.3067998886 2.8770999908
 1727.9600830 12.000000000 8.6571998596 8.5000000000 276101.59375 -0.004000000 3.2767999172 0.1860000044 2.4809000492 4.5861001015 41.105899811 -0.095600002 93.208503723 202.40359497 2.1426000595 3.0387001038 2.1124999523
 1728.1124268 12.000000000 8.6351995468 8.5000000000 272548.81250 -0.006700000 3.3912999630 0.1949999928 2.4607999325 4.5794000626 41.767299652 -0.105200000 92.489799500 201.89010620 2.2953999043 3.0831000805 2.2667000294
 1728.2648926 12.000000000 8.6176996231 8.5000000000 269558.28125 -0.009500000 2.9769001007 0.1978999972 2.4416999817 4.5935001373 39.232601166 -0.181500003 90.056503296 196.21968079 2.9224998951 3.3557999134 2.8854999542
 1728.4172363 11.000000000 8.6308002472 8.5000000000 259111.42188 -0.009100000 2.5327000618 0.1963000000 2.4391000271 4.5697999001 35.909000397 -0.146500006 87.972702026 179.42649841 3.0490999222 3.3910000324 3.0160000324
 1728.5697021 11.000000000 8.6373996735 8.5000000000 253977.18750 -0.008200000 2.2109000683 0.2011000067 2.4388999939 4.5566000938 33.965499878 -0.127599999 87.323303223 173.88220215 2.9172999859 3.2885000706 2.8782000542
 1728.7220459 11.000000000 8.6447000504 8.5000000000 260800.40625 -0.007600000 1.8775999546 0.2050999999 2.4370999336 4.5433001518 32.613700867 -0.086900003 86.926597595 173.90069580 2.9316999912 3.2873001099 2.8861999512
