# LAS format log file from PETREL
# Project units are specified as depth units
#==================================================================
~Version information
VERS.   2.0:
WRAP.   NO:
#==================================================================
~Well
STRT .m      1508.9610596 :
STOP .m      1968.9045410 :
STEP .m     0.00000000 :
NULL .        -999.250000 :
COMP.           : COMPANY
WELL.  16/5-3 Johan Sverdrup Appr   : WELL
FLD.            : FIELD
LOC.            : LOCATION
SRVC.           : SERVICE COMPANY
DATE.  2018-09-11 14:48:08   : Log Export Date {yyyy-MM-dd HH:mm:ss}
PROV.           : PROVINCE
UWI.   16/5-3   : UNIQUE WELL ID
API.            : API NUMBER
#==================================================================
~Curve
DEPT .m                   : DEPTH
Lithology_geolink ._      : Lithology_geolink
CALI .in                  : CALI
BS .in                    : BS
ROP .m/h                  : ROP
DRHO .g/cm3               : DRHO
THOR .ppm                 : THOR
NPHI .m3/m3               : NPHI
RHOB .g/cm3               : RHOB
PEF .b/e                  : PEF
GR .gAPI                  : GR
URAN .ppm                 : URAN
DTC .us/ft                : DTC
DTS .us/ft                : DTS
RDEP .ohm.m               : RDEP
RMIC .ohm.m               : RMIC
RMED .ohm.m               : RMED
~Parameter
#==================================================================
~Ascii
# ...
 1813.4564209 13.000000000 8.4912004471 8.5000000000 154771.65625 -0.011100000 6.8871998787 0.3143999875 2.3596999645 3.7632999420 64.631401062 0.5078999996 112.11170197 272.45761108 1.5187000036 1.7817000151 1.5138000250
 1813.6088867 13.000000000 8.4905004501 8.5000000000 180200.78125 -0.011600000 6.5696001053 0.3174999952 2.3585000038 3.6875998974 68.987899780 0.5349000096 113.25219727 276.49130249 1.6180000305 1.7834000587 1.6133999825
 1813.7612305 13.000000000 8.4948997498 8.5000000000 193283.85938 -0.012200000 6.8776998520 0.3156000078 2.3545000553 3.6384000778 75.873497009 0.5541999936 114.03720093 275.28030396 1.6266000271 1.8486000299 1.6213999987
 1813.9136963 13.000000000 8.4912004471 8.5000000000 213285.84375 -0.010800000 7.0479998589 0.3204999864 2.3523001671 3.5741000175 80.567298889 0.6449000239 114.64379883 273.48071289 1.4761999846 2.0039999485 1.4730999470
 1814.0660400 13.000000000 8.5058002472 8.5000000000 222694.48438 -0.007200000 7.1511001587 0.3172000051 2.3540999889 3.4993000031 84.755096436 0.9290000200 114.49310303 272.40780640 1.7239999771 1.9766000509 1.7209999561
 1814.2185059 13.000000000 8.4993000031 8.5000000000 218868.89063 -0.003700000 6.7484998703 0.3226000071 2.3573999405 3.4604001045 79.872100830 1.1069999933 113.73249817 274.92630005 1.6700999737 1.9759999514 1.6680999994
 1814.3708496 13.000000000 8.4948997498 8.5000000000 220076.00000 -0.002500000 6.3592000008 0.3255999982 2.3568999767 3.4714999199 79.579002380 1.1649999619 113.62270355 276.77099609 1.5505000353 1.8244999647 1.5475000143
 1814.5233154 13.000000000 8.4993000031 8.5000000000 232071.26563 -0.002800000 5.6999998093 0.3167000115 2.3552999496 3.4900000095 75.219703674 1.2778999805 113.75260162 274.11419678 1.3485000134 1.8416999578 1.3458000422
 1814.6756592 13.000000000 8.5080003738 8.5000000000 241381.90625 -0.003500000 6.1652998924 0.2969999909 2.3541998863 3.4821999073 75.441902161 0.9682000875 114.10690308 268.33489990 1.6923999786 1.9293999672 1.6812000275
 1814.8281250 13.000000000 8.5094995499 8.5000000000 236766.14063 -0.004200000 5.9612002373 0.2825999856 2.3527998924 3.4407999516 74.961402893 0.9182000160 113.99929810 260.88070679 1.8964999914 2.1073000431 1.8825999498
 1814.9804688 13.000000000 8.4948997498 8.5000000000 232397.26563 -0.005100000 6.2449998856 0.2906000018 2.3478999138 3.3984000683 73.928497314 1.2322000265 112.72799683 258.72549438 1.5959000587 1.9484000206 1.5852999687
 1815.1329346 13.000000000 8.5058002472 8.5000000000 215428.34375 -0.006200000 6.7758002281 0.3109000027 2.3419001102 3.3735001087 75.960800171 1.2332999706 112.49050140 265.43600464 1.5311000347 1.8167999983 1.5209000111
 1815.2852783 13.000000000 8.4984998703 8.5000000000 209162.60938 -0.008000000 7.1542000771 0.3170000017 2.3350000381 3.3980998993 77.688201904 1.2024999857 113.54589844 272.33380127 1.5566999912 1.7352000475 1.5497000217
 1815.4376221 13.000000000 8.5094995499 8.5000000000 204154.73438 -0.009100000 6.8968000412 0.3300999999 2.3371000290 3.4166998863 80.121902466 1.4103000164 114.26789856 275.59878540 1.5874999762 1.8473000526 1.5819000006
 1815.5900879 13.000000000 8.4984998703 8.5000000000 201493.68750 -0.009000000 6.6760001183 0.3287999928 2.3447000980 3.4121000767 78.979797363 1.4893000126 114.10250092 274.41549683 1.5994999409 1.9301999807 1.5936000347
 1815.7424316 13.000000000 8.4948997498 8.5000000000 200281.87500 -0.008800000 6.8187999725 0.3330999911 2.3487000465 3.3747999668 79.521896362 1.4795000553 114.22609711 273.38558960 1.6198999882 1.9054000378 1.6126999855
 1815.8948975 13.000000000 8.5080003738 8.5000000000 196000.39063 -0.009200000 7.1161999702 0.3240999877 2.3385000229 3.3580999374 82.651802063 1.4036999941 115.59040070 278.71148682 1.4491000175 1.7209000587 1.4386999607
 1816.0472412 13.000000000 8.4948997498 8.5000000000 192070.85938 -0.010200000 7.5251002312 0.3422000110 2.3241000175 3.3454000950 85.020698547 1.4744000435 117.32170105 287.44570923 1.2818000317 1.5713000298 1.2719000578
 1816.1997070 13.000000000 8.5022001266 8.5000000000 188648.04688 -0.008500000 7.8754000664 0.3427000046 2.3241999149 3.3153998852 84.915702820 1.3855999708 118.07720184 292.55050659 1.2883000374 1.5335999727 1.2756999731
 1816.3520508 13.000000000 8.5022001266 8.5000000000 201079.14063 -0.007100000 7.7487993240 0.3397000134 2.3310999870 3.3092999458 84.045997620 1.6353000402 117.24690247 292.16580200 1.3770999908 1.6518000364 1.3631000519
 1816.5045166 13.000000000 8.5080003738 8.5000000000 211375.98438 -0.004700000 7.7913999557 0.3271000087 2.3452000618 3.3405001163 84.958602905 1.6856000423 115.88729858 288.13220215 1.5730999708 1.7910000086 1.5516999960
 1816.6568604 13.000000000 8.5241003036 8.5000000000 226599.21875 -0.005900000 7.6406993866 0.3244999945 2.3489000797 3.4279999733 88.043098450 1.5128999949 114.77400208 280.43341064 1.5702999830 1.8795000315 1.5496000051
 1816.8093262 13.000000000 8.4993000031 8.5000000000 231304.71875 -0.007200000 7.4158000946 0.3271000087 2.3524000645 3.4879000187 86.418998718 1.5046999454 113.66268921 274.20230103 1.5412000418 1.8784999847 1.5198999643
 1816.9616699 13.000000000 8.4948997498 8.5000000000 237295.26563 -0.009800000 7.3301000595 0.3228000104 2.3445999622 3.5302000046 84.449699402 1.4873000383 112.27960205 267.97119141 1.5930000544 1.8738000393 1.5738999844
 1817.1141357 13.000000000 8.5036001205 8.5000000000 243716.93750 -0.010000000 7.3151001930 0.3203999996 2.3431000710 3.5037999153 81.345100403 1.4493999481 110.88710022 259.53485107 1.7515000105 1.9888000488 1.7343000174
 1817.2664795 13.000000000 8.4772996902 8.5000000000 247527.15625 -0.009200000 7.2225999832 0.3161999881 2.3434998989 3.4470000267 82.812400818 1.4962999821 110.12329865 252.65289307 1.9282000065 2.0689001083 1.9075000286
 1817.4188232 13.000000000 8.4772996902 8.5000000000 256341.73438 -0.007600000 7.0721001625 0.3188999891 2.3482999802 3.3719999790 84.401901245 1.5806000233 109.87390137 248.76348877 1.8655999899 2.0683999062 1.8353999853
 1817.5712891 13.000000000 8.4686002731 8.5000000000 258920.06250 -0.005200000 7.4199509621 0.3219999969 2.3466000557 3.3315999508 85.197097778 1.5123329163 110.23258972 250.12614441 1.7184000015 1.9218000174 1.6863000393
 1817.7236328 13.000000000 8.4693002701 8.5000000000 260663.37500 -0.001100000 7.6083602905 0.3303999901 2.3422999382 3.3524999619 84.723800659 1.4285273552 111.40839386 254.04530334 1.8028000593 1.7987999916 1.7657999992
 1817.8760986 13.000000000 8.4253997803 8.5000000000 245425.96875 0.0077000000 7.6832923889 0.3271000087 2.3438000679 3.4249999523 83.056602478 1.3379048109 112.46218872 257.80575562 1.6598999500 1.7798999548 1.6299999952
 1818.0284424 13.000000000 8.4291000366 8.5000000000 236687.01563 0.0148000000 7.4253315926 0.3280999959 2.3447999954 3.4986999035 86.291099548 1.3438551426 113.04486084 262.58770752 1.5461000204 1.7954000235 1.5202000141
 1818.1809082 13.000000000 8.4181003571 8.5000000000 229507.09375 0.0205000006 7.5898652077 0.3334999979 2.3438999653 3.5629000664 86.204597473 1.4127228260 113.48981476 265.81982422 1.5780999660 1.7725000381 1.5484999418
 1818.3332520 13.000000000 8.3816003799 8.5000000000 223445.67188 0.0221999995 7.6714348793 0.3312000036 2.3392000198 3.6103000641 86.956901550 1.4411934614 113.38920593 266.56991577 1.6771999598 1.8114999533 1.6518000364
 1818.4857178 13.000000000 8.3779001236 8.5000000000 220212.98438 0.0305000003 7.5887556076 0.3380999863 2.3468000889 3.6721999645 84.364997864 1.5576159954 112.77506256 265.73620605 1.8011000156 1.8700000048 1.7769999504
 1818.6380615 13.000000000 8.3895998001 8.5000000000 216980.32813 0.0386999995 7.3119120598 0.3291999996 2.3531999588 3.7207999229 85.234497070 1.5052287579 112.56656647 263.42691040 1.8338999748 2.0130999088 1.8121999502
 1818.7902832 13.000000000 8.3669004440 8.5000000000 208557.21875 0.0442999974 7.5767002106 0.3244076967 2.3540985584 3.7350771427 84.653030396 1.5411000252 113.26899719 265.18701172 1.8446826935 1.9578886032 1.8257781267
 1818.9427490 13.000000000 8.3676996231 8.5000000000 207642.04688 0.0428000018 7.7520999908 0.3349915147 2.3442077637 3.7243084908 87.513000488 1.5231000185 114.81909943 271.43820190 1.6257755756 1.7634557486 1.6093735695
