# LAS format log file from PETREL
# Project units are specified as depth units
#==================================================================
~Version information
VERS.   2.0:
WRAP.   NO:
#==================================================================
~Well
STRT .m      1508.9610596 :
STOP .m      1968.9045410 :
STEP .m     0.00000000 :
NULL .        -999.250000 :
COMP.           : COMPANY
WELL.  16/5-3 Johan Sverdrup Appr   : WELL
FLD.            : FIELD
LOC.            : LOCATION
SRVC.           : SERVICE COMPANY
DATE.  2018-09-11 14:48:08   : Log Export Date {yyyy-MM-dd HH:mm:ss}
PROV.           : PROVINCE
UWI.   16/5-3   : UNIQUE WELL ID
API.            : API NUMBER
#==================================================================
~Curve
DEPT .m                   : DEPTH
Lithology_geolink ._      : Lithology_geolink
CALI .in                  : CALI
BS .in                    : BS
ROP .m/h                  : ROP
DRHO .g/cm3               : DRHO
THOR .ppm                 : THOR
NPHI .m3/m3               : NPHI
RHOB .g/cm3               : RHOB
PEF .b/e                  : PEF
GR .gAPI                  : GR
URAN .ppm                 : URAN
DTC .us/ft                : DTC
DTS .us/ft                : DTS
RDEP .ohm.m               : RDEP
RMIC .ohm.m               : RMIC
RMED .ohm.m               : RMED
~Parameter
#==================================================================
~Ascii
# ...
 1903.6771240 1.0000000000 8.2229003906 8.5000000000 700037.56250 -0.012500000 3.1512999535 0.2056080103 2.2776999474 4.0542998314 89.850830078 2.4890999794 92.658798218 179.52789307 16.461946487 4.8568000793 16.047737122
 1903.8295898 1.0000000000 8.2229003906 8.5000000000 691279.00000 -0.010600000 2.8612000942 0.2002043277 2.2883999348 4.0713000298 93.567321777 2.4007000923 91.016693115 176.66870117 17.144453049 5.5406999588 16.845159531
 1903.9819336 1.0000000000 8.2361001968 8.5000000000 674443.06250 -0.008500000 2.9484000206 0.1921065003 2.3031001091 3.9519000053 91.990364075 2.2829000950 90.302803040 173.79229736 18.140102386 5.6174001694 17.893758774
 1904.1343994 1.0000000000 8.2667999268 8.5000000000 665471.00000 -0.008200000 2.8884999752 0.1963965595 2.3150999546 3.7808001041 91.561141968 2.4565000534 89.503601074 172.07691956 16.721237183 6.0517997742 16.696258545
 1904.2867432 1.0000000000 8.2842998505 8.5000000000 667105.37500 -0.009300000 3.1115999222 0.1889059991 2.3192000389 3.6103999615 91.537918091 2.4189000130 88.059402466 171.18209839 17.339603424 6.0114002228 17.424217224
 1904.4392090 1.0000000000 8.3063001633 8.5000000000 661394.68750 -0.010500000 3.1500000954 0.1810063124 2.3148000240 3.4906001091 89.565681458 2.3408000469 88.117210388 167.52708435 18.672431946 6.3589000702 18.734550476
 1904.5915527 1.0000000000 8.3238000870 8.5000000000 654696.31250 -0.011400000 2.7709999084 0.1746051311 2.3059000969 3.4535000324 86.627960205 2.3183000088 89.963989258 166.74478149 19.942981720 6.2694997787 19.968910217
 1904.7438965 1.0000000000 8.3282003403 8.5000000000 619964.37500 -0.014100000 3.3556001186 0.1744003147 2.2994000912 3.4960999489 86.224639893 2.2337999344 91.122398376 169.12969971 22.824581146 6.6760001183 22.471088409
 1904.8963623 1.0000000000 8.2683000565 8.5000000000 594424.37500 -0.016000001 3.2746000290 0.1769979149 2.3008999825 3.5727999210 87.972892761 2.1846001148 90.941299438 170.07960510 21.550426483 6.8140997887 20.892269135
 1905.0487061 1.0000000000 8.2623996735 8.5000000000 574215.81250 -0.017899999 3.3413000107 0.1765007973 2.3080999851 3.6484000683 91.087409973 2.1321001053 89.903999329 169.26319885 25.428977966 5.0292000771 24.295639038
 1905.2011719 1.0000000000 8.2361001968 8.5000000000 540460.50000 -0.017800000 3.6781001091 0.1767997593 2.3153998852 3.7167000771 91.602188110 1.8854000568 88.937995911 166.51029968 22.473974228 4.2630000114 20.973169327
 1905.3535156 1.0000000000 8.2491998672 8.5000000000 508526.34375 -0.017700000 3.7458999157 0.1759014428 2.3210000992 3.7586998940 96.220489502 1.8269000053 88.199996948 166.70060730 21.546283722 3.9918999672 19.913993835
 1905.5059814 1.0000000000 8.2426996231 8.5000000000 378997.93750 -0.017000001 3.8801999092 0.1720031351 2.3245000839 3.7878000736 95.903656006 1.7828999758 87.174003601 165.51809692 22.739742279 4.8186001778 20.951665878
 1905.6583252 1.0000000000 8.2448997498 8.5000000000 369373.78125 -0.016100001 3.8787002563 0.1600999981 2.3269999027 3.7943000793 94.780097961 1.7681000233 86.686599731 148.81190491 24.909561157 5.6433000565 22.908332825
 1905.8107910 1.0000000000 8.2536001205 8.5000000000 344867.25000 -0.018500000 4.1300997734 0.1597000062 2.3208000660 3.8018999100 93.706665039 1.7764999866 87.117301941 157.81340027 35.644496918 6.0722999573 32.318763733
 1905.9631348 1.0000000000 8.2667999268 8.5000000000 286808.71875 -0.021100000 4.0722999573 0.1586000025 2.3115999699 3.7873001099 94.910827637 1.9273999929 87.928298950 160.96409607 28.373739243 6.8505001068 25.562623978
 1906.1156006 1.0000000000 8.2097997665 8.5000000000 279143.09375 -0.020300001 4.0746998787 0.1679999977 2.3078999519 3.7679998875 96.722152710 1.9311001301 88.712699890 165.46429443 29.431747437 6.8784999847 26.443887711
 1906.2679443 1.0000000000 8.2185001373 8.5000000000 259041.29688 -0.017700000 4.0458998680 0.1668999940 2.3175001144 3.7672998905 94.565933228 1.8128999472 88.319198608 167.38818359 30.108358383 7.0623002052 27.038322449
 1906.4204102 1.0000000000 8.2243995667 8.5000000000 233061.75000 -0.017300000 3.7929999828 0.1671999991 2.3287000656 3.8369998932 93.611465454 1.8358999491 86.999305725 163.48980713 31.616889954 7.1251997948 28.295492172
 1906.5727539 1.0000000000 8.2142000198 8.5000000000 198897.84375 -0.022600001 3.9786000252 0.1662999988 2.3285999298 4.0036997795 92.961021423 1.8191000223 86.413299561 159.56750488 42.386062622 6.1655998230 37.123920441
 1906.7252197 1.0000000000 8.2185001373 8.5000000000 178659.09375 -0.026900001 4.0260000229 0.1645999998 2.3215000629 4.2156000137 89.557327271 1.8056000471 86.822097778 160.18739319 31.861539841 5.6430001259 27.504613876
 1906.8775635 1.0000000000 8.2171001434 8.5000000000 163577.04688 -0.028600000 3.8376002312 0.1688999981 2.3141000271 4.3961000443 87.598068237 1.8463000059 88.012001038 162.38619995 29.746889114 5.3972001076 25.750200272
 1907.0299072 1.0000000000 8.2185001373 8.5000000000 175398.34375 -0.026900001 3.3843998909 0.1738000065 2.3118999004 4.4506998062 86.616470337 1.8353999853 89.366096497 163.40849304 26.904356003 5.8475999832 23.684412003
 1907.1823730 1.0000000000 8.2171001434 8.5000000000 157658.32813 -0.026000001 3.2304000854 0.1723999977 2.3127999306 4.4208002090 87.432945251 1.7817000151 87.263694763 162.81959534 31.514200211 5.5692000389 27.963764191
 1907.3347168 1.0000000000 8.2171001434 8.5000000000 153336.43750 -0.023100000 3.0515999794 0.1605000049 2.3341000080 4.3235998154 89.475326538 1.7769999504 82.934402466 162.76008606 31.836988449 4.9468998909 28.256635666
 1907.4871826 1.0000000000 8.2229003906 8.5000000000 134044.60938 -0.021800000 2.9165999889 0.1403000057 2.3561000824 4.2651000023 84.775566101 1.7817000151 80.892898560 157.14289856 24.847505569 4.9650001526 22.819860458
 1907.6395264 1.0000000000 8.2142000198 8.5000000000 131109.42188 -0.023100000 2.8471999168 0.1479000002 2.3487999439 4.2793998718 86.914764404 1.8118000031 83.133003235 154.06539917 17.667306900 4.3608999252 16.271696091
 1907.7919922 1.0000000000 8.2142000198 8.5000000000 132151.51563 -0.025200000 2.9842998981 0.1620000005 2.3171000481 4.2596998215 85.056396484 1.9875999689 88.464897156 158.60060120 16.671989441 4.7871999741 15.360921860
 1907.9443359 1.0000000000 8.2061004639 8.5000000000 123242.19531 -0.025699999 3.2911999226 0.1789000034 2.2864000797 4.2013001442 92.323173523 2.2323999405 91.486907959 167.71551514 16.792503357 4.4107999802 15.463216782
 1908.0968018 1.0000000000 8.2010002136 8.5000000000 135437.85938 -0.020000000 3.1491999626 0.1836999953 2.2866001129 4.1201000214 93.033737183 2.4767000675 90.574096680 176.31268311 16.359647751 4.0641999245 14.962701797
 1908.2491455 1.0000000000 8.2010002136 8.5000000000 147776.71875 -0.012400000 3.1361999512 0.1764000058 2.3110001087 4.1761999130 95.404899597 2.5915999413 87.616401672 173.60279846 15.520273209 3.8238999844 14.145555496
 1908.4016113 1.0000000000 8.2097997665 8.5000000000 162201.04688 -0.009200000 2.9089000225 0.1670999974 2.3519999981 4.4366002083 91.694778442 2.7743999958 83.813400269 165.47738647 19.454246521 3.5731000900 17.334543228
 1908.5539551 1.0000000000 8.1965999603 8.5000000000 164098.48438 -0.010900000 3.1658000946 0.1453000009 2.3914000988 4.8923001289 92.260238647 2.8714001179 80.433799744 155.26310730 24.894639969 3.9291000366 21.736671448
 1908.7064209 1.0000000000 8.2061004639 8.5000000000 175958.21875 -0.015100000 3.3884000778 0.1357000023 2.4154000282 5.3102998734 92.103027344 2.7862000465 77.430198669 143.51739502 34.327743530 5.2346000671 29.581617355
 1908.8587646 1.0000000000 8.2025003433 8.5000000000 172277.35938 -0.015400000 3.2722001076 0.1282999963 2.4165000916 5.4647002220 96.607093811 2.8227999210 76.522903442 132.57719421 41.665321350 6.8969001770 35.307716370
 1909.0111084 1.0000000000 8.1988000870 8.5000000000 209826.37500 -0.016200000 3.5913000107 0.1404999942 2.3894000053 5.4183998108 96.013458252 2.5785999298 79.211601257 134.13270569 40.538215637 6.5496997833 34.304916382
 1909.1635742 1.0000000000 8.1988000870 8.5000000000 200269.53125 -0.018999999 3.8580996990 0.1554999948 2.3538000584 5.3715000153 96.827140808 2.4514999390 83.332496643 143.91130066 34.278621674 3.8083999157 29.319097519
