# LAS format log file from PETREL
# Project units are specified as depth units
#==================================================================
~Version information
VERS.   2.0:
WRAP.   NO:
#==================================================================
~Well
STRT .m      1508.9610596 :
STOP .m      1968.9045410 :
STEP .m     0.00000000 :
NULL .        -999.250000 :
COMP.           : COMPANY
WELL.  16/5-3 Johan Sverdrup Appr   : WELL
FLD.            : FIELD
LOC.            : LOCATION
SRVC.           : SERVICE COMPANY
DATE.  2018-09-11 14:48:08   : Log Export Date {yyyy-MM-dd HH:mm:ss}
PROV.           : PROVINCE
UWI.   16/5-3   : UNIQUE WELL ID
API.            : API NUMBER
#==================================================================
~Curve
DEPT .m                   : DEPTH
Lithology_geolink ._      : Lithology_geolink
CALI .in                  : CALI
BS .in                    : BS
ROP .m/h                  : ROP
DRHO .g/cm3               : DRHO
THOR .ppm                 : THOR
NPHI .m3/m3               : NPHI
RHOB .g/cm3               : RHOB
PEF .b/e                  : PEF
GR .gAPI                  : GR
URAN .ppm                 : URAN
DTC .us/ft                : DTC
DTS .us/ft                : DTS
RDEP .ohm.m               : RDEP
RMIC .ohm.m               : RMIC
RMED .ohm.m               : RMED
~Parameter
#==================================================================
~Ascii
# ...
 1751.4295654 11.000000000 8.4070997238 8.5000000000 222598.98438 0.0229000002 1.6757999659 0.1651049554 2.4252219200 4.6913638115 30.873306274 0.1247000098 79.747001648 155.74270630 4.5677289963 3.2997379303 4.4584307671
 1751.5819092 11.000000000 8.3720998764 8.5000000000 227308.59375 0.0148000000 1.6167000532 0.1695927829 2.4028358459 4.5791797638 30.963653564 0.0568000004 80.976188660 156.35060120 4.4379086494 3.2477829456 4.3333010674
 1751.7343750 11.000000000 8.5167999268 8.5000000000 227923.92188 0.0048000002 1.3216999769 0.1820899844 2.3915090561 4.5072574615 32.571010590 0.1001999974 83.093902588 156.62950134 3.3690569401 3.0858297348 3.3217110634
 1751.8867188 11.000000000 8.5607004166 8.5000000000 230537.26563 0.0035999999 1.3756999969 0.2112766057 2.3923995495 4.4149737358 32.240268707 0.1448999941 84.824203491 157.83381653 3.6225960255 3.3607795238 3.5860872269
 1752.0391846 11.000000000 8.5474996567 8.5000000000 248284.21875 0.0057999999 1.3673000336 0.2276868671 2.3968963623 4.3482532501 34.760280609 0.1035000011 85.347198486 160.97689819 3.1861500740 3.5447525978 3.1698338985
 1752.1915283 11.000000000 8.5387001038 8.5000000000 265106.21875 0.0027999999 1.4110000134 0.2486831695 2.3765163422 4.2359900475 33.333244324 0.1810999960 84.846702576 162.19790649 2.7342622280 3.2101683617 2.7228581905
 1752.3439941 11.000000000 8.5431003571 8.5000000000 291826.62500 0.0010000000 1.3696000576 0.2588918209 2.3683066368 4.1855406761 32.783138275 0.2041999996 84.038398743 162.47329712 2.5565421581 3.0713109970 2.5487391949
 1752.4963379 11.000000000 8.5693998337 8.5000000000 306689.65625 -0.001500000 1.4036999941 0.2491078526 2.3722968102 4.1733098030 30.958562851 0.2781000137 83.163200378 162.87660217 2.8556599617 3.1444413662 2.8478598595
 1752.6488037 11.000000000 8.5715999603 8.5000000000 326646.25000 -0.001500000 1.3660999537 0.2211224139 2.3952815533 4.2792153358 33.213291168 0.3001999855 83.529396057 164.63729858 3.1996245384 3.7604064941 3.1957216263
 1752.8011475 12.000000000 8.5861997604 8.5000000000 358049.65625 -0.001000000 1.5252000093 0.1931224465 2.4170825481 4.3918099403 36.908439636 0.3052999973 85.106399536 172.13439941 4.1791148186 4.3845996857 4.1384444237
 1752.9534912 12.000000000 8.6044998169 8.5000000000 376982.28125 -0.000300000 1.5779999495 0.1902046502 2.4304785728 4.4381260872 41.361560822 0.4790000021 86.336196899 177.19569397 2.4738364220 4.1112389565 2.4329366684
 1753.1059570 12.000000000 8.5679998398 8.5000000000 384596.28125 0.0001000000 1.7472000122 0.1956955940 2.4309995174 4.4113216400 44.719715118 0.5516999960 86.192703247 174.76489258 2.0667243004 4.0393571854 2.0379145145
 1753.2583008 12.000000000 8.5350999832 8.5000000000 379995.15625 -0.000100000 1.8535000086 0.2115745395 2.4198179245 4.3670711517 44.244667053 0.5462999940 83.771003723 168.43499756 3.9664525986 3.7202119827 3.9378523827
 1753.4107666 12.000000000 8.5496997833 8.5000000000 399134.65625 -0.001200000 2.0657000542 0.2275871783 2.4022140503 4.3529114723 43.464626312 0.4939000309 80.835197449 157.40339661 3.7123062611 3.6955192089 3.7355647087
 1753.5631104 12.000000000 8.5387001038 8.5000000000 357930.68750 -0.003400000 2.1558001041 0.2445727736 2.3911178112 4.3492054939 40.824436188 0.3109999895 78.615196228 150.07550049 3.5289938450 3.5252730846 3.5569860935
 1753.7155762 12.000000000 8.5431003571 8.5000000000 340739.34375 -0.004900000 2.2743999958 0.2386048138 2.3981943130 4.3242201805 40.540924072 0.3353999853 78.487091064 152.45359802 4.3261604309 3.9462621212 4.3671503067
 1753.8679199 12.000000000 8.5563001633 8.5000000000 341779.50000 -0.003000000 2.3508999348 0.2222131491 2.4282758236 4.2566542625 40.301490784 0.2234999985 80.805198669 154.37840271 4.4820756912 4.6568307877 4.5482554436
 1754.0203857 12.000000000 8.5649995804 8.5000000000 326802.96875 0.0018000000 2.3271000385 0.1920241863 2.4619729519 4.1674714088 40.729656219 0.2881999910 84.975402832 160.91940308 3.8577003479 5.2433304787 3.9454829693
 1754.1727295 12.000000000 8.5649995804 8.5000000000 311294.34375 0.0051000002 2.9123001099 0.1857050508 2.4729912281 4.0358052254 41.432834625 0.2395000011 91.276901245 174.21069336 2.3826825619 3.8549139500 2.4339118004
 1754.3251953 13.000000000 8.5299997330 8.5000000000 302947.62500 0.0041000000 3.4656000137 0.2087815106 2.4568128586 3.9169950485 45.786415100 0.4151999950 96.847503662 199.60719299 1.5653539896 2.6402723789 1.5842798948
 1754.4775391 13.000000000 8.5256004333 8.5000000000 281145.81250 0.0012000001 4.0591998100 0.2270853370 2.4375154972 3.8433589935 50.080059052 0.4641999900 98.522796631 204.27929688 1.5637007952 2.5081050396 1.5825008154
 1754.6300049 13.000000000 8.4993000031 8.5000000000 286659.75000 -0.001100000 3.9768002033 0.2343941629 2.4319043159 3.9093470573 50.964595795 0.3714999855 95.997299194 194.42999268 2.6957929134 2.3740072250 2.7078983784
 1754.7823486 12.000000000 8.5212001801 8.5000000000 307450.28125 -0.004600000 3.6654999256 0.2210107446 2.4281032085 4.1579008102 49.413242340 0.3925999999 89.669197083 180.10169983 2.0622088909 3.1107091904 2.0906956196
 1754.9348145 12.000000000 8.4772996902 8.5000000000 273752.18750 -0.005800000 3.0936999321 0.2089096904 2.4369928837 4.4783434868 47.228450775 0.3265999854 83.512802124 170.10960388 3.8400750160 3.2316036224 3.8870601654
 1755.0871582 12.000000000 8.5387001038 8.5000000000 295193.40625 -0.004300000 2.5127000809 0.1975091398 2.4584827423 4.7061171532 44.602005005 0.2612999976 80.370002747 163.47799683 3.9394216537 4.3583965302 4.0081043243
 1755.2395020 12.000000000 8.5607004166 8.5000000000 287261.59375 -0.000300000 2.0957000256 0.1888139397 2.4855566025 4.7004094124 40.562774658 0.3176999986 78.915710449 156.61669922 3.9403984547 4.3951420784 4.0166859627
 1755.3919678 11.000000000 8.5350999832 8.5000000000 279116.37500 0.0015000000 1.9273999929 0.1862020791 2.4916949272 4.5618109703 38.144535065 0.3328000009 78.930702209 152.75480652 3.9847645760 4.5063109398 4.0618638992
 1755.5443115 11.000000000 8.5299997330 8.5000000000 277826.84375 0.0015000000 1.8011000156 0.1893948764 2.4777224064 4.4632577896 38.893795013 0.3932999969 78.911499023 154.27960205 4.6474370956 5.1235098839 4.7020735741
 1755.6967773 11.000000000 8.5256004333 8.5000000000 267647.12500 0.0062000002 1.7829999924 0.1841042489 2.4662094116 4.4837832451 38.402893066 0.2316000015 78.853202820 154.99189758 4.0217027664 5.2599911690 3.9998638630
 1755.8491211 11.000000000 8.4421997070 8.5000000000 256921.12500 0.0193000007 1.5003000498 0.1856974363 2.4765832424 4.5301256180 36.559356689 0.2345000058 79.156700134 155.04878235 3.9518113136 5.2438263893 3.8755984306
 1756.0015869 11.000000000 8.4070997238 8.5000000000 262731.53125 0.0320000015 1.6183999777 0.1756080985 2.4934864044 4.5523824692 35.602863312 0.1174999997 79.383003235 154.66659546 3.6026799679 4.6376857758 3.5196850300
 1756.1539307 11.000000000 8.4642000198 8.5000000000 250143.95313 0.0304000005 1.4450999498 0.1823945493 2.4928004742 4.5265212059 35.831317902 0.1508000046 79.244796753 152.81370544 3.9154489040 4.0655584335 3.8121652603
 1756.3063965 11.000000000 8.4729003906 8.5000000000 237546.31250 0.0184000004 1.4859000444 0.1914927065 2.4771125317 4.4878311157 36.431819916 0.2073999941 78.229995728 150.94520569 3.9701564312 3.8183977604 3.8599617481
 1756.4587402 11.000000000 8.5518999100 8.5000000000 248693.42188 0.0046000001 1.3107999563 0.1972953528 2.4552175999 4.5012888908 34.749950409 0.2080000043 77.418205261 149.61360168 3.2711606026 3.7530522346 3.1784465313
 1756.6112061 11.000000000 8.5914001465 8.5000000000 243455.39063 -0.000100000 1.1363999844 0.1926037669 2.4454078674 4.5395693779 33.063350677 0.2759000063 78.162002563 149.04240417 3.4188811779 3.8079559803 3.3028998375
 1756.7635498 11.000000000 8.6133003235 8.5000000000 254167.00000 -0.001600000 1.1877000332 0.1948981583 2.4341089725 4.5840640068 29.637346268 0.3170999885 80.112396240 149.73779297 2.8315711021 3.5236279964 2.7355551720
 1756.9160156 11.000000000 8.6176996231 8.5000000000 254470.64063 -0.004600000 1.2872999907 0.2238767892 2.4150152206 4.6523451805 28.321252823 0.2493000031 80.273498535 151.88220215 2.5132546425 2.9820337296 2.4267470837
