# LAS format log file from PETREL
# Project units are specified as depth units
#==================================================================
~Version information
VERS.   2.0:
WRAP.   NO:
#==================================================================
~Well
STRT .m      1508.9610596 :
STOP .m      1968.9045410 :
STEP .m     0.00000000 :
NULL .        -999.250000 :
COMP.           : COMPANY
WELL.  16/5-3 Johan Sverdrup Appr   : WELL
FLD.            : FIELD
LOC.            : LOCATION
SRVC.           : SERVICE COMPANY
DATE.  2018-09-11 14:48:08   : Log Export Date {yyyy-MM-dd HH:mm:ss}
PROV.           : PROVINCE
UWI.   16/5-3   : UNIQUE WELL ID
API.            : API NUMBER
#==================================================================
~Curve
DEPT .m                   : DEPTH
Lithology_geolink ._      : Lithology_geolink
CALI .in                  : CALI
BS .in                    : BS
ROP .m/h                  : ROP
DRHO .g/cm3               : DRHO
THOR .ppm                 : THOR
NPHI .m3/m3               : NPHI
RHOB .g/cm3               : RHOB
PEF .b/e                  : PEF
GR .gAPI                  : GR
URAN .ppm                 : URAN
DTC .us/ft                : DTC
DTS .us/ft                : DTS
RDEP .ohm.m               : RDEP
RMIC .ohm.m               : RMIC
RMED .ohm.m               : RMED
~Parameter
#==================================================================
~Ascii
# ...
 1537.1551514 11.000000000 8.6133003235 8.5000000000 285696.09375 -0.006900000 0.3269999921 0.2564059198 2.2895996571 5.0560240746 22.583147049 0.0408000015 86.875099182 161.28149414 1.3951615095 1.7292636633 1.3792680502
 1537.3076172 11.000000000 8.5861997604 8.5000000000 284176.78125 -0.005000000 0.3434000015 0.2587980926 2.2930972576 5.0274229050 23.660938263 0.0593999997 86.808006287 161.55690002 1.4332693815 1.7329969406 1.4132727385
 1537.4599609 11.000000000 8.5914001465 8.5000000000 281992.31250 -0.002900000 0.3788999915 0.2546033561 2.2999944687 5.0065164566 22.647014618 0.0571999997 86.285499573 161.72068787 1.5430120230 1.7621766329 1.5186156034
 1537.6123047 11.000000000 8.5869998932 8.5000000000 270424.87500 -0.001700000 0.4620000124 0.2665807903 2.3080871105 4.9838361740 21.477973938 0.0671000034 85.511199951 160.38549805 1.5743498802 1.8107221127 1.5483524799
 1537.7647705 11.000000000 8.5957002640 8.5000000000 263795.06250 -0.001300000 0.5396000147 0.2785903811 2.3154940605 4.9677128792 21.299840927 0.0694999993 84.917900085 158.82470703 1.5995798111 1.8422747850 1.5733799934
 1537.9171143 11.000000000 8.5957002640 8.5000000000 255341.87500 -0.001900000 0.4650999904 0.2767030299 2.3204917908 4.9678993225 19.576864243 0.0296999998 84.594497681 158.51808167 1.5767366886 1.8192369938 1.5500373840
 1538.0695801 11.000000000 8.5869998932 8.5000000000 244728.18750 -0.003200000 0.3244000077 0.2751012743 2.3195006847 5.0039710999 18.928916931 0.1020999998 84.402900696 158.59950256 1.6062762737 1.8704588413 1.5775778294
 1538.2219238 11.000000000 8.5869998932 8.5000000000 236989.95313 -0.003400000 0.3255000114 0.2555313706 2.3179025650 5.0163798332 18.829359055 0.2159000039 84.291694641 158.44439697 1.5699583292 1.8798849583 1.5432550907
 1538.3743896 11.000000000 8.6263999939 8.5000000000 233163.29688 -0.003300000 0.4029999971 0.2596966326 2.3108057976 5.0344858170 21.464986801 0.1682000011 84.353897095 157.64830017 1.5379256010 1.8478257656 1.5118252039
 1538.5267334 11.000000000 8.6263999939 8.5000000000 233101.23438 -0.002600000 0.3928999901 0.2584010363 2.3076026440 5.0161147118 21.705808640 0.2621999979 84.670196533 157.57580566 1.4772486687 1.7721606493 1.4541462660
 1538.6791992 11.000000000 8.6155004501 8.5000000000 232363.60938 -0.002300000 0.3919999897 0.2641953528 2.3076999187 5.0050091743 22.515151978 0.2469000220 85.013298035 158.25090027 1.4292384386 1.7563126087 1.4097355604
 1538.8315430 11.000000000 8.5869998932 8.5000000000 227009.82813 -0.002200000 0.4192999899 0.2628011405 2.3143944740 4.9875140190 21.494518280 0.3043000102 85.031196594 158.90010071 1.5646914244 1.7973670959 1.5508867502
 1538.9840088 11.000000000 8.5869998932 8.5000000000 222163.31250 -0.002300000 0.4882999659 0.2520086467 2.3207950592 4.9943943024 21.198535919 0.3359999955 84.762603760 158.82510376 1.6360429525 1.9056133032 1.6244411469
 1539.1363525 11.000000000 8.5914001465 8.5000000000 220409.26563 -0.002700000 0.5006999969 0.2445060015 2.3193011284 5.0234766006 21.929115295 0.4205999970 84.527900696 158.25880432 1.6664756536 1.9348766804 1.6525775194
 1539.2888184 11.000000000 8.6263999939 8.5000000000 221215.12500 -0.002000000 0.5095999837 0.2583888769 2.3136045933 5.0272970200 21.814193726 0.3068999946 84.936599731 158.42860413 1.7071675062 1.9378975630 1.6971641779
 1539.4411621 11.000000000 8.6301002502 8.5000000000 220412.07813 -0.000400000 0.4426999986 0.2758859694 2.3092036247 4.9981231689 22.669115067 0.3172000051 86.256500244 159.04190063 1.4796825647 1.8998304605 1.4784753323
 1539.5936279 11.000000000 8.6308002472 8.5000000000 230423.87500 0.0004000000 0.3959000111 0.2935858071 2.3067018986 4.9513378143 21.656412125 0.2960000038 87.510299683 161.22779846 1.3465065956 1.8325538635 1.3457062244
 1539.7459717 11.000000000 8.6410999298 8.5000000000 241992.70313 -0.000100000 0.4210999906 0.2829085886 2.3100974560 4.9136300087 20.410497665 0.2019000053 87.653900146 163.20590210 1.4005565643 1.7759453058 1.3973585367
 1539.8983154 11.000000000 8.6351995468 8.5000000000 245521.92188 -0.002500000 0.6467000246 0.2762107253 2.3118970394 4.9121022224 18.916994095 0.0930000022 86.765403748 163.60780334 1.4448291063 1.7618225813 1.4402313232
 1540.0507813 11.000000000 8.6921997070 8.5000000000 239894.67188 -0.003800000 0.5986999869 0.2644094527 2.3185944557 4.9322838783 18.126932144 0.1050999984 85.519889832 162.47019958 1.5728973150 1.9469515085 1.5628017187
 1540.2031250 11.000000000 8.6000995636 8.5000000000 235782.28125 -0.004100000 0.7283999920 0.2578105927 2.3272862434 4.9645485878 19.999395370 -0.000800000 84.224708557 159.69590759 1.6272131205 2.0771913528 1.6165140867
 1540.3555908 11.000000000 8.6089000702 8.5000000000 232651.18750 -0.002900000 0.5881000161 0.2467088997 2.3456852436 4.9688968658 19.337631226 0.0410999991 82.946701050 157.45520020 1.6374918222 2.2563564777 1.6253929138
 1540.5079346 11.000000000 8.6082000732 8.5000000000 230083.46875 -0.002000000 0.6543999910 0.2422072142 2.3657677174 4.9658045769 20.510316849 -0.029900001 82.046302795 154.82640076 1.9091643095 2.3812000751 1.8900754452
 1540.6604004 11.000000000 8.6176996231 8.5000000000 218638.59375 -0.001000000 0.7648000121 0.2383031249 2.3806881905 4.9636020660 19.598531723 -0.005400000 81.282600403 152.45880127 2.2451307774 2.5958280563 2.2109429836
 1540.8127441 11.000000000 8.6044998169 8.5000000000 211810.64063 -0.001200000 0.8521000147 0.2461936623 2.3787016869 5.0216531754 20.446718216 -0.111000001 80.673202515 150.09419250 2.0897250175 2.5790135860 2.0519278049
 1540.9652100 11.000000000 8.6176996231 8.5000000000 206164.95313 -0.001700000 0.8464000225 0.2407044172 2.3698072433 5.0969400406 18.960391998 -0.048799999 80.100402832 149.72531128 2.0376417637 2.5344357491 1.9989423752
 1541.1175537 11.000000000 8.6133003235 8.5000000000 194584.25000 -0.002300000 0.7652999759 0.2383019179 2.3627057076 5.1477594376 18.474988937 -0.064400002 79.829399109 150.45359802 1.9916368723 2.4842402935 1.9536362886
 1541.2700195 11.000000000 8.6220998764 8.5000000000 184344.09375 -0.002700000 0.5777000189 0.2347028702 2.3585033417 5.1511969566 19.816724777 0.0087000001 80.655601501 151.37530518 2.0281705856 2.4006669521 1.9865735769
 1541.4223633 11.000000000 8.6133003235 8.5000000000 180517.32813 -0.002700000 0.5709000230 0.2301036865 2.3547031879 5.1191258430 20.085784912 0.0531000011 81.663398743 153.15139771 1.8737238646 2.3115713596 1.8440142870
 1541.5748291 11.000000000 8.6263999939 8.5000000000 179255.90625 -0.002100000 0.4560000002 0.2297003120 2.3512029648 5.0693402290 21.464494705 0.1562999934 82.383697510 152.89210510 1.8468214273 2.2641379833 1.8188201189
 1541.7271729 11.000000000 8.6308002472 8.5000000000 177687.40625 -0.001300000 0.5594999790 0.2254034430 2.3480026722 5.0170421600 20.427631378 0.2344000041 82.925193787 154.21150208 1.7841502428 2.1935565472 1.7612460852
 1541.8795166 11.000000000 8.6044998169 8.5000000000 177748.81250 -0.000900000 0.3801000118 0.2336867154 2.3420095444 4.9761652946 20.524642944 0.3237999976 83.577903748 155.07600403 1.7656296492 2.0849740505 1.7485203743
 1542.0319824 11.000000000 8.6044998169 8.5000000000 181641.73438 -0.001100000 0.5942000151 0.2507863045 2.3332071304 4.9628105164 19.747123718 0.3136999905 84.341400146 156.08299255 1.5251927376 1.9100401402 1.5228809118
 1542.1843262 11.000000000 8.6176996231 8.5000000000 191520.48438 -0.000400000 0.2991999984 0.2633798122 2.3322017193 4.9541139603 20.880680084 0.2829999924 84.639503479 158.70480347 1.5135183334 1.9087018967 1.5121169090
 1542.3367920 11.000000000 8.6089000702 8.5000000000 192414.56250 -0.000400000 0.3278999925 0.2719931304 2.3360970020 4.9730849266 20.371309280 0.3373999894 84.601501465 158.98429871 1.6243112087 1.9499669075 1.6233108044
 1542.4891357 11.000000000 8.6082000732 8.5000000000 194066.92188 -0.001200000 0.3084999919 0.2633139193 2.3420903683 5.0129361153 21.578363419 0.3449000120 84.338088989 158.61570740 1.6751186848 2.0774953365 1.6767145395
 1542.6416016 11.000000000 8.6308002472 8.5000000000 198726.39063 -0.004600000 0.4043999910 0.2557060719 2.3366043568 5.0863413811 20.812116623 0.3531999886 84.123497009 157.66870117 1.6453239918 2.0642106533 1.6479231119
