# LAS format log file from PETREL
# Project units are specified as depth units
#==================================================================
~Version information
VERS.   2.0:
WRAP.   NO:
#==================================================================
~Well
STRT .m      1508.9610596 :
STOP .m      1968.9045410 :
STEP .m     0.00000000 :
NULL .        -999.250000 :
COMP.           : COMPANY
WELL.  16/5-3 Johan Sverdrup Appr   : WELL
FLD.            : FIELD
LOC.            : LOCATION
SRVC.           : SERVICE COMPANY
DATE.  2018-09-11 14:48:08   : Log Export Date {yyyy-MM-dd HH:mm:ss}
PROV.           : PROVINCE
UWI.   16/5-3   : UNIQUE WELL ID
API.            : API NUMBER
#==================================================================
~Curve
DEPT .m                   : DEPTH
Lithology_geolink ._      : Lithology_geolink
CALI .in                  : CALI
BS .in                    : BS
ROP .m/h                  : ROP
DRHO .g/cm3               : DRHO
THOR .ppm                 : THOR
NPHI .m3/m3               : NPHI
RHOB .g/cm3               : RHOB
PEF .b/e                  : PEF
GR .gAPI                  : GR
URAN .ppm                 : URAN
DTC .us/ft                : DTC
DTS .us/ft                : DTS
RDEP .ohm.m               : RDEP
RMIC .ohm.m               : RMIC
RMED .ohm.m               : RMED
~Parameter
#==================================================================
~Ascii
# ...
 1689.4028320 11.000000000 8.6395998001 8.5000000000 301819.15625 -0.006500000 1.0954999924 0.2140148878 2.3710713387 5.0091195107 24.372745514 0.0691000000 83.789001465 166.37100220 2.6626391411 2.3807523251 2.5610582829
 1689.5551758 11.000000000 8.6440000534 8.5000000000 296422.03125 -0.007200000 1.2645000219 0.2208944708 2.3775947094 5.0242877007 23.134092331 0.0654999986 83.333206177 162.81329346 2.3025891781 2.6641731262 2.2223720551
 1689.7075195 11.000000000 8.6484003067 8.5000000000 304444.59375 -0.006600000 1.1353000402 0.2245940715 2.3708109856 4.9950466156 25.948184967 0.1416999996 83.693801880 161.51119995 2.4271998405 2.5415968895 2.3386130333
 1689.8599854 11.000000000 8.6630001068 8.5000000000 298064.59375 -0.004300000 1.1325000525 0.2338925451 2.3599088192 4.9426417351 26.868965149 0.1882999986 84.538803101 163.44650269 2.1543190479 2.5593857765 2.0731132030
 1690.0123291 11.000000000 8.6520004272 8.5000000000 296730.46875 -0.003300000 1.0398999453 0.2380932868 2.3510143757 4.9097523689 26.597637177 0.1825000048 85.415702820 168.61210632 1.9949551821 2.3416492939 1.9182480574
 1690.1647949 11.000000000 8.6527996063 8.5000000000 304005.15625 -0.003200000 1.0288000107 0.2390991896 2.3523988724 4.9022064209 25.430036545 0.1351000071 85.699897766 172.44450378 1.8660032749 2.3493936062 1.7970969677
 1690.3171387 11.000000000 8.6835002899 8.5000000000 297309.56250 -0.002900000 1.3494000435 0.2262206525 2.3655788898 4.8975076675 24.733116150 0.2233999968 85.617301941 174.70590210 2.2262220383 2.3997194767 2.1147902012
 1690.4696045 11.000000000 8.6556997299 8.5000000000 275030.46875 -0.002700000 1.4309999943 0.2146092951 2.3774905205 4.9170842171 25.151563644 0.1386000067 85.268203735 172.57139587 2.2537782192 2.4796359539 2.1590650082
 1690.6219482 11.000000000 8.6484003067 8.5000000000 261745.29688 -0.002900000 1.5027999878 0.2237926275 2.3802978992 4.9312887192 24.801380157 0.1520999968 84.897399902 169.78649902 2.2727847099 2.4871940613 2.1804828644
 1690.7744141 11.000000000 8.6659002304 8.5000000000 260886.12500 -0.003600000 1.0745999813 0.2372891903 2.3753039837 4.9449892044 24.320785522 0.2081000060 85.053001404 167.63360596 2.1428041458 2.4680151939 2.0739853382
 1690.9267578 11.000000000 8.6702995300 8.5000000000 277500.87500 -0.003000000 1.0604000092 0.2453934997 2.3791000843 4.9219999313 26.588279724 0.0910999998 84.975799561 165.77679443 2.0858454704 2.4983000755 2.0246396065
 1691.0792236 11.000000000 8.6702995300 8.5000000000 282046.00000 -0.004100000 1.1703000069 0.2397045642 2.3831000328 4.9509000778 26.032245636 0.0719000027 84.699897766 168.21600342 2.3348004818 2.4626998901 2.2752990723
 1691.2315674 11.000000000 8.6484003067 8.5000000000 278604.71875 -0.005800000 1.2115999460 0.2310069799 2.3896000385 4.9879999161 27.302581787 -0.021900000 84.711601257 170.16400146 2.2588610649 2.5055000782 2.2032580376
 1691.3840332 11.000000000 8.6520004272 8.5000000000 279148.37500 -0.007200000 1.4390000105 0.2268033624 2.3903999329 5.0166001320 24.871950150 -0.049800001 85.020805359 172.55749512 2.3246474266 2.4923999310 2.2562575340
 1691.5363770 11.000000000 8.6571998596 8.5000000000 266881.09375 -0.008500000 1.4369000196 0.2348935008 2.3791000843 5.0275001526 27.084123611 -0.163200006 86.178100586 174.09330750 2.4178254604 2.3919000626 2.3462278843
 1691.6887207 11.000000000 8.6775999069 8.5000000000 256069.68750 -0.010100000 1.8859000206 0.2521722913 2.3591001034 5.0504999161 27.314931870 -0.329600006 87.152397156 172.25439453 2.3869495392 2.1607999802 2.3157491684
 1691.8411865 11.000000000 8.6739997864 8.5000000000 261783.07813 -0.012800000 1.8185000420 0.2569961548 2.3452999592 5.0785999298 26.944498062 -0.307000011 87.200401306 173.38929749 2.0505695343 2.1656999588 1.9764720201
 1691.9935303 11.000000000 8.6791000366 8.5000000000 276024.78125 -0.013700000 1.7009999752 0.2417244911 2.3545000553 5.0989999771 26.036254883 -0.240199998 86.757797241 174.87890625 2.3049914837 2.2792000771 2.1946494579
 1692.1459961 11.000000000 8.6702995300 8.5000000000 275899.62500 -0.011800000 1.6985000372 0.2238000035 2.3854999542 5.0829000473 26.793891907 -0.179100007 85.355697632 175.45928955 2.7918100357 2.5947999954 2.6644234657
 1692.2983398 11.000000000 8.6440000534 8.5000000000 256700.78125 -0.006900000 1.7773000002 0.2087000012 2.4231998920 5.0311999321 27.198053360 -0.123500004 83.464599609 174.07119751 2.9264848232 3.1459999084 2.8034775257
 1692.4508057 11.000000000 8.6395998001 8.5000000000 238972.43750 -0.002200000 1.6891000271 0.1976999938 2.4493999481 4.9646000862 26.939607620 -0.071199998 81.732902527 167.60169983 3.8767383099 4.0460000038 3.7263600826
 1692.6031494 11.000000000 8.6133003235 8.5000000000 209767.31250 0.0019000000 1.4976999760 0.1952999979 2.4605998993 4.9236998558 25.922416687 0.1140000001 80.701301575 162.91789246 3.9491424561 4.1479001045 3.8245217800
 1692.7556152 11.000000000 8.6702995300 8.5000000000 205764.57813 0.0020000001 1.5670000315 0.2013999969 2.4437003136 4.9064002037 27.577472687 0.1511999965 80.796096802 161.50949097 3.4938647747 3.7000999451 3.4083335400
 1692.9079590 11.000000000 8.6739997864 8.5000000000 202286.21875 0.0008000000 1.5305999517 0.2097000033 2.4077999592 4.9004001617 29.623659134 0.3316999972 82.004302979 162.54539490 3.0646438599 3.2139000893 3.0241076946
 1693.0604248 11.000000000 8.6746997833 8.5000000000 204300.00000 0.0003000000 1.4555000067 0.2224999964 2.3622000217 4.8344998360 30.528377533 0.3925000131 84.353790283 163.05490112 1.8305885792 2.8022999763 1.8112715483
 1693.2127686 11.000000000 8.6921997070 8.5000000000 207139.37500 0.0016000000 1.3974000216 0.2635999918 2.3185000420 4.7993001938 29.303682327 0.4829000235 87.029998779 164.80090332 1.4281220436 2.2386999130 1.4109202623
 1693.3652344 11.000000000 8.7010002136 8.5000000000 210403.93750 -0.002200000 0.8529000282 0.3075000048 2.2671999931 4.8228998184 26.987854004 0.6604999900 89.454299927 168.20350647 1.3011015654 1.5939999819 1.2834019661
 1693.5175781 11.000000000 8.6965999603 8.5000000000 216904.70313 -0.006600000 0.7049999833 0.3427000046 2.2362999916 4.8783001900 24.448934555 0.6269000173 90.649002075 174.00259399 1.2295573950 1.4408999681 1.2148548365
 1693.6699219 11.000000000 8.6921997070 8.5000000000 229243.70313 -0.011400000 0.4413999915 0.3395000100 2.2293000221 4.9380998611 23.567609787 0.5655999780 89.724197388 176.40190125 1.3208534718 1.5095000267 1.3163371086
 1693.8223877 11.000000000 8.6791000366 8.5000000000 256600.39063 -0.010600000 0.3648999929 0.3147999942 2.2604999542 4.9451999664 23.177810669 0.5461000204 87.602600098 173.92210388 2.0075495243 1.8592000008 2.0141403675
 1693.9747314 11.000000000 8.6659002304 8.5000000000 282516.15625 -0.006400000 0.4812999964 0.2872000039 2.3127999306 4.9042000771 24.605909348 0.6155999899 85.145690918 170.52470398 2.0483353138 2.2555000782 2.0567324162
 1694.1271973 11.000000000 8.6614999771 8.5000000000 332442.50000 -0.002200000 0.6884999871 0.2485000044 2.3610999584 4.8485999107 23.967512131 0.7469999790 83.590400696 166.63220215 2.4517765045 2.7962000370 2.4588775635
 1694.2795410 11.000000000 8.6775999069 8.5000000000 343691.34375 0.0013000000 0.8442999721 0.2278999984 2.3900001049 4.7933001518 25.428155899 0.7037000060 83.445098877 165.05131531 2.9559917450 3.3863000870 2.9513108730
 1694.4320068 11.000000000 8.6775999069 8.5000000000 344722.43750 0.0007000000 0.8363999724 0.2204000056 2.3884999752 4.7678999901 26.526821136 0.7505000234 83.959602356 165.39830017 3.0359365940 3.3066000938 3.0155491829
 1694.5843506 11.000000000 8.6849002838 8.5000000000 359853.56250 0.0002000000 0.8262000084 0.2193000019 2.3849000931 4.7228999138 28.261909485 0.7059999704 84.623497009 166.46369934 2.6989703178 3.0320000648 2.5839462280
 1694.7368164 11.000000000 8.6775999069 8.5000000000 365911.40625 -0.000500000 1.0957000256 0.2248000056 2.3882000446 4.6956000328 26.805967331 0.5214999914 84.834396362 168.01107788 2.8301947117 2.8833999634 2.6878166199
 1694.8891602 11.000000000 8.6775999069 8.5000000000 328821.28125 -0.002700000 0.9650000334 0.2208999991 2.3873000145 4.7242999077 25.429403305 0.5580000281 85.023101807 169.17590332 2.6849164963 2.8619000912 2.5430161953
