# LAS format log file from PETREL
# Project units are specified as depth units
#==================================================================
~Version information
VERS.   2.0:
WRAP.   NO:
#==================================================================
~Well
STRT .m      1508.9610596 :
STOP .m      1968.9045410 :
STEP .m     0.00000000 :
NULL .        -999.250000 :
COMP.           : COMPANY
WELL.  16/5-3 Johan Sverdrup Appr   : WELL
FLD.            : FIELD
LOC.            : LOCATION
SRVC.           : SERVICE COMPANY
DATE.  2018-09-11 14:48:08   : Log Export Date {yyyy-MM-dd HH:mm:ss}
PROV.           : PROVINCE
UWI.   16/5-3   : UNIQUE WELL ID
API.            : API NUMBER
#==================================================================
~Curve
DEPT .m                   : DEPTH
Lithology_geolink ._      : Lithology_geolink
CALI .in                  : CALI
BS .in                    : BS
ROP .m/h                  : ROP
DRHO .g/cm3               : DRHO
THOR .ppm                 : THOR
NPHI .m3/m3               : NPHI
RHOB .g/cm3               : RHOB
PEF .b/e                  : PEF
GR .gAPI                  : GR
URAN .ppm                 : URAN
DTC .us/ft                : DTC
DTS .us/ft                : DTS
RDEP .ohm.m               : RDEP
RMIC .ohm.m               : RMIC
RMED .ohm.m               : RMED
~Parameter
#==================================================================
~Ascii
# ...
 1661.2088623 11.000000000 8.6000995636 8.5000000000 126866.92969 -0.000600000 0.4273471236 0.2012999952 2.4460000992 4.9500999451 23.332700729 0.3034400046 78.645309448 150.00259399 3.2385001183 3.9697999954 3.1965000629
 1661.3612061 11.000000000 8.6351995468 8.5000000000 124592.13281 0.0007000000 0.4862217307 0.2082999945 2.4468998909 4.9068999290 24.367900848 0.3532320261 81.193801880 156.74769592 3.2144000530 3.6977000237 3.1782999039
 1661.5136719 11.000000000 8.6351995468 8.5000000000 125625.58594 -0.000700000 0.6381998062 0.2111999989 2.4298000336 4.9475998878 26.035200119 0.2684112191 82.227302551 158.73689270 2.3469998837 3.1826999187 2.3371000290
 1661.6660156 11.000000000 8.6000995636 8.5000000000 127348.82031 -0.003500000 0.6379119158 0.2078000009 2.4082999229 5.0036997795 26.955400467 0.2823876143 81.188003540 156.10189819 2.4335999489 2.7964999676 2.4407999516
 1661.8184814 11.000000000 8.6133003235 8.5000000000 131014.95313 -0.004400000 0.5278978944 0.2046999931 2.3984999657 5.0529999733 24.355199814 0.2668970525 79.352500916 151.15750122 2.3966999054 2.7739999294 2.4042999744
 1661.9708252 11.000000000 8.6220998764 8.5000000000 135519.68750 -0.004100000 0.4005401731 0.2052000016 2.3975000381 5.0714001656 22.641700745 0.2631553411 77.879302979 146.24159241 2.4086000919 2.7356998920 2.4138998985
 1662.1232910 11.000000000 8.6133003235 8.5000000000 138369.68750 -0.003700000 0.3260010183 0.2064999938 2.3977999687 5.0907998085 21.273700714 0.2073881328 77.834709167 145.22320557 2.4207000732 2.7297999859 2.4233000278
 1662.2756348 11.000000000 8.6133003235 8.5000000000 140572.43750 -0.003600000 0.4520938993 0.2028000057 2.3984999657 5.1066999435 23.083099365 0.1925514340 78.345596313 146.27510071 2.5717999935 2.8303000927 2.5690999031
 1662.4281006 11.000000000 8.6220998764 8.5000000000 143369.29688 -0.003400000 0.5694750547 0.2060000002 2.4000999928 5.1161999702 22.848499298 0.1319921464 78.676002502 147.54820251 2.5610001087 3.0230998993 2.5590000153
 1662.5804443 11.000000000 8.6133003235 8.5000000000 148683.07813 -0.003200000 0.7410972714 0.2011999935 2.4005000591 5.1244997978 23.261499405 0.1271130741 78.783599854 148.46319580 2.5666999817 3.2334001064 2.5660998821
 1662.7329102 11.000000000 8.6000995636 8.5000000000 152131.89063 -0.002500000 0.8622736335 0.2005999982 2.4038000107 5.1132001877 21.722900391 0.1433215290 78.525596619 148.61920166 2.6349999905 3.0153999329 2.6287999153
 1662.8852539 11.000000000 8.6000995636 8.5000000000 153640.15625 -0.000900000 0.7835525870 0.1953999996 2.4130001068 5.0493001938 21.399999619 0.0944114625 78.213996887 148.28909302 2.8306999207 2.9876000881 2.8089001179
 1663.0377197 11.000000000 8.6133003235 8.5000000000 116670.47656 -0.000700000 0.8488044143 0.1952999979 2.4161000252 5.0131998062 19.347299576 0.1088002399 77.820602417 146.13389587 2.7356998920 2.8807001114 2.6982998848
 1663.1900635 11.000000000 8.6044998169 8.5000000000 113156.69531 -0.001900000 0.6645979285 0.1932000071 2.4131999016 5.0081000328 19.506000519 0.1712335646 77.400398254 145.09179688 2.6454999447 2.9547998905 2.6061999798
 1663.3424072 11.000000000 8.5914001465 8.5000000000 114135.82031 -0.003500000 0.7868921757 0.2000000030 2.4080998898 5.0395998955 20.170099258 0.0883576423 76.990402222 144.38490295 2.6043999195 2.9381999969 2.5643999577
 1663.4948730 11.000000000 8.6118001938 8.5000000000 113854.72656 -0.003700000 1.0266163349 0.2065999955 2.4109001160 5.0447998047 22.247600555 0.0354851782 76.513389587 142.75270081 2.7413001060 2.9737999439 2.7030000687
 1663.6470947 11.000000000 8.6118001938 8.5000000000 111476.71094 -0.002500000 0.9222000241 0.2112962306 2.4197928905 5.0161228180 22.846420288 0.0170000009 76.173171997 141.82334900 2.7681784630 3.0448429585 2.7274804115
 1663.7995605 11.000000000 8.6118001938 8.5000000000 111891.39844 -0.002100000 1.1234999895 0.2033064067 2.4228975773 5.0021114349 21.930734634 0.0091000004 76.099563599 141.61256409 2.7475166321 3.0329096317 2.6961250305
 1663.9519043 11.000000000 8.6190996170 8.5000000000 110962.95313 -0.001800000 0.9755000472 0.1989035308 2.4244987965 4.9849138260 22.517929077 -0.024800001 76.350898743 142.85910034 2.6849501133 3.1006455421 2.6364479065
 1664.1043701 11.000000000 8.6044998169 8.5000000000 110086.52344 -0.002100000 1.1092000008 0.1947033703 2.4229011536 5.0009870529 22.773395538 0.0173000004 76.876876831 143.93093872 2.7718303204 3.1709437370 2.7106404305
 1664.2567139 11.000000000 8.6044998169 8.5000000000 110174.34375 -0.002400000 1.2957999706 0.1959989518 2.4218008518 5.0231823921 24.305871964 0.1042999998 77.317749023 144.17280579 2.7863883972 3.0978586674 2.7206919193
 1664.4091797 11.000000000 8.6082000732 8.5000000000 110242.86719 -0.002400000 1.0569000244 0.1928025633 2.4217998981 5.0273966789 24.433099747 0.1027999967 77.317405701 144.31738281 2.7864999771 3.1470603943 2.7212994099
 1664.5615234 11.000000000 8.6155004501 8.5000000000 141091.01563 -0.002600000 1.0964000225 0.1964970380 2.4208006859 5.0217046738 23.865156174 0.1168000028 76.868354797 143.68341064 2.7206525803 3.2129473686 2.6688420773
 1664.7138672 11.000000000 8.6133003235 8.5000000000 145518.92188 -0.003300000 0.8421000242 0.1931054443 2.4185035229 5.0207014084 21.384178162 0.0595000014 76.155647278 142.62649536 2.7694218159 3.2680118084 2.7185204029
 1664.8663330 11.000000000 8.6089000702 8.5000000000 141311.64063 -0.003700000 0.9003000259 0.1876044124 2.4174008369 5.0274949074 21.014392853 0.1174999997 75.618324280 141.67196655 2.8276531696 3.2136435509 2.7790515423
 1665.0186768 11.000000000 8.6044998169 8.5000000000 136946.37500 -0.003900000 0.8443999887 0.1856032014 2.4163017273 5.0432748795 20.162065506 0.2021999955 75.549118042 141.19926453 2.8930950165 3.1319308281 2.8511843681
 1665.1711426 11.000000000 8.6133003235 8.5000000000 144566.73438 -0.003400000 0.6313999891 0.1932938248 2.4168994427 5.0546908379 21.229942322 0.2691999972 76.003837585 141.33009338 2.6887640953 3.0872356892 2.6513605118
 1665.3234863 11.000000000 8.6155004501 8.5000000000 144726.12500 -0.003100000 0.6796000004 0.2092743814 2.4153025150 5.0744686127 19.309082031 0.2585000098 76.812500000 142.16935730 2.6796143055 3.0613415241 2.6432127953
 1665.4759521 11.000000000 8.6176996231 8.5000000000 145499.37500 -0.002900000 0.6883000135 0.2142959982 2.4125020504 5.1014785767 20.258237839 0.1782999933 77.251647949 143.23313904 2.6765024662 3.0871791840 2.6412017345
 1665.6282959 11.000000000 8.6044998169 8.5000000000 147113.26563 -0.002400000 0.7429000139 0.2235925496 2.4130995274 5.1089940071 22.212434769 0.2472000122 77.325729370 144.95343018 2.5294179916 3.2171957493 2.4949173927
 1665.7807617 11.000000000 8.6133003235 8.5000000000 145718.45313 -0.001800000 0.6219999790 0.2157063186 2.4184956551 5.1029047966 22.995674133 0.2694999874 77.409530640 146.98995972 2.7515218258 3.5338463783 2.7018339634
 1665.9331055 11.000000000 8.6263999939 8.5000000000 141690.62500 -0.001300000 0.5199000239 0.2054082602 2.4275925159 5.0935077667 24.305351257 0.1884000003 77.596450806 147.47271729 3.0829343796 3.8812215328 3.0037579536
 1666.0855713 11.000000000 8.5861997604 8.5000000000 141967.10938 -0.001300000 0.6245999932 0.1873144954 2.4356935024 5.0965976715 22.348169327 0.1888000071 77.996978760 148.48478699 2.9617972374 3.8945894241 2.8857946396
 1666.2379150 11.000000000 8.5914001465 8.5000000000 137716.39063 -0.001900000 0.6740000248 0.1767084897 2.4379980564 5.1132864952 23.161645889 0.1562000066 77.534873962 147.27906799 3.2652566433 3.7822902203 3.1766664982
 1666.3903809 11.000000000 8.5957002640 8.5000000000 134337.73438 -0.003200000 0.6915000081 0.1730029583 2.4343028069 5.1187958717 22.896013260 0.1494999975 76.119934082 144.55067444 3.2622027397 3.5912530422 3.1766002178
 1666.5427246 11.000000000 8.5899000168 8.5000000000 134737.46875 -0.004500000 0.7031999826 0.1781958342 2.4282050133 5.1067094803 23.576753616 0.0309999995 74.917160034 142.00325012 3.0583634377 3.4390220642 2.9913485050
 1666.6950684 11.000000000 8.5957002640 8.5000000000 127661.35938 -0.005500000 0.6682000160 0.1816944033 2.4233078957 5.0949192047 22.567020416 -0.015000000 74.593620300 140.99909973 3.0745737553 3.3595273495 3.0166592598
