# LAS format log file from PETREL
# Project units are specified as depth units
#==================================================================
~Version information
VERS.   2.0:
WRAP.   NO:
#==================================================================
~Well
STRT .m      1508.9610596 :
STOP .m      1968.9045410 :
STEP .m     0.00000000 :
NULL .        -999.250000 :
COMP.           : COMPANY
WELL.  16/5-3 Johan Sverdrup Appr   : WELL
FLD.            : FIELD
LOC.            : LOCATION
SRVC.           : SERVICE COMPANY
DATE.  2018-09-11 14:48:08   : Log Export Date {yyyy-MM-dd HH:mm:ss}
PROV.           : PROVINCE
UWI.   16/5-3   : UNIQUE WELL ID
API.            : API NUMBER
#==================================================================
~Curve
DEPT .m                   : DEPTH
Lithology_geolink ._      : Lithology_geolink
CALI .in                  : CALI
BS .in                    : BS
ROP .m/h                  : ROP
DRHO .g/cm3               : DRHO
THOR .ppm                 : THOR
NPHI .m3/m3               : NPHI
RHOB .g/cm3               : RHOB
PEF .b/e                  : PEF
GR .gAPI                  : GR
URAN .ppm                 : URAN
DTC .us/ft                : DTC
DTS .us/ft                : DTS
RDEP .ohm.m               : RDEP
RMIC .ohm.m               : RMIC
RMED .ohm.m               : RMED
~Parameter
#==================================================================
~Ascii
# ...
 1965.7041016 5.0000000000 8.6044998169 8.5000000000 95724.804688 -0.004500000  -999.250000  -999.250000 2.3768999577 3.1814000607 95.150703430  -999.250000 90.491401672 175.97024536 3.2767000198 2.7818999290 3.1856999397
 1965.8564453 5.0000000000 8.5957002640 8.5000000000 94200.000000 -0.005800000  -999.250000  -999.250000 2.3587000370 3.2797000408 95.235397339  -999.250000 90.917999268 180.13430786 3.0950999260 2.3580000401 3.0083999634
 1966.0089111 5.0000000000 8.5496997833 8.5000000000 99139.367188 -0.005200000  -999.250000  -999.250000 2.3496000767 3.3064999580 95.815101624  -999.250000 91.465797424 183.87902832 3.0050001144 2.2771000862 2.9121999741
 1966.1612549 5.0000000000 8.5570001602 8.5000000000 108102.76563 -0.005300000  -999.250000  -999.250000 2.3545000553 3.2228000164 97.136398315  -999.250000 91.455596924 186.40052795 3.0239999294 2.5283999443 2.9312999249
 1966.3137207 5.0000000000 8.5607004166 8.5000000000 150266.93750 -0.007500000  -999.250000  -999.250000 2.3557999134 3.1285998821 97.509300232  -999.250000 90.734397888 185.80683899 3.2330000401 3.0708000660 3.1331999302
 1966.4660645 5.0000000000 8.5825996399 8.5000000000 134085.82813 -0.007400000  -999.250000  -999.250000 2.3568999767 3.0803999901 96.689598083  -999.250000 89.367500305 184.45234680 3.2070000172 3.2172000408 3.1075000763
 1966.6185303 5.0000000000 8.5789003372 8.5000000000 134493.31250 -0.001200000  -999.250000  -999.250000 2.3692998886 3.1410000324 97.710296631  -999.250000 88.385498047 181.01329041 3.1795001030 2.7734000683 3.0820999146
 1966.7708740 5.0000000000 8.4948997498 8.5000000000 165640.17188 0.0065000001  -999.250000  -999.250000 2.3864998817 3.2332000732 98.370002747  -999.250000 88.139198303 171.46366882 3.3150000572 2.7214999199 3.2162001133
 1966.9233398 5.0000000000 8.5387001038 8.5000000000 193079.54688 0.0055999998  -999.250000  -999.250000 2.3763999939 3.3352999687 95.094802856  -999.250000 87.539802551 168.29365540 3.3143999577 2.5469999313 3.2140998840
 1967.0756836 5.0000000000 8.5424003601 8.5000000000 187388.98438 0.0029000000  -999.250000  -999.250000 2.3636000156 3.3931999207 92.051803589  -999.250000 86.993797302 165.02166748 3.1946001053 2.2741000652 3.0959000587
 1967.2280273 6.0000000000 8.5789003372 8.5000000000 185260.62500 -0.000500000  -999.250000  -999.250000 2.3526999950 3.4477999210 93.221397400  -999.250000 88.892898560 165.24145508 3.0687000751 2.1814000607 2.9681999683
 1967.3804932 6.0000000000 8.6107997894 8.5000000000 195119.28125 0.0014000000  -999.250000  -999.250000 2.3652000427 3.4261999130 99.807701111  -999.250000 92.347297668 175.17613220 2.6833999157 2.4126000404 2.5984001160
 1967.5328369 6.0000000000 8.4436998367 8.5000000000 191050.39063 0.0018000000  -999.250000  -999.250000 2.3682000637 3.3605000973 107.42700195  -999.250000 94.849700928 187.56390381 2.6793999672 2.6784999371 2.5903999805
 1967.6853027 6.0000000000 8.5036001205 8.5000000000 183175.98438 0.0015000000  -999.250000  -999.250000 2.3631000519 3.2511000633 107.65630341  -999.250000 94.996803284 197.32553101 2.6489000320 2.5715999603 2.5631000996
 1967.8376465 6.0000000000 8.5205001831 8.5000000000 176943.31250 0.0000000000  -999.250000  -999.250000 2.3487999439 3.1791999340 102.59909821  -999.250000 92.774101257 201.09851074 3.0608000755 2.0032999516 2.9665999413
 1967.9901123 5.0000000000 8.5292997360 8.5000000000 192820.87500 -0.002700000  -999.250000  -999.250000 2.3350999355 3.0797998905 97.800697327  -999.250000 90.768005371 193.49040222 3.1298000813 2.0027000904 3.0455999374
 1968.1424561 5.0000000000 8.5262002945 8.5000000000 187978.34375 -0.005300000  -999.250000  -999.250000 2.3268001080 2.9437999725 94.920799255  -999.250000 90.694099426 183.27864075 3.1256999969 2.6303999424 3.0401999950
 1968.2949219 5.0000000000 8.5145998001 8.5000000000 191633.85938 -0.005800000  -999.250000  -999.250000 2.3257000446 2.8273000717 94.804397583  -999.250000 91.620498657 181.45375061 2.9103000164 2.8664000034 2.8285000324
 1968.4472656 5.0000000000 8.5167999268 8.5000000000 188082.28125 -0.005100000  -999.250000  -999.250000 2.3264000416 2.7695000172 95.111297607  -999.250000 91.916198730 181.23826599 2.8169000149 2.8410000801 2.7404999733
 1968.5997314 5.0000000000 8.5108003616 8.5000000000 190371.26563 -0.003800000  -999.250000  -999.250000 2.3280999660 2.7488999367 93.365997314  -999.250000 91.538208008 180.95005798 3.0264999866 2.8420999050 2.9433999062
 1968.7520752 5.0000000000 8.5148000717 8.5000000000 188208.67188 -0.003700000  -999.250000  -999.250000 2.3273999691 2.7272999287 90.699302673  -999.250000 90.873497009 180.79490662 2.9602000713 2.8675000668 2.8733000755
 1968.9045410 5.0000000000 8.5123996735 8.5000000000 187039.37500 -0.005100000  -999.250000  -999.250000 2.3248999119 2.7030000687 89.184097290  -999.250000 90.400596619 178.42868042 3.0840001106 2.9396998882 2.9860000610
