# LAS format log file from PETREL
# Project units are specified as depth units
#==================================================================
~Version information
VERS.   2.0:
WRAP.   NO:
#==================================================================
~Well
STRT .m      1508.9610596 :
STOP .m      1968.9045410 :
STEP .m     0.00000000 :
NULL .        -999.250000 :
COMP.           : COMPANY
WELL.  16/5-3 Johan Sverdrup Appr   : WELL
FLD.            : FIELD
LOC.            : LOCATION
SRVC.           : SERVICE COMPANY
DATE.  2018-09-11 14:48:08   : Log Export Date {yyyy-MM-dd HH:mm:ss}
PROV.           : PROVINCE
UWI.   16/5-3   : UNIQUE WELL ID
API.            : API NUMBER
#==================================================================
~Curve
DEPT .m                   : DEPTH
Lithology_geolink ._      : Lithology_geolink
CALI .in                  : CALI
BS .in                    : BS
ROP .m/h                  : ROP
DRHO .g/cm3               : DRHO
THOR .ppm                 : THOR
NPHI .m3/m3               : NPHI
RHOB .g/cm3               : RHOB
PEF .b/e                  : PEF
GR .gAPI                  : GR
URAN .ppm                 : URAN
DTC .us/ft                : DTC
DTS .us/ft                : DTS
RDEP .ohm.m               : RDEP
RMIC .ohm.m               : RMIC
RMED .ohm.m               : RMED
~Parameter
#==================================================================
~Ascii
# ...
 1599.1818848 11.000000000 8.6440000534 8.5000000000 222680.10938 -0.004300000 0.4271999896 0.2106064111 2.3863968849 5.0469546318 23.437631607 0.2545000017 79.119598389 148.51600647 2.3696324825 2.7591893673 2.3392422199
 1599.3343506 11.000000000 8.6484003067 8.5000000000 220949.03125 -0.003300000 0.4122000039 0.2064033747 2.3945932388 5.0219202042 22.862663269 0.2110999972 78.440902710 146.97013855 2.5292723179 2.8485283852 2.4918777943
 1599.4866943 11.000000000 8.6440000534 8.5000000000 212194.34375 -0.004600000 0.6797999740 0.2051020861 2.3912055492 5.0271916389 22.127779007 0.1252000034 78.182098389 146.00584412 2.5019440651 2.8707644939 2.4657421112
 1599.6391602 11.000000000 8.6571998596 8.5000000000 206451.84375 -0.006500000 0.7853999734 0.2076979131 2.3809082508 5.0440864563 21.297666550 0.0680999979 78.592300415 146.12780762 2.4154694080 2.7229185104 2.3764715195
 1599.7915039 11.000000000 8.6484003067 8.5000000000 203746.85938 -0.006600000 0.8506000042 0.2160865515 2.3745102882 5.0296235085 22.479303360 0.1259000003 79.392097473 147.30540466 2.2310955524 2.6227605343 2.1846075058
 1599.9439697 11.000000000 8.6527996063 8.5000000000 203538.34375 -0.004000000 1.1080000401 0.2196971029 2.3765983582 4.9760427475 23.565830231 0.1111000031 80.194801331 149.25762939 2.1293814182 2.5350701809 2.0735886097
 1600.0963135 11.000000000 8.6395998001 8.5000000000 203038.98438 -0.002300000 1.0062999725 0.2269941419 2.3766999245 4.9586138725 25.317096710 0.1396999955 80.940002441 150.59323120 2.1642718315 2.4971303940 2.1004784107
 1600.2487793 11.000000000 8.6571998596 8.5000000000 202743.54688 -0.002500000 0.9998000264 0.2273996919 2.3748013973 4.9724888802 26.400932312 0.1595000029 81.573097229 151.21557617 2.1343240738 2.4964005947 2.0690252781
 1600.4011230 11.000000000 8.6351995468 8.5000000000 201983.29688 -0.004100000 0.8072000146 0.2293983847 2.3743004799 4.9966802597 26.491327286 0.1421999931 81.769500732 151.61927795 2.1030249596 2.5642457008 2.0394237041
 1600.5535889 11.000000000 8.6351995468 8.5000000000 197781.29688 -0.005000000 0.8414000273 0.2240043283 2.3805952072 4.9938025475 25.276573181 0.0509000011 81.180198669 151.32324219 2.2759613991 2.7253711224 2.2036683559
 1600.7059326 11.000000000 8.6440000534 8.5000000000 195128.51563 -0.006200000 0.9894000888 0.2172054499 2.3852961063 4.9977965355 22.415792465 0.0208999999 79.794898987 150.39955139 2.4922266006 2.8989610672 2.4167292118
 1600.8583984 11.000000000 8.6440000534 8.5000000000 194926.92188 -0.005100000 0.9478999972 0.2044102550 2.3936932087 4.9733195305 21.232145309 0.0087000001 78.452102661 148.39709473 2.5653414726 3.0092117786 2.4837462902
 1601.0107422 11.000000000 8.6556997299 8.5000000000 196092.76563 -0.004300000 1.0159000158 0.1939084232 2.3947989941 4.9505181313 21.844308853 0.0465999991 77.928192139 146.31266785 2.6470344067 3.0665540695 2.5609383583
 1601.1630859 11.000000000 8.6484003067 8.5000000000 197217.50000 -0.002900000 0.6758999825 0.1975940764 2.3909060955 4.9155564308 23.086608887 0.1957000047 78.446197510 145.75419617 2.5694246292 2.9249272346 2.4824261665
 1601.3155518 11.000000000 8.6527996063 8.5000000000 198916.35938 -0.002600000 0.7524999976 0.2187830061 2.3794093132 4.8836259842 24.287738800 0.2117000073 80.586799622 147.15997314 2.1611273289 2.7403478622 2.0875165462
 1601.4678955 11.000000000 8.6571998596 8.5000000000 202877.51563 -0.004600000 0.6079999804 0.2374700457 2.3595318794 4.8931846619 25.982484818 0.2303999960 83.177696228 150.52001953 2.0137357712 2.4485678673 1.9460263252
 1601.6203613 11.000000000 8.6571998596 8.5000000000 209266.14063 -0.006800000 0.6628999710 0.2480915040 2.3445119858 4.9120845795 25.919452667 0.2010000050 84.378501892 153.91679382 1.8352429867 2.2180845737 1.7779345512
 1601.7727051 11.000000000 8.6571998596 8.5000000000 215927.92188 -0.008700000 0.8521999717 0.2504961491 2.3368124962 4.9494400024 26.326745987 0.1888000071 84.075798035 155.98399353 1.7998565435 2.0900049210 1.7464503050
 1601.9251709 11.000000000 8.6520004272 8.5000000000 220580.14063 -0.008500000 0.9398999810 0.2493009716 2.3412964344 4.9679851532 24.336795807 0.0965000018 82.519302368 156.44039917 1.8732410669 2.1657392979 1.8235381842
 1602.0775146 11.000000000 8.6527996063 8.5000000000 229308.75000 -0.007900000 0.9067999721 0.2484007180 2.3463957310 4.9806900024 25.361576080 0.1738999933 81.943901062 155.78680420 2.0441629887 2.2707159519 1.9949625731
 1602.2299805 11.000000000 8.6484003067 8.5000000000 235057.20313 -0.007500000 0.7932999730 0.2472009510 2.3468995094 4.9872946739 24.112001419 0.2157000005 82.605102539 154.76159668 2.0178213120 2.2866873741 1.9812110662
 1602.3823242 11.000000000 8.6527996063 8.5000000000 246119.85938 -0.007800000 0.6765000224 0.2544941604 2.3412046432 5.0014886856 24.379684448 0.2245000005 82.709091187 153.93229675 1.9794307947 2.2116601467 1.9499250650
 1602.5347900 11.000000000 8.6484003067 8.5000000000 257523.15625 -0.006500000 0.8659999967 0.2591962516 2.3394014835 4.9820156097 22.424465179 0.1790000051 82.426399231 153.74079895 1.8767822981 2.2281866074 1.8585731983
 1602.6871338 11.000000000 8.6571998596 8.5000000000 271321.21875 -0.004900000 0.8320999742 0.2549034655 2.3381009102 4.9475278854 23.346759796 0.0918999985 82.269500732 153.67510986 1.9252610207 2.1633520126 1.9091593027
 1602.8395996 11.000000000 8.6527996063 8.5000000000 281410.81250 -0.004000000 0.8442000151 0.2524020076 2.3337035179 4.8991384506 22.904354095 -0.010200000 82.817398071 154.71688843 1.8008996248 2.0308060646 1.7833008766
 1602.9919434 11.000000000 8.6318998337 8.5000000000 285851.56250 -0.003900000 0.7070999742 0.2595942318 2.3248071671 4.8634285927 25.350538254 -0.037300002 83.885696411 156.30429077 1.6827946901 1.9320790768 1.6624968052
 1603.1442871 11.000000000 8.6220998764 8.5000000000 290471.75000 -0.004700000 0.7214999795 0.2650911808 2.3132185936 4.8519186974 26.571744919 -0.071400002 84.841491699 157.98951721 1.6211985350 1.8855744600 1.5989017487
 1603.2967529 11.000000000 8.6308002472 8.5000000000 293379.96875 -0.004800000 0.4537000060 0.2720943987 2.3093030453 4.8437066078 26.326698303 -0.066900000 85.088500977 159.19679260 1.6076108217 1.8761074543 1.5833123922
 1603.4490967 11.000000000 8.6176996231 8.5000000000 297353.87500 -0.004800000 0.4427999854 0.2673076987 2.3131937981 4.8667626381 24.237152100 -0.091399997 84.765403748 159.00430298 1.6805828810 1.8909761906 1.6533875465
 1603.6015625 11.000000000 8.6220998764 8.5000000000 301024.62500 -0.004400000 0.5424000025 0.2667004764 2.3263895512 4.8983745575 21.622894287 -0.058200002 83.960601807 157.75070190 1.7534416914 2.0475742817 1.7208460569
 1603.7539063 11.000000000 8.6263999939 8.5000000000 304305.78125 -0.003400000 0.5708000064 0.2568158507 2.3427736759 4.9340429306 22.023952484 -0.115800001 82.621696472 155.40420532 1.9754440784 2.2184262276 1.9292658567
 1603.9063721 11.000000000 8.6155004501 8.5000000000 301537.65625 -0.004200000 0.6169999838 0.2424115390 2.3520925045 4.9609785080 22.646699905 -0.185499996 81.472900391 152.92230225 2.0616312027 2.3256142139 2.0083367825
 1604.0587158 11.000000000 8.6176996231 8.5000000000 297656.25000 -0.005000000 0.5375999808 0.2271122634 2.3588945866 4.9627985954 24.862625122 -0.142299995 80.537002563 151.65359497 2.1777069569 2.3625705242 2.1165132523
 1604.2111816 11.000000000 8.6089000702 8.5000000000 287212.34375 -0.003900000 0.4957000315 0.2174077630 2.3737881184 4.9053463936 24.177650452 -0.031100001 79.721992493 150.73039246 2.3361730576 2.5632393360 2.2617835999
 1604.3635254 11.000000000 8.6133003235 8.5000000000 266788.43750 -0.002300000 0.5249999762 0.2117045820 2.3874890804 4.8625345230 23.739450455 0.0680999979 79.193893433 149.58409119 2.6496486664 2.8231916428 2.5570633411
 1604.5159912 11.000000000 8.6176996231 8.5000000000 246716.48438 -0.000800000 0.5568000078 0.2032068074 2.3952937126 4.8492102623 21.713523865 0.0803999975 78.900100708 148.23869324 2.5388889313 2.9561936855 2.4472882748
 1604.6683350 11.000000000 8.6176996231 8.5000000000 230371.75000 -0.001100000 0.5557000041 0.2047987133 2.3910033703 4.8864698410 21.741674423 0.1456999928 78.938400269 147.01820374 2.4440760612 2.7780430317 2.3526759148
