# LAS format log file from PETREL
# Project units are specified as depth units
#==================================================================
~Version information
VERS.   2.0:
WRAP.   NO:
#==================================================================
~Well
STRT .m      1508.9610596 :
STOP .m      1968.9045410 :
STEP .m     0.00000000 :
NULL .        -999.250000 :
COMP.           : COMPANY
WELL.  16/5-3 Johan Sverdrup Appr   : WELL
FLD.            : FIELD
LOC.            : LOCATION
SRVC.           : SERVICE COMPANY
DATE.  2018-09-11 14:48:08   : Log Export Date {yyyy-MM-dd HH:mm:ss}
PROV.           : PROVINCE
UWI.   16/5-3   : UNIQUE WELL ID
API.            : API NUMBER
#==================================================================
~Curve
DEPT .m                   : DEPTH
Lithology_geolink ._      : Lithology_geolink
CALI .in                  : CALI
BS .in                    : BS
ROP .m/h                  : ROP
DRHO .g/cm3               : DRHO
THOR .ppm                 : THOR
NPHI .m3/m3               : NPHI
RHOB .g/cm3               : RHOB
PEF .b/e                  : PEF
GR .gAPI                  : GR
URAN .ppm                 : URAN
DTC .us/ft                : DTC
DTS .us/ft                : DTS
RDEP .ohm.m               : RDEP
RMIC .ohm.m               : RMIC
RMED .ohm.m               : RMED
~Parameter
#==================================================================
~Ascii
# ...
 1841.6503906 13.000000000 8.5130996704 8.5000000000 199651.84375 -0.006700000 8.5096998215 0.3292999864 2.3731999397 3.4607999325 84.603317261 1.2582000494 114.13690186 281.52029419 1.5805006027 1.9780000448 1.6089003086
 1841.8027344 13.000000000 8.5130996704 8.5000000000 202036.71875 -0.006000000 8.8152999878 0.3222999871 2.3728001118 3.4432001114 85.786903381 1.2228000164 113.92150116 281.54568481 1.6242299080 1.9693000317 1.6514317989
 1841.9552002 13.000000000 8.5022001266 8.5000000000 199895.01563 -0.005300000 8.6921997070 0.3280999959 2.3735001087 3.4261000156 87.541595459 1.1776000261 114.43329620 282.69540405 1.5949236155 1.9182000160 1.6151292324
 1842.1075439 13.000000000 8.5036001205 8.5000000000 204691.51563 -0.006300000 8.6898002625 0.3271999955 2.3684999943 3.4216001034 90.597900391 1.2637000084 115.44510651 284.85910034 1.5774279833 1.8113000393 1.5969290733
 1842.2600098 13.000000000 8.5022001266 8.5000000000 208175.95313 -0.006600000 8.7002000809 0.3345000148 2.3650999069 3.4305999279 84.071632385 1.2180000544 115.92469788 286.58731079 1.5559172630 1.7376999855 1.5743181705
 1842.4123535 13.000000000 8.5080003738 8.5000000000 210148.42188 -0.005400000 8.7526998520 0.3251000047 2.3726999760 3.4446001053 80.604080200 1.1367000341 115.27380371 286.74148560 1.4703685045 1.7999000549 1.4848717451
 1842.5648193 13.000000000 8.5123996735 8.5000000000 161883.93750 -0.002900000 8.1518001556 0.3084000051 2.3919000626 3.4914999008 76.450126648 1.0429999828 113.06199646 281.96420288 1.6082893610 2.0274000168 1.6243882179
 1842.7171631 13.000000000 8.5080003738 8.5000000000 139542.68750 -0.004400000 7.8847999573 0.2908999920 2.4010999203 3.6115000248 76.959884644 0.9703000188 109.86360168 270.82669067 1.8648943901 2.2881000042 1.8843916655
 1842.8696289 13.000000000 8.5094995499 8.5000000000 124724.45313 -0.006400000 7.1841998100 0.2870999873 2.4066998959 3.7393999100 74.901046753 1.0253000259 107.48690033 261.77059937 1.9505316019 2.3566999435 1.9721299410
 1843.0219727 13.000000000 8.5036001205 8.5000000000 115086.07031 -0.008000000 6.3562998772 0.2869000137 2.4079000950 3.8259999752 71.317665100 1.2978999615 106.81739807 253.22700500 1.9907678366 2.3445999622 2.0142664909
 1843.1744385 13.000000000 8.5094995499 8.5000000000 111265.26563 -0.006100000 6.2300000191 0.2861999869 2.4168000221 3.8357000351 70.897933960 1.3516999483 108.16609955 252.11109924 1.9345450401 2.2683999538 1.9557470083
 1843.3267822 13.000000000 8.5130996704 8.5000000000 110259.07813 -0.005800000 6.0974001884 0.2863999903 2.4140999317 3.8543000221 71.276695251 1.4500999451 110.19000244 255.71899414 1.8983290195 2.2054998875 1.9174306393
 1843.4791260 13.000000000 8.5094995499 8.5000000000 110278.34375 -0.005700000 5.9544000626 0.2906000018 2.4079999924 3.8752000332 70.077819824 1.4438999891 110.78949738 260.87631226 1.7935680151 2.0984001160 1.8076759577
 1843.6315918 13.000000000 8.5022001266 8.5000000000 109045.28125 -0.005900000 5.9879999161 0.3021999896 2.4007000923 3.8956000805 70.564109802 1.5053999424 110.64170074 265.46920776 1.6835881472 2.0597000122 1.6899942160
 1843.7839355 13.000000000 8.5022001266 8.5000000000 108870.47656 -0.006000000 5.9451999664 0.3057000041 2.3979001045 3.8784999847 70.004402161 1.4989999533 111.09159851 267.71389771 1.6735159159 2.0504000187 1.6779191494
 1843.9364014 13.000000000 8.5123996735 8.5000000000 109299.21094 -0.007300000 5.6476001740 0.3068000078 2.3936998844 3.8450999260 74.391685486 1.4125000238 111.98139954 269.17370605 1.6784960032 2.0195000172 1.6880917549
 1844.0887451 13.000000000 8.5130996704 8.5000000000 130012.20313 -0.008100000 5.5764999390 0.3127999902 2.3915998936 3.8018000126 76.668556213 1.5098999739 111.74530029 267.00329590 1.6855887175 1.9850000143 1.7026766539
 1844.2412109 13.000000000 8.5123996735 8.5000000000 150186.62500 -0.008500000 5.6477999687 0.3133000135 2.3931000233 3.7609999180 77.950576782 1.6220999956 109.79199219 262.82791138 1.6751084328 1.9601999521 1.6942068338
 1844.3935547 13.000000000 8.5094995499 8.5000000000 173593.70313 -0.008100000 5.3719000816 0.3059999943 2.3976998329 3.7437000275 75.568809509 1.6626000404 108.04550171 258.75671387 1.7428456545 2.0438001156 1.7676410675
 1844.5460205 13.000000000 8.5022001266 8.5000000000 198621.28125 -0.008400000 5.4988999367 0.2897999883 2.3991999626 3.7606000900 73.961090088 1.4112999439 107.54130554 254.65840149 2.1179993153 2.1621999741 2.1552894115
 1844.6983643 13.000000000 8.5167999268 8.5000000000 209043.31250 -0.007800000 5.5788998604 0.2912000120 2.3998999596 3.7946000099 72.752265930 1.2839000225 108.11360168 254.49859619 2.0125849247 2.2165000439 2.0453884602
 1844.8508301 13.000000000 8.5022001266 8.5000000000 210475.98438 -0.008100000 5.7059001923 0.2901999950 2.3945000172 3.8236999512 72.610511780 1.3540999889 109.58339691 257.94448853 1.8082636595 2.1003999710 1.8331699371
 1845.0031738 13.000000000 8.5036001205 8.5000000000 214339.37500 -0.008200000 6.3496999741 0.3052999973 2.3884999752 3.8073000908 73.062934875 1.1955000162 111.20510101 264.12478638 1.6813017130 1.9797999859 1.6978083849
 1845.1556396 13.000000000 8.5123996735 8.5000000000 219049.60938 -0.008400000 7.0504999161 0.3118999898 2.3812003136 3.7581000328 75.687194824 1.0844000578 112.91989899 270.89221191 1.5901730061 1.9165999889 1.6005778313
 1845.3079834 13.000000000 8.5123996735 8.5000000000 219895.26563 -0.007700000 7.3178000450 0.3197000027 2.3782000542 3.6786000729 77.543609619 1.0120999813 113.76110077 274.01721191 1.5681176186 1.9071999788 1.5766191483
 1845.4603271 13.000000000 8.5036001205 8.5000000000 216376.78125 -0.008600000 7.6433997154 0.3262000084 2.3717000484 3.6387000084 77.012252808 1.0123000145 113.36440277 273.19879150 1.5696974993 1.9641000032 1.5776982307
 1845.6127930 13.000000000 8.5123996735 8.5000000000 213206.70313 -0.008300000 7.9286003113 0.3194999993 2.3745000362 3.6184000969 81.188949585 0.9824000001 112.51528931 269.06500244 1.5731971264 2.0741000175 1.5826959610
 1845.7651367 13.000000000 8.5094995499 8.5000000000 210921.25000 -0.007200000 8.0221996307 0.3278000057 2.3831999302 3.6349000931 80.688110352 0.9624999166 111.11470032 262.09750366 1.8978792429 2.2850999832 1.9228545427
 1845.9176025 13.000000000 8.5058002472 8.5000000000 208384.25000 -0.004500000 7.7477998734 0.3136000037 2.3996000290 3.6226999760 79.845176697 0.8623999953 109.54750061 256.21661377 1.9604502916 2.4128999710 1.9929442406
 1846.0699463 13.000000000 8.4948997498 8.5000000000 206541.73438 -0.003000000 7.7577996254 0.3037999868 2.4070999622 3.6214001179 73.942169189 0.7657999992 108.82350159 253.95970154 1.9211630821 2.3966000080 1.9518659115
 1846.2224121 13.000000000 8.5130996704 8.5000000000 208660.62500 -0.002300000 8.0276002884 0.2994000018 2.4068999290 3.6045000553 74.504440308 0.9046000242 109.63950348 258.34210205 1.9199008942 2.1724998951 1.9505010843
 1846.3747559 13.000000000 8.5080003738 8.5000000000 144080.32813 -0.004100000 8.3528003693 0.3095999956 2.3900001049 3.6203999519 78.640777588 1.1251000166 111.97819519 266.23449707 1.7360475063 1.9797999859 1.7585538626
 1846.5272217 13.000000000 8.5094995499 8.5000000000 146136.62500 -0.006100000 8.7573003769 0.3194999993 2.3712000847 3.6089000702 81.004005432 1.1302000284 114.75920105 275.71881104 1.4977906942 1.8331999779 1.5045034885
 1846.6795654 13.000000000 8.5036001205 8.5000000000 144659.06250 -0.008400000 8.7438001633 0.3190999925 2.3540999889 3.5811998844 83.479316711 1.3289999962 116.55480194 284.45028687 1.4459414482 1.7540999651 1.4502433538
 1846.8320313 13.000000000 8.4993000031 8.5000000000 146893.70313 -0.008200000 8.6462001801 0.3213999867 2.3522000313 3.5255000591 84.356895447 1.5252000093 117.00730133 285.08511353 1.4399048090 1.7468999624 1.4437052011
 1846.9843750 13.000000000 8.5036001205 8.5000000000 147432.29688 -0.006700000 8.4638004303 0.3248000145 2.3603000641 3.4865000248 82.783355713 1.4986000061 116.03180695 280.36938477 1.5241323709 1.7996000051 1.5298309326
 1847.1368408 13.000000000 8.5130996704 8.5000000000 146167.31250 -0.005400000 8.0642004013 0.3366999924 2.3705999851 3.4983000755 80.042594910 1.4742000103 113.85140228 272.04229736 1.7436242104 1.9421000481 1.7601156235
