# LAS format log file from PETREL
# Project units are specified as depth units
#==================================================================
~Version information
VERS.   2.0:
WRAP.   NO:
#==================================================================
~Well
STRT .m      1508.9610596 :
STOP .m      1968.9045410 :
STEP .m     0.00000000 :
NULL .        -999.250000 :
COMP.           : COMPANY
WELL.  16/5-3 Johan Sverdrup Appr   : WELL
FLD.            : FIELD
LOC.            : LOCATION
SRVC.           : SERVICE COMPANY
DATE.  2018-09-11 14:48:08   : Log Export Date {yyyy-MM-dd HH:mm:ss}
PROV.           : PROVINCE
UWI.   16/5-3   : UNIQUE WELL ID
API.            : API NUMBER
#==================================================================
~Curve
DEPT .m                   : DEPTH
Lithology_geolink ._      : Lithology_geolink
CALI .in                  : CALI
BS .in                    : BS
ROP .m/h                  : ROP
DRHO .g/cm3               : DRHO
THOR .ppm                 : THOR
NPHI .m3/m3               : NPHI
RHOB .g/cm3               : RHOB
PEF .b/e                  : PEF
GR .gAPI                  : GR
URAN .ppm                 : URAN
DTC .us/ft                : DTC
DTS .us/ft                : DTS
RDEP .ohm.m               : RDEP
RMIC .ohm.m               : RMIC
RMED .ohm.m               : RMED
~Parameter
#==================================================================
~Ascii
# ...
 1570.9880371 11.000000000 8.6351995468 8.5000000000 204380.31250 -0.002800000 0.7595000267 0.2377000004 2.3705999851 5.0552000999 20.778699875 0.1380999982 81.448097229 153.20249939 2.0473999977 2.4094998837 2.0176999569
 1571.1403809 11.000000000 8.6395998001 8.5000000000 204715.75000 -0.002200000 0.7175999880 0.2310000062 2.3696000576 5.0258002281 20.222700119 0.0960000008 81.367996216 153.15718079 2.0371000767 2.3931999207 2.0041000843
 1571.2928467 11.000000000 8.6395998001 8.5000000000 211945.28125 -0.001500000 0.6240000129 0.2205000073 2.3691999912 5.0159001350 23.260099411 0.0873999968 81.046501160 152.89038086 1.9835000038 2.3745999336 1.9515999556
 1571.4451904 11.000000000 8.6308002472 8.5000000000 219225.59375 -0.001800000 0.4675000012 0.2181999981 2.3643999100 5.0482001305 23.043800354 0.1247999966 80.797004700 152.21339417 1.9665000439 2.2783000469 1.9326000214
 1571.5976563 11.000000000 8.6527996063 8.5000000000 225738.18750 -0.004200000 0.5202000141 0.2202000022 2.3496000767 5.1286997795 23.042600632 0.1979999989 81.170898438 151.94340515 1.9887000322 2.3429000378 1.9487999678
 1571.7500000 11.000000000 8.6527996063 8.5000000000 226914.56250 -0.006200000 0.5144000053 0.2356999964 2.3352999687 5.1831998825 22.653299332 0.2725000083 82.084899902 152.64739990 1.9320000410 2.2665998936 1.8889000416
 1571.9024658 11.000000000 8.6527996063 8.5000000000 231701.57813 -0.007000000 0.5957999825 0.2448000014 2.3273000717 5.1968998909 25.060600281 0.3589999974 83.134498596 154.49110413 1.8322999477 2.1981999874 1.7907999754
 1572.0548096 11.000000000 8.6571998596 8.5000000000 232198.81250 -0.006900000 0.6122999787 0.2466000021 2.3285000324 5.1890997887 24.441400528 0.3521000147 83.804595947 156.97090149 1.8006999493 2.1389000416 1.7595000267
 1572.2072754 11.000000000 8.6746997833 8.5000000000 240237.40625 -0.005900000 0.6234999895 0.2419999987 2.3387999535 5.1574997902 23.918199539 0.4212999940 83.910003662 158.84620667 1.8242000341 2.1853001118 1.7825000286
 1572.3596191 11.000000000 8.6791000366 8.5000000000 245575.98438 -0.005000000 0.5659999847 0.2413000017 2.3496999741 5.1125001907 22.821699142 0.3738999963 83.927001953 159.15681458 1.8601000309 2.2242999077 1.8161000013
 1572.5120850 11.000000000 8.6614999771 8.5000000000 248637.42188 -0.005200000 0.3084999919 0.2407999933 2.3512001038 5.0862002373 24.546100616 0.3151000142 83.906997681 157.89599609 1.9014999866 2.2291998863 1.8587000370
 1572.6644287 11.000000000 8.6614999771 8.5000000000 254148.43750 -0.007100000 0.3420000076 0.2334000021 2.3392000198 5.0987000465 23.293500900 0.3343999982 83.846603394 155.88050842 1.8971999884 2.2293000221 1.8547999859
 1572.8168945 11.000000000 8.6395998001 8.5000000000 262000.39063 -0.009100000 0.3770000041 0.2398000062 2.3204998970 5.1326999664 24.369600296 0.4230999947 83.996101379 155.64799500 1.8832000494 2.1173000336 1.8408999443
 1572.9692383 11.000000000 8.6440000534 8.5000000000 271175.18750 -0.008400000 0.4982999861 0.2469000071 2.3087999821 5.1346998215 22.719400406 0.4372000098 84.525001526 157.45089722 1.7798000574 1.9716999531 1.7421000004
 1573.1215820 11.000000000 8.6571998596 8.5000000000 277907.46875 -0.005900000 0.5131000280 0.2624999881 2.3045001030 5.0960001945 23.151100159 0.4165000021 85.463897705 160.31689453 1.6523000002 1.8474999666 1.6150000095
 1573.2740479 11.000000000 8.6440000534 8.5000000000 292508.28125 -0.003500000 0.5006999969 0.2624999881 2.3025000095 5.0563998222 20.846700668 0.4056999981 86.969703674 163.35699463 1.5177999735 1.7905999422 1.4811999798
 1573.4263916 11.000000000 8.6527996063 8.5000000000 301256.68750 -0.002100000 0.4668000042 0.2732000053 2.3036999702 5.0030999184 19.942600250 0.3249999881 88.256698608 163.99209595 1.5118999481 1.7173000574 1.4763000011
 1573.5788574 11.000000000 8.6571998596 8.5000000000 306855.12500 -0.002200000 0.5052000284 0.2725000083 2.3062996864 4.9945001602 18.254999161 0.3093999922 88.351699829 164.47390747 1.5022000074 1.6919000149 1.4661999941
 1573.7312012 11.000000000 8.6659002304 8.5000000000 318261.03125 -0.004600000 0.5382999778 0.2804999948 2.3089001179 5.0309000015 20.998100281 0.3677999973 87.892593384 164.76730347 1.4831000566 1.7141000032 1.4466999769
 1573.8836670 11.000000000 8.6614999771 8.5000000000 322385.40625 -0.006500000 0.5730000138 0.2687000036 2.3152000904 5.0893001556 23.446100235 0.4246000051 86.813903809 164.80978394 1.5535000563 1.8682999611 1.5123000145
 1574.0360107 11.000000000 8.6647996902 8.5000000000 321933.06250 -0.006600000 0.5257999897 0.2642000020 2.3262999058 5.1164999008 23.930000305 0.3838000000 85.247596741 163.55830383 1.8444999456 2.0148000717 1.7889000177
 1574.1884766 11.000000000 8.6835002899 8.5000000000 328712.59375 -0.004300000 0.6198999882 0.2484000027 2.3420999050 5.0787000656 22.062500000 0.3705999851 83.689102173 159.61950684 1.9581999779 2.1463999748 1.8912999630
 1574.3408203 11.000000000 8.6571998596 8.5000000000 320306.68750 -0.003500000 0.5490000248 0.2433999926 2.3485000134 5.0464000702 21.460300446 0.3379999995 82.130996704 155.41818237 1.9519000053 2.1705000401 1.8824000359
 1574.4932861 11.000000000 8.6527996063 8.5000000000 308087.03125 -0.003100000 0.5360000134 0.2375999987 2.3517999649 4.9998002052 21.283700943 0.2465000153 81.459800720 153.12420654 1.8992999792 2.1768999100 1.8277000189
 1574.6456299 11.000000000 8.6527996063 8.5000000000 302337.40625 -0.002500000 0.3729999959 0.2371000051 2.3559000492 4.9763998985 21.399099350 0.3122000098 81.915802002 152.98890686 1.8420000076 2.1515998840 1.7710000277
 1574.7980957 11.000000000 8.6527996063 8.5000000000 287942.12500 -0.001400000 0.3434000015 0.2391999960 2.3645000458 4.9661998749 21.425100327 0.3278999925 82.570999146 153.96310425 1.8445999622 2.1921000481 1.7713999748
 1574.9504395 11.000000000 8.6746997833 8.5000000000 279468.90625 -0.001900000 0.3986999989 0.2282000035 2.3661000729 5.0137000084 22.922599792 0.3887000084 82.806503296 154.73751831 1.9329999685 2.2957000732 1.8546999693
 1575.1027832 11.000000000 8.6791000366 8.5000000000 269974.03125 -0.003200000 0.4133999944 0.2307000011 2.3631000519 5.0669999123 23.083499908 0.4790999889 82.580200195 154.92469788 1.8797999620 2.3434000015 1.8079999685
 1575.2552490 11.000000000 8.6702995300 8.5000000000 256420.87500 -0.004400000 0.3919000030 0.2233999968 2.3605000973 5.0968999863 23.232599258 0.5012000203 81.826705933 154.43640137 1.9134999514 2.3004000187 1.8449000120
 1575.4075928 11.000000000 8.6614999771 8.5000000000 245770.85938 -0.004500000 0.3819999993 0.2327000052 2.3620998859 5.1034002304 23.055900574 0.4289000034 80.921699524 153.31288147 1.9506000280 2.3057000637 1.8834999800
 1575.5600586 11.000000000 8.6659002304 8.5000000000 235641.73438 -0.004600000 0.3154000044 0.2232999951 2.3629000187 5.1085000038 23.623600006 0.3215999901 80.411499023 151.70050049 2.0357000828 2.3394999504 1.9689999819
 1575.7124023 11.000000000 8.6659002304 8.5000000000 233881.89063 -0.005300000 0.2827999890 0.2301000059 2.3592998981 5.1156001091 23.734500885 0.3246999979 80.400299072 150.61689758 1.9502999783 2.3417999744 1.8948999643
 1575.8648682 11.000000000 8.6702995300 8.5000000000 233982.28125 -0.005000000 0.2540000081 0.2281000018 2.3568999767 5.0840997696 24.010700226 0.3147999942 81.108703613 150.65838623 1.9169000387 2.3417000771 1.8672000170
 1576.0172119 11.000000000 8.6878995895 8.5000000000 233431.89063 -0.005700000 0.2791999876 0.2310999930 2.3482999802 5.0611000061 25.120599747 0.4111999869 81.989097595 152.09979248 1.8560999632 2.2255001068 1.8114999533
 1576.1696777 11.000000000 8.6921997070 8.5000000000 233730.70313 -0.006000000 0.2429999858 0.2374999970 2.3420999050 5.0349998474 25.963100433 0.4866999984 82.526100159 153.70629883 1.7632999420 2.1124000549 1.7239999771
 1576.3220215 11.000000000 8.6835002899 8.5000000000 239825.20313 -0.007500000 0.2732999921 0.2364999950 2.3359999657 5.0479998589 26.203699112 0.4357999861 82.752098083 154.59359741 1.7372000217 2.0552000999 1.7009999752
 1576.4744873 11.000000000 8.6758003235 8.5000000000 238907.48438 -0.007400000 0.3152000010 0.2410999984 2.3406000137 5.0500001907 25.819200516 0.4255999923 82.422096252 154.82188416 1.9099999666 2.1110999584 1.8732000589
