# LAS format log file from PETREL
# Project units are specified as depth units
#==================================================================
~Version information
VERS.   2.0:
WRAP.   NO:
#==================================================================
~Well
STRT .m      1508.9610596 :
STOP .m      1968.9045410 :
STEP .m     0.00000000 :
NULL .        -999.250000 :
COMP.           : COMPANY
WELL.  16/5-3 Johan Sverdrup Appr   : WELL
FLD.            : FIELD
LOC.            : LOCATION
SRVC.           : SERVICE COMPANY
DATE.  2018-09-11 14:48:08   : Log Export Date {yyyy-MM-dd HH:mm:ss}
PROV.           : PROVINCE
UWI.   16/5-3   : UNIQUE WELL ID
API.            : API NUMBER
#==================================================================
~Curve
DEPT .m                   : DEPTH
Lithology_geolink ._      : Lithology_geolink
CALI .in                  : CALI
BS .in                    : BS
ROP .m/h                  : ROP
DRHO .g/cm3               : DRHO
THOR .ppm                 : THOR
NPHI .m3/m3               : NPHI
RHOB .g/cm3               : RHOB
PEF .b/e                  : PEF
GR .gAPI                  : GR
URAN .ppm                 : URAN
DTC .us/ft                : DTC
DTS .us/ft                : DTS
RDEP .ohm.m               : RDEP
RMIC .ohm.m               : RMIC
RMED .ohm.m               : RMED
~Parameter
#==================================================================
~Ascii
# ...
 1785.2624512 12.000000000 8.5825996399 8.5000000000 134274.81250 -0.000200000 4.2781000137 0.1832000017 2.5157999992 4.3586001396 45.992698669 0.2374999970 94.049499512 206.45329285 3.0697000027 3.5766000748 3.0878000259
 1785.4147949 12.000000000 8.5738000870 8.5000000000 127926.38281 -0.002500000 4.5991997719 0.2028000057 2.4848999977 4.2922000885 47.646701813 0.2725999951 100.17379761 220.79679871 3.0639998913 2.5550999641 3.0789999962
 1785.5672607 12.000000000 8.5459995270 8.5000000000 131728.34375 -0.003600000 5.2716999054 0.2407000065 2.4451999664 4.1728000641 52.795398712 0.2619999945 105.27619934 243.61740112 2.8505001068 2.0817000866 2.8566000462
 1785.7196045 12.000000000 8.5693998337 8.5000000000 133234.26563 -0.002000000 5.7231998444 0.2721999884 2.4212999344 4.0401000977 60.725399017 0.1193000004 106.35379791 256.37219238 1.7570999861 1.9986000061 1.7451000214
 1785.8720703 12.000000000 8.5563001633 8.5000000000 129088.57031 0.0022000000 6.0564999580 0.2912000120 2.4268999100 3.9804000854 64.339500427 0.1295000017 103.93460083 247.22860718 2.5081000328 2.2114999294 2.5021998882
 1786.0244141 13.000000000 8.5424003601 8.5000000000 147344.89063 0.0044000000 5.8091001511 0.2804000080 2.4493000507 4.0385999680 60.979099274 0.1642999947 99.311004639 232.15100098 2.5364999771 2.4375000000 2.5316998959
 1786.1767578 13.000000000 8.5431003571 8.5000000000 152862.98438 0.0031999999 5.1437997818 0.2621000111 2.4713997841 4.1841998100 58.699501038 0.0666999966 95.460700989 220.77409363 2.5062999725 3.0081000328 2.5037000179
 1786.3292236 13.000000000 8.5518999100 8.5000000000 166795.26563 0.0005000000 4.7375998497 0.2416000068 2.4867000580 4.3548998833 55.540199280 0.0643000007 93.054100037 211.46859741 2.3689999580 3.2695000172 2.3731999397
 1786.4815674 13.000000000 8.5431003571 8.5000000000 175427.93750 0.0007000000 4.0061001778 0.2140000015 2.4993000031 4.4991998672 50.127300262 0.1010000035 90.044197083 206.72039795 3.1092998981 3.7932000160 3.1289999485
 1786.6340332 12.000000000 8.5474996567 8.5000000000 189204.32813 0.0083999997 3.5487999916 0.1912000030 2.5072000027 4.6336998940 42.759300232 0.1345999986 88.390296936 200.47900391 3.0443999767 3.9872000217 3.0685999393
 1786.7863770 12.000000000 8.5607004166 8.5000000000 190379.53125 0.0229000002 3.4491000175 0.1860000044 2.5223999023 4.6998000145 40.451801300 0.1644999981 89.391403198 202.96528625 3.7950999737 4.2095999718 3.7936000824
 1786.9388428 12.000000000 8.5036001205 8.5000000000 188961.03125 0.0296999998 3.4935998917 0.1964000016 2.5255999565 4.7133998871 44.943599701 0.2078000009 92.148200989 212.69380188 2.4112999439 3.5306000710 2.3880999088
 1787.0911865 12.000000000 8.5563001633 8.5000000000 190248.43750 0.0237000007 3.7764999866 0.2185000032 2.5241999626 4.6307997704 47.839199066 0.2092999965 94.803398132 220.24620056 2.3111999035 2.8861999512 2.2830998898
 1787.2436523 13.000000000 8.5431003571 8.5000000000 192269.28125 0.0096000005 3.5388998985 0.2237000018 2.5118999481 4.5556998253 50.854198456 0.3889000118 95.014999390 221.54660034 2.6637001038 3.1956999302 2.6470999718
 1787.3959961 13.000000000 8.5957002640 8.5000000000 187743.31250 0.0010000000 3.2070999146 0.2215999961 2.5046999454 4.5103001595 50.166698456 0.4923999906 94.168899536 217.79479980 3.2706999779 4.0216999054 3.2516999245
 1787.5484619 13.000000000 8.5825996399 8.5000000000 185624.40625 -0.000400000 3.1684999466 0.2102999985 2.5041999817 4.4886999130 49.082698822 0.6068999767 93.506401062 215.44947815 2.3213000298 4.1185998917 2.3180999756
 1787.7008057 13.000000000 8.5738000870 8.5000000000 188095.28125 -0.000100000 3.2662000656 0.2081000060 2.5051999092 4.4767999649 47.513999939 0.6873999834 92.982490540 213.63870239 2.4637000561 3.3659000397 2.4721999168
 1787.8532715 13.000000000 8.5825996399 8.5000000000 187264.95313 -0.000100000 3.0671000481 0.2050999999 2.5078001022 4.4677000046 48.032100677 0.7070999742 93.024597168 212.10229492 2.5517001152 3.1342999935 2.5639998913
 1788.0056152 13.000000000 8.5861997604 8.5000000000 182949.21875 -0.001300000 3.1222000122 0.2030999959 2.5020999908 4.4965000153 49.646198273 0.7617999911 93.809600830 211.23359680 2.9751999378 3.3232998848 3.0102999210
 1788.1580811 12.000000000 8.5693998337 8.5000000000 175396.06250 -0.003100000 3.1403000355 0.2035000026 2.4897000790 4.5303001404 49.532901764 0.8306999803 95.571189880 215.14979553 2.6177999973 3.0344998837 2.6422998905
 1788.3104248 12.000000000 8.5607004166 8.5000000000 195856.31250 -0.003200000 3.4946000576 0.2153999954 2.4860000610 4.5439000130 48.159698486 0.8600000143 95.787696838 220.07319641 2.2853999138 2.6531000137 2.3066999912
 1788.4627686 12.000000000 8.5825996399 8.5000000000 202114.95313 -0.003900000 3.9443998337 0.2217999995 2.4862000942 4.5780000687 47.166999817 0.8026000261 94.917800903 219.41090393 2.2005999088 2.8961999416 2.2216999531
 1788.6152344 12.000000000 8.5825996399 8.5000000000 196954.73438 -0.004000000 3.8884999752 0.2164999992 2.4900999069 4.5861001015 44.443801880 0.9386000037 94.778900146 216.38589478 2.7167000771 3.0862998962 2.7479999065
 1788.7675781 12.000000000 8.5914001465 8.5000000000 188939.76563 -0.004800000 3.5820000172 0.2149000019 2.4869999886 4.5920000076 45.096801758 0.8478999734 94.275901794 215.32470703 2.2541000843 3.2039000988 2.2797999382
 1788.9200439 13.000000000 8.5869998932 8.5000000000 211714.96875 -0.004900000 3.6254999638 0.2125000060 2.4883999825 4.6104998589 50.204498291 0.8907999992 94.345199585 217.09210205 2.2541999817 2.8589000702 2.2830998898
 1789.0723877 13.000000000 8.6089000702 8.5000000000 222724.01563 -0.005100000 3.4493999481 0.2142000049 2.4932000637 4.6793999672 51.622100830 0.8841000199 94.470397949 215.49562073 2.2771999836 3.3958001137 2.3020999432
 1789.2248535 13.000000000 8.6044998169 8.5000000000 221697.64063 -0.005100000 3.1698000431 0.1964000016 2.4944999218 4.7374000549 51.884498596 0.7786999941 94.289703369 209.74340820 2.3157000542 3.8691999912 2.3519999981
 1789.3771973 13.000000000 8.5782003403 8.5000000000 217554.32813 -0.005700000 2.9080998898 0.2035000026 2.4818000793 4.7136998177 49.517700195 0.8198999763 94.705001831 211.15899658 2.0743999481 3.3368000984 2.1059999466
 1789.5296631 13.000000000 8.5693998337 8.5000000000 231871.64063 -0.003300000 3.3891000748 0.2046999931 2.4713997841 4.5553002357 50.906299591 0.8561999798 95.227996826 219.52690125 2.0571999550 3.3031001091 2.0880999565
 1789.6820068 13.000000000 8.5649995804 8.5000000000 254808.65625 0.0005000000 3.4632999897 0.2335000038 2.4684998989 4.4270000458 49.753700256 0.9222000241 96.033996582 224.05630493 2.2988998890 3.2216000557 2.3215999603
 1789.8344727 13.000000000 8.5642995834 8.5000000000 244928.76563 0.0027999999 3.8886001110 0.2355999947 2.4744000435 4.3115000725 47.647899628 0.8571000099 96.008003235 227.23858643 2.1626000404 2.9663000107 2.1851000786
 1789.9868164 13.000000000 8.5738000870 8.5000000000 237498.43750 0.0020999999 3.9256000519 0.2334000021 2.4798998833 4.3185000420 47.932098389 1.0621999502 94.233703613 217.90008545 2.7272999287 2.8111999035 2.7449998856
 1790.1392822 13.000000000 8.5738000870 8.5000000000 226635.82813 -0.000800000 3.8194003105 0.2050999999 2.4790000916 4.3347997665 48.154998779 1.1423000097 92.617301941 209.92829895 2.7578999996 3.3157000542 2.7762000561
 1790.2916260 12.000000000 8.5936002731 8.5000000000 211890.95313 -0.000300000 3.6140999794 0.1988999993 2.4834001064 4.3509998322 49.073101044 0.9721999168 91.140991211 205.46839905 3.1970999241 3.7156000137 3.2135999203
 1790.4439697 12.000000000 8.5825996399 8.5000000000 207392.12500 0.0000000000 3.2553999424 0.1888999939 2.4813001156 4.3873000145 47.295700073 0.9480000138 89.886100769 199.05749512 2.6814000607 3.3908998966 2.7002000809
 1790.5964355 12.000000000 8.5914001465 8.5000000000 149391.73438 -0.000300000 3.4890000820 0.1941999942 2.4818999767 4.4481000900 44.257801056 0.6791999936 89.934600830 200.08839417 3.2068998814 3.0878999233 3.2079999447
 1790.7487793 12.000000000 8.5738000870 8.5000000000 136658.28125 -0.001700000 3.0339000225 0.1879000068 2.4865999222 4.5356001854 42.219501495 0.6863999963 90.088897705 198.10421753 3.2657001019 2.8338000774 3.2620999813
