# LAS format log file from PETREL
# Project units are specified as depth units
#==================================================================
~Version information
VERS.   2.0:
WRAP.   NO:
#==================================================================
~Well
STRT .m      1317.4000244 :
STOP .m      2886.4997559 :
STEP .m     0.00000000 :
NULL .        -999.250000 :
COMP.           : COMPANY
WELL.  16/7-8 S Beta West   : WELL
FLD.            : FIELD
LOC.            : LOCATION
SRVC.           : SERVICE COMPANY
DATE.  2018-09-11 14:48:11   : Log Export Date {yyyy-MM-dd HH:mm:ss}
PROV.           : PROVINCE
UWI.   16/7-8 S   : UNIQUE WELL ID
API.            : API NUMBER
#==================================================================
~Curve
DEPT .m                   : DEPTH
Lithology_geolink ._      : Lithology_geolink
CALI .in                  : CALI
BS .in                    : BS
NPHI .m3/m3               : NPHI
RHOB .g/cm3               : RHOB
GR .gAPI                  : GR
RDEP .ohm.m               : RDEP
RMED .ohm.m               : RMED
~Parameter
#==================================================================
~Ascii
# ...
 2466.5998535 4.0000000000 8.6560001373 8.5000000000 0.3084053695 2.4351000786 46.529998779 0.8999999762 0.7300000191
 2466.6999512 4.0000000000 8.6870002747 8.5000000000 0.3093975484 2.4251244068 46.529998779 0.8999999762 0.7300000191
 2466.8000488 4.0000000000 8.6870002747 8.5000000000 0.3113000095 2.4251000881 46.919998169 0.8700000048 0.7400000095
 2466.8999023 4.0000000000 8.6560001373 8.5000000000 0.3106017113 2.4251000881 46.990001678 0.9200000167 0.7099999785
 2467.0000000 4.0000000000 8.6560001373 8.5000000000 0.3055999875 2.4251000881 46.380001068 0.8899999857 0.7599999905
 2467.1000977 4.0000000000 8.6870002747 8.5000000000 0.2991000116 2.4251000881 45.279998779 0.8799999952 0.7900000215
 2467.1999512 4.0000000000 8.6560001373 8.5000000000 0.2944000065 2.4351000786 44.259998322 0.8999999762 0.7900000215
 2467.3000488 4.0000000000 8.6560001373 8.5000000000 0.2930999994 2.4451000690 43.580001831 0.9200000167 0.7900000215
 2467.4001465 4.0000000000 8.6560001373 8.5000000000 0.2953999937 2.4451000690 43.280021667 0.9300000072 0.8100000024
 2467.5000000 4.0000000000 8.6560001373 8.5000000000 0.3007000089 2.4551000595 43.290000916 0.9100000262 0.8500000238
 2467.5998535 4.0000000000 8.6560001373 8.5000000000 0.3016975522 2.4551000595 43.500000000 0.8800731897 0.8699512482
 2467.6999512 4.0000000000 8.6560001373 8.5000000000 0.3018995225 2.4451243877 43.639999390 0.8799999952 0.8500000238
 2467.8000488 4.0000000000 8.6250000000 8.5000000000 0.3021000028 2.4451000690 43.580001831 0.8999999762 0.8199999928
 2467.8999023 4.0000000000 8.6250000000 8.5000000000 0.3020002246 2.4451000690 43.409999847 0.9300000072 0.7699999809
 2468.0000000 4.0000000000 8.6250000000 8.5000000000 0.3001046181 2.4550757408 43.229999542 1.0000000000 0.7400000095
 2468.1000977 4.0000000000 8.6560001373 8.5000000000 0.2964999974 2.4551000595 43.060001373 0.9399999976 0.8500000238
 2468.1999512 4.0000000000 8.6560001373 8.5000000000 0.2921000123 2.4551000595 42.849998474 0.8500000238 1.0000000000
 2468.3000488 4.0000000000 8.6560001373 8.5000000000 0.2888000011 2.4551000595 42.689998627 0.8899999857 0.9399999976
 2468.4001465 4.0000000000 8.6560001373 8.5000000000 0.2887000144 2.4551000595 42.650001526 0.9100000262 0.9100000262
 2468.5000000 4.0000000000 8.6560001373 8.5000000000 0.2919999957 2.4451000690 42.650001526 0.9800000191 0.7900000215
 2468.6000977 4.0000000000 8.6560001373 8.5000000000 0.2967000008 2.4451000690 42.539318085 0.9700000286 0.7900000215
 2468.6999512 4.0000000000 8.6250000000 8.5000000000 0.3011890352 2.4451000690 42.259998322 0.9600243568 0.7999756336
 2468.8000488 4.0000000000 8.6250000000 8.5000000000 0.3046000004 2.4451000690 42.240001678 0.9499999881 0.8100000024
 2468.8999023 4.0000000000 8.6250000000 8.5000000000 0.3066948652 2.4451000690 42.669998169 0.9499999881 0.8199999928
 2469.0000000 4.0000000000 8.6560001373 8.5000000000 0.3069992661 2.4650511742 43.009998322 0.9599999785 0.8500000238
 2469.1000977 4.0000000000 8.6560001373 8.5000000000 0.3059000075 2.4849998951 42.689998627 0.9900000095 0.9399999976
 2469.1999512 4.0000000000 8.6560001373 8.5000000000 0.3027078211 2.4949755669 41.790000916 0.9499999881 1.1100000143
 2469.3000488 4.0000000000 8.6560001373 8.5000000000 0.2953999937 2.4949998856 40.919998169 0.9399999976 1.1699999571
 2469.4001465 2.0000000000 8.6250000000 8.5000000000 0.2842000127 2.4749999046 40.419998169 0.9599999785 1.0599999428
 2469.5000000 2.0000000000 8.6560001373 8.5000000000 0.2759999931 2.4551000595 40.409999847 0.9800000191 0.9599999785
 2469.6000977 2.0000000000 8.6560001373 8.5000000000 0.2750000060 2.4451000690 41.029998779 0.9700000286 0.8700000048
 2469.6999512 2.0000000000 8.6250000000 8.5000000000 0.2779000103 2.4451000690 42.130001068 0.9499999881 0.8399999738
 2469.8000488 2.0000000000 8.6250000000 8.5000000000 0.2815000117 2.4451000690 43.310001373 0.9300000072 0.8199999928
 2469.8999023 2.0000000000 8.6250000000 8.5000000000 0.2848917246 2.4451000690 44.290000916 0.9100487828 0.8100243807
 2470.0000000 2.0000000000 8.6250000000 8.5000000000 0.2869000137 2.4451000690 44.930000305 0.8999999762 0.7900000215
 2470.0998535 4.0000000000 8.6250000000 8.5000000000 0.2870995104 2.4351243973 45.090000153 0.8999999762 0.7599999905
 2470.1999512 4.0000000000 8.6250000000 8.5000000000 0.2886961102 2.4351000786 44.840000153 0.9399999976 0.7200000286
 2470.3000488 4.0000000000 8.6250000000 8.5000000000 0.2924000025 2.4351000786 44.259998322 0.9499999881 0.7200000286
 2470.3999023 4.0000000000 8.6250000000 8.5000000000 0.2959912121 2.4351000786 43.330001831 0.9499999881 0.7699999809
 2470.5000000 4.0000000000 8.6250000000 8.5000000000 0.2962000072 2.4451000690 42.060001373 0.9399999976 0.8199999928
 2470.6000977 4.0000000000 8.6250000000 8.5000000000 0.2917999923 2.4451000690 40.639999390 0.9499999881 0.8500000238
 2470.6999512 4.0000000000 8.6560001373 8.5000000000 0.2842999995 2.4451000690 39.180000305 0.9800000191 0.8799999952
 2470.8000488 4.0000000000 8.6250000000 8.5000000000 0.2772000134 2.4551000595 37.580001831 0.9800000191 0.8999999762
 2470.9001465 4.0000000000 8.6250000000 8.5000000000 0.2716999948 2.4551000595 35.876537323 1.0099999905 0.9499999881
 2471.0000000 4.0000000000 8.6560001373 8.5000000000 0.2648999989 2.4651000500 34.459999084 0.9900000095 0.9800000191
 2471.0998535 4.0000000000 8.6250000000 8.5000000000 0.2550241351 2.4749758244 33.599998474 0.9800243974 0.9999512434
 2471.1999512 2.0000000000 8.6560001373 8.5000000000 0.2442263514 2.4849755764 33.250000000 0.9999512434 0.9900243878
 2471.3000488 2.0000000000 8.6560001373 8.5000000000 0.2361000031 2.4849998951 33.040000916 1.0499999523 0.9499999881
 2471.3999023 2.0000000000 8.6560001373 8.5000000000 0.2316109836 2.4849998951 32.650001526 1.0399999619 0.9499999881
 2471.5000000 2.0000000000 8.6560001373 8.5000000000 0.2288068235 2.4849998951 32.189998627 1.0299999714 0.9599999785
 2471.6000977 2.0000000000 8.6560001373 8.5000000000 0.2250999957 2.4849998951 31.819999695 1.0499999523 0.9599999785
 2471.6999512 2.0000000000 8.6560001373 8.5000000000 0.2242999971 2.4949998856 31.649999619 0.9900000095 1.0099999905
 2471.8000488 2.0000000000 8.6560001373 8.5000000000 0.2256000042 2.4949998856 31.829999924 0.9700000286 1.0199999809
 2471.9001465 2.0000000000 8.6560001373 8.5000000000 0.2293999940 2.4949998856 32.450000763 0.9700000286 0.9800000191
 2472.0000000 2.0000000000 8.6560001373 8.5000000000 0.2344000041 2.4949998856 33.319999695 1.0299999714 0.8700000048
 2472.1000977 2.0000000000 8.6560001373 8.5000000000 0.2382999957 2.4849998951 34.100826263 1.0299999714 0.8399999738
 2472.1999512 2.0000000000 8.6560001373 8.5000000000 0.2393973172 2.4849998951 34.439998627 0.9900975823 0.8699268103
 2472.3000488 2.0000000000 8.6560001373 8.5000000000 0.2372000068 2.4949998856 34.200000763 0.9300000072 0.9200000167
 2472.3999023 2.0000000000 8.6560001373 8.5000000000 0.2346063405 2.4949998856 33.650001526 0.9200000167 0.8999999762
 2472.5000000 2.0000000000 8.6560001373 8.5000000000 0.2367946357 2.4949998856 33.540000916 0.8899999857 0.8600000143
 2472.6000977 2.0000000000 8.6560001373 8.5000000000 0.2451999933 2.4949998856 34.360000610 0.8899999857 0.7599999905
 2472.6999512 2.0000000000 8.6250000000 8.5000000000 0.2588665783 2.4850242138 35.790000916 0.9100000262 0.6999999881
 2472.8000488 2.0000000000 8.6250000000 8.5000000000 0.2754999995 2.4749999046 37.240001678 0.9200000167 0.6299999952
 2472.9001465 2.0000000000 8.6560001373 8.5000000000 0.2919000089 2.4551000595 38.470001221 0.8500000238 0.6200000048
 2473.0000000 12.000000000 8.6560001373 8.5000000000 0.3032000065 2.4451000690 39.369998932 0.8500000238 0.6600000262
 2473.1000977 12.000000000 8.6560001373 8.5000000000 0.3034000099 2.4351000786 39.669998169 0.8399999738 0.6800000072
 2473.1999512 12.000000000 8.6560001373 8.5000000000 0.2955000103 2.4351000786 39.110000610 0.8399999738 0.7400000095
 2473.3000488 12.000000000 8.6560001373 8.5000000000 0.2881999910 2.4451000690 37.240001678 0.8299999833 0.7500000000
