# LAS format log file from PETREL
# Project units are specified as depth units
#==================================================================
~Version information
VERS.   2.0:
WRAP.   NO:
#==================================================================
~Well
STRT .m      367.94241333 :
STOP .m      2651.6562500 :
STEP .m     0.00000000 :
NULL .        -999.250000 :
COMP.           : COMPANY
WELL.  16/7-1   : WELL
FLD.            : FIELD
LOC.            : LOCATION
SRVC.           : SERVICE COMPANY
DATE.  2018-09-11 14:48:09   : Log Export Date {yyyy-MM-dd HH:mm:ss}
PROV.           : PROVINCE
UWI.   16/7-1   : UNIQUE WELL ID
API.            : API NUMBER
#==================================================================
~Curve
DEPT .m                   : DEPTH
Lithology_geolink ._      : Lithology_geolink
DCAL .in                  : DCAL
CALI .in                  : CALI
BS .in                    : BS
DRHO .g/cm3               : DRHO
RHOB .g/cm3               : RHOB
GR .gAPI                  : GR
DTC .us/ft                : DTC
RDEP .ohm.m               : RDEP
SP .mV                    : SP
RSHA .ohm.m               : RSHA
RMED .ohm.m               : RMED
~Parameter
#==================================================================
~Ascii
# ...
 2335.7312012 21.000000000 -0.110664397 8.3893356323 8.5000000000 -0.005401172 2.0491089821 5.8784899712 20.847223282 4305.7900391 72.568641663 49.131259918  -999.250000
 2335.8837891 21.000000000 0.0137777301 8.5137777328 8.5000000000 -0.008896582 2.0401089191 6.5570030212 21.019586563 4294.2919922 72.908699036 31.905679703  -999.250000
 2336.0361328 21.000000000 0.0621528588 8.5621528625 8.5000000000 -0.009899023 2.0394010544 7.2833561897 21.093379974 4287.2041016 73.238182068 24.892000198  -999.250000
 2336.1884766 21.000000000 0.0540075302 8.5540075302 8.5000000000 -0.006103711 2.0600800514 7.2381100655 21.129896164 4288.7338867 73.532173157 31.088230133  -999.250000
 2336.3408203 21.000000000 0.0402135812 8.5402135849 8.5000000000 -0.005001074 2.0679919720 6.0998759270 20.993862152 4295.1879883 73.694168091 33.111141205  -999.250000
 2336.4931641 21.000000000 -0.032528881 8.4674711227 8.5000000000 -0.003501465 2.0765919685 5.9931678772 20.831802368 4301.6362305 73.725936890 38.913360596  -999.250000
 2336.6455078 21.000000000 -0.123910002 8.3760900497 8.5000000000 -0.002201270 2.0828940868 6.4261398315 20.781723022 4308.0869141 73.647659302 51.440509796  -999.250000
 2336.7978516 21.000000000 -0.032189369 8.4678106308 8.5000000000 -0.005796484 2.0793039799 6.7120862007 20.765506744 4309.6108398 73.466979980 35.719360352  -999.250000
 2336.9504395 21.000000000 0.0511188470 8.5511188507 8.5000000000 -0.011993950 2.0741050243 5.8958630562 20.780622482 4288.9311523 73.255821228 30.919099808  -999.250000
 2337.1027832 21.000000000 0.0447063372 8.5447063446 8.5000000000 -0.013498540 2.0673069954 5.2458992004 20.768463135 4236.6118164 73.099349976 24.769430161  -999.250000
 2337.2551270 21.000000000 -0.019336700 8.4806632996 8.5000000000 -0.012600880 2.0608069897 4.6860117912 20.747489929 4176.4428711 73.097961426 38.448051453  -999.250000
 2337.4074707 21.000000000 -0.109111801 8.3908882141 8.5000000000 -0.008803711 2.0604000092 3.7147140503 20.735696793 4145.9609375 73.266403198 50.898868561  -999.250000
 2337.5598145 21.000000000 -0.116792701 8.3832073212 8.5000000000 -0.006602149 2.0640959740 3.0485150814 20.735847473 4157.3081055 73.547927856 48.541191101  -999.250000
 2337.7124023 21.000000000 -0.130872697 8.3691272736 8.5000000000 -0.008097070 2.0607070923 3.7305300236 20.791910172 4187.6069336 73.842987061 56.740428925  -999.250000
 2337.8647461 21.000000000 -0.112436309 8.3875637054 8.5000000000 -0.009796680 2.0549108982 4.8045649529 20.766597748 4217.9291992 74.048263550 49.009189606  -999.250000
 2338.0170898 21.000000000 -0.030261038 8.4697389603 8.5000000000 -0.010897850 2.0511069298 6.2920570374 20.822784424 4248.3251953 74.152961731 30.263399124  -999.250000
 2338.1694336 21.000000000 -0.012035370 8.4879646301 8.5000000000 -0.010800200 2.0483059883 7.8597030640 20.902408600 4278.6181641 73.910789490 31.745939255  -999.250000
 2338.3220215 21.000000000 0.0218343679 8.5218343735 8.5000000000 -0.010201170 2.0467031002 8.8586158752 21.031772614 4301.0888672 73.687789917 22.058490753  -999.250000
 2338.4743652 21.000000000 0.1252975017 8.6252975464 8.5000000000 -0.006207813 2.0533869267 9.7858543396 21.052061081 4298.1782227 73.567306519 20.232490540  -999.250000
 2338.6267090 21.000000000 0.0490493812 8.5490493774 8.5000000000 -0.004702929 2.0719640255 10.593290329 20.969163895 4276.3608398 73.533348083 21.591699600  -999.250000
 2338.7790527 21.000000000 0.0344286002 8.5344285965 8.5000000000 -0.009191211 2.0915620327 10.860440254 20.852914810 4254.1469727 73.603187561 27.872650146  -999.250000
 2338.9316406 21.000000000 0.0484724008 8.5484724045 8.5000000000 -0.010497460 2.0952930450 10.811559677 20.694370270 4231.9609375 73.790496826 27.421880722  -999.250000
 2339.0839844 21.000000000 -0.027850147 8.4721498489 8.5000000000 -0.008803320 2.0838220119 9.7271881104 20.676553726 4209.7797852 73.938957214 36.125560760  -999.250000
 2339.2363281 21.000000000 -0.020015720 8.4799842834 8.5000000000 -0.007003516 2.0675320625 8.2242012024 20.703241348 4187.5888672 73.982688904 31.652349472  -999.250000
 2339.3886719 21.000000000 -0.030578610 8.4694213867 8.5000000000 -0.005902149 2.0538270473 6.9298930168 20.707254410 4168.9448242 73.944610596 31.845109940  -999.250000
 2339.5410156 21.000000000 -0.086391456 8.4136085510 8.5000000000 -0.004103516 2.0548980236 6.4922180176 20.786975861 4163.6372070 73.818061829 48.065990448  -999.250000
 2339.6936035 21.000000000 -0.091091163 8.4089088440 8.5000000000 -0.000008000 2.0624849796 6.2513351440 20.840620041 4172.2749023 73.600357056 39.024700165  -999.250000
 2339.8459473 21.000000000 -0.042994503 8.4570064545 8.5000000000 0.0031937500 2.0696859360 6.0562438965 20.859792709 4184.8139648 73.336189270 40.102539063  -999.250000
 2339.9982910 21.000000000 -0.061364170 8.4386358261 8.5000000000 0.0012039060 2.0697000027 5.3684082031 20.822751999 4197.3662109 73.069183350 39.573150635  -999.250000
 2340.1506348 21.000000000 -0.086451538 8.4135484695 8.5000000000 -0.002792188 2.0643110275 4.4659271240 20.800884247 4209.9091797 72.806488037 42.831741333  -999.250000
 2340.3032227 21.000000000 -0.085901253 8.4140987396 8.5000000000 -0.003299023 2.0637009144 4.7577900887 20.743186951 4225.9628906 72.619201660 41.905700684  -999.250000
 2340.4555664 21.000000000 -0.040289875 8.4597101212 8.5000000000 -0.001503516 2.0668940544 5.4734649658 20.763685226 4256.5498047 72.522743225 36.174140930  -999.250000
 2340.6079102 21.000000000 0.0020170209 8.5020170212 8.5000000000 0.0006957031 2.0730879307 5.8187899590 20.776496887 4305.4111328 72.486633301 29.611669540  -999.250000
 2340.7602539 21.000000000 0.0373315811 8.5373315811 8.5000000000 0.0028957031 2.0800859928 5.7705612183 20.800624847 4350.6079102 72.493347168 25.217760086  -999.250000
 2340.9128418 21.000000000 0.0170402508 8.5170402527 8.5000000000 0.0036984370 2.0789020061 5.8556981087 20.831129074 4355.8139648 72.525466919 29.453750610  -999.250000
 2341.0651855 21.000000000 -0.124123603 8.3758764267 8.5000000000 0.0012048830 2.0690190792 6.8872451782 20.913251877 4320.2900391 72.563179016 47.945178986  -999.250000
 2341.2175293 21.000000000 -0.109828897 8.3901710510 8.5000000000 -0.002093555 2.0599179268 8.3954162598 20.973413467 4275.0190430 72.601173401 33.120418549  -999.250000
 2341.3698730 21.000000000 0.0254344884 8.5254335403 8.5000000000 -0.004096094 2.0577039719 9.9610061646 21.044784546 4229.6162109 72.642311096 11.679320335  -999.250000
 2341.5222168 21.000000000 0.1217117086 8.6217117310 8.5000000000 -0.003600976 2.0590970516 11.072990417 21.066869736 4189.5219727 72.688163757 13.220490456  -999.250000
 2341.6748047 21.000000000 0.0486431047 8.5486431122 8.5000000000 -0.007192969 2.0585010052 10.885239601 20.983303070 4173.6508789 72.735092163 24.992250443  -999.250000
 2341.8271484 21.000000000 -0.055397030 8.4446029663 8.5000000000 -0.009794922 2.0614941120 9.4413909912 20.871990204 4194.2338867 72.782836914 29.975709915  -999.250000
 2341.9794922 21.000000000 -0.035340309 8.4646596909 8.5000000000 -0.007205078 2.0604019165 7.7994728088 20.888719559 4232.7729492 72.830917358 34.309818268  -999.250000
 2342.1318359 21.000000000 -0.004759789 8.4952402115 8.5000000000 -0.003806641 2.0550110340 6.2397122383 20.916597366 4271.2270508 72.882003784 22.813709259  -999.250000
 2342.2844238 21.000000000 -0.029751780 8.4702482224 8.5000000000 0.0009906250 2.0546011925 5.2026901245 20.868330002 4309.6557617 72.954032898 25.738349915  -999.250000
 2342.4367676 21.000000000 -0.052455895 8.4475440979 8.5000000000 -0.000696680 2.0568950176 5.0952720642 20.880434036 4344.5961914 73.044197083 32.519931793  -999.250000
 2342.5891113 21.000000000 -0.097112663 8.4028873444 8.5000000000 -0.002596289 2.0633869171 4.7860679626 20.840251923 4359.9677734 73.124443054 43.811008453  -999.250000
 2342.7414551 21.000000000 -0.154288307 8.3457117081 8.5000000000 -0.002799609 2.0669929981 4.1538009644 20.765514374 4339.0239258 73.175796509 56.768939972  -999.250000
 2342.8940430 21.000000000 -0.172265112 8.3277349472 8.5000000000 0.0004935547 2.0659019947 3.5579299927 20.741205215 4300.7719727 73.262977600 56.698829651  -999.250000
