# LAS format log file from PETREL
# Project units are specified as depth units
#==================================================================
~Version information
VERS.   2.0:
WRAP.   NO:
#==================================================================
~Well
STRT .m      446.31985474 :
STOP .m      2908.1892090 :
STEP .m     0.00000000 :
NULL .        -999.250000 :
COMP.           : COMPANY
WELL.  16/7-5   : WELL
FLD.            : FIELD
LOC.            : LOCATION
SRVC.           : SERVICE COMPANY
DATE.  2018-09-11 14:48:11   : Log Export Date {yyyy-MM-dd HH:mm:ss}
PROV.           : PROVINCE
UWI.   16/7-5   : UNIQUE WELL ID
API.            : API NUMBER
#==================================================================
~Curve
DEPT .m                   : DEPTH
Lithology_geolink ._      : Lithology_geolink
CALI .in                  : CALI
DRHO .g/cm3               : DRHO
NPHI .m3/m3               : NPHI
RHOB .g/cm3               : RHOB
PEF .b/e                  : PEF
GR .gAPI                  : GR
DTC .us/ft                : DTC
RDEP .ohm.m               : RDEP
SP .mV                    : SP
RSHA .ohm.m               : RSHA
RMED .ohm.m               : RMED
~Parameter
#==================================================================
~Ascii
 446.31985474  -999.250000 18.155000687  -999.250000  -999.250000 2.0003638268  -999.250000 94.935745239 156.67376709 1.6359964609 26.535982132 1.5761561394 1.5761561394
 446.47225952  -999.250000 18.031000137  -999.250000  -999.250000 2.0015771389  -999.250000 94.361480713 156.35824585 1.6300047636 23.060010910 1.6149319410 1.6149319410
 446.62463379  -999.250000 17.908000946  -999.250000  -999.250000 2.0020699501  -999.250000 90.976463318 156.23144531 1.6380020380 25.549999237 1.5978554487 1.5978554487
 446.77703857  -999.250000 17.815999985  -999.250000  -999.250000 2.0014665127  -999.250000 84.808486938 156.38775635 1.6430008411 25.569021225 1.5599352121 1.5599352121
 446.92944336  -999.250000 17.795999527  -999.250000  -999.250000 2.0006399155  -999.250000 83.647354126 156.61021423 1.6450031996 30.545242310 1.5429999828 1.5429999828
 447.08184814  -999.250000 17.775999069  -999.250000  -999.250000 2.0000832081  -999.250000 89.510513306 156.75460815 1.6529984474 29.294992447 1.5430921316 1.5430921316
 447.23425293  -999.250000 17.766000748  -999.250000  -999.250000 1.9997565746  -999.250000 92.140014648 156.83062744 1.6490000486 28.033979416 1.5660120249 1.5660120249
 447.38665771  -999.250000 17.770999908  -999.250000  -999.250000 2.0000035763  -999.250000 95.852973938 156.77029419 1.6490012407 24.065017700 1.5689799786 1.5689799786
 447.53906250  -999.250000 17.777000427  -999.250000  -999.250000 2.0006601810  -999.250000 90.384513855 156.59823608 1.6510006189 27.783979416 1.5639879704 1.5639879704
 447.69143677  -999.250000 17.783000946  -999.250000  -999.250000 2.0012166500  -999.250000 92.735023499 156.44357300 1.6520028114 23.790487289 1.5610684156 1.5610684156
 447.84384155  -999.250000 17.788000107  -999.250000  -999.250000 2.0016732216  -999.250000 88.810386658 156.33047485 1.6590040922 21.325679779 1.5790609121 1.5790609121
 447.99624634  -999.250000 17.794000626  -999.250000  -999.250000 2.0020732880  -999.250000 88.123336792 156.23175049 1.6690032482 28.046194077 1.5949885845 1.5949885845
 448.14865112  -999.250000 17.798999786  -999.250000  -999.250000 2.0025167465  -999.250000 87.684745789 156.11845398 1.6770054102 27.063014984 1.5919920206 1.5919920206
 448.30105591  -999.250000 17.805000305  -999.250000  -999.250000 2.0030169487  -999.250000 86.884513855 155.98324585 1.6860029697 30.276971817 1.5900400877 1.5900400877
 448.45346069  -999.250000 17.812999725  -999.250000  -999.250000 2.0034301281  -999.250000 89.223716736 155.86764526 1.6909981966 24.545993805 1.6000040770 1.6000040770
 448.60583496  -999.250000 17.819999695  -999.250000  -999.250000 2.0035998821  -999.250000 82.695137024 155.81871033 1.6880015135 23.559511185 1.6009733677 1.6009733677
 448.75823975  -999.250000 17.827999115  -999.250000  -999.250000 2.0034699440  -999.250000 84.548263550 155.84817505 1.6920032501 26.041439056 1.5939428806 1.5939428806
 448.91064453  -999.250000 17.836000443  -999.250000  -999.250000 2.0025629997  -999.250000 80.712257385 156.08587646 1.6999996901 23.819972992 1.5789734125 1.5789734125
 449.06304932  -999.250000 17.843999863  -999.250000  -999.250000 2.0004296303  -999.250000 87.071327209 156.66238403 1.6990028620 29.049047470 1.5720456839 1.5720456839
 449.21545410  -999.250000 17.851999283  -999.250000  -999.250000 1.9981195927  -999.250000 89.258262634 157.28761292 1.7060035467 28.782978058 1.5839959383 1.5839959383
 449.36785889  -999.250000 17.860000610  -999.250000  -999.250000 1.9969698191  -999.250000 91.291725159 157.58764648 1.7119970322 24.536983490 1.5830359459 1.5830359459
 449.52026367  -999.250000 17.868000031  -999.250000  -999.250000 1.9970601797  -999.250000 85.988235474 157.56329346 1.7069976330 21.310010910 1.5920680761 1.5920680761
 449.67263794  -999.250000 17.875999451  -999.250000  -999.250000 1.9979636669  -999.250000 83.061813354 157.32443237 1.7029970884 23.805707932 1.6090379953 1.6090379953
 449.82504272  -999.250000 17.884000778  -999.250000  -999.250000 1.9990901947  -999.250000 82.757759094 157.02534485 1.6959964037 25.310012817 1.6189398766 1.6189398766
 449.97744751  -999.250000 17.892000198  -999.250000  -999.250000 1.9996867180  -999.250000 84.675910950 156.86145020 1.6869988441 27.786333084 1.6038275957 1.6038275957
 450.12985229  -999.250000 17.900999069  -999.250000  -999.250000 1.9994964600  -999.250000 81.806167603 156.90690613 1.6840000153 24.566820145 1.5630084276 1.5630084276
 450.28225708  -999.250000 17.910999298  -999.250000  -999.250000 1.9987097979  -999.250000 80.195365906 157.11776733 1.6839928627 28.541589737 1.5649075508 1.5649075508
 450.43466187  -999.250000 17.920000076  -999.250000  -999.250000 1.9979832172  -999.250000 81.951667786 157.32571411 1.6719988585 26.537384033 1.5428906679 1.5428906679
 450.58706665  -999.250000 17.929000854  -999.250000  -999.250000 1.9974831343  -999.250000 85.194313049 157.46330261 1.6699920893 23.546846390 1.5171051025 1.5171051025
 450.73944092  -999.250000 17.937999725  -999.250000  -999.250000 1.9970698357  -999.250000 86.686248779 157.57054138 1.6569987535 22.804004669 1.5419800282 1.5419800282
 450.89184570  -999.250000 17.947999954  -999.250000  -999.250000 1.9973767996  -999.250000 86.260765076 157.48925781 1.6539976597 23.802001953 1.5370440483 1.5370440483
 451.04425049  -999.250000 17.954000473  -999.250000  -999.250000 1.9989103079  -999.250000 88.934585571 157.07820129 1.6479991674 24.307357788 1.5479242802 1.5479242802
 451.19665527  -999.250000 17.959999084  -999.250000  -999.250000 2.0003600121  -999.250000 88.137611389 156.67602539 1.6460003853 26.060512543 1.5299242735 1.5299242735
 451.34906006  -999.250000 17.965000153  -999.250000  -999.250000 1.9999195337  -999.250000 91.087158203 156.79676819 1.6470023394 28.527923584 1.5120252371 1.5120252371
 451.50146484  -999.250000 17.971000671  -999.250000  -999.250000 1.9980759621  -999.250000 82.125526428 157.30627441 1.6509982347 23.322074890 1.5179243088 1.5179243088
 451.65386963  -999.250000 17.965999603  -999.250000  -999.250000 1.9966529608  -999.250000 82.251838684 157.68499756 1.6479976177 28.520563126 1.5002186298 1.5002186298
 451.80624390  -999.250000 17.961000443  -999.250000  -999.250000 1.9966334105  -999.250000 82.709274292 157.68728638 1.6439971924 21.559009552 1.5519160032 1.5519160032
 451.95864868  -999.250000 17.955999374  -999.250000  -999.250000 1.9980236292  -999.250000 87.987480164 157.31956482 1.6369963884 23.809011459 1.5310200453 1.5310200453
 452.11105347  -999.250000 17.951999664  -999.250000  -999.250000 1.9993600845  -999.250000 84.853713989 156.94863892 1.6279984713 26.056306839 1.5357645750 1.5357645750
 452.26345825  -999.250000 17.950000763  -999.250000  -999.250000 1.9995266199  -999.250000 79.816421509 156.89965820 1.6239995956 27.526870728 1.4800798893 1.4800798893
 452.41586304  -999.250000 17.948999405  -999.250000  -999.250000 1.9991265535  -999.250000 80.622894287 157.00827026 1.6230006218 22.062614441 1.4990293980 1.4990293980
 452.56826782  -999.250000 17.947000504  -999.250000  -999.250000 1.9988566637  -999.250000 80.137092590 157.07722473 1.6240011454 25.049999237 1.5060715675 1.5060715675
 452.72067261  -999.250000 17.944999695  -999.250000  -999.250000 1.9985398054  -999.250000 82.987907410 157.17120361 1.6260000467 25.056306839 1.5230084658 1.5230084658
 452.87304688  -999.250000 17.943000793  -999.250000  -999.250000 1.9976798296  -999.250000 80.142021179 157.40657043 1.6259956360 26.558008194 1.5250480175 1.5250480175
 453.02545166  -999.250000 17.941999435  -999.250000  -999.250000 1.9968699217  -999.250000 84.374252319 157.61874390 1.6149967909 28.532976151 1.5369318724 1.5369318724
 453.17785645  -999.250000 17.940000534  -999.250000  -999.250000 1.9970468283  -999.250000 84.199569702 157.57279968 1.6069984436 24.315767288 1.5198906660 1.5198906660
 453.33026123  -999.250000 17.937999725  -999.250000  -999.250000 1.9979336262  -999.250000 86.921447754 157.33897400 1.6029970646 28.017410278 1.4938780069 1.4938780069
 453.48266602  -999.250000 17.937000275  -999.250000  -999.250000 1.9990204573  -999.250000 82.997108459 157.03913879 1.5979976654 20.321023941 1.4649873972 1.4649873972
