# LAS format log file from PETREL
# Project units are specified as depth units
#==================================================================
~Version information
VERS.   2.0:
WRAP.   NO:
#==================================================================
~Well
STRT .m      446.31985474 :
STOP .m      2908.1892090 :
STEP .m     0.00000000 :
NULL .        -999.250000 :
COMP.           : COMPANY
WELL.  16/7-5   : WELL
FLD.            : FIELD
LOC.            : LOCATION
SRVC.           : SERVICE COMPANY
DATE.  2018-09-11 14:48:11   : Log Export Date {yyyy-MM-dd HH:mm:ss}
PROV.           : PROVINCE
UWI.   16/7-5   : UNIQUE WELL ID
API.            : API NUMBER
#==================================================================
~Curve
DEPT .m                   : DEPTH
Lithology_geolink ._      : Lithology_geolink
CALI .in                  : CALI
DRHO .g/cm3               : DRHO
NPHI .m3/m3               : NPHI
RHOB .g/cm3               : RHOB
PEF .b/e                  : PEF
GR .gAPI                  : GR
DTC .us/ft                : DTC
RDEP .ohm.m               : RDEP
SP .mV                    : SP
RSHA .ohm.m               : RSHA
RMED .ohm.m               : RMED
~Parameter
#==================================================================
~Ascii
# ...
 1426.5566406  -999.250000 11.281999588 0.0000000000 0.4865700006 1.9428888559 3.9820001125 100.55738068 148.28846741 0.9359920025 56.747623444 1.0630416870 1.0630416870
 1426.7089844  -999.250000 11.395000458 0.0019983975 0.4723799825 1.9219583273 3.6989998817 100.05238342 148.00039673 0.9310016036 56.005352020 1.0759167671 1.0759167671
 1426.8614502  -999.250000 11.411998749 0.0029991993 0.4564799964 1.8874666691 3.3420000076 99.548019409 148.10897827 0.9330096245 55.183776855 1.0499902964 1.0499902964
 1427.0137939  -999.250000 10.812999725 0.0000024038 0.4935399890 1.8593109846 2.7829999924 99.552436829 148.37614441 0.9390007854 56.049446106 1.0470769405 1.0470769405
 1427.1661377  -999.250000 10.260000229 -0.001996798 0.5072900057 1.8548581600 2.6470000744 98.436225891 148.31750488 0.9400016069 56.500000000 1.0709134340 1.0709134340
 1427.3186035  -999.250000 10.453000069 0.0039951927 0.5132799745 1.8722643852 2.6110000610 95.639587402 147.83415222 0.9419991970 56.498813629 1.0351600647 1.0351600647
 1427.4709473  -999.250000 10.722000122 0.0139839873 0.4767800272 1.9003746510 2.8589999676 100.17994690 147.30517578 0.9410048127 56.130107880 1.0849351883 1.0849351883
 1427.6234131  -999.250000 10.989999771 0.0229927879 0.4519300163 1.9272772074 2.9879999161 100.57878876 147.17997742 0.9470000267 56.584831238 1.0581408739 1.0581408739
 1427.7757568  -999.250000 11.095999718 0.0230000000 0.4588700235 1.9492497444 3.0739998817 102.06918335 147.38003540 0.9470064044 55.287384033 1.1018749475 1.1018749475
 1427.9282227  -999.250000 10.685000420 0.0140072117 0.4619800150 1.9618527889 3.2109999657 101.32585144 147.56851196 0.9550055861 55.449493408 1.0500863791 1.0500863791
 1428.0805664  -999.250000 10.153999329 0.0100032045 0.4850199819 1.9606286287 3.4500000477 104.09237671 147.61717224 0.9620000124 56.227146149 1.0769759417 1.0769759417
 1428.2330322  -999.250000 9.0089998245 0.0099999998 0.4866099954 1.9490606785 3.4110000134 108.81956482 147.31944275 0.9619992375 56.701480865 1.0670320988 1.0670320988
 1428.3853760  -999.250000 7.5809998512 0.0139967958 0.5259299874 1.9381458759 3.1419999599 110.86834717 146.26931763 0.9610008001 56.540660858 1.0769808292 1.0769808292
 1428.5378418  -999.250000 6.9010000229 0.0179967973 0.5026500225 1.9465260506 2.9430000782 113.90512848 144.11064148 0.9619920254 56.816024780 1.0690865517 1.0690865517
 1428.6901855  -999.250000 7.1909999847 0.0269927885 0.5084699988 1.9789432287 2.9319999218 110.19766998 141.05200195 0.9569944143 57.132198334 1.0960255861 1.0960255861
 1428.8426514  -999.250000 7.5029997826 0.0369919948 0.5246799588 2.0117204189 3.1470000744 105.11467743 138.40806580 0.9500079751 56.261768341 1.1038813591 1.1038813591
 1428.9949951  -999.250000 7.9400000572 0.0469919853 0.5411999822 2.0218424797 3.4159998894 105.02952576 137.40138245 0.9550095797 56.500000000 1.0669552088 1.0669552088
 1429.1474609  -999.250000 8.6059999466 0.0489983968 0.5642899871 2.0142040253 3.7400000095 109.84751892 137.43054199 0.9670000076 56.501464844 1.0530096292 1.0530096292
 1429.2998047  -999.250000 9.2720003128 0.0330128185 0.5033700466 2.0058255196 3.9519999027 105.63850403 137.42964172 0.9670023918 56.956485748 1.0561600924 1.0561600924
 1429.4521484  -999.250000 9.6520004272 0.0240144115 0.5029699802 1.9915878773 3.7309999466 100.18086243 137.56527710 0.9700016379 56.794734955 1.1060143709 1.1060143709
 1429.6046143  -999.250000 9.9420003891 0.0230008010 0.4630199671 1.9643917084 3.3940000534 94.739631653 138.46044922 0.9719920158 56.269531250 1.1120127439 1.1120127439
 1429.7569580  -999.250000 10.039999962 0.0249967985 0.4785300195 1.9401563406 2.8810000420 98.042922974 139.90672302 0.9620016217 56.433021545 1.1159520149 1.1159520149
 1429.9094238  -999.250000 10.029999733 0.0190048069 0.4784199893 1.9339743853 2.6250000000 95.532287598 140.62545776 0.9640023708 56.027751923 1.0959903002 1.0959903002
 1430.0617676  -999.250000 10.019000053 0.0100144111 0.5050799847 1.9439723492 2.6370000839 99.671035767 139.90803528 0.9670072198 55.950607300 1.0929158926 1.0929158926
 1430.2142334  -999.250000 10.008999825 0.0070024040 0.4932099879 1.9563790560 2.8650000095 100.10055542 138.90896606 0.9760064483 55.788112640 1.0579999685 1.0579999685
 1430.3665771  -999.250000 10.061999321 0.0070000002 0.5087400079 1.9599226713 3.0659999847 99.338165283 138.98765564 0.9840048552 55.824764252 1.0579735041 1.0579735041
 1430.5190430  -999.250000 10.479999542 0.0050016013 0.5033400059 1.9516983032 3.3859999180 98.576148987 140.30863953 0.9899920225 56.140823364 1.0471282005 1.0471282005
 1430.6713867  -999.250000 10.902000427 0.0089967949 0.5116199851 1.9372808933 3.5789999962 98.306228638 142.44802856 0.9850007892 55.777606964 1.0870224237 1.0870224237
 1430.8238525  -999.250000 11.326998711 0.0139959976 0.4803999960 1.9226851463 3.8450000286 97.120048523 144.72465515 0.9860176444 56.275810242 1.0939487219 1.0939487219
 1430.9761963  -999.250000 11.751999855 0.0309863780 0.4659899771 1.9091176987 3.7790000439 93.399726868 146.36607361 0.9969983697 55.594696045 1.0779743195 1.0779743195
 1431.1286621  -999.250000 11.987000465 0.0319992006 0.4807600081 1.8991302252 3.5439999104 92.377868652 147.06054688 0.9950079918 55.500000000 1.0700353384 1.0700353384
 1431.2810059  -999.250000 11.529999733 0.0170120206 0.4979200065 1.8972970247 2.7660000324 91.404365540 147.10829163 1.0000032187 55.499351501 1.0810800791 1.0810800791
 1431.4333496  -999.250000 11.072999954 0.0020240194 0.4967900217 1.9041008949 2.3800001144 90.901145935 147.13122559 1.0039935112 55.298782349 1.1060119867 1.1060119867
 1431.5858154  -999.250000 10.725000381 -0.008991186 0.4583200216 1.9201432467 2.2100000381 92.632339478 147.38139343 0.9959943891 55.623409271 1.1109006405 1.1109006405
 1431.7381592  -999.250000 10.772000313 -0.008001601 0.5001299977 1.9397565126 2.2369999886 96.789352417 147.55888367 0.9889992476 55.750808716 1.0799640417 1.0799640417
 1431.8906250  -999.250000 10.918999672 -0.004003205 0.5095099807 1.9587531090 2.2750000954 99.006965637 147.46040344 0.9879975915 56.086986542 1.0649423599 1.0649423599
 1432.0429688  -999.250000 11.064999580 -0.000006405 0.5359299779 1.9762589931 2.4670000076 97.753822327 146.95866394 0.9849976301 56.394248962 1.0469759703 1.0469759703
 1432.1954346  -999.250000 11.211000443 0.0089927884 0.5018999577 1.9900809526 2.5989999771 98.926834106 146.23532104 0.9819992185 56.084533691 1.0369583368 1.0369583368
 1432.3477783  -999.250000 11.338999748 0.0099991988 0.4903500080 2.0014350414 2.8159999847 99.806823730 146.07347107 0.9809967875 56.561294556 1.0239279270 1.0239279270
 1432.5002441  -999.250000 11.324000359 0.0109991990 0.4653300047 2.0074906349 3.0680000782 99.734519958 146.54226685 0.9769951701 56.266719818 0.9940128326 0.9940128326
 1432.6525879  -999.250000 11.281000137 0.0050048074 0.4653300047 2.0029280186 3.3499999046 99.579383850 146.79699707 0.9740007520 55.557384491 0.9980528951 0.9980528951
 1432.8050537  -999.250000 11.232999802 0.0040008007 0.4590300024 1.9855815172 3.4849998951 97.657730103 146.37844849 0.9750128388 55.719825745 1.0200480223 1.0200480223
 1432.9573975  -999.250000 11.185999870 0.0129927890 0.4845500290 1.9614996910 3.2960000038 95.701675415 145.30574036 0.9830192327 56.288509369 1.0350320339 1.0350320339
 1433.1098633  -999.250000 11.137000084 0.0120008010 0.4903500080 1.9426152706 3.0490000248 93.723754883 143.25941467 1.0070320368 56.447269440 1.0449101925 1.0449101925
 1433.2622070  -999.250000 11.072999954 0.0209927876 0.5430899858 1.9360235929 3.0420000553 91.166221619 139.87689209 1.0270007849 56.219284058 1.0171216726 1.0171216726
 1433.4145508  -999.250000 10.963999748 0.0130128106 0.5451099873 1.9442902803 3.0810000896 93.416374207 135.90946960 1.0279976130 55.998912811 1.0551730394 1.0551730394
 1433.5670166  -999.250000 10.847999573 0.0199943911 0.5316699743 1.9618496895 3.0629999638 94.407386780 133.31045532 1.0249967575 57.206928253 1.1271120310 1.1271120310
 1433.7193604  -999.250000 10.732999802 0.0120128104 0.5154899955 1.9775245190 2.9660000801 96.089469910 133.61419678 1.0210032463 56.560417175 1.1618821621 1.1618821621
