# LAS format log file from PETREL
# Project units are specified as depth units
#==================================================================
~Version information
VERS.   2.0:
WRAP.   NO:
#==================================================================
~Well
STRT .m      1110.8436279 :
STOP .m      2733.1416016 :
STEP .m     0.00000000 :
NULL .        -999.250000 :
COMP.           : COMPANY
WELL.  16/7-6   : WELL
FLD.            : FIELD
LOC.            : LOCATION
SRVC.           : SERVICE COMPANY
DATE.  2018-09-11 14:48:11   : Log Export Date {yyyy-MM-dd HH:mm:ss}
PROV.           : PROVINCE
UWI.   16/7-6   : UNIQUE WELL ID
API.            : API NUMBER
#==================================================================
~Curve
DEPT .m                   : DEPTH
Lithology_geolink ._      : Lithology_geolink
DCAL .in                  : DCAL
CALI .in                  : CALI
BS .in                    : BS
ROP .m/h                  : ROP
DRHO .g/cm3               : DRHO
THOR .ppm                 : THOR
SGR .gAPI                 : SGR
NPHI .m3/m3               : NPHI
RHOB .g/cm3               : RHOB
PEF .b/e                  : PEF
GR .gAPI                  : GR
URAN .ppm                 : URAN
DTC .us/ft                : DTC
DTS .us/ft                : DTS
RDEP .ohm.m               : RDEP
SP .mV                    : SP
RSHA .ohm.m               : RSHA
RMIC .ohm.m               : RMIC
RMED .ohm.m               : RMED
~Parameter
#==================================================================
~Ascii
# ...
 2391.0036621 9.0000000000 -0.237495393 12.012499809 12.250000954 180671.21875 -0.040864199 2.0399179459  -999.250000 0.1008403003 2.5993010998 6.6238880157 10.372814178 -0.513690710 65.455513000 124.78859711 3.3723669052 -101.0000992 3.6576368809 4.4953951836 3.4088630676
 2391.1560059 9.0000000000 -0.248782203 12.001218796 12.250000954 193682.31250 -0.037294291 2.0967569351  -999.250000 0.0979656130 2.5936090946 6.4351477623 10.082625389 -0.600058079 64.549987793 125.60099030 3.4809539318 -101.0000000 3.8776659966 4.4794068336 3.5152580738
 2391.3083496 9.0000000000 -0.247001603 12.003001213 12.250000954 161750.21875 -0.031406730 1.7359689474  -999.250000 0.0956188068 2.5848109722 6.0458641052 10.066989899 -0.414972305 64.357246399 127.72239685 3.5509879589 -100.8751984 4.0543651581 4.1787471771 3.5848159790
 2391.4609375 9.0000000000 -0.248798400 12.001199722 12.250000954 139160.78125 -0.027552430 1.6327019930  -999.250000 0.0948124379 2.5859990120 5.3956098557 10.001479149 -0.405363113 64.462898254 128.11369324 3.5397350788 -100.8750000 4.1029620171 3.6921880245 3.5873150826
 2391.6132813 9.0000000000 -0.247200981 12.002799988 12.250000954 150078.90625 -0.023362990 1.7021889687  -999.250000 0.0922553465 2.5939960480 5.2669610977 9.7833032608 -0.398874611 65.574096680 128.71459961 3.5010321140 -100.6250992 4.0044589043 3.3137049675 3.5447258949
 2391.7656250 9.0000000000 -0.247499481 12.002499580 12.250000954 162058.57813 -0.026059611 2.0900480747  -999.250000 0.0871440470 2.6120679379 5.4854512215 9.9217758179 -0.553587019 67.019653320 128.95219421 3.4559791088 -100.8746033 3.8577189445 3.4147369862 3.4959659576
 2391.9179688 9.0000000000 -0.248798400 12.001199722 12.250000954 143207.59375 -0.028918110 2.0491631031  -999.250000 0.0926762372 2.6297750473 6.2659292221 10.601349831 -0.505859792 66.953399658 127.91561127 3.4558429718 -100.9998016 3.7893149853 3.9526851177 3.4860270023
 2392.0703125 9.0000000000 -0.246402696 12.003600121 12.250000954 123341.92969 -0.036997382 1.9194890261  -999.250000 0.0953393802 2.6210091114 6.2277131081 11.315560341 -0.628489971 67.354988098 126.34619141 3.5300829411 -101.3746033 3.8516390324 4.5217299461 3.5445940495
 2392.2229004 9.0000000000 -0.246899590 12.003100395 12.250000954 145878.89063 -0.033360969 1.5810960531  -999.250000 0.0967902467 2.6119060516 6.4952387810 11.360740662 -0.430966288 66.978851318 124.20468903 3.6658699512 -100.8752975 4.0645017624 5.0267419815 3.6775870323
 2392.3752441 9.0000000000 -0.246501014 12.003499031 12.250000954 172937.48438 -0.037416141 1.6572109461  -999.250000 0.0900597200 2.5982260704 6.4686861038 10.986797333 -0.428235412 65.614280701 124.27100372 3.8553609848 -101.4373016 4.4081239700 5.5722661018 3.8753581047
 2392.5275879 9.0000000000 -0.253788888 11.996210098 12.250000954 163486.76563 -0.037682649 1.5031330585  -999.250000 0.0881014615 2.6210649014 6.0533027649 10.392419815 -0.386101514 64.634689331 124.11049652 4.0813927650 -100.8134995 4.7820448875 5.7824459076 4.1082510948
 2392.6799316 9.0000000000 -0.252101898 11.997900963 12.250000954 145029.56250 -0.039107751 1.8166580200  -999.250000 0.0785804987 2.6206998825 5.6709861755 9.7347745895 -0.516614020 63.704368591 123.25370789 4.3169689178 -101.3118973 5.0113267899 5.1993899345 4.3267641068
 2392.8325195 9.0000000000 -0.244205505 12.005789757 12.250000954 124765.39844 -0.036563881 1.7719600201  -999.250000 0.0758450329 2.6239969730 5.0283751488 9.4372549057 -0.300515711 63.265048981 122.02649689 4.4462161064 -101.1875992 5.0613131523 4.4761247635 4.4420161247
 2392.9848633 9.0000000000 -0.246099502 12.003898621 12.250000954 108764.56250 -0.036116730 1.6840120554  -999.250000 0.0738771036 2.6249001026 5.1372990608 9.9774827957 -0.288629591 63.241210938 122.41339874 4.4560551643 -101.1875000 4.9859027863 4.3623957634 4.4460430145
 2393.1372070 9.0000000000 -0.241507515 12.008488655 12.250000954 128518.94531 -0.036429681 1.4563080072  -999.250000 0.0795335472 2.6330859661 5.4221601486 10.623972893 -0.224074304 63.830131531 120.78729248 4.4352741241 -101.3747025 4.8707480431 4.6502099037 4.4180779457
 2393.2895508 9.0000000000 -0.243098304 12.006898880 12.250000954 149805.93750 -0.039601810 1.3250039816  -999.250000 0.0850324035 2.6350970268 5.8974938393 10.607480049 -0.363929302 63.879440308 120.05059814 4.4043750763 -101.3125992 4.7996139526 4.7436170578 4.3835811615
 2393.4421387 9.0000000000 -0.242799804 12.007201195 12.250000954 143925.35938 -0.042548601 1.1586749554  -999.250000 0.0915219709 2.6202139854 6.1404271126 10.023519516 -0.245770589 63.907379150 119.79309845 4.3715047836 -100.8130035 4.7604780197 4.6527547836 4.3516139984
 2393.5944824 9.0000000000 -0.243599907 12.006401062 12.250000954 141399.20313 -0.042630639 1.1187310219  -999.250000 0.0890600309 2.6053080559 6.0672788620 9.4881544113 -0.290067405 63.479328156 118.68969727 4.3586101532 -101.3122025 4.7314620018 4.2154998779 4.3440151215
 2393.7468262 9.0000000000 -0.242900804 12.007100105 12.250000954 163051.53125 -0.043052372 1.2970230579  -999.250000 0.0907987803 2.5975139141 6.0292987823 9.6473579407 -0.318400592 63.051361084 118.80979919 4.3597922325 -101.6867981 4.7040510178 4.1465539932 4.3493881226
 2393.8991699 9.0000000000 -0.251587898 11.998410225 12.250000954 177169.96875 -0.045589961 1.1505260468  -999.250000 0.0933721364 2.5987980366 6.1370749474 10.163720131 -0.362957001 62.759109497 118.06880188 4.3574700356 -101.3753967 4.6543650627 4.6418781281 4.3483791351
 2394.0515137 9.0000000000 -0.252998412 11.996999741 12.250000954 147992.25000 -0.044330709 0.9332404137  -999.250000 0.0950606763 2.6068921089 5.6716861725 10.239100456 -0.293592989 62.810050964 117.85109711 4.3915619850 -101.4374008 4.6520037651 5.3144488335 4.3884749413
 2394.2041016 9.0000000000 -0.255397797 11.994600296 12.250000954 123744.92188 -0.042804629 0.8317816854  -999.250000 0.0921652764 2.6035020351 5.6350479126 9.3024368286 -0.292309791 62.801799774 117.91079712 4.4943280220 -101.1873016 4.8090929985 5.6322751045 4.5006561279
 2394.3564453 9.0000000000 -0.253004998 11.996990204 12.250000954 143297.60938 -0.040480919 0.7089288831  -999.250000 0.0936436132 2.6143789291 5.4198398590 8.1832447052 -0.215512604 62.794513702 117.97270966 4.6490712166 -101.1248016 5.1259322166 5.9053649902 4.6735668182
 2394.5087891 9.0000000000 -0.252799988 11.997199059 12.250000954 157400.79688 -0.042012669 0.7737218738  -999.250000 0.0828475133 2.6256830692 6.1321868896 7.5701332092 -0.328419894 62.494865417 118.28939056 4.8421378136 -101.0633011 5.5262899399 6.2625842094 4.8838720322
 2394.6611328 9.0000000000 -0.263986588 11.986009598 12.250000954 135643.70313 -0.046603799 0.8771433234  -999.250000 0.0804872364 2.6363883018 6.2189698219 7.8237619400 -0.387831986 62.126331329 117.64540863 5.0191001892 -101.3122025 5.9111227989 6.6313729286 5.0934848785
 2394.8137207 9.0000000000 -0.279787987 11.970209122 12.250000954 119347.09375 -0.045419570 1.0363420248  -999.250000 0.0813630000 2.6346011162 6.2458810806 8.7756404877 -0.452740014 61.482604980 117.84100342 5.1272788048 -101.1875000 6.2184200287 6.7296938896 5.2673730850
 2394.9660645 9.0000000000 -0.279800385 11.970198631 12.250000954 133074.43750 -0.040864386 1.1063380241  -999.250000 0.0853476003 2.6201059818 5.8275241852 9.4754791260 -0.352957785 62.090740204 118.05529785 5.1611127853 -101.1884995 6.4097929001 6.1892471313 5.3773880005
 2395.1184082 9.0000000000 -0.279800385 11.970198631 12.250000954 143160.95313 -0.040975321 1.1093800068  -999.250000 0.0820128769 2.6243929863 5.4046587944 9.5799713135 -0.315397888 61.961009979 118.23400116 5.1243338585 -101.5633011 6.4479408264 5.4911608696 5.3953528404
 2395.2707520 9.0000000000 -0.279500008 11.970500946 12.250000954 135018.54688 -0.038974289 1.2656409740  -999.250000 0.0864222273 2.6350858212 5.6901979446 9.2282619476 -0.278991193 61.728298187 119.53479767 5.0095939636 -101.8124008 6.2985110283 5.0324358940 5.2848749161
 2395.4233398 9.0000000000 -0.280598611 11.969400406 12.250000954 127156.89063 -0.036292721 1.0349190235  -999.250000 0.0853255168 2.6396958828 5.6782498360 9.3364915848 -0.150689706 61.292396545 121.38969421 4.8322172165 -101.7500992 6.0085887909 5.0415759087 5.1010198593
