# LAS format log file from PETREL
# Project units are specified as depth units
#==================================================================
~Version information
VERS.   2.0:
WRAP.   NO:
#==================================================================
~Well
STRT .m      1317.4000244 :
STOP .m      2886.4997559 :
STEP .m     0.00000000 :
NULL .        -999.250000 :
COMP.           : COMPANY
WELL.  16/7-8 S Beta West   : WELL
FLD.            : FIELD
LOC.            : LOCATION
SRVC.           : SERVICE COMPANY
DATE.  2018-09-11 14:48:11   : Log Export Date {yyyy-MM-dd HH:mm:ss}
PROV.           : PROVINCE
UWI.   16/7-8 S   : UNIQUE WELL ID
API.            : API NUMBER
#==================================================================
~Curve
DEPT .m                   : DEPTH
Lithology_geolink ._      : Lithology_geolink
CALI .in                  : CALI
BS .in                    : BS
NPHI .m3/m3               : NPHI
RHOB .g/cm3               : RHOB
GR .gAPI                  : GR
RDEP .ohm.m               : RDEP
RMED .ohm.m               : RMED
~Parameter
#==================================================================
~Ascii
# ...
 2357.8000488 5.0000000000 8.6250000000 8.5000000000 0.3822999895 2.3752000332 59.240001678 0.7799999714 0.6800000072
 2357.8999023 5.0000000000 8.6250000000 8.5000000000 0.3914775550 2.3653240204 59.250000000 0.7400000095 0.6399999857
 2358.0000000 5.0000000000 8.6250000000 8.5000000000 0.3946000040 2.3752000332 59.650001526 0.7500000000 0.6200000048
 2358.1000977 5.0000000000 8.6250000000 8.5000000000 0.3932999969 2.3752000332 59.639999390 0.7500000000 0.6100000143
 2358.1999512 5.0000000000 8.6250000000 8.5000000000 0.3899999857 2.3852000237 58.580001831 0.8899999857 0.5600000024
 2358.3000488 5.0000000000 8.6250000000 8.5000000000 0.3844000101 2.3752000332 56.860000610 0.6700000167 0.7500000000
 2358.4001465 4.0000000000 8.6250000000 8.5000000000 0.3736999929 2.3652999401 55.117340088 0.6499999762 0.7400000095
 2358.5000000 4.0000000000 8.6409997940 8.5000000000 0.3526999950 2.3352999687 54.029998779 0.6299999952 0.7300000191
 2358.5998535 4.0000000000 8.6560001373 8.5000000000 0.3231721818 2.3154485226 53.919998169 0.8494634628 0.5105365515
 2358.6999512 4.0000000000 8.6250000000 8.5000000000 0.3514307439 2.3054242134 55.200000763 0.7003658414 0.5400000215
 2358.8000488 4.0000000000 8.6250000000 8.5000000000 0.3673000038 2.3153998852 57.349998474 0.6800000072 0.5699999928
 2358.8999023 4.0000000000 8.6250000000 8.5000000000 0.3749812245 2.3153998852 59.790000916 0.6800000072 0.5699999928
 2359.0000000 4.0000000000 8.6250000000 8.5000000000 0.3942529261 2.3153998852 62.369998932 0.6800000072 0.5799999833
 2359.1000977 4.0000000000 8.6250000000 8.5000000000 0.4180999994 2.3153998852 65.080001831 0.6399999857 0.6100000143
 2359.1999512 5.0000000000 8.6409997940 8.5000000000 0.4266000092 2.3153998852 67.690002441 0.6399999857 0.6000000238
 2359.3000488 5.0000000000 8.6560001373 8.5000000000 0.4199000001 2.3053998947 70.550003052 0.7099999785 0.5199999809
 2359.4001465 5.0000000000 8.6560001373 8.5000000000 0.4086000025 2.3053998947 73.050003052 0.7400000095 0.4799999893
 2359.5000000 5.0000000000 8.6560001373 8.5000000000 0.4047999978 2.3053998947 73.639999390 0.7300000191 0.4900000095
 2359.6000977 5.0000000000 8.6479997635 8.5000000000 0.4144000113 2.3153998852 71.932640076 0.7200000286 0.4900000095
 2359.6999512 5.0000000000 8.6409997940 8.5000000000 0.4310592711 2.3252758980 68.919998169 0.6501706839 0.5498536825
 2359.8000488 5.0000000000 8.6370000839 8.5000000000 0.4356999993 2.3303000927 66.139999390 0.6700000167 0.5799999833
 2359.8999023 5.0000000000 8.6330003738 8.5000000000 0.4403885305 2.3352878094 63.930000305 0.6700000167 0.6200000048
 2360.0000000 5.0000000000 8.6250000000 8.5000000000 0.4355119467 2.3352999687 61.439998627 0.7400000095 0.6100000143
 2360.1000977 5.0000000000 8.6350002289 8.5000000000 0.4232000113 2.3352999687 58.750000000 0.7300000191 0.6499999762
 2360.1999512 5.0000000000 8.6459999084 8.5000000000 0.4150199890 2.3452756405 56.659999847 0.7099999785 0.6800000072
 2360.3000488 5.0000000000 8.6560001373 8.5000000000 0.4099999964 2.3552999496 55.770000458 0.6899999976 0.7200000286
 2360.4001465 5.0000000000 8.6560001373 8.5000000000 0.4049000144 2.3652999401 55.840000153 0.7300000191 0.7200000286
 2360.5000000 5.0000000000 8.6560001373 8.5000000000 0.4000999928 2.3652999401 56.290000916 0.7599999905 0.6899999976
 2360.6000977 5.0000000000 8.6459999084 8.5000000000 0.3948000073 2.3652999401 56.729999542 0.7799999714 0.6600000262
 2360.6999512 5.0000000000 8.6350002289 8.5000000000 0.3840000033 2.3552999496 57.049999237 0.7400000095 0.6600000262
 2360.8000488 5.0000000000 8.6250000000 8.5000000000 0.3682000041 2.3552999496 57.720001221 0.7200000286 0.6700000167
 2360.8999023 5.0000000000 8.5780000687 8.5000000000 0.3534360826 2.3552999496 58.779998779 0.7000487447 0.6799756289
 2361.0000000 5.0000000000 8.5780000687 8.5000000000 0.3459999859 2.3452999592 59.689998627 0.7200000286 0.6499999762
 2361.0998535 5.0000000000 8.5780000687 8.5000000000 0.3496909738 2.3353242874 60.130001068 0.7400000095 0.6000000238
 2361.1999512 5.0000000000 8.5780000687 8.5000000000 0.3680551052 2.3253242970 60.349998474 0.7500000000 0.5600000024
 2361.3000488 5.0000000000 8.5780000687 8.5000000000 0.3948000073 2.3252999783 60.720001221 0.7599999905 0.5500000119
 2361.3999023 5.0000000000 8.5780000687 8.5000000000 0.4143522084 2.3252999783 61.680000305 0.7300000191 0.5799999833
 2361.5000000 5.0000000000 8.6250000000 8.5000000000 0.4125046134 2.3352756500 63.139999390 0.6899999976 0.6100000143
 2361.6000977 5.0000000000 8.6250000000 8.5000000000 0.4009999931 2.3452999592 64.349998474 0.6800000072 0.6399999857
 2361.6999512 5.0000000000 8.6250000000 8.5000000000 0.3894000053 2.3652999401 65.220001221 0.7099999785 0.6100000143
 2361.8000488 5.0000000000 8.6020002365 8.5000000000 0.3815000057 2.3652999401 66.080001831 0.7500000000 0.5899999738
 2361.9001465 5.0000000000 8.5780000687 8.5000000000 0.3781000078 2.3552999496 66.480003357 0.7400000095 0.6200000048
 2362.0000000 5.0000000000 8.5780000687 8.5000000000 0.3781999946 2.3452999592 65.910003662 0.7300000191 0.6399999857
 2362.0998535 5.0000000000 8.5780000687 8.5000000000 0.3786987662 2.3452999592 64.290000916 0.7200244069 0.6599512696
 2362.1999512 5.0000000000 8.5780000687 8.5000000000 0.3743107319 2.3353242874 62.279998779 0.7499268055 0.6600000262
 2362.3000488 5.0000000000 8.5780000687 8.5000000000 0.3659000099 2.3352999687 60.819999695 0.7300000191 0.6800000072
 2362.3999023 5.0000000000 8.5780000687 8.5000000000 0.3594158590 2.3352999687 59.880001068 0.7200000286 0.6999999881
 2362.5000000 5.0000000000 8.5780000687 8.5000000000 0.3601980507 2.3352999687 59.360000610 0.7599999905 0.6700000167
 2362.6000977 5.0000000000 8.5780000687 8.5000000000 0.3662999868 2.3352999687 59.060001373 0.7599999905 0.6600000262
 2362.6999512 5.0000000000 8.6020002365 8.5000000000 0.3693000078 2.3452999592 59.009998322 0.7699999809 0.6499999762
 2362.8000488 5.0000000000 8.6134996414 8.5000000000 0.3670000136 2.3503000736 59.270000458 0.7300000191 0.6800000072
 2362.9001465 5.0000000000 8.6250000000 8.5000000000 0.3646999896 2.3552999496 59.599998474 0.7500000000 0.6000000238
 2363.0000000 5.0000000000 8.5780000687 8.5000000000 0.3589000106 2.3652999401 59.840000153 0.7599999905 0.5199999809
 2363.1000977 5.0000000000 8.6020002365 8.5000000000 0.3637000024 2.3552999496 60.030414581 0.7500000000 0.5400000215
 2363.1999512 5.0000000000 8.6250000000 8.5000000000 0.3860453665 2.3453242779 60.200000763 0.7200732231 0.5898780227
 2363.3000488 5.0000000000 8.6250000000 8.5000000000 0.4072000086 2.3352999687 60.509998322 0.7099999785 0.6200000048
 2363.3999023 5.0000000000 8.6250000000 8.5000000000 0.4081975520 2.3253242970 60.810001373 0.7099999785 0.6299999952
 2363.5000000 5.0000000000 8.6250000000 8.5000000000 0.3958302438 2.3154239655 60.860000610 0.7099999785 0.6399999857
 2363.6000977 5.0000000000 8.6250000000 8.5000000000 0.3822999895 2.3153998852 60.389999390 0.7200000286 0.6299999952
 2363.6999512 5.0000000000 8.6250000000 8.5000000000 0.3738207519 2.3252758980 59.450000763 0.7400000095 0.6299999952
 2363.8000488 5.0000000000 8.6250000000 8.5000000000 0.3686999977 2.3352999687 58.389999390 0.7400000095 0.6399999857
 2363.9001465 5.0000000000 8.6250000000 8.5000000000 0.3657999933 2.3452999592 57.389999390 0.7500000000 0.6499999762
 2364.0000000 5.0000000000 8.6250000000 8.5000000000 0.3670000136 2.3452999592 56.560001373 0.7500000000 0.6600000262
 2364.1000977 5.0000000000 8.6250000000 8.5000000000 0.3725000024 2.3352999687 56.049999237 0.7500000000 0.6600000262
 2364.1999512 5.0000000000 8.6250000000 8.5000000000 0.3806999922 2.3352999687 55.770000458 0.7500000000 0.6600000262
 2364.3000488 5.0000000000 8.6250000000 8.5000000000 0.3874000013 2.3252999783 55.729999542 0.7599999905 0.6700000167
 2364.3999023 5.0000000000 8.6250000000 8.5000000000 0.3885970712 2.3252999783 55.700000763 0.7699756026 0.6799756289
 2364.5000000 5.0000000000 8.6250000000 8.5000000000 0.3851000071 2.3252999783 55.340000153 0.7799999714 0.6999999881
