# LAS format log file from PETREL
# Project units are specified as depth units
#==================================================================
~Version information
VERS.   2.0:
WRAP.   NO:
#==================================================================
~Well
STRT .m      367.94241333 :
STOP .m      2651.6562500 :
STEP .m     0.00000000 :
NULL .        -999.250000 :
COMP.           : COMPANY
WELL.  16/7-1   : WELL
FLD.            : FIELD
LOC.            : LOCATION
SRVC.           : SERVICE COMPANY
DATE.  2018-09-11 14:48:09   : Log Export Date {yyyy-MM-dd HH:mm:ss}
PROV.           : PROVINCE
UWI.   16/7-1   : UNIQUE WELL ID
API.            : API NUMBER
#==================================================================
~Curve
DEPT .m                   : DEPTH
Lithology_geolink ._      : Lithology_geolink
DCAL .in                  : DCAL
CALI .in                  : CALI
BS .in                    : BS
DRHO .g/cm3               : DRHO
RHOB .g/cm3               : RHOB
GR .gAPI                  : GR
DTC .us/ft                : DTC
RDEP .ohm.m               : RDEP
SP .mV                    : SP
RSHA .ohm.m               : RSHA
RMED .ohm.m               : RMED
~Parameter
#==================================================================
~Ascii
 367.94241333  -999.250000 -5.366996765 12.133002281 17.500000000  -999.250000  -999.250000 43.468990326  -999.250000  -999.250000 94.315887451 0.0594821610 -0.013081800
 368.09481812  -999.250000 -5.429985046 12.070010185 17.500000000  -999.250000  -999.250000 43.416809082  -999.250000  -999.250000 95.948051453 0.0696496889 -0.011081180
 368.24722290  -999.250000 -5.516078472 11.983920097 17.500000000  -999.250000  -999.250000 44.756969452  -999.250000  -999.250000 96.837913513 0.0888872594 0.0032233761
 368.39959717  -999.250000 -5.551792145 11.948209763 17.500000000  -999.250000  -999.250000 47.857940674  -999.250000  -999.250000 95.687477112 0.1226596013 0.0508719198
 368.55200195  -999.250000 -5.619184017 11.880820274 17.500000000  -999.250000  -999.250000 51.324848175  -999.250000 0.5744314194 92.236770630 0.1354701072 0.1663431972
 368.70440674  -999.250000 -5.698481083 11.801520348 17.500000000  -999.250000  -999.250000 54.806041718  -999.250000 0.5007892847 88.491661072 0.3483035862 0.4202930927
 368.85681152  -999.250000 -5.324491501 12.175510406 17.500000000  -999.250000  -999.250000 57.563819885  -999.250000 0.5761337280 85.721458435 0.7805008888 0.7733616829
 369.00921631  -999.250000 -4.925898075 12.574100494 17.500000000  -999.250000  -999.250000 58.963249207  -999.250000 1.1929479837 83.747619629 0.6468319297 1.0223729610
 369.16162109  -999.250000 -5.197732925 12.302269936 17.500000000  -999.250000  -999.250000 59.449871063  -999.250000 7.8622941971 82.613586426 0.7061014771 1.2046049833
 369.31399536  -999.250000 -5.497900963 12.002099991 17.500000000  -999.250000  -999.250000 58.973510742  -999.250000 18.806430817 81.883903503 0.9138627052 1.3444639444
 369.46640015  -999.250000 -5.481200218 12.018799782 17.500000000  -999.250000  -999.250000 58.330749512  -999.250000 12.695730209 81.707733154 0.9647458792 1.4211540222
 369.61880493  -999.250000 -5.497000217 12.003001213 17.500000000  -999.250000  -999.250000 58.076049805  -999.250000 4.0299119949 81.778106689 1.0120530128 1.4731630087
 369.77120972  -999.250000 -5.624000549 11.876000404 17.500000000  -999.250000  -999.250000 58.492988586  -999.250000 1.7822289467 81.639663696 1.0857340097 1.5103620291
 369.92361450  -999.250000 -5.742000103 11.758000374 17.500000000  -999.250000  -999.250000 59.728889465  -999.250000 1.3768219948 81.380378723 1.0950059891 1.5370990038
 370.07601929  -999.250000 -5.780900002 11.719099998 17.500000000  -999.250000  -999.250000 60.025421143  -999.250000 1.3221670389 81.106483459 1.2150349617 1.5610150099
 370.22842407  -999.250000 -5.774800301 11.725199699 17.500000000  -999.250000  -999.250000 59.901519775  -999.250000 1.3127080202 80.865257263 1.3106780052 1.5816479921
 370.38079834  -999.250000 -5.765600204 11.734398842 17.500000000  -999.250000  -999.250000 58.508129120  -999.250000 1.3311200142 80.746597290 1.1845220327 1.5950360298
 370.53320313  -999.250000 -5.802499771 11.697501183 17.500000000  -999.250000  -999.250000 56.850299835  -999.250000 1.4010020494 80.727783203 1.0402280092 1.6031060219
 370.68560791  -999.250000 -5.852300167 11.647700310 17.500000000  -999.250000  -999.250000 57.206909180  -999.250000 1.5347150564 80.731857300 0.9996982813 1.6100879908
 370.83801270  -999.250000 -5.841899872 11.658101082 17.500000000  -999.250000  -999.250000 58.984260559  -999.250000 1.5827879906 80.736846924 1.2126480341 1.6193690300
 370.99041748  -999.250000 -5.768000126 11.731999397 17.500000000  -999.250000  -999.250000 59.778301239  -999.250000 1.5201419592 80.741851807 1.2113950253 1.6334099770
 371.14282227  -999.250000 -5.500299454 11.999699593 17.500000000  -999.250000  -999.250000 59.347400665  -999.250000 1.5081000328 80.746856689 1.0661150217 1.6508320570
 371.29522705  -999.250000 -5.071900845 12.428099632 17.500000000  -999.250000  -999.250000 57.818569183  -999.250000 1.4961780310 80.752616882 0.8672103882 1.6723669767
 371.44760132  -999.250000 -4.905600071 12.594400406 17.500000000  -999.250000  -999.250000 55.835678101  -999.250000 1.5209779739 80.757858276 1.0490850210 1.6944040060
 371.60000610  -999.250000 -5.033199787 12.466799736 17.500000000  -999.250000  -999.250000 54.883930206  -999.250000 1.6278740168 80.762863159 0.8347339034 1.7117340565
 371.75241089  -999.250000 -4.829199791 12.670800209 17.500000000  -999.250000  -999.250000 54.395408630  -999.250000 1.7435899973 80.767852783 0.5565919280 1.7296439409
 371.90481567  -999.250000 -4.725800037 12.774199486 17.500000000  -999.250000  -999.250000 53.714859009  -999.250000 1.8465939760 80.772872925 0.4593257010 1.7525850534
 372.05722046  -999.250000 -5.433699608 12.066301346 17.500000000  -999.250000  -999.250000 52.720638275  -999.250000 1.8891090155 80.778617859 0.4614509940 1.7694900036
 372.20962524  -999.250000 -6.159100056 11.340900421 17.500000000  -999.250000  -999.250000 53.029918671  -999.250000 1.9031720161 80.779060364 0.6776676178 1.7694799900
 372.36203003  -999.250000 -6.421299934 11.078700066 17.500000000  -999.250000  -999.250000 54.971218109  -999.250000 1.9163570404 80.731323242 1.4551919699 1.7538260221
 372.51440430  -999.250000 -6.495800018 11.004199982 17.500000000  -999.250000  -999.250000 57.740520477  -999.250000 1.9250830412 80.510627747 2.0186560154 1.7261790037
 372.66680908  -999.250000 -6.474100113 11.025899887 17.500000000  -999.250000  -999.250000 61.563861847  -999.250000 1.9036840200 79.915893555 1.7790900469 1.7015399933
 372.81921387  -999.250000 -6.123400688 11.376600266 17.500000000  -999.250000  -999.250000 65.730880737  -999.250000 1.8516199589 78.804969788 1.6609959602 1.6740729809
 372.97161865  -999.250000 -5.360300064 12.139699936 17.500000000  -999.250000  -999.250000 67.902770996  -999.250000 1.7600259781 77.823020935 1.8666460514 1.6227619648
 373.12402344  -999.250000 -4.665900230 12.834100723 17.500000000  -999.250000  -999.250000 68.072746277  -999.250000 1.6567130089 77.297203064 1.2469580173 1.5594069958
 373.27642822  -999.250000 -4.179500103 13.320500374 17.500000000  -999.250000  -999.250000 66.567962646  -999.250000 1.5918120146 76.994567871 0.8899306059 1.4987519979
 373.42883301  -999.250000 -3.918999910 13.581000328 17.500000000  -999.250000  -999.250000 64.221656799  -999.250000 1.5468219519 76.950103760 0.7523276210 1.4631379843
 373.58117676  -999.250000 -3.657700062 13.842299461 17.500000000  -999.250000  -999.250000 60.365440369  -999.250000 1.5020209551 77.067749023 0.7169774175 1.4633419514
 373.73358154  -999.250000 -2.480099916 15.019900322 17.500000000  -999.250000  -999.250000 55.393508911  -999.250000 1.4596829414 77.217483521 0.5478566885 1.4673570395
 373.88598633  -999.250000 -0.670600891 16.829399109 17.500000000  -999.250000  -999.250000 50.939579010  -999.250000 1.4376790524 77.337677002 0.3538264036 1.4611749649
 374.03839111  -999.250000 1.1257989407 18.625799179 17.500000000  -999.250000  -999.250000 50.368240356  -999.250000 1.4416500330 77.441757202 0.3398807049 1.4465190172
 374.19079590  -999.250000 2.8577003479 20.357700348 17.500000000  -999.250000  -999.250000 52.169750214  -999.250000 1.4579880238 77.546150208 0.3174876869 1.4291960001
 374.34317017  -999.250000 4.0784001350 21.578399658 17.500000000  -999.250000  -999.250000 52.856830597  -999.250000 1.4748660326 77.667411804 0.3382985890 1.4104609489
 374.49557495  -999.250000 4.4944992065 21.994499207 17.500000000  -999.250000  -999.250000 52.598461151  -999.250000 1.4951299429 77.824211121 0.3565588892 1.3911240101
 374.64797974  -999.250000 4.4943008423 21.994298935 17.500000000  -999.250000  -999.250000 52.453430176  -999.250000 1.5160429478 77.995979309 0.3604834974 1.3724999428
 374.80038452  -999.250000 4.4939990044 21.993999481 17.500000000  -999.250000  -999.250000 52.874488831  -999.250000 1.5373259783 77.855453491 0.3655813932 1.3617440462
 374.95278931  -999.250000 4.4937992096 21.993799210 17.500000000  -999.250000  -999.250000 51.904228210  -999.250000 1.5578449965 77.594276428 0.3844043016 1.3652130365
 375.10519409  -999.250000 4.4935002327 21.993499756 17.500000000  -999.250000  -999.250000 49.753021240  -999.250000 1.5769840479 77.326843262 0.4066525996 1.3711329699
