# LAS format log file from PETREL
# Project units are specified as depth units
#==================================================================
~Version information
VERS.   2.0:
WRAP.   NO:
#==================================================================
~Well
STRT .m      1317.4000244 :
STOP .m      2886.4997559 :
STEP .m     0.00000000 :
NULL .        -999.250000 :
COMP.           : COMPANY
WELL.  16/7-8 S Beta West   : WELL
FLD.            : FIELD
LOC.            : LOCATION
SRVC.           : SERVICE COMPANY
DATE.  2018-09-11 14:48:11   : Log Export Date {yyyy-MM-dd HH:mm:ss}
PROV.           : PROVINCE
UWI.   16/7-8 S   : UNIQUE WELL ID
API.            : API NUMBER
#==================================================================
~Curve
DEPT .m                   : DEPTH
Lithology_geolink ._      : Lithology_geolink
CALI .in                  : CALI
BS .in                    : BS
NPHI .m3/m3               : NPHI
RHOB .g/cm3               : RHOB
GR .gAPI                  : GR
RDEP .ohm.m               : RDEP
RMED .ohm.m               : RMED
~Parameter
#==================================================================
~Ascii
 1317.4000244  -999.250000 8.6250000000 12.250000954 0.6462000012 1.8363000154 63.200000763 1.9700000286 1.1699999571
 1317.5000000  -999.250000 8.6250000000 12.250000954 0.6309000254 1.9162000418 62.270000458 1.8999999762 1.2400000095
 1317.6000977  -999.250000 8.6250000000 12.250000954 0.6050000191 1.9859999418 61.540000916 1.8899999857 1.2100000381
 1317.7000732  -999.250000 8.6409997940 12.250000954 0.5884000063 2.0258998871 61.400001526 1.6399999857 1.1399999857
 1317.8000488  -999.250000 8.6560001373 12.250000954 0.5845000148 2.0359001160 61.840244293 1.6499999762 1.1100000143
 1317.9001465  -999.250000 8.6719999313 12.250000954 0.5878999829 2.0359001160 62.038196564 1.7300000191 1.1000975370
 1318.0000000  -999.250000 8.6870002747 12.250000954 0.5912958384 2.0259120464 61.299999237 1.7899999619 1.1399999857
 1318.0999756  -999.250000 8.6870002747 12.250000954 0.5864059329 2.0160121918 59.970001221 1.8300000429 1.1900000572
 1318.1999512  -999.250000 8.6870002747 12.250000954 0.5760126710 2.0160000324 59.279998779 1.8700000048 1.2200000286
 1318.3000488  -999.250000 8.6870002747 12.250000954 0.5676102638 2.0160000324 60.779998779 1.8999999762 1.2400000095
 1318.4000244  -999.250000 8.6870002747 12.250000954 0.5693978071 2.0258877277 65.110000610 1.9099999666 1.2400000095
 1318.5000000  -999.250000 8.6719999313 12.250000954 0.5800869465 2.0358879566 72.639999390 1.9099999666 1.2300000191
 1318.5999756  -999.250000 8.6560001373 12.250000954 0.5911999941 2.0459001064 80.610000610 1.8899999857 1.2300000191
 1318.7000732  -999.250000 8.6560001373 12.250000954 0.6021999717 2.0459001064 86.599998474 1.8600000143 1.2200000286
 1318.8000488  -999.250000 8.6560001373 12.250000954 0.6154999733 2.0359001160 90.069999695 1.8200000525 1.2300000191
 1318.9000244  -999.250000 8.7500000000 12.250000954 0.6277999878 2.0258998871 91.430000305 1.7999999523 1.2300000191
 1319.0001221  -999.250000 9.1409997940 8.5000000000 0.6377999783 2.0160000324 91.338287354 1.7400000095 1.2400000095
 1319.1000977  -999.250000 8.6870002747 8.5000000000 0.6473000050 2.0160000324 90.639877319 1.6599999666 1.2400121689
 1319.1999512  -999.250000 8.6870002747 8.5000000000 0.6565886140 2.0258877277 90.540000916 1.6100000143 1.2500000000
 1319.2999268  -999.250000 8.7189998627 8.5000000000 0.6599917412 2.0258998871 91.190002441 1.5800000429 1.2599999905
 1319.4000244  -999.250000 8.7189998627 8.5000000000 0.6537076831 2.0358879566 91.900001526 1.5599999428 1.2699999809
 1319.5000000  -999.250000 8.6870002747 8.5000000000 0.6471080184 2.0359001160 91.839996338 1.5199999809 1.2599999905
 1319.5999756  -999.250000 8.6870002747 8.5000000000 0.6496968269 2.0259120464 90.809997559 1.4800000191 1.2500000000
 1319.7000732  -999.250000 8.7189998627 8.5000000000 0.6555927992 2.0258998871 89.400001526 1.4600000381 1.2599999905
 1319.8000488  -999.250000 8.6870002747 8.5000000000 0.6521999836 2.0160000324 88.500000000 1.4500000477 1.2699999809
 1319.9000244  -999.250000 8.6560001373 8.5000000000 0.6341999769 2.0160000324 88.519996643 1.4400000572 1.2699999809
 1320.0000000  -999.250000 8.6560001373 8.5000000000 0.6158999801 2.0258998871 89.209999084 1.4400000572 1.2799999714
 1320.1000977  -999.250000 8.6250000000 8.5000000000 0.6029999852 2.0359001160 90.140975952 1.4400000572 1.2799999714
 1320.2000732  -999.250000 8.6250000000 8.5000000000 0.5999000072 2.0459001064 90.940208435 1.4400000572 1.2899999619
 1320.3000488  -999.250000 8.6250000000 8.5000000000 0.6061999798 2.0559000969 91.109313965 1.4299877882 1.3200122118
 1320.3999023  -999.250000 8.6560001373 8.5000000000 0.6203653812 2.0658757687 90.550003052 1.4199999571 1.3300000429
 1320.5000000  -999.250000 8.6560001373 8.5000000000 0.6357812285 2.0659000874 89.269996643 1.4199999571 1.3200000525
 1320.5999756  -999.250000 8.6560001373 8.5000000000 0.6400947571 2.0559122562 87.970001221 1.4099999666 1.2999999523
 1320.6999512  -999.250000 8.6870002747 8.5000000000 0.6257351041 2.0559000969 87.250000000 1.3999999762 1.2899999619
 1320.8000488  -999.250000 8.7969999313 8.5000000000 0.5989327431 2.0559000969 86.910003662 1.3899999857 1.2799999714
 1320.9000244  -999.250000 8.7969999313 8.5000000000 0.5792999864 2.0459001064 86.580001831 1.3899999857 1.2699999809
 1321.0000000  -999.250000 8.6870002747 8.5000000000 0.5716000199 2.0459001064 86.569999695 1.3799999952 1.2699999809
 1321.1000977  -999.250000 8.6870002747 8.5000000000 0.5681999922 2.0459001064 87.669998169 1.3799999952 1.2699999809
 1321.2000732  -999.250000 8.6870002747 8.5000000000 0.5687999725 2.0559000969 89.849998474 1.3799999952 1.2899999619
 1321.3000488  -999.250000 8.6870002747 8.5000000000 0.5720999837 2.0659000874 91.870735168 1.3899999857 1.3200000525
 1321.4001465  -999.250000 8.7189998627 8.5000000000 0.5738000274 2.0659000874 92.467948914 1.3999999762 1.3200000525
 1321.5000000  -999.250000 8.6870002747 8.5000000000 0.5752981305 2.0559122562 91.629997253 1.4099999666 1.2899999619
 1321.5999756  -999.250000 8.6870002747 8.5000000000 0.5782963634 2.0559000969 89.970001221 1.4199999571 1.2899999619
 1321.6999512  -999.250000 8.6870002747 8.5000000000 0.5850917101 2.0459122658 88.629997253 1.4099999666 1.2899999619
 1321.8000488  -999.250000 8.6870002747 8.5000000000 0.5920915008 2.0459001064 88.019996643 1.4099999666 1.2899999619
 1321.9000244  -999.250000 8.6870002747 8.5000000000 0.5977930427 2.0359122753 87.529998779 1.4099999666 1.2899999619
 1322.0000000  -999.250000 8.6870002747 8.5000000000 0.6003968120 2.0359001160 86.580001831 1.3999999762 1.2799999714
 1322.0999756  -999.250000 8.6560001373 8.5000000000 0.5964000225 2.0459001064 85.139999390 1.4099999666 1.2699999809
 1322.2000732  -999.250000 8.6560001373 8.5000000000 0.5928999782 2.0459001064 84.430000305 1.3999999762 1.2599999905
 1322.3000488  -999.250000 8.6560001373 8.5000000000 0.5892999768 2.0559000969 85.239997864 1.4099999666 1.2699999809
 1322.4000244  -999.250000 8.6560001373 8.5000000000 0.5803999901 2.0659000874 86.970001221 1.3999999762 1.2899999619
 1322.5001221  -999.250000 8.6560001373 8.5000000000 0.5673999786 2.0659000874 88.289100647 1.3899999857 1.3099999428
 1322.6000977  -999.250000 8.7500000000 8.5000000000 0.5511999726 2.0659000874 87.917968750 1.3799999952 1.2599755526
 1322.6999512  -999.250000 9.1409997940 8.5000000000 0.5402134061 2.0659000874 86.260002136 1.3799999952 1.2400000095
 1322.7999268  -999.250000 8.9370002747 8.5000000000 0.5473824143 2.0757758617 84.660003662 1.3799999952 1.2200000286
 1322.9000244  -999.250000 8.9689998627 8.5000000000 0.5752658844 2.0757999420 84.319999695 1.3799999952 1.2200000286
 1323.0000000  -999.250000 8.7189998627 8.5000000000 0.5996701717 2.0757999420 85.290000916 1.3700000048 1.2300000191
 1323.0999756  -999.250000 8.5780000687 8.5000000000 0.6047937870 2.0757999420 86.610000610 1.3700000048 1.2500000000
 1323.2000732  -999.250000 8.6250000000 8.5000000000 0.6060984135 2.0659122467 87.589996338 1.3799999952 1.2699999809
 1323.3000488  -999.250000 8.6250000000 8.5000000000 0.6118000150 2.0659000874 88.220001221 1.3899999857 1.2799999714
 1323.4000244  -999.250000 8.6250000000 8.5000000000 0.6233999729 2.0559000969 88.730003357 1.3899999857 1.2799999714
 1323.5000000  -999.250000 8.6250000000 8.5000000000 0.6360999942 2.0559000969 88.959999084 1.3899999857 1.2799999714
 1323.6000977  -999.250000 8.6250000000 8.5000000000 0.6455000043 2.0559000969 88.489997864 1.3999999762 1.2799999714
 1323.7000732  -999.250000 8.6250000000 8.5000000000 0.6466000080 2.0559000969 87.247879028 1.3999999762 1.2799999714
 1323.8000488  -999.250000 8.6250000000 8.5000000000 0.6323999763 2.0459001064 85.508049011 1.3999878168 1.2700121403
 1323.8999023  -999.250000 8.6250000000 8.5000000000 0.6127480268 2.0459001064 83.910003662 1.3899999857 1.2799999714
 1324.0000000  -999.250000 8.6250000000 8.5000000000 0.6023126841 2.0359122753 83.110000610 1.3899999857 1.2799999714
 1324.0999756  -999.250000 8.6250000000 8.5000000000 0.5994035006 2.0359001160 83.190002441 1.3899999857 1.2799999714
