# LAS format log file from PETREL
# Project units are specified as depth units
#==================================================================
~Version information
VERS.   2.0:
WRAP.   NO:
#==================================================================
~Well
STRT .m      1317.4000244 :
STOP .m      2886.4997559 :
STEP .m     0.00000000 :
NULL .        -999.250000 :
COMP.           : COMPANY
WELL.  16/7-8 S Beta West   : WELL
FLD.            : FIELD
LOC.            : LOCATION
SRVC.           : SERVICE COMPANY
DATE.  2018-09-11 14:48:11   : Log Export Date {yyyy-MM-dd HH:mm:ss}
PROV.           : PROVINCE
UWI.   16/7-8 S   : UNIQUE WELL ID
API.            : API NUMBER
#==================================================================
~Curve
DEPT .m                   : DEPTH
Lithology_geolink ._      : Lithology_geolink
CALI .in                  : CALI
BS .in                    : BS
NPHI .m3/m3               : NPHI
RHOB .g/cm3               : RHOB
GR .gAPI                  : GR
RDEP .ohm.m               : RDEP
RMED .ohm.m               : RMED
~Parameter
#==================================================================
~Ascii
# ...
 1732.2000732  -999.250000 8.5469999313 8.5000000000 0.4645023346 2.1956000328 71.620002747 0.9200000167 0.8199999928
 1732.3000488  -999.250000 8.5620002747 8.5000000000 0.4614999890 2.1956000328 70.970001221 0.9100000262 0.8100000024
 1732.4000244  -999.250000 8.5780000687 8.5000000000 0.4609999955 2.1856000423 70.709999084 0.8999999762 0.7900000215
 1732.5000000  -999.250000 8.5780000687 8.5000000000 0.4603999853 2.1756000519 70.550003052 0.9100000262 0.8299999833
 1732.6000977  -999.250000 8.5780000687 8.5000000000 0.4620000124 2.1756000519 70.169364929 0.9100000262 0.8700000048
 1732.7000732  -999.250000 8.5780000687 8.5000000000 0.4697000086 2.1856000423 69.649551392 0.8999999762 0.8500000238
 1732.7999268  -999.250000 8.5780000687 8.5000000000 0.4791884124 2.1856000423 69.279998779 0.8999999762 0.8400121927
 1732.8999023  -999.250000 8.5780000687 8.5000000000 0.4825917184 2.1856000423 69.339996338 0.9100000262 0.8100000024
 1733.0000000  -999.250000 8.5469999313 8.5000000000 0.4777059853 2.1955878735 69.580001831 0.9200000167 0.8100000024
 1733.0999756  -999.250000 8.5620002747 8.5000000000 0.4754028022 2.2055878639 69.919998169 0.9300000072 0.8100000024
 1733.1999512  -999.250000 8.5780000687 8.5000000000 0.4838792682 2.2155756950 70.279998779 0.9300000072 0.8000000119
 1733.3000488  -999.250000 8.5780000687 8.5000000000 0.5004797578 2.2254879475 70.389999390 0.9300000072 0.8199999928
 1733.4000244  -999.250000 8.5780000687 8.5000000000 0.5005000234 2.2255001068 70.080001831 0.9300000072 0.8299999833
 1733.5000000  -999.250000 8.5780000687 8.5000000000 0.4803999960 2.2255001068 69.440002441 0.9399999976 0.8299999833
 1733.6000977  -999.250000 8.5780000687 8.5000000000 0.4679000080 2.2156000137 68.800003052 0.9399999976 0.8399999738
 1733.7000732  -999.250000 8.5780000687 8.5000000000 0.4706999958 2.2156000137 68.279998779 0.9399999976 0.8500000238
 1733.8000488  -999.250000 8.5780000687 8.5000000000 0.4851999879 2.2056000233 67.910247803 0.9399999976 0.8600000143
 1733.9001465  -999.250000 8.5780000687 8.5000000000 0.4972999990 2.1956000328 68.111778259 0.9399999976 0.8500000238
 1734.0000000  -999.250000 8.5780000687 8.5000000000 0.4902086854 2.1956000328 68.839996338 0.9499877691 0.8500000238
 1734.0999756  -999.250000 8.5780000687 8.5000000000 0.4708237052 2.1956000328 69.459999084 0.9599999785 0.8399999738
 1734.1999512  -999.250000 8.5780000687 8.5000000000 0.4552190304 2.1856122017 69.279998779 0.9700000286 0.8299999833
 1734.3000488  -999.250000 8.5780000687 8.5000000000 0.4490075707 2.1756122112 67.879997253 0.9700000286 0.8299999833
 1734.4000244  -999.250000 8.5780000687 8.5000000000 0.4545931816 2.1657121181 65.690002441 0.9700000286 0.8500000238
 1734.5000000  -999.250000 8.5780000687 8.5000000000 0.4671846330 2.1656999588 63.790000916 0.9599999785 0.8799999952
 1734.5999756  -999.250000 8.5780000687 8.5000000000 0.4821000099 2.1656999588 62.790000916 0.9800000191 0.8700000048
 1734.7000732  -999.250000 8.5780000687 8.5000000000 0.4900000095 2.1756000519 63.180000305 0.9900000095 0.8999999762
 1734.8000488  -999.250000 8.5780000687 8.5000000000 0.4851999879 2.1856000423 65.019996643 1.0000000000 0.8999999762
 1734.9000244  -999.250000 8.5780000687 8.5000000000 0.4769999981 2.1856000423 67.779998779 1.0000000000 0.8999999762
 1735.0001221  -999.250000 8.5780000687 8.5000000000 0.4756999910 2.1956000328 69.166458130 1.0000000000 0.9100000262
 1735.1000977  -999.250000 8.5780000687 8.5000000000 0.4760999978 2.2056000233 67.716651917 0.9900000095 0.9100000262
 1735.1999512  -999.250000 8.5780000687 8.5000000000 0.4683095515 2.2155878544 64.980003357 0.9900000095 0.9100000262
 1735.2999268  -999.250000 8.5780000687 8.5000000000 0.4565287828 2.2156000137 63.150001526 1.0000000000 0.9200000167
 1735.4000244  -999.250000 8.5780000687 8.5000000000 0.4506072104 2.2254879475 62.560001373 1.0000000000 0.9200000167
 1735.5000000  -999.250000 8.5780000687 8.5000000000 0.4542954564 2.2255001068 62.430000305 0.9800000191 0.9399999976
 1735.5999756  -999.250000 8.5780000687 8.5000000000 0.4660856128 2.2156121731 63.880001068 0.9499999881 0.9599999785
 1735.7000732  -999.250000 8.5780000687 8.5000000000 0.4795835614 2.2156000137 67.040000916 0.9700000286 0.9399999976
 1735.8000488  -999.250000 8.5780000687 8.5000000000 0.4896999896 2.2056000233 70.190002441 0.9800000191 0.9200000167
 1735.9000244  -999.250000 8.5620002747 8.5000000000 0.4954000115 2.2056000233 72.889999390 1.0000000000 0.8899999857
 1736.0000000  -999.250000 8.5469999313 8.5000000000 0.4955999851 2.2056000233 75.040000916 0.9900000095 0.8899999857
 1736.1000977  -999.250000 8.5469999313 8.5000000000 0.4853999913 2.2056000233 76.470001221 0.9800000191 0.8799999952
 1736.2000732  -999.250000 8.5469999313 8.5000000000 0.4587999880 2.2056000233 76.448631287 0.9599999785 0.8899999857
 1736.2999268  -999.250000 8.5469999313 8.5000000000 0.4322324991 2.2056000233 75.330001831 0.9500122070 0.8999877572
 1736.3999023  -999.250000 8.5469999313 8.5000000000 0.4231221974 2.2155756950 74.300003052 0.9499999881 0.8799999952
 1736.5000000  -999.250000 8.5469999313 8.5000000000 0.4289927781 2.2254879475 74.199996948 0.9499999881 0.8700000048
 1736.5999756  -999.250000 8.5469999313 8.5000000000 0.4399865568 2.2255001068 74.349998474 0.9599999785 0.8700000048
 1736.6999512  -999.250000 8.5469999313 8.5000000000 0.4457858503 2.2255001068 74.360000610 0.9599999785 0.8799999952
 1736.8000488  -999.250000 8.5469999313 8.5000000000 0.4415052533 2.2156121731 74.000000000 0.9599999785 0.8899999857
 1736.9000244  -999.250000 8.5469999313 8.5000000000 0.4324111044 2.2056121826 73.419998169 0.9499999881 0.8999999762
 1737.0000000  -999.250000 8.5469999313 8.5000000000 0.4293000102 2.1956000328 72.989997864 0.9599999785 0.8999999762
 1737.1000977  -999.250000 8.5620002747 8.5000000000 0.4365999997 2.1856000423 73.160003662 0.9700000286 0.8999999762
 1737.2000732  -999.250000 8.5780000687 8.5000000000 0.4562999904 2.1856000423 74.500000000 0.9599999785 0.8999999762
 1737.3000488  -999.250000 8.5780000687 8.5000000000 0.4799999893 2.1856000423 76.362052917 0.9599999785 0.9100000262
 1737.4001465  -999.250000 8.5780000687 8.5000000000 0.4902999997 2.1856000423 78.042121887 0.9499999881 0.9200000167
 1737.5000000  -999.250000 8.5780000687 8.5000000000 0.4789139032 2.1856000423 78.910003662 0.9499999881 0.9300000072
 1737.5999756  -999.250000 8.5780000687 8.5000000000 0.4638184607 2.1856000423 78.610000610 0.9900000095 0.8899999857
 1737.6999512  -999.250000 8.6020002365 8.5000000000 0.4572080374 2.1955878735 78.209999084 1.0399999619 0.8500000238
 1737.8000488  -999.250000 8.6250000000 8.5000000000 0.4599965811 2.1856122017 78.690002441 0.9700000286 0.9200000167
 1737.9000244  -999.250000 8.6250000000 8.5000000000 0.4678903520 2.1756122112 79.800003052 0.9800000191 0.9200000167
 1738.0000000  -999.250000 8.6250000000 8.5000000000 0.4749913216 2.1657121181 80.339996338 0.9900000095 0.9300000072
 1738.0999756  -999.250000 8.6250000000 8.5000000000 0.4749999940 2.1456999779 79.500000000 0.9900000095 0.9300000072
 1738.2000732  -999.250000 8.6250000000 8.5000000000 0.4683000147 2.1456999779 77.610000610 0.9900000095 0.9300000072
 1738.3000488  -999.250000 8.6250000000 8.5000000000 0.4602999985 2.1356999874 76.199996948 0.9900000095 0.9200000167
 1738.4000244  -999.250000 8.6560001373 8.5000000000 0.4533999860 2.1356999874 75.769996643 1.0000000000 0.9100000262
 1738.5001221  -999.250000 8.6870002747 8.5000000000 0.4451000094 2.1356999874 75.417243958 0.9800000191 0.9200000167
 1738.6000977  -999.250000 8.6250000000 8.5000000000 0.4359999895 2.1356999874 74.288093567 0.9599999785 0.9200000167
 1738.6999512  -999.250000 8.6250000000 8.5000000000 0.4342021942 2.1356999874 72.730003357 0.9499999881 0.9200000167
 1738.7999268  -999.250000 8.6250000000 8.5000000000 0.4424797595 2.1356999874 71.650001526 0.9900000095 0.8700000048
 1738.9000244  -999.250000 8.5780000687 8.5000000000 0.4581808448 2.1456878185 71.110000610 0.9800000191 0.8700000048
