# LAS format log file from PETREL
# Project units are specified as depth units
#==================================================================
~Version information
VERS.   2.0:
WRAP.   NO:
#==================================================================
~Well
STRT .m      1110.8436279 :
STOP .m      2733.1416016 :
STEP .m     0.00000000 :
NULL .        -999.250000 :
COMP.           : COMPANY
WELL.  16/7-6   : WELL
FLD.            : FIELD
LOC.            : LOCATION
SRVC.           : SERVICE COMPANY
DATE.  2018-09-11 14:48:11   : Log Export Date {yyyy-MM-dd HH:mm:ss}
PROV.           : PROVINCE
UWI.   16/7-6   : UNIQUE WELL ID
API.            : API NUMBER
#==================================================================
~Curve
DEPT .m                   : DEPTH
Lithology_geolink ._      : Lithology_geolink
DCAL .in                  : DCAL
CALI .in                  : CALI
BS .in                    : BS
ROP .m/h                  : ROP
DRHO .g/cm3               : DRHO
THOR .ppm                 : THOR
SGR .gAPI                 : SGR
NPHI .m3/m3               : NPHI
RHOB .g/cm3               : RHOB
PEF .b/e                  : PEF
GR .gAPI                  : GR
URAN .ppm                 : URAN
DTC .us/ft                : DTC
DTS .us/ft                : DTS
RDEP .ohm.m               : RDEP
SP .mV                    : SP
RSHA .ohm.m               : RSHA
RMIC .ohm.m               : RMIC
RMED .ohm.m               : RMED
~Parameter
#==================================================================
~Ascii
 1110.8436279  -999.250000 -5.366200924 12.133799553 17.500000000 151991.57813 -1.139011025 4.1778788567  -999.250000 0.6180561781 1.6138000488  -999.250000 106.58190155 1.6187839508 127.93170166  -999.250000 1.3907949924 -171.8789978 1.2543929815  -999.250000 1.3299959898
 1110.9960938  -999.250000 -5.361599922 12.138400078 17.500000000 198601.65625 -1.139011025 4.1778788567  -999.250000 0.6180561781 1.6138000488  -999.250000 104.59239960 1.6187839508 133.31874084  -999.250000 1.3973795176 -171.9331207 1.2767881155  -999.250000 1.3405838013
 1111.1484375  -999.250000 -5.361999989 12.137998581 17.500000000 257500.75000 -1.139011025 4.1778531075  -999.250000 0.6180561781 1.6138000488  -999.250000 101.46630096 1.6187700033 138.47909546  -999.250000 1.3768049479 -171.7035065 1.2645030022  -999.250000 1.3241039515
 1111.3009033  -999.250000 -5.379601002 12.120401382 17.500000000 292578.43750 -1.139011025 4.1297984123  -999.250000 0.6180561781 1.6138000488  -999.250000 104.23057556 1.5945559740 136.16818237  -999.250000 1.3499864340 -171.6288147 1.2322820425  -999.250000 1.2987871170
 1111.4532471  -999.250000 -5.391295910 12.108699799 17.500000000 321941.09375 -1.139011025 3.9759328365  -999.250000 0.6180561781 1.6138000488  -999.250000 108.69619751 1.8454309702 135.14250183  -999.250000 1.3355040550 -171.5079041 1.2124060392  -999.250000 1.2852040529
 1111.6055908  -999.250000 -5.393600941 12.106400490 17.500000000 420141.34375 -1.139011025 4.5219807625  -999.250000 0.6180561781 1.6138000488  -999.250000 109.52960205 1.8666670322 133.48500061  -999.250000 1.3092980385 -171.3246002 1.1978989840  -999.250000 1.2593979836
 1111.7579346  -999.250000 -5.409605980 12.090390205 17.500000000 489451.40625 -1.139011025 5.1550588608  -999.250000 0.6180561781 1.6138000488  -999.250000 109.02809906 1.7527120113 130.97970581  -999.250000 1.2803989649 -171.3710022 1.1773940325  -999.250000 1.2237950563
 1111.9104004  -999.250000 -5.423200130 12.076799393 17.500000000 315797.65625 -1.139011025 5.4202880859  -999.250000 0.6180561781 1.6138000488  -999.250000 105.65209961 2.0322120190 131.30850220  -999.250000 1.2786999941 -171.1997070 1.1635999680  -999.250000 1.2134000063
 1112.0627441  -999.250000 -5.419300079 12.080700874 17.500000000 129044.76563 -1.139011025 6.2813110352  -999.250000 0.6180561781 1.6138000488  -999.250000 98.484092712 1.9525289536 128.65699768  -999.250000 1.3006110191 -171.1291046 1.1663089991  -999.250000 1.2333120108
 1112.2152100  -999.250000 -5.420299530 12.079700470 17.500000000 105662.23438 -1.110514998 7.0491929054  -999.250000 0.6180561781 1.6138000488  -999.250000 91.624649048 1.8433129787 131.22070313  -999.250000 1.3303979635 -171.0081024 1.1900980473  -999.250000 1.2670979500
 1112.3675537  -999.250000 -5.419000149 12.081001282 17.500000000 122720.46094 -1.108340025 6.9196791649  -999.250000 0.6180561781 1.6141090393  -999.250000 87.171562195 1.8888000250 130.64059448  -999.250000 1.3490999937 -170.9416046 1.2280050516  -999.250000 1.2951020002
 1112.5200195  -999.250000 -5.419300079 12.080700874 17.500000000 139893.07813 -1.104977012 7.3600292206  -999.250000 0.6180561781 1.6439960003  -999.250000 90.340896606 1.8153669834 133.59680176  -999.250000 1.3500000238 -170.7035980 1.2451980114  -999.250000 1.3020989895
 1112.6723633  -999.250000 -5.420699596 12.079299927 17.500000000 154636.29688 -1.109027028 8.5869035721  -999.250000 0.6180561781 1.6642019749  -999.250000 99.276199341 2.0219590664 134.89790344  -999.250000 1.3479020596 -170.6291046 1.2396980524  -999.250000 1.3016020060
 1112.8248291  -999.250000 -5.419400215 12.080599785 17.500000000 209106.26563 -1.127285004 9.7074279785  -999.250000 0.6180561781 1.6713989973  -999.250000 100.50340271 1.9200561047 134.90910339  -999.250000 1.3563979864 -170.6250000 1.2324010134  -999.250000 1.3080990314
 1112.9771729  -999.250000 -5.420699596 12.079299927 17.500000000 302225.34375 -1.130036950 10.211039543  -999.250000 0.6180561781 1.6795990467  -999.250000 91.552650452 1.8474899530 132.73739624  -999.250000 1.3842070103 -170.5666046 1.2400059700  -999.250000 1.3281060457
 1113.1296387  -999.250000 -5.420100212 12.079900742 17.500000000 400502.84375 -1.126801968 9.2483863831  -999.250000 0.6180981994 1.6764010191  -999.250000 90.150360107 1.4923059940 134.17030334  -999.250000 1.4223899841 -170.3285980 1.2740910053  -999.250000 1.3623909950
 1113.2819824  -999.250000 -5.418600082 12.081399918 17.500000000 498530.78125 -1.150413036 8.2213821411  -999.250000 0.6227332950 1.6940979958  -999.250000 102.23159790 1.1567569971 132.34080505  -999.250000 1.4409999847 -170.2541046 1.3101019859  -999.250000 1.3827999830
 1113.4344482  -999.250000 -5.419400215 12.080599785 17.500000000 596714.75000 -1.170153022 6.6079840660  -999.250000 0.6447240710 1.6809040308  -999.250000 113.55449677 1.3588650227 134.04820251  -999.250000 1.4439990520 -170.1331024 1.3242959976  -999.250000 1.3845000267
 1113.5867920  -999.250000 -5.421700001 12.078299522 17.500000000 694804.18750 -1.173151970 5.6085391045  -999.250000 0.7167007923 1.5822960138  -999.250000 110.71800232 1.0516970158 134.16940308  -999.250000 1.4742029905 -170.1250000 1.3430019617  -999.250000 1.4156030416
 1113.7391357  -999.250000 -5.420499802 12.079501152 17.500000000 775232.18750 -1.151056051 4.6688427925  -999.250000 0.7894843817 1.5091029406  -999.250000 106.48570251 0.9811843634 132.32989502  -999.250000 1.5249110460 -169.9496002 1.3853139877  -999.250000 1.4718099833
 1113.8916016  -999.250000 -5.420100212 12.079900742 17.500000000 749063.62500 -1.142264009 4.3051600456  -999.250000 0.7797536254 1.5161000490  -999.250000 109.46379852 1.1876399517 127.29470825  -999.250000 1.5521999598 -169.8206024 1.4179999828  -999.250000 1.4960000515
 1114.0439453  -999.250000 -5.420000076 12.079998970 17.500000000 564550.56250 -1.147604942 4.8439750671  -999.250000 0.7459722757 1.6234320402  -999.250000 112.10199738 1.3932709694 125.51710510  -999.250000 1.5617029667 -169.8710022 1.4342039824  -999.250000 1.5031050444
 1114.1964111  -999.250000 -5.419500351 12.080499649 17.500000000 394862.25000 -1.160284042 4.6149930954  -999.250000 0.7454869747 1.7118940353  -999.250000 113.63169861 1.2578890324 126.14810181  -999.250000 1.5715990067 -169.9333954 1.4458990097  -999.250000 1.5166989565
 1114.3487549  -999.250000 -5.417901039 12.082099915 17.500000000 314937.18750 -1.163200021 4.9779548645  -999.250000 0.7061284184 1.7302930355  -999.250000 111.87439728 1.3322869539 125.94171143  -999.250000 1.5879019499 -169.8206024 1.4621030092  -999.250000 1.5382030010
 1114.5012207  -999.250000 -5.419899464 12.080100060 17.500000000 263385.03125 -1.171825051 4.7360978127  -999.250000 0.6963859797 1.7071030140  -999.250000 108.25740051 1.4057869911 119.79109955  -999.250000 1.5929989815 -169.5782928 1.4730980396  -999.250000 1.5483989716
 1114.6535645  -999.250000 -5.420000076 12.079998970 17.500000000 204032.95313 -1.181277990 4.2991228104  -999.250000 0.6929987073 1.6965949535  -999.250000 107.88480377 1.5963269472 124.43060303  -999.250000 1.5629940033 -169.2115021 1.4497900009  -999.250000 1.5146909952
 1114.8060303  -999.250000 -5.420100212 12.079900742 17.500000000 179549.17188 -1.181094050 4.2246952057  -999.250000 0.6729320884 1.6750040054  -999.250000 104.73979950 1.4985460043 129.88569641  -999.250000 1.5356049538 -169.1289063 1.4084080458  -999.250000 1.4755079746
 1114.9583740  -999.250000 -5.421299934 12.078701019 17.500000000 184012.32813 -1.171637058 4.1497540474  -999.250000 0.6821370125 1.6523009539  -999.250000 102.48149872 1.4301110506 140.05499268  -999.250000 1.5501049757 -168.9494019 1.3953020573  -999.250000 1.4816039801
 1115.1108398  -999.250000 -5.423499584 12.076498985 17.500000000 200363.96875 -1.167657971 4.1464757919  -999.250000 0.6807280779 1.6589980125  -999.250000 104.60710144 1.0956139565 137.12660217  -999.250000 1.5809919834 -168.8204041 1.4083969593  -999.250000 1.5055940151
 1115.2631836  -999.250000 -5.418699741 12.081299782 17.500000000 218571.96875 -1.160087943 3.6812329292  -999.250000 0.6795083880 1.6696009636  -999.250000 106.51450348 1.3048909903 133.60409546  -999.250000 1.5965030193 -168.6369934 1.4188020229  -999.250000 1.5108029842
