# LAS format log file from PETREL
# Project units are specified as depth units
#==================================================================
~Version information
VERS.   2.0:
WRAP.   NO:
#==================================================================
~Well
STRT .m      446.31985474 :
STOP .m      2908.1892090 :
STEP .m     0.00000000 :
NULL .        -999.250000 :
COMP.           : COMPANY
WELL.  16/7-5   : WELL
FLD.            : FIELD
LOC.            : LOCATION
SRVC.           : SERVICE COMPANY
DATE.  2018-09-11 14:48:11   : Log Export Date {yyyy-MM-dd HH:mm:ss}
PROV.           : PROVINCE
UWI.   16/7-5   : UNIQUE WELL ID
API.            : API NUMBER
#==================================================================
~Curve
DEPT .m                   : DEPTH
Lithology_geolink ._      : Lithology_geolink
CALI .in                  : CALI
DRHO .g/cm3               : DRHO
NPHI .m3/m3               : NPHI
RHOB .g/cm3               : RHOB
PEF .b/e                  : PEF
GR .gAPI                  : GR
DTC .us/ft                : DTC
RDEP .ohm.m               : RDEP
SP .mV                    : SP
RSHA .ohm.m               : RSHA
RMED .ohm.m               : RMED
~Parameter
#==================================================================
~Ascii
# ...
 1594.8060303  -999.250000 13.402999878 0.0070192157 0.4716266692 2.0187621117 2.5006844997 88.115226746 147.21591187 0.7519999743 63.215270996 0.8100016117 0.8100016117
 1594.9584961  -999.250000 13.961999893 -0.000987180 0.4664141238 2.0104360580 3.0575537682 85.760902405 147.82031250 0.7599999905 62.137626648 0.8109759688 0.8109759688
 1595.1108398  -999.250000 13.869000435 0.0119687747 0.4593313336 2.0031054020 3.4184217453 84.884132385 148.98886108 0.7639999986 61.982379913 0.8010032177 0.8010032177
 1595.2633057  -999.250000 13.111000061 0.0149951922 0.4554631114 1.9937956333 3.3640441895 82.472892761 149.66969299 0.7649999857 61.591571808 0.8029831648 0.8029831648
 1595.4156494  -999.250000 12.397000313 0.0060216174 0.4806795418 1.9836709499 2.7829320431 82.007080078 149.69120789 0.7639999986 60.172431946 0.7960144281 0.7960144281
 1595.5681152  -999.250000 12.413000107 -0.002985577 0.4552304447 1.9756603241 2.4922325611 77.698814392 149.37437439 0.7590000033 62.933773041 0.8049591780 0.8049591780
 1595.7204590  -999.250000 12.430000305 -0.003997598 0.4693686366 1.9848432541 2.3011531830 78.455474854 149.00410461 0.7509999871 62.422142029 0.7879903913 0.7879903913
 1595.8729248  -999.250000 12.450999260 0.0019903847 0.4901633561 2.0064675808 2.2680263519 79.997978210 149.11497498 0.7450000048 61.265563965 0.7819783688 0.7819783688
 1596.0252686  -999.250000 12.456999779 -0.001990392 0.5123921633 2.0260589123 2.4558494091 81.231430054 149.66281128 0.7440000176 61.500000000 0.7730208635 0.7730208635
 1596.1777344  -999.250000 12.397999763 -0.001001603 0.5296561718 2.0306377411 2.7237854004 80.253395081 149.60946655 0.7450000048 61.500938416 0.7859928012 0.7859928012
 1596.3300781  -999.250000 12.317999840 0.0109711764 0.4944282472 2.0190541744 2.9318332672 80.841682434 148.40325928 0.7490000129 61.891742706 0.7830095887 0.7830095887
 1596.4825439  -999.250000 12.317999840 0.0119983973 0.4663524628 2.0081567764 2.7331593037 86.239143372 146.61215210 0.7500000000 62.356563568 0.7890048027 0.7890048027
 1596.6348877  -999.250000 12.319000244 0.0080064107 0.4878827333 2.0039296150 2.4712100029 82.141448975 145.19415283 0.7580000162 63.006687164 0.7910064459 0.7910064459
 1596.7872314  -999.250000 12.319000244 -0.011951962 0.4977741539 2.0030062199 2.4130930901 79.925964355 144.64396667 0.7590000033 63.433322906 0.7950144410 0.7950144410
 1596.9396973  -999.250000 12.166999817 -0.012998397 0.5300841331 2.0028028488 2.4309856892 75.546592712 145.16165161 0.7580000162 62.386737823 0.8040192723 0.8040192723
 1597.0920410  -999.250000 12.020999908 -0.010007205 0.5094331503 2.0022363663 2.5188591480 79.649589539 146.74639893 0.7549999952 62.845497131 0.8159871697 0.8159871697
 1597.2445068  -999.250000 11.897999763 -0.005008013 0.5144060254 2.0009024143 2.6209182739 77.527534485 148.23751831 0.7580000162 63.154220581 0.8079976439 0.8079976439
 1597.3968506  -999.250000 11.774000168 -0.000012010 0.4931041896 1.9924379587 2.5471184254 78.581436157 148.73387146 0.7580000162 62.000000000 0.8069711328 0.8069711328
 1597.5493164  -999.250000 11.714999199 0.0049919873 0.4615752399 1.9820020199 2.4360890388 78.853630066 148.96757507 0.7630000114 62.000568390 0.7889975905 0.7889975905
 1597.7016602  -999.250000 11.800001144 0.0040024021 0.4418357909 1.9775699377 2.3750488758 78.702018738 149.25183105 0.7590000033 62.237163544 0.7879951596 0.7879951596
 1597.8541260  -999.250000 11.925000191 0.0030016026 0.4174695015 1.9788320065 2.4779174328 78.089019775 148.96055603 0.7549999952 62.341480255 0.7849880457 0.7849880457
 1598.0064697  -999.250000 12.050000191 -0.001987990 0.4115847051 1.9827808142 2.5439469814 77.678756714 148.28211975 0.7459999919 63.367504120 0.7800239921 0.7800239921
 1598.1589355  -999.250000 12.131000519 -0.004995192 0.4182146788 1.9852396250 2.5410022736 75.037391663 148.08753967 0.7440000176 60.568443298 0.7949736118 0.7949736118
 1598.3112793  -999.250000 12.082999229 -0.012980785 0.4490652680 1.9812153578 2.7458357811 74.782676697 148.65664673 0.7409999967 61.999805450 0.7840095758 0.7840095758
 1598.4637451  -999.250000 12.045000076 -0.013000000 0.4813041985 1.9676343203 3.0667428970 73.961952209 149.77026367 0.7419999838 62.501976013 0.7900048494 0.7900048494
 1598.6160889  -999.250000 12.119000435 -0.006011218 0.4840578139 1.9474434853 3.4137220383 74.358604431 150.57235718 0.7409999967 62.907752991 0.7920032144 0.7920032144
 1598.7685547  -999.250000 12.206000328 -0.000009608 0.5051730871 1.9310530424 3.4969334602 74.739532471 149.86248779 0.7400000095 63.368896484 0.7939904332 0.7939904332
 1598.9208984  -999.250000 12.222000122 0.0000000000 0.4800901115 1.9221291542 3.6808526516 76.207321167 148.15605164 0.7379999757 60.833656311 0.7899951935 0.7899951935
 1599.0732422  -999.250000 12.071999550 0.0099759810 0.5056589246 1.9137889147 3.8696973324 76.409912109 147.03683472 0.7390000224 61.862796783 0.7869983912 0.7869983912
 1599.2257080  -999.250000 12.024000168 0.0129951928 0.4858159721 1.8999472857 3.9439406395 78.850097656 147.24348450 0.7360000014 61.118465424 0.7859736085 0.7859736085
 1599.3780518  -999.250000 12.053000450 0.0209807847 0.4967125058 1.8860483170 3.7103748322 79.310791016 148.96734619 0.7319999933 62.556163788 0.7750127912 0.7750127912
 1599.5305176  -999.250000 12.067000389 0.0110160252 0.5067919493 1.8814452887 3.5551242828 82.918754578 150.88784790 0.7319999933 62.038612366 0.7829519510 0.7829519510
 1599.6828613  -999.250000 12.055000305 0.0020216175 0.4998411536 1.8904826641 3.1446580887 82.817199707 151.28173828 0.7269999981 62.294250488 0.7630224228 0.7630224228
 1599.8353271  -999.250000 12.017000198 -0.004988782 0.5021681190 1.9108486176 2.6633856297 82.314163208 150.89115906 0.7260000110 62.450588226 0.7769711614 0.7769711614
 1599.9876709  -999.250000 11.987998962 -0.011983187 0.4683071375 1.9362274408 2.4721529484 80.304817200 150.89880371 0.7279999852 62.279258728 0.7650160193 0.7650160193
 1600.1401367  -999.250000 11.987998962 -0.010003204 0.4542212784 1.9588845968 2.4330313206 80.821014404 150.98365784 0.7289999723 62.441711426 0.7750048041 0.7750048041
 1600.2924805  -999.250000 12.042000771 -0.007007206 0.4467259943 1.9762358665 2.4739670753 83.319030762 150.49645996 0.7269999981 62.735511780 0.7770000100 0.7770000100
 1600.4449463  -999.250000 12.097000122 -0.001009615 0.4399954081 1.9919394255 2.4140479565 83.952590942 149.53915405 0.7269999981 61.807388306 0.7770000100 0.7770000100
 1600.5972900  -999.250000 12.147998810 -0.003992795 0.4506314695 2.0057587624 2.3420577049 80.878471375 148.85743713 0.7220000029 61.969791412 0.7769888043 0.7769888043
 1600.7497559  -999.250000 12.163999557 -0.005996795 0.4553762078 2.0142357349 2.3200175762 82.417411804 148.88150024 0.7220000029 62.460605621 0.7699999809 0.7699999809
 1600.9020996  -999.250000 12.015000343 -0.004003205 0.4763731658 2.0159797668 2.3130056858 82.585823059 149.44857788 0.7200000286 62.297042847 0.7699759603 0.7699759603
 1601.0544434  -999.250000 11.883000374 -0.002004804 0.4806531966 2.0124411583 2.3758990765 81.231254578 150.10948181 0.7210000157 61.700172424 0.7550079823 0.7550079823
 1601.2069092  -999.250000 11.958999634 -0.000003205 0.4942590594 2.0054488182 2.3740017414 80.142524719 150.46917725 0.7229999900 61.185668945 0.7600023746 0.7600023746
 1601.3592529  -999.250000 12.024999619 0.0009975982 0.4703483284 1.9995107651 2.4468832016 79.537193298 150.30271912 0.7189999819 61.468887329 0.7610320449 0.7610320449
 1601.5117188  -999.250000 12.005000114 0.0000016026 0.4473584294 1.9995975494 2.3970401287 83.394577026 149.57479858 0.7179999948 65.133468628 0.7809855938 0.7809855938
 1601.6640625  -999.250000 12.003999710 -0.000997598 0.4326335788 2.0052876472 2.3440849781 82.805763245 148.59182739 0.7189999819 64.077201843 0.7750015855 0.7750015855
 1601.8165283  -999.250000 12.418000221 -0.002996795 0.4475380182 2.0117943287 2.2780530453 84.533927917 147.75454712 0.7179999948 61.704692841 0.7759591937 0.7759591937
 1601.9688721  -999.250000 12.831999779 -0.001004804 0.4760171771 2.0198616982 2.2340352535 86.999282837 147.36175537 0.7210000157 59.918876648 0.7590048313 0.7590048313
