# LAS format log file from PETREL
# Project units are specified as depth units
#==================================================================
~Version information
VERS.   2.0:
WRAP.   NO:
#==================================================================
~Well
STRT .m      446.31985474 :
STOP .m      2908.1892090 :
STEP .m     0.00000000 :
NULL .        -999.250000 :
COMP.           : COMPANY
WELL.  16/7-5   : WELL
FLD.            : FIELD
LOC.            : LOCATION
SRVC.           : SERVICE COMPANY
DATE.  2018-09-11 14:48:11   : Log Export Date {yyyy-MM-dd HH:mm:ss}
PROV.           : PROVINCE
UWI.   16/7-5   : UNIQUE WELL ID
API.            : API NUMBER
#==================================================================
~Curve
DEPT .m                   : DEPTH
Lithology_geolink ._      : Lithology_geolink
CALI .in                  : CALI
DRHO .g/cm3               : DRHO
NPHI .m3/m3               : NPHI
RHOB .g/cm3               : RHOB
PEF .b/e                  : PEF
GR .gAPI                  : GR
DTC .us/ft                : DTC
RDEP .ohm.m               : RDEP
SP .mV                    : SP
RSHA .ohm.m               : RSHA
RMED .ohm.m               : RMED
~Parameter
#==================================================================
~Ascii
# ...
 607.25421143  -999.250000 18.357999802  -999.250000  -999.250000 2.0476932526  -999.250000 75.011238098 143.12588501 2.2889952660 28.488462448 1.6370179653 1.6370179653
 607.40661621  -999.250000 18.319999695  -999.250000  -999.250000 2.0504631996  -999.250000 75.617980957 142.02735901 2.2769947052 27.790702820 1.6420288086 1.6420288086
 607.55902100  -999.250000 18.311000824  -999.250000  -999.250000 2.0553710461  -999.250000 72.291503906 140.13111877 2.2639927864 28.810441971 1.6500252485 1.6500252485
 607.71142578  -999.250000 18.309000015  -999.250000  -999.250000 2.0599012375  -999.250000 70.773841858 138.41938782 2.2459943295 27.833425522 1.6569746733 1.6569746733
 607.86383057  -999.250000 18.341999054  -999.250000  -999.250000 2.0615565777  -999.250000 71.295326233 137.80281067 2.2320008278 29.609308243 1.6499855518 1.6499855518
 608.01623535  -999.250000 18.611000061  -999.250000  -999.250000 2.0614132881  -999.250000 74.706306458 137.85455322 2.2340016365 29.414524078 1.6460000277 1.6460000277
 608.16864014  -999.250000 18.909999847  -999.250000  -999.250000 2.0613434315  -999.250000 75.340560913 137.87770081 2.2379980087 28.452796936 1.6460108757 1.6460108757
 608.32104492  -999.250000 19.214000702  -999.250000  -999.250000 2.0612697601  -999.250000 74.669166565 137.90754700 2.2330029011 28.120409012 1.6490648985 1.6490648985
 608.47344971  -999.250000 19.518999100  -999.250000  -999.250000 2.0607097149  -999.250000 75.543914795 138.11975098 2.2400000095 28.240886688 1.6670649052 1.6670649052
 608.62585449  -999.250000 19.445999146  -999.250000  -999.250000 2.0597229004  -999.250000 75.238426208 138.48643494 2.2399935722 30.418010712 1.6850792170 1.6850792170
 608.77825928  -999.250000 18.966999054  -999.250000  -999.250000 2.0589265823  -999.250000 73.407524109 138.78675842 2.2320194244 29.590833664 1.7068638802 1.7068638802
 608.93066406  -999.250000 18.562000275  -999.250000  -999.250000 2.0590903759  -999.250000 69.803550720 138.72462463 2.2560265064 29.299583435 1.6729519367 1.6729519367
 609.08300781  -999.250000 18.445999146  -999.250000  -999.250000 2.0596435070  -999.250000 68.712165833 138.52458191 2.2889964581 28.951959610 1.6609784365 1.6609784365
 609.23541260  -999.250000 18.445999146  -999.250000  -999.250000 2.0586166382  -999.250000 72.630897522 138.90972900 2.2800056934 30.322427750 1.6550108194 1.6550108194
 609.38781738  -999.250000 18.599000931  -999.250000  -999.250000 2.0556833744  -999.250000 73.171661377 140.02609253 2.2940034866 30.160888672 1.6580144167 1.6580144167
 609.54022217  -999.250000 18.670000076  -999.250000  -999.250000 2.0528333187  -999.250000 77.493461609 141.11669922 2.3029923439 29.298528671 1.6620864868 1.6620864868
 609.69262695  -999.250000 18.641000748  -999.250000  -999.250000 2.0513100624  -999.250000 75.138107300 141.70260620 2.2840058804 28.616737366 1.6860612631 1.6860612631
 609.84503174  -999.250000 18.885000229  -999.250000  -999.250000 2.0508000851  -999.250000 76.535446167 141.90251160 2.2990043163 29.094917297 1.7030503750 1.7030503750
 609.99743652  -999.250000 19.436000824  -999.250000  -999.250000 2.0514073372  -999.250000 72.784507751 141.66151428 2.3099956512 28.522981644 1.7169891596 1.7169891596
 610.14984131  -999.250000 19.347999573  -999.250000  -999.250000 2.0525903702  -999.250000 71.813850403 141.19941711 2.2990040779 29.623363495 1.7139855623 1.7139855623
 610.30224609  -999.250000 19.069000244  -999.250000  -999.250000 2.0528831482  -999.250000 70.668617249 141.08946228 2.3090000153 29.448827744 1.7100000381 1.7100000381
 610.45465088  -999.250000 18.791000366  -999.250000  -999.250000 2.0522530079  -999.250000 71.394432068 141.32891846 2.3089904785 29.954393387 1.7100036144 1.7100036144
 610.60705566  -999.250000 18.635999680  -999.250000  -999.250000 2.0515396595  -999.250000 72.336616516 141.60943604 2.2849969864 30.059371948 1.7109278440 1.7109278440
 610.75946045  -999.250000 18.513999939  -999.250000  -999.250000 2.0513300896  -999.250000 70.578407288 141.70126343 2.2769958973 29.055345535 1.6909959316 1.6909959316
 610.91186523  -999.250000 18.340999603  -999.250000  -999.250000 2.0516734123  -999.250000 72.177230835 141.56228638 2.2719919682 28.647947311 1.6900041103 1.6900041103
 611.06427002  -999.250000 18.204000473  -999.250000  -999.250000 2.0517265797  -999.250000 73.496391296 141.53742981 2.2620000839 29.627460480 1.6910440922 1.6910440922
 611.21661377  -999.250000 18.125999451  -999.250000  -999.250000 2.0514566898  -999.250000 78.072364807 141.65222168 2.2620000839 28.995788574 1.7020865679 1.7020865679
 611.36901855  -999.250000 18.114000320  -999.250000  -999.250000 2.0515732765  -999.250000 78.167221069 141.60078430 2.2620019913 28.935384750 1.7259855270 1.7259855270
 611.52142334  -999.250000 18.129999161  -999.250000  -999.250000 2.0515832901  -999.250000 76.555450439 141.59906006 2.2669980526 28.490240097 1.7219495773 1.7219495773
 611.67382813  -999.250000 18.238000870  -999.250000  -999.250000 2.0503029823  -999.250000 72.515464783 142.10673523 2.2620029449 28.830253601 1.7078597546 1.7078597546
 611.82623291  -999.250000 18.361000061  -999.250000  -999.250000 2.0484795570  -999.250000 67.911613464 142.82505798 2.2689988613 28.150688171 1.6730120182 1.6730120182
 611.97863770  -999.250000 18.483999252  -999.250000  -999.250000 2.0481469631  -999.250000 69.062088013 142.97497559 2.2659971714 29.068456650 1.6759239435 1.6759239435
 612.13104248  -999.250000 18.847000122  -999.250000  -999.250000 2.0487301350  -999.250000 69.848335266 142.72822571 2.2589983940 29.180557251 1.6570400000 1.6570400000
 612.28344727  -999.250000 19.278999329  -999.250000  -999.250000 2.0487697124  -999.250000 74.161621094 142.69717407 2.2550005913 28.822004318 1.6669399738 1.6669399738
 612.43585205  -999.250000 19.871000290  -999.250000  -999.250000 2.0485999584  -999.250000 74.561408997 142.77729797 2.2559981346 28.826755524 1.6519198418 1.6519198418
 612.58825684  -999.250000 19.721000671  -999.250000  -999.250000 2.0483398438  -999.250000 74.157493591 142.88681030 2.2510030270 29.762901306 1.6320079565 1.6320079565
 612.74066162  -999.250000 19.552000046  -999.250000  -999.250000 2.0479133129  -999.250000 72.285629272 143.04005432 2.2590065002 30.234397888 1.6341121197 1.6341121197
 612.89306641  -999.250000 19.384000778  -999.250000  -999.250000 2.0478434563  -999.250000 70.939445496 143.06242371 2.2669959068 29.834970474 1.6620640755 1.6620640755
 613.04547119  -999.250000 19.474000931  -999.250000  -999.250000 2.0474662781  -999.250000 68.316612244 143.21421814 2.2620048523 29.576148987 1.6780079603 1.6780079603
 613.19781494  -999.250000 19.688001633  -999.250000  -999.250000 2.0464668274  -999.250000 68.471656799 143.62356567 2.2680022717 28.871290207 1.6799855232 1.6799855232
 613.35021973  -999.250000 19.413999557  -999.250000  -999.250000 2.0459001064  -999.250000 69.493621826 143.85455322 2.2740018368 30.058315277 1.6760252714 1.6760252714
 613.50262451  -999.250000 19.326000214  -999.250000  -999.250000 2.0459001064  -999.250000 72.697288513 143.85069275 2.2790040970 30.416770935 1.6830576658 1.6830576658
 613.65502930  -999.250000 19.068000793  -999.250000  -999.250000 2.0462899208  -999.250000 70.559867859 143.70222473 2.2890036106 28.974515915 1.6990144253 1.6990144253
 613.80743408  -999.250000 18.604000092  -999.250000  -999.250000 2.0475802422  -999.250000 69.121719360 143.19721985 2.2979996204 29.943515778 1.7029639482 1.7029639482
 613.95983887  -999.250000 18.430999756  -999.250000  -999.250000 2.0488603115  -999.250000 64.332466125 142.68360901 2.2970006466 29.327344894 1.6939519644 1.6939519644
 614.11224365  -999.250000 18.292999268  -999.250000  -999.250000 2.0488097668  -999.250000 65.932472229 142.69937134 2.2990007401 29.659040451 1.6819440126 1.6819440126
 614.26464844  -999.250000 18.155000687  -999.250000  -999.250000 2.0471289158  -999.250000 63.824821472 143.37715149 2.3009989262 28.917097092 1.6679759026 1.6679759026
 614.41705322  -999.250000 18.027999878  -999.250000  -999.250000 2.0440385342  -999.250000 67.008148193 144.64212036 2.2979996204 27.451786041 1.6619839668 1.6619839668
