# LAS format log file from PETREL
# Project units are specified as depth units
#==================================================================
~Version information
VERS.   2.0:
WRAP.   NO:
#==================================================================
~Well
STRT .m      1317.4000244 :
STOP .m      2886.4997559 :
STEP .m     0.00000000 :
NULL .        -999.250000 :
COMP.           : COMPANY
WELL.  16/7-8 S Beta West   : WELL
FLD.            : FIELD
LOC.            : LOCATION
SRVC.           : SERVICE COMPANY
DATE.  2018-09-11 14:48:11   : Log Export Date {yyyy-MM-dd HH:mm:ss}
PROV.           : PROVINCE
UWI.   16/7-8 S   : UNIQUE WELL ID
API.            : API NUMBER
#==================================================================
~Curve
DEPT .m                   : DEPTH
Lithology_geolink ._      : Lithology_geolink
CALI .in                  : CALI
BS .in                    : BS
NPHI .m3/m3               : NPHI
RHOB .g/cm3               : RHOB
GR .gAPI                  : GR
RDEP .ohm.m               : RDEP
RMED .ohm.m               : RMED
~Parameter
#==================================================================
~Ascii
# ...
 2045.0000000  -999.250000 8.6250000000 8.5000000000 0.4584996402 2.2853999138 70.730003357 0.7599999905 0.6700000167
 2045.0999756  -999.250000 8.6250000000 8.5000000000 0.4692736566 2.2853999138 71.400001526 0.7599999905 0.6700000167
 2045.2000732  -999.250000 8.6250000000 8.5000000000 0.4943000078 2.2853999138 71.610000610 0.7699999809 0.6700000167
 2045.3000488  -999.250000 8.6250000000 8.5000000000 0.5346999764 2.2853999138 71.360000610 0.7799999714 0.6499999762
 2045.4000244  -999.250000 8.5780000687 8.5000000000 0.5777999759 2.2853999138 70.970001221 0.7900000215 0.6299999952
 2045.5001221  -999.250000 8.6020002365 8.5000000000 0.5867000222 2.2753999233 71.041831970 0.7699999809 0.6399999857
 2045.6000977  -999.250000 8.6250000000 8.5000000000 0.5469999909 2.2655000687 71.791137695 0.7599999905 0.6399999857
 2045.6999512  -999.250000 8.6250000000 8.5000000000 0.5047516823 2.2655000687 72.720001221 0.7400244474 0.6499877572
 2045.7999268  -999.250000 8.6250000000 8.5000000000 0.4783644080 2.2555243969 73.080001831 0.7400000095 0.6299999952
 2045.9000244  -999.250000 8.6250000000 8.5000000000 0.4673134387 2.2555000782 72.650001526 0.7500000000 0.6200000048
 2046.0000000  -999.250000 8.6250000000 8.5000000000 0.4694973230 2.2555000782 71.889999390 0.7500000000 0.6100000143
 2046.0999756  -999.250000 8.6020002365 8.5000000000 0.4827837646 2.2555000782 71.139999390 0.7500000000 0.6100000143
 2046.2000732  -999.250000 8.5780000687 8.5000000000 0.5027756095 2.2555000782 70.680000305 0.7300000191 0.6200000048
 2046.3000488  -999.250000 8.5780000687 8.5000000000 0.5156999826 2.2555000782 70.290000916 0.7200000286 0.6299999952
 2046.4000244  -999.250000 8.5780000687 8.5000000000 0.5105999708 2.2655000687 69.589996338 0.7099999785 0.6200000048
 2046.5000000  -999.250000 8.5780000687 8.5000000000 0.4973999858 2.2655000687 68.220001221 0.7099999785 0.6200000048
 2046.6000977  -999.250000 8.5780000687 8.5000000000 0.4894999862 2.2655000687 66.430000305 0.6999999881 0.6100000143
 2046.7000732  -999.250000 8.5780000687 8.5000000000 0.5030000210 2.2655000687 64.708816528 0.6899999976 0.6000000238
 2046.7999268  -999.250000 8.6020002365 8.5000000000 0.5371581912 2.2655000687 63.740001678 0.6899999976 0.5900121927
 2046.8999023  -999.250000 8.6250000000 8.5000000000 0.5899709463 2.2555243969 63.959999084 0.6899999976 0.5800243616
 2047.0000000  -999.250000 8.6250000000 8.5000000000 0.6421363950 2.2555000782 65.690002441 0.6999999881 0.5799999833
 2047.0999756  -999.250000 8.6250000000 8.5000000000 0.6483924389 2.2555000782 67.910003662 0.6800000072 0.5899999738
 2047.1999512  -999.250000 8.6020002365 8.5000000000 0.6054051518 2.2654757500 69.400001526 0.6800000072 0.6200000048
 2047.3000488  -999.250000 8.5780000687 8.5000000000 0.5670467615 2.2753877640 69.389999390 0.6700000167 0.6499999762
 2047.4000244  -999.250000 8.6250000000 8.5000000000 0.5530170798 2.2853877544 68.160003662 0.6800000072 0.6299999952
 2047.5000000  -999.250000 8.6250000000 8.5000000000 0.5519999862 2.2853999138 66.330001831 0.6899999976 0.6200000048
 2047.6000977  -999.250000 8.6250000000 8.5000000000 0.5482000113 2.2953999043 64.809997559 0.6800000072 0.6000000238
 2047.7000732  -999.250000 8.6020002365 8.5000000000 0.5383999944 2.2953999043 64.400001526 0.6800000072 0.5799999833
 2047.8000488  -999.250000 8.5780000687 8.5000000000 0.5268999934 2.2853999138 65.319999695 0.6899999976 0.5600000024
 2047.9000244  -999.250000 8.6020002365 8.5000000000 0.5260999799 2.2853999138 66.941329956 0.6700000167 0.5600000024
 2048.0000000  -999.250000 8.6250000000 8.5000000000 0.5381000042 2.2753999233 68.029998779 0.6600000262 0.5600000024
 2048.0998535  -999.250000 8.6560001373 8.5000000000 0.5493724346 2.2655241489 67.650001526 0.6699756384 0.5500000119
 2048.1999512  -999.250000 8.6250000000 8.5000000000 0.5477041602 2.2655000687 66.430000305 0.6700000167 0.5299999714
 2048.3000488  -999.250000 8.6250000000 8.5000000000 0.5306000113 2.2753999233 65.489997864 0.6800000072 0.5099999905
 2048.3999023  -999.250000 8.6250000000 8.5000000000 0.5094517469 2.2753999233 65.680000305 0.6800000072 0.5000000000
 2048.5000000  -999.250000 8.6250000000 8.5000000000 0.4968307316 2.2655241489 66.699996948 0.6700000167 0.5299999714
 2048.6000977  -999.250000 8.6250000000 8.5000000000 0.4988999963 2.2655000687 67.830001831 0.6700000167 0.5500000119
 2048.6999512  -999.250000 8.6250000000 8.5000000000 0.5146999955 2.2555000782 68.750000000 0.6700000167 0.5699999928
 2048.8000488  -999.250000 8.6250000000 8.5000000000 0.5389000177 2.2655000687 69.569999695 0.6899999976 0.5699999928
 2048.9001465  -999.250000 8.6250000000 8.5000000000 0.5605000257 2.2655000687 70.669998169 0.6999999881 0.5699999928
 2049.0000000  -999.250000 8.6250000000 8.5000000000 0.5597000122 2.2655000687 71.910003662 0.6899999976 0.5799999833
 2049.1000977  -999.250000 8.6250000000 8.5000000000 0.5590000153 2.2655000687 72.478858948 0.6800000072 0.6000000238
 2049.1999512  -999.250000 8.6250000000 8.5000000000 0.5349587798 2.2555243969 72.010002136 0.6899756193 0.6000000238
 2049.3000488  -999.250000 8.6250000000 8.5000000000 0.5034999847 2.2455000877 71.099998474 0.6800000072 0.6100000143
 2049.3999023  -999.250000 8.6250000000 8.5000000000 0.4759673178 2.2355244160 70.449996948 0.6899999976 0.5899999738
 2049.5000000  -999.250000 8.6250000000 8.5000000000 0.4587419629 2.2255244255 70.169998169 0.6999999881 0.5799999833
 2049.6000977  -999.250000 8.6250000000 8.5000000000 0.4582000077 2.2255001068 69.150001526 0.6999999881 0.5699999928
 2049.6999512  -999.250000 8.6250000000 8.5000000000 0.4715673029 2.2354757786 67.069999695 0.7099999785 0.5500000119
 2049.8000488  -999.250000 8.6250000000 8.5000000000 0.4900000095 2.2455000877 64.669998169 0.6499999762 0.5799999833
 2049.9001465  -999.250000 8.6250000000 8.5000000000 0.5051000118 2.2655000687 63.040000916 0.6700000167 0.5699999928
 2050.0000000  -999.250000 8.6250000000 8.5000000000 0.5148000121 2.2753999233 62.970001221 0.6800000072 0.5600000024
 2050.1000977  -999.250000 8.6250000000 8.5000000000 0.5187000036 2.2753999233 64.160003662 0.6700000167 0.5600000024
 2050.2001953  -999.250000 8.6250000000 8.5000000000 0.5159999728 2.2753999233 64.718315125 0.6800000072 0.5500000119
 2050.3000488  -999.250000 8.6250000000 8.5000000000 0.5060999990 2.2753999233 64.029998779 0.6899999976 0.5500000119
 2050.3999023  -999.250000 8.6250000000 8.5000000000 0.4926329255 2.2753999233 62.880001068 0.6500975490 0.5699512362
 2050.5000000  -999.250000 8.6250000000 8.5000000000 0.4823000133 2.2853999138 62.419998169 0.6399999857 0.5699999928
 2050.6000977  -999.250000 8.6250000000 8.5000000000 0.4767999947 2.2853999138 62.819999695 0.6200000048 0.5600000024
 2050.6999512  -999.250000 8.6250000000 8.5000000000 0.4743061066 2.2853999138 63.810001373 0.7400000095 0.4499999881
 2050.8000488  -999.250000 8.6250000000 8.5000000000 0.4715000093 2.2853999138 64.870002747 0.7099999785 0.4900000095
 2050.8999023  -999.250000 8.6020002365 8.5000000000 0.4670109749 2.2754242420 65.760002136 0.6800000072 0.5199999809
 2051.0000000  -999.250000 8.5780000687 8.5000000000 0.4666000009 2.2655000687 66.779998779 0.6700000167 0.6200000048
 2051.1000977  -999.250000 8.6250000000 8.5000000000 0.4745999873 2.2655000687 68.029998779 0.6800000072 0.6299999952
 2051.1999512  -999.250000 8.6250000000 8.5000000000 0.4862000048 2.2655000687 69.330001831 0.6800000072 0.6399999857
 2051.3000488  -999.250000 8.6250000000 8.5000000000 0.4923999906 2.2655000687 70.180000305 0.7099999785 0.6299999952
 2051.4001465  -999.250000 8.6250000000 8.5000000000 0.4898999929 2.2655000687 70.179100037 0.7200000286 0.6200000048
 2051.5000000  -999.250000 8.6250000000 8.5000000000 0.4839000106 2.2655000687 69.809997559 0.7099999785 0.6200000048
 2051.5998535  -999.250000 8.6250000000 8.5000000000 0.4802090228 2.2753758430 69.839996338 0.7099999785 0.6200000048
 2051.6999512  -999.250000 8.6020002365 8.5000000000 0.4855868220 2.2753999233 70.620002747 0.7099999785 0.6200000048
