# LAS format log file from PETREL
# Project units are specified as depth units
#==================================================================
~Version information
VERS.   2.0:
WRAP.   NO:
#==================================================================
~Well
STRT .m      1110.8436279 :
STOP .m      2733.1416016 :
STEP .m     0.00000000 :
NULL .        -999.250000 :
COMP.           : COMPANY
WELL.  16/7-6   : WELL
FLD.            : FIELD
LOC.            : LOCATION
SRVC.           : SERVICE COMPANY
DATE.  2018-09-11 14:48:11   : Log Export Date {yyyy-MM-dd HH:mm:ss}
PROV.           : PROVINCE
UWI.   16/7-6   : UNIQUE WELL ID
API.            : API NUMBER
#==================================================================
~Curve
DEPT .m                   : DEPTH
Lithology_geolink ._      : Lithology_geolink
DCAL .in                  : DCAL
CALI .in                  : CALI
BS .in                    : BS
ROP .m/h                  : ROP
DRHO .g/cm3               : DRHO
THOR .ppm                 : THOR
SGR .gAPI                 : SGR
NPHI .m3/m3               : NPHI
RHOB .g/cm3               : RHOB
PEF .b/e                  : PEF
GR .gAPI                  : GR
URAN .ppm                 : URAN
DTC .us/ft                : DTC
DTS .us/ft                : DTS
RDEP .ohm.m               : RDEP
SP .mV                    : SP
RSHA .ohm.m               : RSHA
RMIC .ohm.m               : RMIC
RMED .ohm.m               : RMED
~Parameter
#==================================================================
~Ascii
# ...
 2070.9636230 6.0000000000 -0.239800513 12.010201454 12.250000954 291702.87500 -0.074482717 6.3980031013  -999.250000 0.3306812048 2.2785019875 3.3188509941 83.217971802 5.6139569283 117.76160431 252.22399902 0.7928007841 -100.2919006 0.8085032105 0.7971178293 0.7853010297
 2071.1159668 6.0000000000 -0.235199884 12.014800072 12.250000954 269743.21875 -0.075824358 5.8122367859  -999.250000 0.3415726125 2.2675960064 3.2417869568 82.879028320 5.8864221573 118.73700714 250.82080078 0.7874997854 -100.6039963 0.8107051253 0.8760014176 0.7841011286
 2071.2683105 6.0000000000 -0.236114502 12.013890266 12.250000954 301833.00000 -0.072900258 6.2046399117  -999.250000 0.3371028900 2.2495980263 3.1652650833 82.560768127 5.9869618416 118.80130005 253.26370239 0.7864016891 -100.9749985 0.8344181180 1.0116850138 0.7894052267
 2071.4206543 6.0000000000 -0.261019707 11.988980293 12.250000954 482295.25000 -0.070490673 6.3157591820  -999.250000 0.3188801110 2.2455079556 3.0376889706 83.521553040 6.3686490059 117.67140198 252.67959595 0.7894014120 -101.4669037 0.8659232855 1.0089069605 0.7984058857
 2071.5732422 6.0000000000 -0.282294303 11.967709541 12.250000954 607573.43750 -0.070832141 6.4215250015  -999.250000 0.2989059091 2.2537980080 3.2167649269 85.562438965 6.7789540291 114.99530029 254.74609375 0.7908995748 -101.9670029 0.8906930089 0.8562350273 0.8046982884
 2071.7255859 6.0000000000 -0.281299591 11.968702316 12.250000954 501832.18750 -0.071660653 6.2522268295  -999.250000 0.2916238010 2.2693009377 3.1042459011 88.870391846 7.3298330307 111.59279633 256.00479126 0.7853987813 -102.1748962 0.8941984773 0.7744569778 0.8029990792
 2071.8779297 7.0000000000 -0.277798712 11.972202301 12.250000954 417777.06250 -0.067769967 5.9409108162  -999.250000 0.2896690965 2.2829990387 3.2110779285 93.101882935 7.9952459335 115.12570190 263.40249634 0.7731927037 -102.0124969 0.8772904277 0.8209185004 0.7932937741
 2072.0302734 7.0000000000 -0.276300400 11.973698616 12.250000954 425775.40625 -0.068631798 5.7213568687  -999.250000 0.2913933992 2.2808089256 3.1198959351 96.513381958 7.7456045151 117.16000366 266.64788818 0.7575898767 -101.8833008 0.8567941785 0.9671605229 0.7800921202
 2072.1828613 7.0000000000 -0.276300400 11.973698616 12.250000954 435031.50000 -0.066815689 5.0583829880  -999.250000 0.2982043922 2.2913959026 3.0853269100 97.454521179 7.5130300522 117.79550171 263.23721313 0.7455049157 -102.1669006 0.8498027921 0.9715877771 0.7707036734
 2072.3352051 7.0000000000 -0.278200090 11.971799850 12.250000954 443346.28125 -0.068459012 4.7694668770  -999.250000 0.3186936080 2.2848000526 3.1087889671 95.159866333 7.5226058960 118.72139740 252.57200623 0.7465000153 -102.4789963 0.8674994111 0.8782948256 0.7725998759
 2072.4875488 6.0000000000 -0.276799202 11.973198891 12.250000954 442662.81250 -0.070586197 4.6967239380  -999.250000 0.3361366093 2.2893030643 3.4488589764 92.081916809 6.7081880569 118.62899780 237.06510925 0.7719128132 -102.6748962 0.9146252275 0.9966732264 0.7978131175
 2072.6398926 6.0000000000 -0.273199111 11.976799965 12.250000954 419777.56250 -0.067567118 3.9119517803  -999.250000 0.3416241109 2.2980449200 4.6794190407 88.282890320 5.1597847939 117.05259705 227.23199463 0.8108342290 -102.5124969 0.9926714897 1.6448340416 0.8378360868
 2072.7924805 16.000000000 -0.272399902 11.977600098 12.250000954 365621.34375 -0.054683398 3.1711969376  -999.250000 0.3155840039 2.3618659973 6.0056161880 78.769721985 3.7316920757 117.24449921 226.49871826 0.8608726859 -101.8582993 1.0994410515 2.2665519714 0.8905714154
 2072.9448242 16.000000000 -0.295495987 11.954501152 12.250000954 257344.59375 -0.060390431 3.0526919365  -999.250000 0.2592048943 2.4677829742 5.4720730782 63.036598206 3.3358728886 108.21741486 246.59669495 0.9142913222 -102.1048965 1.2089819908 1.7923560143 0.9476907253
 2073.0971680 16.000000000 -0.351592094 11.898409843 12.250000954 176748.60938 -0.073268853 4.1736898422  -999.250000 0.2335902005 2.5673921108 4.2034058571 49.353900909 3.8727140427 106.15209961 256.08709717 0.9350907803 -102.2421036 1.2561839819 1.1108759642 0.9680901170
 2073.2495117 16.000000000 -0.316764802 11.933240891 12.250000954 156719.68750 -0.074106343 5.2920498848  -999.250000 0.2591587007 2.5304319859 3.5642960072 47.003238678 4.3805699348 112.89398956 270.98190308 0.8921434879 -102.4253006 1.1824049950 0.7962524891 0.9220405221
 2073.4020996 6.0000000000 -0.256139815 11.993860245 12.250000954 208975.26563 -0.066141278 6.7941160202  -999.250000 0.3410643041 2.4134759903 3.2841548920 55.019859314 4.4211711884 120.05740356 284.74609375 0.7997571826 -102.4959030 1.0288929939 0.7188017964 0.8248599768
 2073.5544434 6.0000000000 -0.230907395 12.019089699 12.250000954 378013.34375 -0.065604083 7.8309040070  -999.250000 0.3767181933 2.3255250454 3.4932999611 65.233192444 4.2538361549 124.36789703 298.84838867 0.7095242143 -102.4990997 0.8836383224 0.6861789227 0.7297254801
 2073.7067871 6.0000000000 -0.204400122 12.045600891 12.250000954 491996.28125 -0.065201104 7.5193381310  -999.250000 0.4175801873 2.2838990688 3.4653410912 73.687492371 4.6448612213 127.61860657 304.52468872 0.6437966228 -102.2059021 0.7863957286 0.6701974869 0.6609963775
 2073.8591309 6.0000000000 -0.200599700 12.049400330 12.250000954 534282.25000 -0.064848773 7.6744880676  -999.250000 0.3812232912 2.2753043175 3.5103130341 79.554161072 4.3588471413 127.29370117 299.38781738 0.6048921943 -101.5436020 0.7371919751 0.6871473193 0.6192914248
 2074.0114746 6.0000000000 -0.200899094 12.049099922 12.250000954 562255.81250 -0.065925173 7.3278460503  -999.250000 0.3731155992 2.2848119736 3.3588500023 81.671203613 3.8091700077 127.78649902 303.73928833 0.5879924893 -100.8010025 0.7196965814 0.7480142117 0.6006917953
 2074.1640625 6.0000000000 -0.199701294 12.050299644 12.250000954 570373.12500 -0.067868479 7.0378088951  -999.250000 0.3411914110 2.2992939949 3.4818480015 79.001502991 3.5032300949 125.32959747 306.76379395 0.5790035725 -101.5100021 0.7156016827 0.7681127191 0.5908039808
 2074.3164063 5.0000000000 -0.201600105 12.048399925 12.250000954 530815.18750 -0.068320960 7.1020541191  -999.250000 0.3267987072 2.3115990162 3.3461580276 73.510032654 3.6197330952 124.67759705 307.47686768 0.5718002915 -101.7957993 0.7118000984 0.6561328173 0.5827003717
 2074.4687500 5.0000000000 -0.202300087 12.047699928 12.250000954 434359.84375 -0.067943104 7.6345825195  -999.250000 0.3214161992 2.3133990765 3.2458519936 69.784339905 3.7248280048 125.52590179 310.81729126 0.5647976995 -101.6966019 0.7023947239 0.6033300161 0.5747972727
 2074.6210938 5.0000000000 -0.203098297 12.046898842 12.250000954 413776.84375 -0.069530137 7.8260145187  -999.250000 0.3532021046 2.3106970787 2.9879589081 70.212257385 3.8501152992 129.34210205 313.08801270 0.5577960014 -102.1531982 0.6864898205 0.6336197853 0.5666952729
 2074.7736816 6.0000000000 -0.200402305 12.049600601 12.250000954 463297.56250 -0.067623988 7.8751001358  -999.250000 0.3575870097 2.3071019650 2.9828550816 72.872871399 4.0056371689 130.57299805 315.09167480 0.5521029830 -101.5425034 0.6719077229 0.7413052917 0.5601034760
 2074.9260254 6.0000000000 -0.201499894 12.048500061 12.250000954 447415.31250 -0.067913197 8.5647287369  -999.250000 0.3398211002 2.3017010689 3.0526909828 74.328552246 4.0789618492 129.73080444 318.09851074 0.5510001779 -100.5604019 0.6664009094 0.7706897259 0.5580003858
 2075.0783691 6.0000000000 -0.204900697 12.045100212 12.250000954 383974.56250 -0.066383786 9.0418424606  -999.250000 0.3298654854 2.3046000004 3.2962660789 75.571487427 4.0958280563 128.43829346 323.34716797 0.5548009872 -98.80690765 0.6735026836 0.7171705961 0.5605006814
 2075.2307129 6.0000000000 -0.208403617 12.041601181 12.250000954 476674.81250 -0.067680947 9.2485942841  -999.250000 0.3539173901 2.3019011021 3.4169499874 77.979316711 4.5460190773 128.46870422 323.81851196 0.5600013733 -98.97963715 0.6872047186 0.6887490153 0.5642011166
 2075.3833008 6.0000000000 -0.215395004 12.034609795 12.250000954 704239.31250 -0.067252599 8.8536386490  -999.250000 0.3609426022 2.3029990196 3.5543189049 80.298469543 4.4032511711 127.96419525 326.78002930 0.5624982715 -99.05901337 0.6954944730 0.6849130988 0.5660986900
