# LAS format log file from PETREL
# Project units are specified as depth units
#==================================================================
~Version information
VERS.   2.0:
WRAP.   NO:
#==================================================================
~Well
STRT .m      446.31985474 :
STOP .m      2908.1892090 :
STEP .m     0.00000000 :
NULL .        -999.250000 :
COMP.           : COMPANY
WELL.  16/7-5   : WELL
FLD.            : FIELD
LOC.            : LOCATION
SRVC.           : SERVICE COMPANY
DATE.  2018-09-11 14:48:11   : Log Export Date {yyyy-MM-dd HH:mm:ss}
PROV.           : PROVINCE
UWI.   16/7-5   : UNIQUE WELL ID
API.            : API NUMBER
#==================================================================
~Curve
DEPT .m                   : DEPTH
Lithology_geolink ._      : Lithology_geolink
CALI .in                  : CALI
DRHO .g/cm3               : DRHO
NPHI .m3/m3               : NPHI
RHOB .g/cm3               : RHOB
PEF .b/e                  : PEF
GR .gAPI                  : GR
DTC .us/ft                : DTC
RDEP .ohm.m               : RDEP
SP .mV                    : SP
RSHA .ohm.m               : RSHA
RMED .ohm.m               : RMED
~Parameter
#==================================================================
~Ascii
# ...
 2904.2268066  -999.250000 7.9770007133 0.0029855999 0.3212900162  -999.250000 9.0629997253 193.50000000  -999.250000 0.2980000079 65.550003052 0.4600000083 0.4600000083
 2904.3791504  -999.250000 7.9770007133 0.0030000000 0.3217800260  -999.250000 8.5389995575 193.50000000  -999.250000 0.2989999950 64.550003052 0.4600000083 0.4600000083
 2904.5317383  -999.250000 7.9770007133 0.0069871796 0.3222700059  -999.250000 8.1800003052 193.50000000  -999.250000 0.2989999950 65.050003052 0.4600000083 0.4600000083
 2904.6840820  -999.250000 7.9770007133 0.0089935893 0.3227500021  -999.250000 8.7500000000 193.50000000  -999.250000 0.2980000079 65.300003052 0.4609999955 0.4609999955
 2904.8364258  -999.250000 7.9770007133 0.0129871797 0.3227500021  -999.250000 8.7810001373 193.50000000  -999.250000 0.2980000079 66.300003052 0.4600000083 0.4600000083
 2904.9887695  -999.250000 7.9770007133 0.0189711992 0.3227500021  -999.250000 8.6479997635 193.50000000  -999.250000 0.2980000079 64.800003052 0.4600000083 0.4600000083
 2905.1411133  -999.250000 7.9770007133 0.0239759609 0.3227500021  -999.250000 8.4770002365 193.50000000  -999.250000 0.2980000079 65.300003052 0.4609999955 0.4609999955
 2905.2937012  -999.250000 7.9770007133 0.0289839730 0.3227500021  -999.250000 8.4060001373 193.50000000  -999.250000 0.2989999950 65.050003052 0.4609999955 0.4609999955
 2905.4460449  -999.250000 7.9770007133 0.0419583321 0.3227500021  -999.250000 8.4919996262 193.50000000  -999.250000 0.2980000079 65.300003052 0.4600000083 0.4600000083
 2905.5983887  -999.250000 7.9770007133 0.0499616005 0.3232400119  -999.250000 8.8669996262 193.50000000  -999.250000 0.2989999950 65.050003052 0.4600000083 0.4600000083
 2905.7507324  -999.250000 7.9770007133 0.0509951897 0.3232400119  -999.250000 9.1330003738 193.50000000  -999.250000 0.2989999950 65.300003052 0.4609999955 0.4609999955
 2905.9033203  -999.250000 7.9770007133 0.0380416662 0.3232400119  -999.250000 8.8439998627 193.50000000  -999.250000 0.2989999950 65.300003052 0.4609999955 0.4609999955
 2906.0556641  -999.250000 7.9770007133 0.0350096151 0.3232400119  -999.250000 8.9610004425 193.50000000  -999.250000 0.2989999950 65.050003052 0.4600000083 0.4600000083
 2906.2080078  -999.250000 7.9770007133 0.0340048000 0.3232400119  -999.250000 9.1330003738 193.50000000  -999.250000 0.2989999950 66.050003052 0.4600000083 0.4600000083
 2906.3603516  -999.250000 7.9770007133 0.0349951908 0.3232400119  -999.250000 9.4840002060 193.50000000  -999.250000 0.2989999950 65.300003052 0.4600000083 0.4600000083
 2906.5129395  -999.250000 7.9770007133 0.0399839729 0.3232400119  -999.250000 9.4689998627 193.50000000  -999.250000 0.2770000100 65.300003052 0.4600000083 0.4600000083
 2906.6652832  -999.250000 7.9770007133 0.0360128172 0.3232400119  -999.250000 9.5939998627 193.50000000  -999.250000 0.2770000100 65.550003052 0.4609999955 0.4609999955
 2906.8176270  -999.250000 7.9770007133 0.0320128202 0.3232400119  -999.250000 8.9770002365 193.50000000  -999.250000 0.2770000100 65.800003052 0.4600000083 0.4600000083
 2906.9699707  -999.250000 7.9770007133 0.0300095994 0.3232400119  -999.250000 8.8669996262 193.50000000  -999.250000 0.2770000100 65.550003052 0.4609999955 0.4609999955
 2907.1223145  -999.250000 7.9770007133 0.0319903865 0.3232400119  -999.250000 8.6949996948 193.50000000  -999.250000 0.2770000100 65.050003052 0.4600000083 0.4600000083
 2907.2749023  -999.250000 7.9770007133 0.0349903852 0.3232400119  -999.250000 9.3830003738 193.50000000  -999.250000 0.2770000100 65.050003052 0.4600000083 0.4600000083
 2907.4272461  -999.250000 7.9770007133 0.0280224364 0.3232400119  -999.250000 9.4770002365 193.50000000  -999.250000 0.2770000100 64.800003052 0.4600000083 0.4600000083
 2907.5795898  -999.250000 7.9770007133 0.0299903993 0.3232400119  -999.250000 9.8360004425 193.50000000  -999.250000 0.2770000100 65.300003052 0.4600000083 0.4600000083
 2907.7319336  -999.250000 7.9770007133 0.0309951920 0.3232400119  -999.250000 10.413999557 193.50000000  -999.250000 0.2770000100 64.550003052 0.4600000083 0.4600000083
 2907.8845215  -999.250000 7.9770007133 0.0190384611 0.3232400119  -999.250000 10.866999626 193.50000000  -999.250000 0.2770000100 64.300003052 0.4600000083 0.4600000083
 2908.0368652  -999.250000 7.9770007133 0.0070384620 0.3232400119  -999.250000 11.227000237 193.50000000  -999.250000 0.2770000100 63.799999237 0.4600000083 0.4600000083
 2908.1892090  -999.250000 7.9770007133 0.0119759999 0.3232400119  -999.250000 11.227000237 193.50000000  -999.250000 0.2770000100 -47.84999847 0.4600000083 0.4600000083
