# LAS format log file from PETREL
# Project units are specified as depth units
#==================================================================
~Version information
VERS.   2.0:
WRAP.   NO:
#==================================================================
~Well
STRT .m      1317.4000244 :
STOP .m      2886.4997559 :
STEP .m     0.00000000 :
NULL .        -999.250000 :
COMP.           : COMPANY
WELL.  16/7-8 S Beta West   : WELL
FLD.            : FIELD
LOC.            : LOCATION
SRVC.           : SERVICE COMPANY
DATE.  2018-09-11 14:48:11   : Log Export Date {yyyy-MM-dd HH:mm:ss}
PROV.           : PROVINCE
UWI.   16/7-8 S   : UNIQUE WELL ID
API.            : API NUMBER
#==================================================================
~Curve
DEPT .m                   : DEPTH
Lithology_geolink ._      : Lithology_geolink
CALI .in                  : CALI
BS .in                    : BS
NPHI .m3/m3               : NPHI
RHOB .g/cm3               : RHOB
GR .gAPI                  : GR
RDEP .ohm.m               : RDEP
RMED .ohm.m               : RMED
~Parameter
#==================================================================
~Ascii
# ...
 2779.3999023 13.000000000 8.6870002747 8.5000000000 0.1731999964 2.5748999119 45.229999542 1.9400000572 1.6799999475
 2779.5000000 13.000000000 8.7189998627 8.5000000000 0.1736000031 2.5748999119 46.470001221 1.9900000095 1.6100000143
 2779.6000977 13.000000000 8.7189998627 8.5000000000 0.1743000001 2.5748999119 47.590000153 2.0099999905 1.6200000048
 2779.6999512 13.000000000 8.6870002747 8.5000000000 0.1758999974 2.5748999119 47.580001831 2.0099999905 1.7100000381
 2779.8000488 13.000000000 8.7500000000 8.5000000000 0.1782000065 2.5748999119 46.299999237 2.0699999332 1.7599999905
 2779.9001465 13.000000000 8.7189998627 8.5000000000 0.1808000058 2.5648999214 44.180000305 2.1099998951 1.7400000095
 2780.0000000 13.000000000 8.7189998627 8.5000000000 0.1819999963 2.5648999214 41.990001678 2.2000000477 1.7400000095
 2780.1000977 13.000000000 8.7189998627 8.5000000000 0.1800000072 2.5648999214 40.290000916 2.1700000763 1.9700000286
 2780.1999512 13.000000000 8.6870002747 8.5000000000 0.1736000031 2.5648999214 39.150001526 2.2100000381 2.1199998856
 2780.3000488 13.000000000 8.6870002747 8.5000000000 0.1649000049 2.5648999214 38.200000763 2.2899999619 2.1099998951
 2780.4001465 13.000000000 8.7189998627 8.5000000000 0.1563999951 2.5748999119 37.369998932 2.3199999332 2.1600000858
 2780.5000000 12.000000000 8.7189998627 8.5000000000 0.1489000022 2.5748999119 36.939998627 2.3399999142 2.1700000763
 2780.6000977 12.000000000 8.6870002747 8.5000000000 0.1432999969 2.5848000050 36.939998627 2.3699998856 2.2500000000
 2780.7001953 12.000000000 8.6560001373 8.5000000000 0.1407999992 2.5848000050 37.130001068 2.4100000858 2.2899999619
 2780.8000488 12.000000000 8.7189998627 8.5000000000 0.1410000026 2.5848000050 37.310001373 2.4800000191 2.2899999619
 2780.8999023 12.000000000 8.7189998627 8.5000000000 0.1422968209 2.5947756767 37.299999237 2.5298781395 2.2700488567
 2780.9997559 12.000000000 8.7189998627 8.5000000000 0.1433946341 2.5947999954 37.099998474 2.5598535538 2.2600488663
 2781.0998535 12.000000000 8.6870002747 8.5000000000 0.1430009902 2.5947999954 36.869998932 2.6098775864 2.3298287392
 2781.1999512 12.000000000 8.7189998627 8.5000000000 0.1402068287 2.5947999954 36.819999695 2.6499025822 2.3998293877
 2781.2998047 12.000000000 8.7189998627 8.5000000000 0.1362195015 2.6047511101 36.900001526 2.7100000381 2.4500000477
 2781.3999023 12.000000000 8.6870002747 8.5000000000 0.1336063594 2.6047999859 36.900001526 2.8199999332 2.5099999905
 2781.5000000 12.000000000 8.6560001373 8.5000000000 0.1322034150 2.6047999859 36.759998322 2.8299999237 2.5699999332
 2781.5998535 12.000000000 8.6870002747 8.5000000000 0.1309063435 2.6047999859 36.540000916 2.8800001144 2.6600000858
 2781.6999512 12.000000000 8.6870002747 8.5000000000 0.1292999983 2.6047999859 36.290000916 2.9500000477 2.6800000668
 2781.8000488 12.000000000 8.6560001373 8.5000000000 0.1275999993 2.6047999859 35.979999542 3.0099999905 2.7599999905
 2781.8999023 12.000000000 8.6870002747 8.5000000000 0.1264999956 2.6147999763 35.569999695 3.0199999809 2.8599998951
 2782.0000000 11.000000000 8.6560001373 8.5000000000 0.1260000020 2.6147999763 35.069999695 3.0799999237 2.9300000668
 2782.1000977 11.000000000 8.6870002747 8.5000000000 0.1256999969 2.6247999668 34.590000153 3.1300001144 2.9300000668
 2782.1999512 11.000000000 8.6870002747 8.5000000000 0.1252000034 2.6247999668 34.180000305 3.1600000858 2.9500000477
 2782.3000488 11.000000000 8.6870002747 8.5000000000 0.1239999980 2.6147999763 33.799999237 3.2000000477 3.0199999809
 2782.4001465 11.000000000 8.6870002747 8.5000000000 0.1229000017 2.6147999763 33.409999847 3.2500000000 3.0499999523
 2782.5000000 11.000000000 8.6870002747 8.5000000000 0.1222999990 2.6147999763 33.130001068 3.2899999619 3.0099999905
 2782.6000977 11.000000000 8.6870002747 8.5000000000 0.1221000031 2.6147999763 33.040000916 3.3499999046 2.9500000477
 2782.7001953 11.000000000 8.6870002747 8.5000000000 0.1217999980 2.6147999763 33.040000916 3.3800001144 2.9100000858
 2782.8000488 11.000000000 8.6560001373 8.5000000000 0.1209999993 2.6047999859 32.970001221 3.4200000763 2.9200000763
 2782.9001465 11.000000000 8.6870002747 8.5000000000 0.1194999963 2.6047999859 32.689998627 3.4800000191 2.9900000095
 2783.0002441 11.000000000 8.6870002747 8.5000000000 0.1172000021 2.6047999859 32.250000000 3.4900000095 3.0799999237
 2783.1000977 11.000000000 8.6560001373 8.5000000000 0.1146999970 2.6047999859 31.780000687 3.5099999905 3.1400001049
 2783.2001953 11.000000000 8.6560001373 8.5000000000 0.1118000001 2.6147999763 31.309999466 3.5199999809 3.3800001144
 2783.2998047 11.000000000 8.6560001373 8.5000000000 0.1095056236 2.6147999763 30.860000610 3.5100245476 3.5495843887
 2783.3999023 11.000000000 8.6870002747 8.5000000000 0.1085024327 2.6147999763 30.610000610 3.5000243187 3.6198291779
 2783.5000000 11.000000000 8.6560001373 8.5000000000 0.1096970737 2.6247756481 30.709999084 3.4700732231 3.7397072315
 2783.5998535 11.000000000 8.6870002747 8.5000000000 0.1119943783 2.6247999668 31.059999466 3.4200000763 3.8099999428
 2783.6999512 11.000000000 8.6560001373 8.5000000000 0.1146934107 2.6247999668 31.649999619 3.3399999142 3.7699999809
 2783.8000488 11.000000000 8.6560001373 8.5000000000 0.1177924350 2.6247999668 32.810001373 3.3099999428 3.5599999428
 2783.8999023 12.000000000 8.6560001373 8.5000000000 0.1217902154 2.6148245335 34.450000763 3.3199999332 3.1400001049
 2784.0000000 12.000000000 8.6560001373 8.5000000000 0.1264999956 2.6147999763 35.720001221 3.3299999237 3.0699999332
 2784.0998535 12.000000000 8.6560001373 8.5000000000 0.1308999956 2.6147999763 36.409999847 3.2899999619 2.9500000477
 2784.1999512 12.000000000 8.6870002747 8.5000000000 0.1341000050 2.6047999859 37.060001373 3.2100000381 2.6700000763
 2784.3000488 12.000000000 8.6560001373 8.5000000000 0.1361999959 2.6047999859 37.860000610 3.1500000954 2.5799999237
 2784.3999023 12.000000000 8.6870002747 8.5000000000 0.1376000047 2.6047999859 38.729999542 3.0099999905 2.5199999809
 2784.5000000 12.000000000 8.6870002747 8.5000000000 0.1386999935 2.6047999859 39.459999084 3.0099999905 2.4400000572
 2784.6000977 12.000000000 8.6870002747 8.5000000000 0.1394000053 2.6047999859 39.830001831 3.0199999809 2.3599998951
 2784.6999512 12.000000000 8.6870002747 8.5000000000 0.1397999972 2.6047999859 39.700000763 2.9700000286 2.4100000858
 2784.8000488 12.000000000 8.6560001373 8.5000000000 0.1386999935 2.6047999859 39.130001068 2.9500000477 2.4300000668
 2784.9001465 12.000000000 8.6560001373 8.5000000000 0.1359000057 2.6147999763 38.400001526 2.9400000572 2.4500000477
 2785.0000000 12.000000000 8.6560001373 8.5000000000 0.1333000064 2.6147999763 37.650001526 2.9400000572 2.4500000477
 2785.1000977 12.000000000 8.6560001373 8.5000000000 0.1317999959 2.6147999763 36.750000000 2.9100000858 2.4900000095
 2785.2001953 12.000000000 8.6560001373 8.5000000000 0.1315000057 2.6147999763 35.849998474 2.9000000954 2.6099998951
 2785.3000488 12.000000000 8.6560001373 8.5000000000 0.1313000023 2.6147999763 35.360000610 2.8900001049 2.7300000191
 2785.4001465 12.000000000 8.6250000000 8.5000000000 0.1307999939 2.6147999763 35.340000153 2.9300000668 2.6900000572
 2785.5002441 12.000000000 8.6560001373 8.5000000000 0.1308999956 2.6147999763 35.509998322 2.9400000572 2.6500000954
 2785.5998535 12.000000000 8.6560001373 8.5000000000 0.1332941353 2.6147999763 35.840000153 2.9300246239 2.6899023056
 2785.6999512 12.000000000 8.6560001373 8.5000000000 0.1384873241 2.6147999763 36.419998169 2.9300000668 2.6600732803
 2785.7998047 12.000000000 8.6560001373 8.5000000000 0.1450677961 2.6048488617 37.299999237 3.0195610523 2.4908292294
 2785.8999023 12.000000000 8.6560001373 8.5000000000 0.1494892389 2.5948245525 38.529998779 3.1397066116 2.3004643917
 2786.0000000 12.000000000 8.6560001373 8.5000000000 0.1486021876 2.5947999954 40.119998932 3.2000000477 2.2300000191
 2786.0998535 12.000000000 8.6870002747 8.5000000000 0.1296464652 2.6047754288 41.709999084 3.2200000286 2.2400000095
