# LAS format log file from PETREL
# Project units are specified as depth units
#==================================================================
~Version information
VERS.   2.0:
WRAP.   NO:
#==================================================================
~Well
STRT .m      367.94241333 :
STOP .m      2651.6562500 :
STEP .m     0.00000000 :
NULL .        -999.250000 :
COMP.           : COMPANY
WELL.  16/7-1   : WELL
FLD.            : FIELD
LOC.            : LOCATION
SRVC.           : SERVICE COMPANY
DATE.  2018-09-11 14:48:09   : Log Export Date {yyyy-MM-dd HH:mm:ss}
PROV.           : PROVINCE
UWI.   16/7-1   : UNIQUE WELL ID
API.            : API NUMBER
#==================================================================
~Curve
DEPT .m                   : DEPTH
Lithology_geolink ._      : Lithology_geolink
DCAL .in                  : DCAL
CALI .in                  : CALI
BS .in                    : BS
DRHO .g/cm3               : DRHO
RHOB .g/cm3               : RHOB
GR .gAPI                  : GR
DTC .us/ft                : DTC
RDEP .ohm.m               : RDEP
SP .mV                    : SP
RSHA .ohm.m               : RSHA
RMED .ohm.m               : RMED
~Parameter
#==================================================================
~Ascii
# ...
 821.48480225  -999.250000 0.3303909004 12.580389977 12.250000954  -999.250000  -999.250000 95.806259155  -999.250000 1.7081129551 77.397087097 1.4922779799 1.6042619944
 821.63720703  -999.250000 0.3754777908 12.625479698 12.250000954  -999.250000  -999.250000 95.719543457  -999.250000 1.6105730534 77.479972839 1.6192469597 1.5757470131
 821.78961182  -999.250000 0.4155606925 12.665560722 12.250000954  -999.250000  -999.250000 96.397529602  -999.250000 1.4708440304 77.603462219 1.5253080130 1.5175429583
 821.94201660  -999.250000 0.4330826104 12.683080673 12.250000954  -999.250000  -999.250000 95.622146606  -999.250000 1.3341269493 77.834411621 1.4327820539 1.4179710150
 822.09442139  -999.250000 0.4393939972 12.689390182 12.250000954  -999.250000  -999.250000 91.926612854  -999.250000 1.2013339996 78.149269104 1.3869760036 1.2896130085
 822.24682617  -999.250000 0.4499892592 12.699990273 12.250000954  -999.250000  -999.250000 84.868690491  -999.250000 1.0862380266 78.468803406 1.3531110287 1.1778639555
 822.39923096  -999.250000 0.5239276886 12.773930550 12.250000954  -999.250000  -999.250000 73.754249573  -999.250000 0.9957116842 78.828239441 1.1909869909 1.0963879824
 822.55163574  -999.250000 0.7343941331 12.984391212 12.250000954  -999.250000  -999.250000 59.262550354  -999.250000 0.9236211777 79.048721313 1.0290869474 1.0318189859
 822.70404053  -999.250000 1.0315099955 13.281510353 12.250000954  -999.250000  -999.250000 52.063011169  -999.250000 0.8475204706 79.130371094 1.0322550535 0.9812933803
 822.85644531  -999.250000 1.2916460037 13.541649818 12.250000954  -999.250000  -999.250000 49.171310425  -999.250000 0.8013141751 79.052742004 0.9632750154 0.9349812269
 823.00885010  -999.250000 1.3839099407 13.633910179 12.250000954  -999.250000  -999.250000 49.326438904  -999.250000 0.7733650208 78.903633118 0.8346146941 0.9029458761
 823.16125488  -999.250000 1.2972849607 13.547289848 12.250000954  -999.250000  -999.250000 50.416728973  -999.250000 0.7639715075 78.850067139 0.7647613287 0.8873413205
 823.31359863  -999.250000 1.2164789438 13.466479301 12.250000954  -999.250000  -999.250000 51.974971771  -999.250000 0.7593321800 78.845039368 0.7966480255 0.8764473200
 823.46600342  -999.250000 1.1714440584 13.421441078 12.250000954  -999.250000  -999.250000 51.935531616  -999.250000 0.7587901950 78.862060547 0.8088582158 0.8661832213
 823.61840820  -999.250000 1.0608079433 13.310809135 12.250000954  -999.250000  -999.250000 50.450248718  -999.250000 0.7626006007 78.934913635 0.8810924292 0.8575024009
 823.77081299  -999.250000 0.9125452042 13.162549973 12.250000954  -999.250000  -999.250000 48.056930542  -999.250000 0.7649804950 79.055992126 0.9299765229 0.8500515819
 823.92321777  -999.250000 0.7195891738 12.969590187 12.250000954  -999.250000  -999.250000 45.427459717  -999.250000 0.7641624808 79.170623779 0.9463765025 0.8429136872
 824.07562256  -999.250000 0.3662453294 12.616250038 12.250000954  -999.250000  -999.250000 43.112159729  -999.250000 0.7638568878 79.168930054 0.9755992293 0.8360264897
 824.22802734  -999.250000 0.0257329904 12.275731087 12.250000954  -999.250000  -999.250000 42.456829071  -999.250000 0.7654662132 79.094657898 1.0202150345 0.8307598829
 824.38043213  -999.250000 -0.106071509 12.143930435 12.250000954  -999.250000  -999.250000 42.595951080  -999.250000 0.7690106034 79.001777649 0.9977722168 0.8281381726
 824.53283691  -999.250000 -0.130475998 12.119520187 12.250000954  -999.250000  -999.250000 43.653961182  -999.250000 0.7726199031 78.911537170 0.9995607138 0.8262795210
 824.68524170  -999.250000 -0.126903504 12.123100281 12.250000954  -999.250000  -999.250000 45.560630798  -999.250000 0.7757568955 78.897232056 1.0209850073 0.8245133758
 824.83764648  -999.250000 -0.144883201 12.105120659 12.250000954  -999.250000  -999.250000 46.520359039  -999.250000 0.7779414058 78.936790466 1.0055639744 0.8230592012
 824.99005127  -999.250000 -0.194451302 12.055549622 12.250000954  -999.250000  -999.250000 46.497318268  -999.250000 0.7795252204 78.993492126 1.0308220387 0.8223773837
 825.14245605  -999.250000 -0.230565116 12.019430161 12.250000954  -999.250000  -999.250000 46.130748749  -999.250000 0.7808821797 79.056381226 1.0440210104 0.8222377896
 825.29479980  -999.250000 -0.245985001 12.004010201 12.250000954  -999.250000  -999.250000 44.990909576  -999.250000 0.7821822166 79.141838074 1.0180989504 0.8222296238
 825.44720459  -999.250000 -0.273073196 11.976928711 12.250000954  -999.250000  -999.250000 44.616661072  -999.250000 0.7825685740 79.188957214 1.0217319727 0.8222213984
 825.59960938  -999.250000 -0.257315606 11.992680550 12.250000954  -999.250000  -999.250000 46.072170258  -999.250000 0.7813661098 79.096763611 1.0291429758 0.8222131729
 825.75201416  -999.250000 -0.204151213 12.045850754 12.250000954  -999.250000  -999.250000 46.965419769  -999.250000 0.7817887068 78.948608398 1.0352449417 0.8222048879
 825.90441895  -999.250000 -0.180124298 12.069879532 12.250000954  -999.250000  -999.250000 46.004341125  -999.250000 0.7826905847 78.956970215 1.0925550461 0.8221967220
 826.05682373  -999.250000 -0.151927903 12.098070145 12.250000954  -999.250000  -999.250000 42.638481140  -999.250000 0.7825406194 79.021186829 1.0563620329 0.8221884966
 826.20922852  -999.250000 -0.128723100 12.121278763 12.250000954  -999.250000  -999.250000 38.976070404  -999.250000 0.7817066908 79.228698730 1.0181790590 0.8221802711
 826.36163330  -999.250000 -0.140688896 12.109310150 12.250000954  -999.250000  -999.250000 36.496810913  -999.250000 0.7821465135 79.415969849 1.0057070255 0.8221719861
 826.51403809  -999.250000 -0.171270430 12.078729630 12.250000954  -999.250000  -999.250000 35.722049713  -999.250000 0.7814056277 79.392036438 0.9714788198 0.8221638799
 826.66644287  -999.250000 -0.190581292 12.059419632 12.250000954  -999.250000  -999.250000 37.349498749  -999.250000 0.7808722258 79.440773010 0.9417330027 0.8221557140
 826.81884766  -999.250000 -0.155334502 12.094670296 12.250000954  -999.250000  -999.250000 38.638439178  -999.250000 0.7791808844 79.493667603 0.9356070161 0.8221474886
 826.97125244  -999.250000 -0.106047601 12.143950462 12.250000954  -999.250000  -999.250000 40.765510559  -999.250000 0.7777516842 79.291496277 0.9551867843 0.8221381903
 827.12365723  -999.250000 -0.126279801 12.123721123 12.250000954  -999.250000  -999.250000 42.424671173  -999.250000 0.7775964737 78.752723694 0.9448372126 0.8220477104
 827.27606201  -999.250000 -0.191236496 12.058761597 12.250000954  -999.250000  -999.250000 42.896930695  -999.250000 0.7765647173 78.591682434 0.9340553880 0.8215293288
 827.42840576  -999.250000 -0.214277297 12.035719872 12.250000954  -999.250000  -999.250000 42.329048157  -999.250000 0.7747970223 78.660827637 0.9474226236 0.8203822970
 827.58081055  -999.250000 -0.158453882 12.091549873 12.250000954  -999.250000  -999.250000 42.457069397  -999.250000 0.7744585276 78.784866333 0.9575350285 0.8190730214
 827.73321533  -999.250000 -0.011942860 12.238058090 12.250000954  -999.250000  -999.250000 42.598358154  -999.250000 0.7747867703 78.975227356 1.0087980032 0.8177636266
 827.88562012  -999.250000 0.1944990009 12.444499016 12.250000954  -999.250000  -999.250000 42.175109863  -999.250000 0.7755991817 79.128463745 1.0247859955 0.8164545894
 828.03802490  -999.250000 0.3547439873 12.604740143 12.250000954  -999.250000  -999.250000 41.345500946  -999.250000 0.7744495869 79.166923523 1.0206149817 0.8151537180
 828.19042969  -999.250000 0.3802748322 12.630270004 12.250000954  -999.250000  -999.250000 42.348609924  -999.250000 0.7708374262 79.169059753 1.0258810520 0.8142253757
 828.34283447  -999.250000 0.3515272439 12.601529121 12.250000954  -999.250000  -999.250000 43.837741852  -999.250000 0.7672427297 79.200759888 0.9942970872 0.8140980005
 828.49523926  -999.250000 0.3546971977 12.604700089 12.250000954  -999.250000  -999.250000 43.953479767  -999.250000 0.7668709755 79.313201904 0.9634532928 0.8140761852
 828.64764404  -999.250000 0.2998532951 12.549850464 12.250000954  -999.250000  -999.250000 42.359451294  -999.250000 0.7681651711 79.370162964 0.8397873044 0.8140680194
