# LAS format log file from PETREL
# Project units are specified as depth units
#==================================================================
~Version information
VERS.   2.0:
WRAP.   NO:
#==================================================================
~Well
STRT .m      1110.8436279 :
STOP .m      2733.1416016 :
STEP .m     0.00000000 :
NULL .        -999.250000 :
COMP.           : COMPANY
WELL.  16/7-6   : WELL
FLD.            : FIELD
LOC.            : LOCATION
SRVC.           : SERVICE COMPANY
DATE.  2018-09-11 14:48:11   : Log Export Date {yyyy-MM-dd HH:mm:ss}
PROV.           : PROVINCE
UWI.   16/7-6   : UNIQUE WELL ID
API.            : API NUMBER
#==================================================================
~Curve
DEPT .m                   : DEPTH
Lithology_geolink ._      : Lithology_geolink
DCAL .in                  : DCAL
CALI .in                  : CALI
BS .in                    : BS
ROP .m/h                  : ROP
DRHO .g/cm3               : DRHO
THOR .ppm                 : THOR
SGR .gAPI                 : SGR
NPHI .m3/m3               : NPHI
RHOB .g/cm3               : RHOB
PEF .b/e                  : PEF
GR .gAPI                  : GR
URAN .ppm                 : URAN
DTC .us/ft                : DTC
DTS .us/ft                : DTS
RDEP .ohm.m               : RDEP
SP .mV                    : SP
RSHA .ohm.m               : RSHA
RMIC .ohm.m               : RMIC
RMED .ohm.m               : RMED
~Parameter
#==================================================================
~Ascii
# ...
 2496.1594238 12.000000000 -0.399900407 11.850099564 12.250000954 165760.37500 -0.042701270 3.4647905827  -999.250000 0.0815272033 2.6258969307 4.9181380272 37.222671509 0.7348644733 70.281898499 141.58270264 3.2933399677 -88.18659210 3.9504950047 4.6323847771 3.3656361103
 2496.3120117 12.000000000 -0.400799811 11.849200249 12.250000954 163478.26563 -0.039268728 3.5776259899  -999.250000 0.0760718733 2.6250998974 4.7923369408 34.420890808 0.4787321985 69.433769226 147.28970337 3.4867489338 -88.18750000 4.1050939560 4.0396990776 3.5615460873
 2496.4643555 12.000000000 -0.399401695 11.850600243 12.250000954 165776.43750 -0.041968562 3.4771568775  -999.250000 0.0767606720 2.6216039658 4.3255949020 33.988021851 0.7048070431 68.619369507 149.34141541 3.4508509636 -88.24982452 4.0102319717 3.3686170578 3.5223510265
 2496.6166992 12.000000000 -0.401798189 11.848199844 12.250000954 185021.39063 -0.045793120 3.0882430077  -999.250000 0.0820618421 2.6349871159 4.6448869705 34.551670074 0.5741130710 69.422042847 152.55195618 3.2559430599 -89.18510437 3.7238240242 2.9527928829 3.3229389191
 2496.7690430 12.000000000 -0.400501311 11.849499702 12.250000954 210461.65625 -0.043773059 3.0714359283  -999.250000 0.0889160112 2.6321020126 4.7980570793 35.370429993 0.6679033637 70.834991455 155.57066345 3.0240108967 -89.24976349 3.3954000473 2.8138489723 3.0831050873
 2496.9216309 12.000000000 -0.400999993 11.848999977 12.250000954 231309.09375 -0.044539750 3.0277519226  -999.250000 0.0944588333 2.6305000782 5.0995111465 36.390209198 0.7882276177 73.668426514 157.40710449 2.8094480038 -88.56374359 3.1203310490 2.7761650085 2.8587439060
 2497.0739746 12.000000000 -0.399203330 11.850799561 12.250000954 252876.67188 -0.043657579 3.0273020267  -999.250000 0.0938947201 2.6205139160 4.6132311821 37.425781250 0.8424329758 74.105476379 159.90039063 2.6180670261 -88.74973297 2.9010570049 2.6649188995 2.6618618965
 2497.2263184 12.000000000 -0.402696609 11.847299576 12.250000954 237034.68750 -0.040832750 3.2610099316  -999.250000 0.1011580005 2.6155049801 4.6247429848 37.510948181 0.8593205810 74.199897766 161.43409729 2.4695289135 -89.31189728 2.7290079594 2.4596049786 2.5072219372
 2497.3786621 12.000000000 -0.399907112 11.850090027 12.250000954 215100.06250 -0.040074479 3.4807500839  -999.250000 0.0969398990 2.6145019531 4.8529062271 37.277080536 0.8866810203 75.077377319 162.17849731 2.3574419022 -89.06307220 2.5945661068 2.2675299644 2.3884561062
 2497.5312500 12.000000000 -0.399900407 11.850099564 12.250000954 233653.81250 -0.040673401 3.6300060749  -999.250000 0.1021345034 2.6223850250 5.0552701950 38.425701141 1.0555620193 77.024238586 163.70989990 2.2523078918 -89.18726349 2.4770150185 2.2062149048 2.2830159664
 2497.6835938 12.000000000 -0.399400681 11.850600243 12.250000954 271957.18750 -0.040921580 3.8204452991  -999.250000 0.1090665981 2.6153109074 4.7573151588 41.252769470 0.9275991917 78.209846497 164.58509827 2.1568119526 -88.75068665 2.3733630180 2.1860780716 2.1914150715
 2497.8359375 12.000000000 -0.401897401 11.848099709 12.250000954 287053.93750 -0.038102061 3.6613979340  -999.250000 0.1326746047 2.6043128967 4.7115640640 44.108341217 1.0015629530 78.643875122 163.76879883 2.0897428989 -89.06213379 2.3253059387 2.2815079689 2.1284399033
 2497.9882813 12.000000000 -0.401699960 11.848300934 12.250000954 294593.84375 -0.036303081 3.4604599476  -999.250000 0.1380732059 2.5975060463 4.3594970703 44.434799194 1.0368629694 79.251289368 160.61300659 2.0717968941 -89.24954224 2.3508760929 2.5729689598 2.1114110947
 2498.1406250 12.000000000 -0.399404496 11.850600243 12.250000954 310907.00000 -0.033322372 3.3595979214  -999.250000 0.1334836036 2.6104729176 4.5301270485 42.322128296 1.0741660595 79.448799133 157.10801697 2.1144869328 -89.56185913 2.4538290501 2.9555060863 2.1618909836
 2498.2932129 12.000000000 -0.400797814 11.849200249 12.250000954 340612.21875 -0.031576831 3.6400198936  -999.250000 0.1202505976 2.6147930622 4.0917181969 40.165138245 1.2530490160 77.843818665 154.04150391 2.2065370083 -89.37531281 2.6367800236 3.2988500595 2.2646420002
 2498.4455566 12.000000000 -0.399401695 11.850600243 12.250000954 315788.96875 -0.030655880 3.5965909958  -999.250000 0.1105166972 2.6229889393 4.2671041489 39.651260376 1.1356179714 76.490676880 151.41740417 2.3093640804 -89.68708801 2.8501069546 3.5725049973 2.3797810078
 2498.5979004 12.000000000 -0.398600608 11.851400375 12.250000954 225085.78125 -0.031172231 3.4776620865  -999.250000 0.1039341018 2.6233990192 4.3456530571 39.028881073 0.8358935714 74.365417480 152.12748718 2.4155640602 -89.43773651 3.0620629787 3.6379148960 2.5042769909
 2498.7502441 12.000000000 -0.399996817 11.850000381 12.250000954 221937.23438 -0.033100098 4.0261597633  -999.250000 0.1012255996 2.6312830448 4.8454937935 36.933250427 0.6173728108 74.156547546 151.96447754 2.5022959709 -89.74981689 3.2039139271 3.1143329144 2.6077549458
 2498.9028320 12.000000000 -0.401396841 11.848599434 12.250000954 328320.37500 -0.036607321 4.3920111656  -999.250000 0.1006122977 2.6356918812 4.5983710289 35.799240112 0.5667142868 73.683273315 152.20309448 2.5480489731 -89.68760681 3.2199769020 2.7223160267 2.6520309448
 2499.0551758 12.000000000 -0.382127762 11.867870331 12.250000954 358902.75000 -0.040814020 4.3758478165  -999.250000 0.1062209010 2.6276121140 4.2817358971 37.581459045 0.6370971799 73.803916931 151.66651917 2.5648939610 -89.93714142 3.1722149849 2.7758409977 2.6578919888
 2499.2075195 12.000000000 -0.377804816 11.872200966 12.250000954 272333.28125 -0.039954789 4.1297588348  -999.250000 0.1120420024 2.6126160622 4.3667960167 40.306388855 0.5899047256 73.302436829 151.68350220 2.5742769241 -90.12480164 3.1448559761 3.0187408924 2.6579821110
 2499.3598633 12.000000000 -0.359641969 11.890360832 12.250000954 217137.10938 -0.038735308 4.2164931297  -999.250000 0.1077212989 2.6099059582 4.8132529259 40.875419617 0.6624413133 72.891242981 152.68299866 2.5678160191 -89.93762970 3.1589350700 3.3694469929 2.6486320496
 2499.5124512 12.000000000 -0.362295210 11.887700081 12.250000954 225223.90625 -0.039678849 4.3805871010  -999.250000 0.1061784998 2.6194810867 5.4454917908 39.562549591 0.7576305270 73.148696899 154.83889771 2.5679299831 -89.62510681 3.1934950352 3.4014260769 2.6534221172
 2499.6647949 12.000000000 -0.363199204 11.886799812 12.250000954 232385.90625 -0.043902401 4.9886889458  -999.250000 0.1024364009 2.6272881031 5.0696640015 39.414161682 0.9306579232 73.958923340 159.91650391 2.5324339867 -89.68740082 3.1740379333 2.7415750027 2.6183350086
 2499.8171387 12.000000000 -0.351813257 11.898189545 12.250000954 234535.50000 -0.048183959 5.8970160484  -999.250000 0.1167571992 2.6100211143 5.0643830299 42.400428772 0.7880880237 75.614112854 162.29530334 2.4216101170 -89.68750000 3.0279181004 2.3462638855 2.5083720684
 2499.9694824 13.000000000 -0.343107194 11.906889915 12.250000954 228109.65625 -0.049608760 6.1251797676  -999.250000 0.1288377047 2.5808238983 4.8444480896 47.987651825 0.6484196186 77.039222717 163.95257568 2.3113799095 -89.68750000 2.8045721054 2.3603289127 2.3799650669
 2500.1218262 13.000000000 -0.342102140 11.907900810 12.250000954 191243.59375 -0.047935780 6.0575108528  -999.250000 0.1364614069 2.5624380112 4.9829239845 52.936798096 0.3912738860 78.265457153 165.47239685 2.2069859505 -90.24974060 2.6041369438 2.3671510220 2.2606849670
 2500.2744141 13.000000000 -0.340104103 11.909899712 12.250000954 167905.68750 -0.050500490 5.6868958473  -999.250000 0.1393171996 2.5554120541 4.8367071152 55.097129822 0.4502693117 78.729309082 166.62710571 2.1440010071 -89.93802643 2.4737260342 2.2375180721 2.1826860905
 2500.4267578 13.000000000 -0.342297643 11.907699585 12.250000954 246412.85938 -0.052914709 5.5006217957  -999.250000 0.1331690997 2.5685830116 4.7507400513 54.732601166 0.6223602295 80.938369751 164.76159668 2.1422660351 -89.68782806 2.4285221100 2.3312280178 2.1601810455
 2500.5791016 13.000000000 -0.341401100 11.908598900 12.250000954 351131.06250 -0.053963538 5.1080927849  -999.250000 0.1360979974 2.5671010017 4.9022631645 53.253009796 0.5742288232 81.614845276 163.61090088 2.1749761105 -89.62506104 2.4610478878 2.8248078823 2.1867899895
