# LAS format log file from PETREL
# Project units are specified as depth units
#==================================================================
~Version information
VERS.   2.0:
WRAP.   NO:
#==================================================================
~Well
STRT .m      367.94241333 :
STOP .m      2651.6562500 :
STEP .m     0.00000000 :
NULL .        -999.250000 :
COMP.           : COMPANY
WELL.  16/7-1   : WELL
FLD.            : FIELD
LOC.            : LOCATION
SRVC.           : SERVICE COMPANY
DATE.  2018-09-11 14:48:09   : Log Export Date {yyyy-MM-dd HH:mm:ss}
PROV.           : PROVINCE
UWI.   16/7-1   : UNIQUE WELL ID
API.            : API NUMBER
#==================================================================
~Curve
DEPT .m                   : DEPTH
Lithology_geolink ._      : Lithology_geolink
DCAL .in                  : DCAL
CALI .in                  : CALI
BS .in                    : BS
DRHO .g/cm3               : DRHO
RHOB .g/cm3               : RHOB
GR .gAPI                  : GR
DTC .us/ft                : DTC
RDEP .ohm.m               : RDEP
SP .mV                    : SP
RSHA .ohm.m               : RSHA
RMED .ohm.m               : RMED
~Parameter
#==================================================================
~Ascii
# ...
 1121.4080811 6.0000000000 -0.575542390 11.674459457 12.250000954  -999.250000  -999.250000 90.644859314 43.115543365 1.4152330160 79.462783813 1.3520950079 1.7509390116
 1121.5604248 6.0000000000 -0.636739671 11.613260269 12.250000954  -999.250000  -999.250000 94.322700500 43.270534515 1.4075440168 79.342201233 1.3345350027 1.7191209793
 1121.7127686 6.0000000000 -0.695343018 11.554660797 12.250000954  -999.250000  -999.250000 94.141876221 43.285594940 1.3943010569 79.173683167 1.2791450024 1.6722389460
 1121.8652344 6.0000000000 -0.748947084 11.501049042 12.250000954  -999.250000  -999.250000 93.295120239 43.136608124 1.3753479719 79.100563049 1.2450710535 1.6521060467
 1122.0175781 6.0000000000 -0.787463248 11.462539673 12.250000954  -999.250000  -999.250000 92.339027405 43.022670746 1.3554760218 79.090820313 1.1616070271 1.6460740566
 1122.1700439 6.0000000000 -0.802485526 11.447509766 12.250000954  -999.250000  -999.250000 90.690803528 43.012310028 1.3370519876 79.192626953 1.1724289656 1.6352959871
 1122.3223877 6.0000000000 -0.794108391 11.455888748 12.250000954  -999.250000  -999.250000 88.646392822 43.071594238 1.3166739941 79.109786987 1.1541620493 1.6274390221
 1122.4748535 6.0000000000 -0.796097815 11.453900337 12.250000954  -999.250000  -999.250000 87.913406372 43.131942749 1.3012059927 79.082977295 1.1476839781 1.6321469545
 1122.6271973 6.0000000000 -0.858138978 11.391860008 12.250000954  -999.250000  -999.250000 88.940490723 43.034561157 1.2994430065 79.192832947 1.1405659914 1.6263680458
 1122.7796631 6.0000000000 -0.963196814 11.286800385 12.250000954  -999.250000  -999.250000 91.516876221 42.862987518 1.3004820347 79.258132935 1.1163669825 1.6126639843
 1122.9320068 6.0000000000 -1.257712007 10.992289543 12.250000954  -999.250000  -999.250000 93.880882263 42.701290131 1.3044960499 79.354232788 1.0913610458 1.6066759825
 1123.0844727 7.0000000000 -1.483780026 10.766222000 12.250000954  -999.250000  -999.250000 96.060768127 42.643497467 1.3082970381 79.316108704 1.0801589489 1.6189110279
 1123.2368164 7.0000000000 -1.565920115 10.684080124 12.250000954  -999.250000  -999.250000 96.727142334 42.454952240 1.3124840260 79.261573792 1.0098459721 1.6597290039
 1123.3892822 7.0000000000 -2.254228115 9.9957733154 12.250000954  -999.250000  -999.250000 96.504913330 42.358940125 1.3247380257 79.246406555 0.7801578045 1.7091499567
 1123.5416260 7.0000000000 -3.514468670 8.7355308533 12.250000954  -999.250000  -999.250000 96.660743713 42.437152863 1.3567919731 79.312828064 0.6009414792 1.7301399708
 1123.6939697 7.0000000000 -4.270361900 7.9796376228 12.250000954  -999.250000  -999.250000 98.260833740 42.422824860 1.3952749968 79.407707214 0.6592081189 1.7227530479
 1123.8464355 7.0000000000 -4.391781807 7.8582181931 12.250000954  -999.250000  -999.250000 98.013442993 42.084434509 1.4135559797 79.442260742 0.6146348119 1.7155090570
 1123.9987793 7.0000000000 -4.446647167 7.8033518791 12.250000954  -999.250000  -999.250000 97.448646545 41.655246735 1.4249069691 79.310470581 0.6627122164 1.7244549990
 1124.1512451 7.0000000000 -4.461485863 7.7885141373 12.250000954  -999.250000  -999.250000 97.093437195 41.199909210 1.4382970333 79.300796509 0.6777557731 1.7413920164
 1124.3035889 7.0000000000 -4.408152103 7.8418478966 12.250000954  -999.250000  -999.250000 98.002502441 40.922477722 1.4591200352 79.296112061 0.7152668238 1.7452009916
 1124.4560547 7.0000000000 -4.250154018 7.9998459816 12.250000954  -999.250000  -999.250000 99.813026428 41.162357330 1.4859360456 79.245018005 0.7829114795 1.7271900177
 1124.6083984 7.0000000000 -3.896646023 8.3533544540 12.250000954  -999.250000  -999.250000 101.36039734 41.522079468 1.5096750259 79.241836548 0.8975092769 1.7357920408
 1124.7608643 7.0000000000 -3.530757904 8.7192420959 12.250000954  -999.250000  -999.250000 101.88970184 41.795425415 1.5174349546 79.350547791 0.9770404100 1.7765280008
 1124.9132080 7.0000000000 -3.384742260 8.8652582169 12.250000954  -999.250000  -999.250000 100.65689850 41.752754211 1.5035229921 79.388160706 1.0751680136 1.8145580292
 1125.0656738 7.0000000000 -3.353630066 8.8963699341 12.250000954  -999.250000  -999.250000 101.15149689 41.711238861 1.4836310148 79.386146545 1.0895400047 1.8166710138
 1125.2180176 7.0000000000 -3.354498863 8.8955011368 12.250000954  -999.250000  -999.250000 101.98459625 41.861202240 1.4608279467 79.381149292 1.0899980068 1.7992269993
 1125.3704834 7.0000000000 -3.359395027 8.8906049728 12.250000954  -999.250000  -999.250000 101.97869873 42.178344727 1.4409619570 79.376152039 1.0124009848 1.7721999884
 1125.5228271 7.0000000000 -3.285671949 8.9643278122 12.250000954  -999.250000  -999.250000 101.87879944 42.578151703 1.4217580557 79.371147156 0.9336696863 1.7461090088
 1125.6752930 7.0000000000 -3.061319113 9.1886806488 12.250000954  -999.250000  -999.250000 101.91049957 42.782157898 1.4069169760 79.366149902 1.0062119961 1.7244540453
 1125.8276367 7.0000000000 -2.738814116 9.5111856461 12.250000954  -999.250000  -999.250000 101.42970276 42.621952057 1.3941709995 79.364250183 1.0483549833 1.7102379799
 1125.9799805 7.0000000000 -2.377053022 9.8729457855 12.250000954  -999.250000  -999.250000 101.30229950 42.646823883 1.3791029453 79.411056519 1.2201989889 1.7017780542
 1126.1324463 7.0000000000 -2.035334110 10.214671135 12.250000954  -999.250000  -999.250000 103.26290131 42.599273682 1.3603609800 79.585968018 1.3270900249 1.6940029860
 1126.2847900 7.0000000000 -2.275964975 9.9740343094 12.250000954  -999.250000  -999.250000 106.80210114 42.376831055 1.3431880474 79.560783386 1.1131949425 1.6888530254
 1126.4372559 7.0000000000 -3.288011074 8.9619894028 12.250000954  -999.250000  -999.250000 109.08740234 42.352115631 1.3283410072 79.423446655 1.1795890331 1.6875289679
 1126.5895996 7.0000000000 -2.973907948 9.2760915756 12.250000954  -999.250000  -999.250000 109.25469971 42.322059631 1.3189779520 79.385910034 1.3522100449 1.6849709749
 1126.7420654 7.0000000000 -1.349786878 10.900211334 12.250000954  -999.250000  -999.250000 107.87239838 42.218944550 1.3216660023 79.364959717 1.2887500525 1.6792500019
 1126.8944092 7.0000000000 -0.616015375 11.633979797 12.250000954  -999.250000  -999.250000 105.83149719 42.199104309 1.3355779648 79.333602905 1.2640429735 1.6766619682
 1127.0467529 7.0000000000 -0.614999771 11.634999275 12.250000954  -999.250000  -999.250000 103.16490173 42.259239197 1.3581399918 79.357589722 1.3576040268 1.6814420223
 1127.1992188 7.0000000000 -0.780737936 11.469260216 12.250000954  -999.250000  -999.250000 99.138130188 42.573917389 1.3850539923 79.454803467 1.1824959517 1.6935969591
 1127.3515625 7.0000000000 -0.947536588 11.302460670 12.250000954  -999.250000  -999.250000 97.079200745 42.748195648 1.4109489918 79.494056702 1.1536689997 1.7124969959
 1127.5039063 7.0000000000 -1.120730996 11.129270554 12.250000954  -999.250000  -999.250000 97.366310120 42.729759216 1.4306529760 79.448661804 1.3712519407 1.7333680391
 1127.6563721 7.0000000000 -1.311114073 10.938890457 12.250000954  -999.250000  -999.250000 99.775939941 42.769626617 1.4526230097 79.336952209 1.5203230381 1.7533500195
 1127.8087158 7.0000000000 -1.722998142 10.527000427 12.250000954  -999.250000  -999.250000 100.07060242 42.604610443 1.4701039791 79.297210693 1.4921710491 1.7665220499
 1127.9611816 7.0000000000 -1.697024941 10.552969933 12.250000954  -999.250000  -999.250000 100.18329620 42.299629211 1.4738730192 79.289382935 1.4735349417 1.7702209949
 1128.1135254 7.0000000000 -1.267320037 10.982680321 12.250000954  -999.250000  -999.250000 101.69999695 42.064258575 1.4724609852 79.278747559 1.4071919918 1.7732169628
 1128.2659912 7.0000000000 -1.122941017 11.127059937 12.250000954  -999.250000  -999.250000 103.03620148 41.886009216 1.4627519846 79.248283386 1.0851999521 1.7742919922
 1128.4183350 7.0000000000 -1.250975013 10.999030113 12.250000954  -999.250000  -999.250000 102.85230255 41.850593567 1.4497050047 79.265426636 0.9549084902 1.7728439569
 1128.5708008 7.0000000000 -1.663596034 10.586400032 12.250000954  -999.250000  -999.250000 99.352912903 42.003696442 1.4411809444 79.293792725 0.9559180737 1.7723020315
