# LAS format log file from PETREL
# Project units are specified as depth units
#==================================================================
~Version information
VERS.   2.0:
WRAP.   NO:
#==================================================================
~Well
STRT .m      446.31985474 :
STOP .m      2908.1892090 :
STEP .m     0.00000000 :
NULL .        -999.250000 :
COMP.           : COMPANY
WELL.  16/7-5   : WELL
FLD.            : FIELD
LOC.            : LOCATION
SRVC.           : SERVICE COMPANY
DATE.  2018-09-11 14:48:11   : Log Export Date {yyyy-MM-dd HH:mm:ss}
PROV.           : PROVINCE
UWI.   16/7-5   : UNIQUE WELL ID
API.            : API NUMBER
#==================================================================
~Curve
DEPT .m                   : DEPTH
Lithology_geolink ._      : Lithology_geolink
CALI .in                  : CALI
DRHO .g/cm3               : DRHO
NPHI .m3/m3               : NPHI
RHOB .g/cm3               : RHOB
PEF .b/e                  : PEF
GR .gAPI                  : GR
DTC .us/ft                : DTC
RDEP .ohm.m               : RDEP
SP .mV                    : SP
RSHA .ohm.m               : RSHA
RMED .ohm.m               : RMED
~Parameter
#==================================================================
~Ascii
# ...
 2084.9243164 5.0000000000 12.987000465 0.0099775642 0.3735428751 2.2006976604 3.7417068481 53.937999725 127.59049988 0.4950000048 79.490997314 0.5820000172 0.5820000172
 2085.0769043 5.0000000000 13.196999550 0.0269456003 0.4225600064 2.1761875153 4.1079998016 52.853778839 135.13047791 0.4740000069 78.356964111 0.5379534960 0.5379534960
 2085.2292480 5.0000000000 13.109999657 0.0299903844 0.4728094935 2.1737980843 3.5798463821 57.084587097 139.57107544 0.4699999988 79.577995300 0.5089904070 0.5089904070
 2085.3815918 5.0000000000 12.909000397 0.0120576927 0.5082532763 2.1778798103 3.3353910446 61.195999146 141.17332458 0.4799999893 78.949996948 0.5030000210 0.5030000210
 2085.5339355 5.0000000000 12.708000183 -0.000958333 0.4838193059 2.1880416870 2.8517756462 60.502998352 140.71853638 0.4900000095 78.791000366 0.5370000005 0.5370000005
 2085.6865234 5.0000000000 12.628999710 -0.006990385 0.4574100077 2.2068624496 2.7929999828 55.521480560 138.75071716 0.5149999857 77.867912292 0.6361698508 0.6361698508
 2085.8388672 5.0000000000 12.595000267 -0.015971201 0.4068599939 2.2241163254 2.9430000782 50.836879730 136.01831055 0.5429999828 77.192276001 0.7421105504 0.7421105504
 2085.9912109 4.0000000000 12.588000298 -0.020983974 0.3747514784 2.2305161953 3.0198767185 50.763263702 133.64062500 0.5809999704 79.229324341 0.8110831976 0.8110831976
 2086.1435547 4.0000000000 12.559000015 -0.021996794 0.3809100389 2.2309730053 2.9780671597 52.175998688 131.69601440 0.6079999804 77.558998108 0.8629999757 0.8629999757
 2086.2961426 4.0000000000 12.579000473 -0.021001602 0.3918500245 2.2319805622 2.8619999886 51.287429810 130.11389160 0.6230000257 77.722999573 0.8578525186 0.8578525186
 2086.4484863 4.0000000000 12.814000130 -0.013025600 0.3938100040 2.2338221073 2.9549999237 49.063152313 129.58720398 0.6380000114 78.968742371 0.7658541203 0.7658541203
 2086.6008301 4.0000000000 12.881999969 -0.010009615 0.3871107101 2.2348999977 3.1267249584 49.159320831 130.14540100 0.6480000019 78.806053162 0.6749551892 0.6749551892
 2086.7531738 4.0000000000 12.715999603 -0.010996795 0.3799814284 2.2352027893 2.9522802830 49.359001160 131.24685669 0.6529999971 79.461997986 0.6470000148 0.6470000148
 2086.9055176 4.0000000000 12.553001404 -0.014987179 0.4081547558 2.2369823456 2.7633028030 48.162998199 132.27339172 0.6549999714 80.163002014 0.6470000148 0.6470000148
 2087.0581055 4.0000000000 12.524000168 -0.012009600 0.4049900174 2.2401001453 2.7269999981 46.443878174 132.57791138 0.6549999714 77.426582336 0.6821265817 0.6821265817
 2087.2104492 4.0000000000 12.494000435 -0.008012821 0.4034724534 2.2420606613 2.7439727783 48.869228363 132.05760193 0.6510000229 80.904289246 0.7611615658 0.7611615658
 2087.3627930 4.0000000000 12.461999893 -0.007003205 0.4028310180 2.2433104515 2.8228733540 54.002998352 131.09889221 0.6399999857 79.836997986 0.8619999886 0.8619999886
 2087.5151367 4.0000000000 12.463999748 -0.007996796 0.3860269487 2.2468364239 2.8389742374 56.756999969 130.03254700 0.6259999871 79.042999268 0.8999999762 0.8999999762
 2087.6677246 5.0000000000 12.501999855 -0.001011218 0.3811600208 2.2515938282 3.0690000057 57.273952484 129.25675964 0.6140000224 80.250274658 0.8548461795 0.8548461795
 2087.8200684 5.0000000000 12.567999840 0.0119583998 0.3882199824 2.2528445721 3.0669999123 56.622158051 129.32829285 0.6039999723 81.661598206 0.7588061094 0.7588061094
 2087.9724121 5.0000000000 12.602000237 0.0339294896 0.4284754694 2.2483913898 3.1249072552 57.967472076 130.44509888 0.5809999704 78.923118591 0.6379328370 0.6379328370
 2088.1247559 5.0000000000 12.578000069 0.0429711565 0.4453929365 2.2409114838 2.9742419720 57.638000488 132.17393494 0.5659999847 81.494003296 0.5960000157 0.5960000157
 2088.2773438 5.0000000000 12.531000137 0.0190384611 0.4431100190 2.2348194122 3.0950000286 56.195415497 133.78663635 0.5460000038 79.470863342 0.5880593061 0.5880593061
 2088.4296875 5.0000000000 12.473999977 0.0140160006 0.4097200036 2.2310667038 3.2639999390 54.584030151 134.56747437 0.5270000100 81.252616882 0.6250256300 0.6250256300
 2088.5820313 5.0000000000 12.425999641 0.0100128204 0.4140630364 2.2294600010 3.3159167767 55.225719452 134.11048889 0.5090000033 80.386848450 0.6410479546 0.6410479546
 2088.7343750 5.0000000000 12.404999733 0.0119935898 0.4105057120 2.2341701984 3.3050177097 55.048999786 132.86322021 0.5040000081 77.797996521 0.6710000038 0.6710000038
 2088.8867188 5.0000000000 12.383999825 0.0020320513 0.4157815278 2.2445299625 3.0893461704 53.724998474 131.91136169 0.4990000129 79.116996765 0.6710000038 0.6710000038
 2089.0393066 5.0000000000 12.428999901 -0.001987200 0.4002000093 2.2516858578 3.1429998875 54.344013214 131.89312744 0.4880000055 78.413475037 0.6879807711 0.6879807711
 2089.1916504 5.0000000000 12.611001015 -0.002000000 0.3965758383 2.2488439083 3.4055790901 55.600860596 132.74476624 0.4830000103 78.087860107 0.6759439707 0.6759439707
 2089.3439941 5.0000000000 12.807999611 0.0109583335 0.4028199613 2.2305955887 3.6076762676 56.762001038 134.18495178 0.4769999981 79.250000000 0.6409999728 0.6409999728
 2089.4963379 5.0000000000 13.095001221 0.0428974368 0.4268514216 2.1945722103 3.7038462162 57.134998322 135.75691223 0.4749999940 78.436996460 0.5590000153 0.5590000153
 2089.6489258 5.0000000000 13.190999985 0.0699567348 0.4260900021 2.1539864540 3.3550000191 57.084030151 136.95056152 0.4729999900 78.269248962 0.5420048237 0.5420048237
 2089.8012695 5.0000000000 12.930000305 0.0490671992 0.4379299879 2.1336920261 3.3800001144 55.854393005 137.57586670 0.4679999948 79.048248291 0.5450769663 0.5450769663
 2089.9536133 5.0000000000 12.670000076 0.0121185901 0.4183713496 2.1421790123 3.2042815685 54.232612610 137.66035461 0.4600000083 79.204475403 0.5930719972 0.5930719972
 2090.1059570 5.0000000000 12.456000328 0.0070160259 0.4171518981 2.1615259647 3.1930177212 55.238998413 137.37037659 0.4600000083 79.500000000 0.6380000114 0.6380000114
 2090.2585449 5.0000000000 12.500000000 0.0020080130 0.4092999995 2.1756036282 2.9630000591 57.046249390 137.15501404 0.4670000076 78.888519287 0.6569823623 0.6569823623
 2090.4108887 5.0000000000 12.680999756 0.0059872000 0.3990100026 2.1865510941 2.9260001183 59.696960449 137.30426025 0.4799999893 77.347984314 0.6459856033 0.6459856033
 2090.5632324 5.0000000000 12.791000366 -0.006958334 0.3830356002 2.1979863644 2.8181729317 62.161762238 137.64213562 0.5000000000 79.207740784 0.6369936466 0.6369936466
 2090.7155762 5.0000000000 12.641999245 -0.006003205 0.3836689591 2.2087836266 2.7850530148 61.389999390 137.80805969 0.5159999728 79.047996521 0.6330000162 0.6330000162
 2090.8679199 5.0000000000 12.772999763 -0.006000000 0.4127134085 2.2182078362 2.7600400448 57.491001129 137.33714294 0.5360000134 79.417999268 0.6150000095 0.6150000095
 2091.0205078 5.0000000000 12.961999893 -0.005003200 0.4138499796 2.2294974327 2.6789999008 52.053768158 135.90818787 0.5479999781 80.179565430 0.6250224113 0.6250224113
 2091.1728516 5.0000000000 12.814000130 -0.005000000 0.4018392563 2.2464587688 2.6520431042 50.661357880 133.92977905 0.5649999976 79.286315918 0.6390575767 0.6390575767
 2091.3251953 4.0000000000 12.703001022 -0.005996795 0.3734455407 2.2651259899 2.7019197941 49.637001038 132.26127625 0.5799999833 78.859001160 0.6750000119 0.6750000119
 2091.4775391 4.0000000000 12.701999664 -0.003009615 0.3840928376 2.2759847641 2.7489247322 49.786998749 131.34053040 0.5920000076 79.175003052 0.7030000091 0.7030000091
 2091.6301270 4.0000000000 12.696998596 -0.005995193 0.3794599771 2.2740652561 2.7009999752 51.011089325 130.94088745 0.6050000191 78.996459961 0.7700111866 0.7700111866
 2091.7824707 4.0000000000 12.668000221 -0.003009600 0.3970399797 2.2648570538 2.5950000286 50.442676544 130.61064148 0.6090000272 79.904167175 0.7769615650 0.7769615650
 2091.9348145 4.0000000000 12.640999794 -0.003000000 0.4006841481 2.2566418648 2.5680432320 50.862880707 130.26486206 0.6069999933 80.007324219 0.7529072165 0.7529072165
 2092.0871582 4.0000000000 12.633000374 -0.002003205 0.4092762470 2.2522616386 2.4761474133 50.790000916 130.22097778 0.5899999738 79.582000732 0.6949999928 0.6949999928
