# LAS format log file from PETREL
# Project units are specified as depth units
#==================================================================
~Version information
VERS.   2.0:
WRAP.   NO:
#==================================================================
~Well
STRT .m      1110.8436279 :
STOP .m      2733.1416016 :
STEP .m     0.00000000 :
NULL .        -999.250000 :
COMP.           : COMPANY
WELL.  16/7-6   : WELL
FLD.            : FIELD
LOC.            : LOCATION
SRVC.           : SERVICE COMPANY
DATE.  2018-09-11 14:48:11   : Log Export Date {yyyy-MM-dd HH:mm:ss}
PROV.           : PROVINCE
UWI.   16/7-6   : UNIQUE WELL ID
API.            : API NUMBER
#==================================================================
~Curve
DEPT .m                   : DEPTH
Lithology_geolink ._      : Lithology_geolink
DCAL .in                  : DCAL
CALI .in                  : CALI
BS .in                    : BS
ROP .m/h                  : ROP
DRHO .g/cm3               : DRHO
THOR .ppm                 : THOR
SGR .gAPI                 : SGR
NPHI .m3/m3               : NPHI
RHOB .g/cm3               : RHOB
PEF .b/e                  : PEF
GR .gAPI                  : GR
URAN .ppm                 : URAN
DTC .us/ft                : DTC
DTS .us/ft                : DTS
RDEP .ohm.m               : RDEP
SP .mV                    : SP
RSHA .ohm.m               : RSHA
RMIC .ohm.m               : RMIC
RMED .ohm.m               : RMED
~Parameter
#==================================================================
~Ascii
# ...
 2285.8476563 9.0000000000 -0.391893387 11.858110428 12.250000954 122061.26563 -0.071908116 0.6841552258  -999.250000 0.1011703014 2.5903999805 5.8366408348 7.1643657684 0.2232902050 65.085258484 117.28790283 3.1585719585 -93.68744659 4.0191750526 3.6711730957 3.3977699280
 2286.0000000 9.0000000000 -0.389800102 11.860199928 12.250000954 136624.01563 -0.066323727 0.9534072280  -999.250000 0.1026369035 2.5775001049 5.8716778755 7.1727571487 0.0620136745 64.605201721 116.80780029 3.2734320164 -93.56269836 4.0788011551 4.0629220009 3.5116219521
 2286.1523438 9.0000000000 -0.391097993 11.858900070 12.250000954 145307.14063 -0.064257748 1.0156099796  -999.250000 0.0988935307 2.5825939178 5.2196998596 7.7639122009 -0.042582121 64.213783264 118.20790100 3.3941590786 -93.50017548 4.1829881668 4.3982157707 3.6270730495
 2286.3046875 9.0000000000 -0.392499000 11.857500076 12.250000954 110891.56250 -0.062742643 0.9318541884  -999.250000 0.0940722525 2.5924909115 5.2644820213 8.0912065506 -0.126686200 64.378562927 118.26280212 3.5037240982 -93.43765259 4.3494811058 4.6355857849 3.7403669357
 2286.4572754 9.0000000000 -0.391100913 11.858900070 12.250000954 85246.109375 -0.058173511 1.0289590359  -999.250000 0.0946842730 2.6073930264 5.8116288185 7.8809700012 -0.198448598 64.442367554 118.25759888 3.6184310913 -93.25009155 4.5741529465 4.7999501228 3.8793330193
 2286.6096191 9.0000000000 -0.390899688 11.859101295 12.250000954 133285.03125 -0.059162430 1.2769629955  -999.250000 0.0938981175 2.6164989471 6.0584077835 7.6073961258 -0.285570413 64.110038757 119.01540375 3.7159440517 -93.49957275 4.7656950951 4.7090401649 3.9845719337
 2286.7619629 9.0000000000 -0.393396407 11.856599808 12.250000954 187064.79688 -0.057935178 1.4354089499  -999.250000 0.0922949463 2.6191959381 5.5233240128 7.4856047630 -0.443111300 63.990669250 119.72889709 3.7444829941 -93.56232452 4.7752909660 4.3906040192 3.9770379066
 2286.9143066 10.000000000 -0.394998610 11.854998589 12.250000954 203983.85938 -0.055005521 0.9283323288  -999.250000 0.0902364701 2.6042149067 4.9050550461 7.4546709061 -0.247209296 64.711082458 120.24729919 3.6045739651 -93.81186676 4.5281519890 3.8818600178 3.7904279232
 2287.0666504 10.000000000 -0.362119704 11.887880325 12.250000954 217458.21875 -0.050295848 1.3074619770  -999.250000 0.0973799825 2.6057989597 5.0301761627 7.3732810020 -0.343584388 65.202392578 121.23159790 3.3281369209 -93.81282043 4.0958328247 3.0936360359 3.4705679417
 2287.2192383 10.000000000 -0.342004836 11.907999992 12.250000954 205475.07813 -0.059945978 1.4049110413  -999.250000 0.1107254028 2.6054000854 5.4510469437 7.3388237953 -0.375185490 65.557708740 121.70648956 3.0214650631 -93.93842316 3.6046030521 2.4998021126 3.1199009418
 2287.3715820 10.000000000 -0.342300355 11.907699585 12.250000954 193237.56250 -0.068049259 1.5176949501  -999.250000 0.1259101033 2.6048009396 5.7918062210 7.7557888031 -0.443516403 67.082237244 122.51000214 2.7258410454 -94.24993134 3.1667931080 2.3345570564 2.7896490097
 2287.5239258 10.000000000 -0.342599928 11.907400131 12.250000954 189295.89063 -0.072267249 1.6361570358  -999.250000 0.1413449943 2.5592510700 5.5988550186 8.2202510834 -0.482135355 68.151107788 122.61840057 2.4929170609 -94.49947357 2.8669350147 2.4565680027 2.5382161140
 2287.6762695 10.000000000 -0.341700613 11.908300400 12.250000954 183588.25000 -0.069449298 1.3245170116  -999.250000 0.1467262059 2.5291221142 5.4289369583 8.4093542099 -0.323549092 68.285499573 121.63890076 2.3775169849 -94.43744659 2.7258110046 2.7566308975 2.4128229618
 2287.8288574 10.000000000 -0.341199875 11.908800125 12.250000954 177977.60938 -0.064101629 1.3490179777  -999.250000 0.1337545067 2.5221030712 5.3035511971 8.4066753387 -0.253033787 68.011909485 121.50128937 2.3947811127 -94.37447357 2.7300119400 3.1473278999 2.4292819500
 2287.9812012 10.000000000 -0.339300215 11.910699844 12.250000954 168856.42188 -0.059139188 1.0663959980  -999.250000 0.1162109971 2.5506000519 5.3322510719 8.1884117126 -0.118353300 67.686203003 120.72840118 2.4925329685 -94.18810272 2.8419849873 3.3002350330 2.5279328823
 2288.1335449 10.000000000 -0.341796875 11.908201218 12.250000954 168407.82813 -0.059355792 1.0049090385  -999.250000 0.1108691022 2.5825610161 5.3394031525 7.8351387978 -0.013791960 66.898666382 120.53639984 2.6148269176 -94.37433624 2.9919950962 3.2151699066 2.6503310204
 2288.2858887 10.000000000 -0.341300011 11.908699036 12.250000954 176221.39063 -0.061726049 0.8665559292  -999.250000 0.1213101000 2.5942900181 5.2529721260 7.3756589890 0.0870396271 66.642822266 120.87060547 2.7098340988 -94.18837738 3.0887908936 2.9240629673 2.7478361130
 2288.4384766 10.000000000 -0.341199875 11.908800125 12.250000954 168911.70313 -0.067293301 0.5534368157  -999.250000 0.1336068958 2.5822060108 5.1554989815 7.4576730728 0.3200944960 66.444000244 120.22699738 2.7712690830 -94.43750000 3.1286489964 2.8294990063 2.8114719391
 2288.5908203 9.0000000000 -0.343899697 11.906100273 12.250000954 144597.04688 -0.068088233 0.4630844891  -999.250000 0.1378566027 2.5697019100 5.1530671120 8.0780811310 0.2118045986 66.065551758 119.97501373 2.8230109215 -94.43807220 3.1645970345 3.1934249401 2.8657219410
 2288.7431641 9.0000000000 -0.341802567 11.908201218 12.250000954 130108.41406 -0.065845892 0.3163900971  -999.250000 0.1193471029 2.5684020519 5.1720142365 8.1604194641 0.1798332036 65.909812927 119.30120087 2.8839271069 -94.62493134 3.2168869972 3.9902129173 2.9326350689
 2288.8955078 9.0000000000 -0.341699600 11.908300400 12.250000954 120602.10156 -0.065248042 0.3886961043  -999.250000 0.1017000005 2.5842840672 5.2615728378 7.4614901543 0.1874634027 65.938171387 118.98320007 2.9941918850 -94.75006866 3.3521480560 4.3810920715 3.0515029430
 2289.0478516 9.0000000000 -0.340701073 11.909299850 12.250000954 133825.04688 -0.065042228 0.4769361317  -999.250000 0.0939034075 2.6021890640 5.2375750542 7.1517109871 0.2103607059 65.722526550 118.94000244 3.1538178921 -94.87464142 3.5552570820 3.8884379864 3.2218790054
 2289.2004395 9.0000000000 -0.343898803 11.906100273 12.250000954 169236.03125 -0.058115270 0.4042181969  -999.250000 0.0968185067 2.6015999317 5.9060821533 8.0309505463 0.1817134023 65.496162415 119.39099884 3.2685790062 -94.81304932 3.7058229446 3.4623789787 3.3731570244
 2289.3527832 9.0000000000 -0.343400985 11.906599998 12.250000954 167628.64063 -0.056368150 0.6662834883  -999.250000 0.1025806963 2.5993030071 6.0267510414 9.2452793121 0.0237098709 64.797447205 118.56210327 3.3248350620 -95.00002289 3.7900619507 3.6150770187 3.4754290581
 2289.5051270 9.0000000000 -0.341502160 11.908499718 12.250000954 140854.70313 -0.062126901 0.5008779764  -999.250000 0.0982547924 2.5999989510 6.0820660591 9.5986604691 -0.022935130 65.053710938 119.01760101 3.3347079754 -95.18668365 3.8362619877 4.1682538986 3.5186319351
 2289.6574707 9.0000000000 -0.342000008 11.907999992 12.250000954 163723.65625 -0.064294979 0.4753786922  -999.250000 0.0930076465 2.6001999378 5.3241000175 8.9106264114 -0.078869224 65.468986511 118.18870544 3.2937200069 -94.93714142 3.8435161114 4.4689178467 3.5090839863
 2289.8100586 9.0000000000 -0.339301139 11.910699844 12.250000954 226546.65625 -0.061191820 0.4746173918  -999.250000 0.0904116035 2.5950019360 5.4361720085 8.0440664291 -0.171847403 65.273979187 118.18430328 3.2373640537 -94.62512207 3.8541569710 3.9197878838 3.4970190525
 2289.9624023 9.0000000000 -0.342000008 11.907999992 12.250000954 223518.65625 -0.063342243 0.5007882714  -999.250000 0.0917452127 2.5945000648 5.5371589661 7.5502471924 -0.185185194 65.133598328 117.88110352 3.1576778889 -94.50000000 3.8343219757 3.4367630482 3.4528870583
 2290.1147461 9.0000000000 -0.340102226 11.909899712 12.250000954 183896.76563 -0.065761037 0.5062469244  -999.250000 0.1000040993 2.6041879654 5.6126589775 7.5192880630 -0.249131486 65.154083252 117.98970032 3.0456330776 -94.50005341 3.7440249920 3.5312550068 3.3452019691
 2290.2670898 9.0000000000 -0.337701768 11.912300110 12.250000954 180162.62500 -0.064535387 0.5558425188  -999.250000 0.1022083014 2.5972061157 5.2377328873 7.5438809395 -0.273508191 65.226043701 117.98900604 2.8937890530 -94.62469482 3.6003739834 3.5875730515 3.1803669930
