# LAS format log file from PETREL
# Project units are specified as depth units
#==================================================================
~Version information
VERS.   2.0:
WRAP.   NO:
#==================================================================
~Well
STRT .m      367.94241333 :
STOP .m      2651.6562500 :
STEP .m     0.00000000 :
NULL .        -999.250000 :
COMP.           : COMPANY
WELL.  16/7-1   : WELL
FLD.            : FIELD
LOC.            : LOCATION
SRVC.           : SERVICE COMPANY
DATE.  2018-09-11 14:48:09   : Log Export Date {yyyy-MM-dd HH:mm:ss}
PROV.           : PROVINCE
UWI.   16/7-1   : UNIQUE WELL ID
API.            : API NUMBER
#==================================================================
~Curve
DEPT .m                   : DEPTH
Lithology_geolink ._      : Lithology_geolink
DCAL .in                  : DCAL
CALI .in                  : CALI
BS .in                    : BS
DRHO .g/cm3               : DRHO
RHOB .g/cm3               : RHOB
GR .gAPI                  : GR
DTC .us/ft                : DTC
RDEP .ohm.m               : RDEP
SP .mV                    : SP
RSHA .ohm.m               : RSHA
RMED .ohm.m               : RMED
~Parameter
#==================================================================
~Ascii
# ...
 1728.5697021 5.0000000000 3.1396088600 11.639609337 8.5000000000 0.0151986303 2.1514010429 45.601520538 43.114509583 0.2292505056 69.691169739 0.4368610978  -999.250000
 1728.7220459 5.0000000000 3.1864540577 11.686449051 8.5000000000 0.0128023401 2.1428079605 46.155918121 43.018829346 0.2151767015 69.740989685 0.4526481032  -999.250000
 1728.8743896 5.0000000000 3.2445440292 11.744540215 8.5000000000 0.0132995099 2.1452980042 45.089008331 43.035263062 0.2938351929 69.789756775 0.4693717062  -999.250000
 1729.0268555 5.0000000000 3.2186257839 11.718629837 8.5000000000 0.0155977504 2.1557900906 43.160251617 43.109207153 0.2684961855 69.871917725 0.4870538116  -999.250000
 1729.1791992 5.0000000000 3.1967210770 11.696720123 8.5000000000 0.0149006797 2.1623940468 41.596988678 43.283184052 0.1610736996 70.045600891 0.4382716119  -999.250000
 1729.3316650 5.0000000000 3.2055909634 11.705591202 8.5000000000 0.0148999998 2.1658968925 40.537498474 43.572898865 0.0963227227 70.183441162 0.4422999024  -999.250000
 1729.4840088 5.0000000000 3.2159893513 11.715990067 8.5000000000 0.0169979502 2.1646010876 41.523399353 43.694362640 0.2179923058 70.300376892 0.4260193110  -999.250000
 1729.6364746 5.0000000000 3.2562611103 11.756258965 8.5000000000 0.0140029304 2.1620030403 44.538219452 43.501483917 0.2482535988 70.414093018 0.4287999868  -999.250000
 1729.7888184 5.0000000000 3.3159418106 11.815939903 8.5000000000 0.0087051746 2.1641979218 47.832950592 43.459053040 0.2313129008 70.423759460 0.4478859901  -999.250000
 1729.9412842 5.0000000000 3.3153009415 11.815299988 8.5000000000 0.0061025391 2.1649990082 48.800319672 43.429393768 0.2091681957 70.378906250 0.4700937867  -999.250000
 1730.0936279 5.0000000000 3.2750391960 11.775039673 8.5000000000 0.0045015621 2.1618030071 48.047199249 43.399707794 0.2245455980 70.282997131 0.4710449874  -999.250000
 1730.2460938 5.0000000000 3.2739007473 11.773900032 8.5000000000 0.0044999998 2.1591029167 47.226360321 43.451709747 0.2771610022 70.150978088 0.4322609901  -999.250000
 1730.3984375 5.0000000000 3.2741999626 11.774200439 8.5000000000 0.0099946288 2.1574020386 47.104679108 43.626419067 0.2417678982 70.021156311 0.4614449143  -999.250000
 1730.5509033 5.0000000000 3.2739000320 11.773900032 8.5000000000 0.0187914092 2.1645929813 48.495311737 43.749282837 0.2270648926 69.863311768 0.4305795133  -999.250000
 1730.7032471 5.0000000000 3.2736001015 11.773599625 8.5000000000 0.0213974603 2.1737909317 48.375278473 43.821945190 0.3090764880 69.663909912 0.4285495877  -999.250000
 1730.8557129 5.0000000000 3.2740988731 11.774099350 8.5000000000 0.0241972692 2.1885859966 46.959449768 43.857299805 0.3529415131 69.461906433 0.4129391909  -999.250000
 1731.0080566 5.0000000000 3.3027727604 11.802769661 8.5000000000 0.0249992199 2.1995890141 45.906391144 43.591304779 0.2795465887 69.225616455 0.4303875864  -999.250000
 1731.1604004 5.0000000000 3.2628393173 11.762840271 8.5000000000 0.0161086898 2.1934061050 45.476680756 43.439884186 0.2096266001 69.054237366 0.4513525963  -999.250000
 1731.3128662 5.0000000000 3.1634969711 11.663499832 8.5000000000 0.0097062504 2.1832098961 43.857151031 43.153060913 0.2271102965 68.935241699 0.4750331938  -999.250000
 1731.4652100 5.0000000000 3.1319301128 11.631931305 8.5000000000 0.0121975597 2.1757071018 44.654979706 42.858478546 0.2781552076 68.867652893 0.4785115123  -999.250000
 1731.6176758 5.0000000000 3.1411912441 11.641189575 8.5000000000 0.0152969696 2.1721041203 45.922821045 42.996704102 0.2166714072 68.862731934 0.4878439009  -999.250000
 1731.7700195 5.0000000000 3.1607809067 11.660780907 8.5000000000 0.0092059579 2.1635079384 46.641761780 43.398155212 0.2082045972 68.949798584 0.4600009918  -999.250000
 1731.9224854 5.0000000000 3.1709899902 11.670989990 8.5000000000 0.0080011720 2.1552081108 47.991439819 43.974136353 0.2193785012 69.189323425 0.4567517936  -999.250000
 1732.0748291 5.0000000000 3.1811895370 11.681189537 8.5000000000 0.0155925797 2.1493060589 49.586910248 44.247997284 0.2160663009 69.445610046 0.4570603073  -999.250000
 1732.2272949 5.0000000000 3.2495336533 11.749530792 8.5000000000 0.0157997999 2.1344139576 48.722709656 44.481140137 0.1936469972 69.681602478 0.4271677136  -999.250000
 1732.3796387 5.0000000000 3.3579943180 11.857989311 8.5000000000 0.0070085940 2.1226119995 46.439498901 44.712425232 0.2151892036 69.888313293 0.4182460904  -999.250000
 1732.5321045 5.0000000000 3.3706870079 11.870691299 8.5000000000 0.0082987295 2.1282939911 44.321628571 44.895332336 0.2304627001 70.041839600 0.4547407925  -999.250000
 1732.6844482 5.0000000000 3.2423260212 11.742328644 8.5000000000 0.0229856409 2.1357920170 42.615928650 44.975009918 0.2037079930 70.203483582 0.4402177036  -999.250000
 1732.8369141 5.0000000000 3.1697702408 11.669770241 8.5000000000 0.0294936504 2.1361000538 43.132858276 44.928928375 0.1746498942 70.372978210 0.3861537874  -999.250000
 1732.9892578 5.0000000000 3.2079629898 11.707961082 8.5000000000 0.0364931598 2.1415939331 43.793018341 45.119388580 0.1862376034 70.543792725 0.3794926107  -999.250000
 1733.1416016 5.0000000000 3.2574510574 11.757450104 8.5000000000 0.0413952097 2.1484930515 43.700359344 45.068611145 0.1856483966 70.682373047 0.4244450033  -999.250000
 1733.2940674 5.0000000000 3.3470129967 11.847008705 8.5000000000 0.0320091806 2.1454029083 43.183769226 44.877628326 0.1856348962 70.712722778 0.4129492044  -999.250000
 1733.4464111 5.0000000000 3.4573929310 11.957389832 8.5000000000 0.0167149398 2.1365079880 43.298450470 44.778198242 0.1656823009 70.647468567 0.4468770921  -999.250000
 1733.5988770 5.0000000000 3.5076513290 12.007650375 8.5000000000 0.0069095702 2.1268100739 44.312469482 44.796028137 0.1602234989 70.517768860 0.4231190085  -999.250000
 1733.7512207 5.0000000000 3.5074000359 12.007399559 8.5000000000 0.0115954103 2.1217050552 46.716510773 44.943580627 0.1610150039 70.361717224 0.4555642903  -999.250000
 1733.9036865 5.0000000000 3.4673399925 11.967340469 8.5000000000 0.0147968801 2.1102108955 49.712539673 45.318027496 0.1550454050 70.205551147 0.4372814000  -999.250000
 1734.0560303 6.0000000000 3.4568111897 11.956809998 8.5000000000 0.0051094731 2.0857241154 52.662380219 45.508892059 0.1458314061 70.135383606 0.4289372861  -999.250000
 1734.2084961 6.0000000000 3.4962620735 11.996259689 8.5000000000 0.0021029301 2.0700149536 54.924850464 45.687568665 0.1561414003 70.116546631 0.4111281931  -999.250000
 1734.3608398 6.0000000000 3.5060901642 12.006089211 8.5000000000 0.0021999020 2.0566129684 54.510871887 45.764442444 0.1472593993 70.117866516 0.3763940036  -999.250000
 1734.5133057 6.0000000000 3.6523566246 12.152359962 8.5000000000 -0.006491504 2.0328230858 52.547580719 45.757553101 0.1290764064 70.181442261 0.3246222138  -999.250000
 1734.6656494 6.0000000000 3.8998582363 12.399860382 8.5000000000 -0.017788971 2.0075249672 51.133949280 45.750663757 0.1415113956 70.236213684 0.3395653069  -999.250000
 1734.8181152 5.0000000000 4.0983071327 12.598311424 8.5000000000 -0.021496391 1.9862209558 48.323108673 47.137413025 0.1564957947 70.307876587 0.3561139107  -999.250000
 1734.9704590 5.0000000000 4.2275738716 12.727569580 8.5000000000 -0.008113087 1.9853010178 45.291130066 47.666728973 0.1652572006 70.424667358 0.2994098067  -999.250000
 1735.1228027 5.0000000000 4.2356920242 12.735692024 8.5000000000 0.0064857430 2.0391469002 43.725288391 47.521488190 0.1681351066 70.528717041 0.2334852070  -999.250000
 1735.2752686 5.0000000000 4.0018291473 12.501830101 8.5000000000 0.0109956097 2.0865540504 44.411788940 46.433933258 0.1829039007 70.603401184 0.3353964984  -999.250000
 1735.4276123 5.0000000000 3.5377533436 12.037750244 8.5000000000 0.0082027344 2.0873990059 46.302719116 44.742660522 0.2298945040 70.694526672 0.4478028119  -999.250000
 1735.5800781 6.0000000000 2.9201037884 11.420100212 8.5000000000 0.0043038088 2.0730140209 48.461460114 43.718746185 0.2594433129 70.726989746 0.4796957970  -999.250000
 1735.7324219 6.0000000000 2.4479610920 10.947958946 8.5000000000 0.0032010740 2.0584139824 50.485088348 42.989997864 0.2287333012 70.770851135 0.5118598938  -999.250000
