# LAS format log file from PETREL
# Project units are specified as depth units
#==================================================================
~Version information
VERS.   2.0:
WRAP.   NO:
#==================================================================
~Well
STRT .m      1317.4000244 :
STOP .m      2886.4997559 :
STEP .m     0.00000000 :
NULL .        -999.250000 :
COMP.           : COMPANY
WELL.  16/7-8 S Beta West   : WELL
FLD.            : FIELD
LOC.            : LOCATION
SRVC.           : SERVICE COMPANY
DATE.  2018-09-11 14:48:11   : Log Export Date {yyyy-MM-dd HH:mm:ss}
PROV.           : PROVINCE
UWI.   16/7-8 S   : UNIQUE WELL ID
API.            : API NUMBER
#==================================================================
~Curve
DEPT .m                   : DEPTH
Lithology_geolink ._      : Lithology_geolink
CALI .in                  : CALI
BS .in                    : BS
NPHI .m3/m3               : NPHI
RHOB .g/cm3               : RHOB
GR .gAPI                  : GR
RDEP .ohm.m               : RDEP
RMED .ohm.m               : RMED
~Parameter
#==================================================================
~Ascii
# ...
 2881.4001465 1.0000000000 8.5469999313 8.5000000000 0.2795000076 2.2455000877 42.970001221 0.3199999928 0.2500000000
 2881.5002441 1.0000000000 8.5469999313 8.5000000000 0.2770999968 2.2255001068 41.830001831 0.3000000119 0.2399999946
 2881.6000977 1.0000000000 8.5469999313 8.5000000000 0.2759000063 2.2056000233 40.799999237 0.2899999917 0.2300000042
 2881.6999512 1.0000000000 8.5469999313 8.5000000000 0.2739048898 2.1956243515 40.069999695 0.2800243795 0.2200243920
 2881.7998047 1.0000000000 8.5469999313 8.5000000000 0.2694109976 2.1956000328 39.560001373 0.2700244486 0.2199999988
 2881.8999023 1.0000000000 8.6250000000 8.5000000000 0.2626166046 2.2055757046 39.270000458 0.2600243688 0.2399512082
 2882.0000000 1.0000000000 8.5469999313 8.5000000000 0.2587095201 2.2056000233 39.069999695 0.2400487810 0.2300243974
 2882.0998535 1.0000000000 8.5469999313 8.5000000000 0.2693738341 2.2155754566 38.930000305 0.2500000000 0.2399999946
 2882.1999512 1.0000000000 8.5469999313 8.5000000000 0.2850617170 2.2156000137 38.930000305 0.2500000000 0.2300000042
 2882.3000488 1.0000000000 8.5469999313 8.5000000000 0.2982678115 2.2156000137 39.000000000 0.2399999946 0.2500000000
 2882.3999023 1.0000000000 8.5469999313 8.5000000000 0.3022902310 2.2254757881 39.229999542 0.2599999905 0.2599999905
 2882.5000000 1.0000000000 8.5469999313 8.5000000000 0.2987999916 2.2255001068 39.610000610 0.2700000107 0.2700000107
 2882.5998535 1.0000000000 8.5469999313 8.5000000000 0.2939000130 2.2355000973 40.220001221 0.2700000107 0.2700000107
 2882.6999512 1.0000000000 8.5159997940 8.5000000000 0.2910999954 2.2455000877 40.959999084 0.2700000107 0.2800000012
 2882.8000488 1.0000000000 8.5469999313 8.5000000000 0.2915000021 2.2555000782 42.229999542 0.2700000107 0.2800000012
 2882.8999023 1.0000000000 8.5469999313 8.5000000000 0.2928999960 2.2655000687 43.939998627 0.2700000107 0.3100000024
 2883.0000000 1.0000000000 8.6250000000 8.5000000000 0.2926999927 2.2655000687 45.709999084 0.2700000107 0.3199999928
 2883.1000977 2.0000000000 8.5469999313 8.5000000000 0.2912000120 2.2655000687 47.580001831 0.2700000107 0.3300000131
 2883.1999512 2.0000000000 8.5469999313 8.5000000000  -999.250000 2.2655000687 49.700000763 0.2899999917 0.3300000131
 2883.3000488 2.0000000000 8.5469999313 8.5000000000  -999.250000 2.2555000782 52.000000000 0.3199999928 0.3199999928
 2883.4001465 4.0000000000 8.5469999313 8.5000000000  -999.250000 2.2455000877 53.889999390 0.3499999940 0.3199999928
 2883.5000000 4.0000000000 8.5469999313 8.5000000000  -999.250000 2.2455000877 55.180000305 0.3600000143 0.3300000131
 2883.6000977 4.0000000000 8.5469999313 8.5000000000  -999.250000 2.2455000877 56.479999542 0.3600000143 0.3499999940
 2883.7001953 4.0000000000 8.5620002747 8.5000000000  -999.250000 2.2455000877 58.729999542 0.3600000143 0.3600000143
 2883.8000488 4.0000000000 8.5780000687 8.5000000000  -999.250000 2.2455000877 62.080001831 0.3600000143 0.3799999952
 2883.9001465 5.0000000000 8.5780000687 8.5000000000  -999.250000 2.2355000973 65.099998474 0.3700000048 0.4099999964
 2883.9997559 5.0000000000 8.5780000687 8.5000000000  -999.250000 2.2255489826 66.739997864 0.3700000048 0.4099999964
 2884.0998535 5.0000000000 8.5780000687 8.5000000000  -999.250000 2.2255001068 67.599998474 0.3899510801 0.4199755490
 2884.1999512 5.0000000000 8.5469999313 8.5000000000  -999.250000 2.2354757786 67.830001831 0.4199268222 0.4399512112
 2884.2998047 5.0000000000 8.5469999313 8.5000000000  -999.250000 2.2653536797 67.529998779 0.4199999869 0.4399999976
 2884.3999023 5.0000000000 8.5620002747 8.5000000000  -999.250000 2.3053023815 66.779998779 0.4300000072 0.4499999881
 2884.5000000 5.0000000000 8.5780000687 8.5000000000  -999.250000 2.3153755665 65.839996338 0.4300000072 0.4499999881
 2884.5998535 5.0000000000 8.5780000687 8.5000000000  -999.250000 2.3153998852 65.160003662 0.4300000072 0.4600000083
 2884.6999512 5.0000000000 8.5780000687 8.5000000000  -999.250000 2.3252756596 65.080001831 0.4399999976 0.4699999988
 2884.8000488 5.0000000000 8.5780000687 8.5000000000  -999.250000 2.3252999783 65.449996948 0.4399999976 0.4699999988
 2884.8999023 5.0000000000 8.5780000687 8.5000000000  -999.250000 2.3252999783 66.010002136 0.4399999976 0.4699999988
 2885.0000000 5.0000000000 8.5679998398 8.5000000000  -999.250000 2.3153998852 66.639999390 0.4499999881 0.4699999988
 2885.1000977 5.0000000000 8.5570001602 8.5000000000  -999.250000 2.3153998852 67.239997864 0.4600000083 0.4600000083
 2885.1999512 5.0000000000 8.5469999313 8.5000000000  -999.250000 2.3153998852 67.459999084 0.4600000083 0.4600000083
 2885.3000488 5.0000000000 8.5469999313 8.5000000000  -999.250000 2.3153998852 67.309997559 0.4600000083 0.4600000083
 2885.4001465 5.0000000000 8.5469999313 8.5000000000  -999.250000 2.3053998947 67.430000305 0.4699999988 0.4600000083
 2885.5000000 5.0000000000 8.5469999313 8.5000000000  -999.250000 2.2853999138 68.550003052 0.4699999988 0.4699999988
 2885.6000977 5.0000000000 8.5620002747 8.5000000000  -999.250000 2.2753999233 70.540000916 0.4699999988 0.4699999988
 2885.6999512 5.0000000000 8.5780000687 8.5000000000  -999.250000  -999.250000 72.339996338 0.4699999988 0.4699999988
 2885.8000488 5.0000000000 8.5620002747 8.5000000000  -999.250000  -999.250000 73.129997253 0.4799999893 0.5000000000
 2885.9001465 5.0000000000 8.5469999313 8.5000000000  -999.250000  -999.250000 72.830001831 0.5099999905 0.5199999809
 2886.0000000 5.0000000000 8.5469999313 8.5000000000  -999.250000  -999.250000 71.620002747 0.5099999905 0.5099999905
 2886.1000977 5.0000000000 8.5469999313 8.5000000000  -999.250000  -999.250000 70.040000916 0.5099999905 0.5099999905
 2886.2001953 5.0000000000 8.5469999313 8.5000000000  -999.250000  -999.250000 68.690002441 0.5099999905 0.5000000000
 2886.3000488 5.0000000000 8.5780000687 8.5000000000  -999.250000  -999.250000 67.599998474 0.5099999905 0.5000000000
 2886.3999023 4.0000000000 8.5780000687 8.5000000000  -999.250000  -999.250000 66.540000916 0.5299512148 0.4900243878
 2886.4997559 4.0000000000 8.5469999313 8.5000000000  -999.250000  -999.250000 65.629997253 0.5299999714 0.4999512136
