# LAS format log file from PETREL
# Project units are specified as depth units
#==================================================================
~Version information
VERS.   2.0:
WRAP.   NO:
#==================================================================
~Well
STRT .m      1317.4000244 :
STOP .m      2886.4997559 :
STEP .m     0.00000000 :
NULL .        -999.250000 :
COMP.           : COMPANY
WELL.  16/7-8 S Beta West   : WELL
FLD.            : FIELD
LOC.            : LOCATION
SRVC.           : SERVICE COMPANY
DATE.  2018-09-11 14:48:11   : Log Export Date {yyyy-MM-dd HH:mm:ss}
PROV.           : PROVINCE
UWI.   16/7-8 S   : UNIQUE WELL ID
API.            : API NUMBER
#==================================================================
~Curve
DEPT .m                   : DEPTH
Lithology_geolink ._      : Lithology_geolink
CALI .in                  : CALI
BS .in                    : BS
NPHI .m3/m3               : NPHI
RHOB .g/cm3               : RHOB
GR .gAPI                  : GR
RDEP .ohm.m               : RDEP
RMED .ohm.m               : RMED
~Parameter
#==================================================================
~Ascii
# ...
 1419.4000244  -999.250000 8.6250000000 8.5000000000 0.4905000031 2.2455000877 101.05999756 1.1200000048 0.9100000262
 1419.5000000  -999.250000 8.6250000000 8.5000000000 0.4688999951 2.2753999233 98.650001526 1.1399999857 0.9200000167
 1419.6000977  -999.250000 8.6250000000 8.5000000000 0.4489000142 2.3252999783 93.620002747 1.1599999666 0.9599999785
 1419.7000732  -999.250000 8.6560001373 8.5000000000 0.4435999990 2.3852000237 87.769996643 1.0599999428 1.2899999619
 1419.8000488  -999.250000 8.6560001373 8.5000000000 0.4521999955 2.4251000881 84.720878601 1.0800000429 1.2500000000
 1419.9001465  -999.250000 8.6250000000 8.5000000000 0.4652999938 2.4251000881 85.447975159 1.1900000572 0.9900000095
 1420.0000000  -999.250000 8.5780000687 8.5000000000 0.4814802110 2.3553850651 88.709999084 1.1900000572 0.9900000095
 1420.0999756  -999.250000 8.5469999313 8.5000000000 0.5025742650 2.2854852676 92.629997253 1.1699999571 0.9800000191
 1420.1999512  -999.250000 8.5780000687 8.5000000000 0.5213541389 2.2455973625 95.430000305 1.1599999666 0.9900000095
 1420.3000488  -999.250000 8.6250000000 8.5000000000 0.5340844989 2.2156364918 96.699996948 1.1599999666 1.0000000000
 1420.4000244  -999.250000 8.6250000000 8.5000000000 0.5406919718 2.2056121826 97.279998779 1.1599999666 1.0199999809
 1420.5000000  -999.250000 8.6250000000 8.5000000000 0.5436999798 2.1856000423 97.680000305 1.1699999571 1.0399999619
 1420.5999756  -999.250000 8.5780000687 8.5000000000 0.5468999743 2.1856000423 97.970001221 1.1900000572 1.0599999428
 1420.7000732  -999.250000 8.5780000687 8.5000000000 0.5485000014 2.1756000519 97.750000000 1.2000000477 1.0599999428
 1420.8000488  -999.250000 8.5780000687 8.5000000000 0.5476999879 2.1756000519 97.010002136 1.1900000572 1.0599999428
 1420.9000244  -999.250000 8.6250000000 8.5000000000 0.5465999842 2.1756000519 96.239364624 1.2000000477 1.0599999428
 1421.0001221  -999.250000 8.6250000000 8.5000000000 0.5446000099 2.1856000423 95.719535828 1.2000000477 1.0599999428
 1421.0999756  -999.250000 8.5780000687 8.5000000000 0.5371091962 2.1856000423 95.529998779 1.1900000572 1.0599999428
 1421.1999512  -999.250000 8.6250000000 8.5000000000 0.5203204751 2.1856000423 95.699996948 1.1900000572 1.0599999428
 1421.2999268  -999.250000 8.6250000000 8.5000000000 0.4947624505 2.1856000423 96.180000305 1.1900000572 1.0599999428
 1421.4000244  -999.250000 8.6250000000 8.5000000000 0.4805173576 2.1856000423 96.790000916 1.1900000572 1.0599999428
 1421.5000000  -999.250000 8.6250000000 8.5000000000 0.4817984104 2.1856000423 97.230003357 1.1799999475 1.0399999619
 1421.5999756  -999.250000 8.6250000000 8.5000000000 0.5003546476 2.1856000423 97.480003357 1.1799999475 1.0399999619
 1421.7000732  -999.250000 8.6250000000 8.5000000000 0.5246999860 2.1956000328 97.459999084 1.1699999571 1.0299999714
 1421.8000488  -999.250000 8.6250000000 8.5000000000 0.5328000188 2.1956000328 96.989997864 1.1699999571 1.0099999905
 1421.9000244  -999.250000 8.6250000000 8.5000000000 0.5315999985 2.1956000328 96.099998474 1.1799999475 1.0000000000
 1422.0001221  -999.250000 8.6250000000 8.5000000000 0.5282999873 2.1956000328 95.120002747 1.1699999571 1.0099999905
 1422.1000977  -999.250000 8.5780000687 8.5000000000 0.5264999866 2.1956000328 94.469772339 1.1599999666 1.0199999809
 1422.2000732  -999.250000 8.6250000000 8.5000000000 0.5285999775 2.1956000328 94.280220032 1.1599999666 1.0399999619
 1422.2999268  -999.250000 8.6250000000 8.5000000000 0.5398862362 2.1956000328 94.459999084 1.1699999571 1.0299999714
 1422.4000244  -999.250000 8.6250000000 8.5000000000 0.5555808544 2.1956000328 94.709999084 1.1699999571 1.0199999809
 1422.5000000  -999.250000 8.6250000000 8.5000000000 0.5589958429 2.1956000328 94.610000610 1.1699999571 1.0199999809
 1422.5999756  -999.250000 8.6250000000 8.5000000000 0.5560036302 2.1956000328 94.500000000 1.1599999666 1.0199999809
 1422.6999512  -999.250000 8.6250000000 8.5000000000 0.5520097613 2.1956000328 94.989997864 1.1699999571 1.0199999809
 1422.8000488  -999.250000 8.6250000000 8.5000000000 0.5491034985 2.1956000328 95.949996948 1.1699999571 1.0199999809
 1422.9000244  -999.250000 8.6250000000 8.5000000000 0.5472000241 2.1856000423 96.910003662 1.1599999666 1.0299999714
 1423.0000000  -999.250000 8.6250000000 8.5000000000 0.5399000049 2.1856000423 97.540000916 1.1599999666 1.0199999809
 1423.1000977  -999.250000 8.6250000000 8.5000000000 0.5260000229 2.1856000423 97.860000610 1.1699999571 1.0199999809
 1423.2000732  -999.250000 8.6250000000 8.5000000000 0.5212000012 2.1856000423 98.129997253 1.1699999571 1.0099999905
 1423.3000488  -999.250000 8.6250000000 8.5000000000 0.5336999893 2.1856000423 98.460388184 1.1699999571 1.0099999905
 1423.4001465  -999.250000 8.6250000000 8.5000000000 0.5471000075 2.1756000519 98.780364990 1.1799999475 1.0200244188
 1423.5000000  -999.250000 8.6250000000 8.5000000000 0.5523934960 2.1756000519 98.930000305 1.1799999475 1.0299999714
 1423.5999756  -999.250000 8.6250000000 8.5000000000 0.5518007278 2.1756000519 98.910003662 1.1799999475 1.0399999619
 1423.6999512  -999.250000 8.5780000687 8.5000000000 0.5524991751 2.1657121181 98.830001831 1.1799999475 1.0499999523
 1423.8000488  -999.250000 8.6250000000 8.5000000000 0.5609896183 2.1656999588 98.830001831 1.1799999475 1.0599999428
 1423.9000244  -999.250000 8.6250000000 8.5000000000 0.5755822062 2.1755878925 98.959999084 1.1900000572 1.0599999428
 1424.0000000  -999.250000 8.6250000000 8.5000000000 0.5860871673 2.1756000519 99.029998779 1.1900000572 1.0499999523
 1424.0999756  -999.250000 8.5780000687 8.5000000000 0.5863999724 2.1756000519 98.809997559 1.1900000572 1.0499999523
 1424.2000732  -999.250000 8.6250000000 8.5000000000 0.5820999742 2.1756000519 98.269996643 1.1900000572 1.0499999523
 1424.3000488  -999.250000 8.6250000000 8.5000000000 0.5759999752 2.1756000519 97.519996643 1.1900000572 1.0399999619
 1424.4000244  -999.250000 8.6250000000 8.5000000000 0.5605999827 2.1656999588 96.869537354 1.1799999475 1.0499999523
 1424.5001221  -999.250000 8.6250000000 8.5000000000 0.5406000018 2.1656999588 96.489166260 1.1699999571 1.0399999619
 1424.5999756  -999.250000 8.6250000000 8.5000000000 0.5260178447 2.1755878925 96.150001526 1.1699999571 1.0299999714
 1424.6999512  -999.250000 8.6250000000 8.5000000000 0.5272983909 2.1756000519 96.099998474 1.1699999571 1.0199999809
 1424.7999268  -999.250000 8.5780000687 8.5000000000 0.5545334220 2.1756000519 96.370002747 1.1599999666 1.0099999905
 1424.9000244  -999.250000 8.6250000000 8.5000000000 0.5838642120 2.1756000519 96.739997864 1.1599999666 1.0000000000
 1425.0000000  -999.250000 8.6020002365 8.5000000000 0.5772081614 2.1756000519 96.589996338 1.1599999666 1.0099999905
 1425.0999756  -999.250000 8.5780000687 8.5000000000 0.5458765626 2.1657240391 96.040000916 1.1599999666 1.0099999905
 1425.2000732  -999.250000 8.5780000687 8.5000000000 0.5242000222 2.1656999588 96.169998169 1.1599999666 1.0099999905
 1425.3000488  -999.250000 8.5780000687 8.5000000000 0.5187000036 2.1656999588 97.169998169 1.1499999762 1.0199999809
 1425.4000244  -999.250000 8.6250000000 8.5000000000 0.5212000012 2.1756000519 98.339996338 1.1399999857 1.0099999905
 1425.5001221  -999.250000 8.6250000000 8.5000000000 0.5192000270 2.1756000519 98.940002441 1.1399999857 1.0000000000
 1425.6000977  -999.250000 8.6250000000 8.5000000000 0.5080999732 2.1756000519 98.940261841 1.1399999857 1.0000000000
 1425.7000732  -999.250000 8.6250000000 8.5000000000 0.4963999987 2.1756000519 99.150291443 1.1499999762 0.9900000095
 1425.7999268  -999.250000 8.6250000000 8.5000000000 0.4909067154 2.1855878830 99.389999390 1.1399999857 0.9800000191
 1425.9000244  -999.250000 8.6250000000 8.5000000000 0.4902008772 2.1856000423 99.559997559 1.1299999952 1.0000000000
 1426.0000000  -999.250000 8.6250000000 8.5000000000 0.4907992482 2.1856000423 99.779998779 1.1299999952 1.0099999905
 1426.0999756  -999.250000 8.6250000000 8.5000000000 0.4930971861 2.1955878735 100.11000061 1.1299999952 1.0099999905
