# LAS format log file from PETREL
# Project units are specified as depth units
#==================================================================
~Version information
VERS.   2.0:
WRAP.   NO:
#==================================================================
~Well
STRT .m      1110.8436279 :
STOP .m      2733.1416016 :
STEP .m     0.00000000 :
NULL .        -999.250000 :
COMP.           : COMPANY
WELL.  16/7-6   : WELL
FLD.            : FIELD
LOC.            : LOCATION
SRVC.           : SERVICE COMPANY
DATE.  2018-09-11 14:48:11   : Log Export Date {yyyy-MM-dd HH:mm:ss}
PROV.           : PROVINCE
UWI.   16/7-6   : UNIQUE WELL ID
API.            : API NUMBER
#==================================================================
~Curve
DEPT .m                   : DEPTH
Lithology_geolink ._      : Lithology_geolink
DCAL .in                  : DCAL
CALI .in                  : CALI
BS .in                    : BS
ROP .m/h                  : ROP
DRHO .g/cm3               : DRHO
THOR .ppm                 : THOR
SGR .gAPI                 : SGR
NPHI .m3/m3               : NPHI
RHOB .g/cm3               : RHOB
PEF .b/e                  : PEF
GR .gAPI                  : GR
URAN .ppm                 : URAN
DTC .us/ft                : DTC
DTS .us/ft                : DTS
RDEP .ohm.m               : RDEP
SP .mV                    : SP
RSHA .ohm.m               : RSHA
RMIC .ohm.m               : RMIC
RMED .ohm.m               : RMED
~Parameter
#==================================================================
~Ascii
# ...
 1645.7675781  -999.250000 0.1429080963 12.392910004 12.250000954 300469.84375 -0.070052028 10.192810059  -999.250000 0.4527891874 2.2021000385 3.1993470192 88.251586914 1.7118320465 142.42759705 397.63595581 0.6924000978 -98.62483215 0.8189001083 0.8236703873 0.6810001135
 1645.9200439  -999.250000 0.1953850091 12.445380211 12.250000954 330657.62500 -0.072131969 10.063309669  -999.250000 0.4471825063 2.2000999451 3.2336599827 86.811012268 1.7024300098 143.47419739 392.84100342 0.6930997968 -98.45001984 0.8198996782 0.8202872872 0.6815997958
 1646.0723877  -999.250000 0.2229004055 12.472900391 12.250000954 546854.12500 -0.069481634 9.9524040222  -999.250000 0.4370566905 2.2007000446 3.3521230221 86.343612671 1.8350700140 142.87600708 392.04101563 0.6924998164 -98.55409241 0.8189998269 0.8124079108 0.6807997823
 1646.2248535  -999.250000 0.2271976024 12.477199554 12.250000954 769471.18750 -0.069788799 10.244739532  -999.250000 0.4326812029 2.1981010437 3.6674809456 86.547531128 2.0166180134 143.88819885 393.78878784 0.6903008223 -98.44593811 0.8161010146 0.8048992157 0.6786007881
 1646.3771973  -999.250000 0.2313994914 12.481399536 12.250000954 941158.75000 -0.071243010 10.439419746  -999.250000 0.3964438140 2.2014000416 3.7726769447 87.055511475 1.7774870396 143.67559814 393.44299316 0.6866999269 -98.55410004 0.8116999269 0.7995452881 0.6751000285
 1646.5296631  -999.250000 0.2474936694 12.497489929 12.250000954 987482.25000 -0.070867777 11.127739906  -999.250000 0.3886375129 2.1955020428 3.8003919125 87.934226990 1.8146870136 143.20849609 393.35238647 0.6825016737 -98.32939148 0.8068019748 0.7969924212 0.6714016199
 1646.6820068  -999.250000 0.2729988098 12.522998810 12.250000954 729042.00000 -0.069006033 11.119250298  -999.250000 0.3957501054 2.1893000603 3.8057971001 88.949157715 1.8364379406 142.68750000 393.18643188 0.6785001755 -98.72057343 0.8026002049 0.7972881198 0.6678001285
 1646.8344727  -999.250000 0.2735995948 12.523599625 12.250000954 505369.00000 -0.072124191 11.761930466  -999.250000 0.4022141099 2.1870009899 3.8093039989 90.113037109 1.8701280355 142.60600281 395.93685913 0.6753016114 -98.63343048 0.7998012900 0.7986171842 0.6644015908
 1646.9868164  -999.250000 0.2698001862 12.519801140 12.250000954 416231.43750 -0.073392957 11.215900421  -999.250000 0.4060274065 2.1907989979 3.7520000935 91.092590332 2.2143781185 143.34249878 398.04119873 0.6728003025 -98.45012665 0.7985001206 0.7993906736 0.6618003249
 1647.1391602  -999.250000 0.2331752926 12.483180046 12.250000954 365055.71875 -0.073310949 11.830069542  -999.250000 0.4134714007 2.1851990223 3.6542429924 91.863220215 2.1087620258 142.69349670 399.56359863 0.6706994772 -98.61231232 0.7978997827 0.7977833748 0.6598994732
 1647.2916260  -999.250000 0.1393166035 12.389321327 12.250000954 379485.59375 -0.072255023 11.359189987  -999.250000 0.4128470123 2.1823010445 3.6189401150 92.333023071 2.6817049980 140.55059814 400.50338745 0.6688004136 -98.62497711 0.7973001003 0.7942600250 0.6581003070
 1647.4439697  -999.250000 0.1058883965 12.355889320 12.250000954 453762.37500 -0.072954267 11.969180107  -999.250000 0.4153836966 2.1735999584 3.6152420044 93.269912720 2.6894669533 140.33560181 402.17001343 0.6667996049 -98.68331146 0.7960996032 0.7918897867 0.6563997269
 1647.5964355  -999.250000 0.0491132699 12.299109459 12.250000954 657106.62500 -0.071766317 11.925439835  -999.250000 0.4328679144 2.1726999283 3.4213950634 95.331817627 3.0419549942 140.40469360 403.88281250 0.6649004221 -98.68750000 0.7940005064 0.7893087268 0.6548004150
 1647.7487793  -999.250000 0.0359010696 12.285901070 12.250000954 730552.00000 -0.071565419 12.017270088  -999.250000 0.4719955027 2.1628999710 3.3429570198 97.656150818 3.0429980755 140.67250061 404.70910645 0.6628996730 -98.68750000 0.7912995815 0.7834162116 0.6531997919
 1647.9012451  -999.250000 0.0407981910 12.290799141 12.250000954 521403.15625 -0.067820348 11.978630066  -999.250000 0.4479801953 2.1616010666 3.2110800743 98.773368835 2.8602850437 141.08250427 405.53781128 0.6610006094 -98.68750000 0.7884008288 0.7786092758 0.6517004967
 1648.0535889  -999.250000 0.0211982690 12.271200180 12.250000954 417312.06250 -0.066223100 12.230230331  -999.250000 0.4531710148 2.1641008854 3.3674640656 98.151390076 2.5569980145 141.95860291 408.63681030 0.6599000096 -98.68750000 0.7864999771 0.7811893821 0.6507999897
 1648.2060547  -999.250000 -0.002091408 12.247909546 12.250000954 536203.37500 -0.065468177 12.086839676  -999.250000 0.4554657042 2.1750960350 3.6520819664 96.740402222 2.3008460999 142.95660400 404.52890015 0.6600000262 -98.62917328 0.7864000797 0.7903816104 0.6510000229
 1648.3583984  -999.250000 -0.001000404 12.249000549 12.250000954 522343.71875 -0.061808601 12.597499847  -999.250000 0.4581367075 2.1854999065 3.9995009899 95.310691833 2.0805110931 143.11489868 401.15228271 0.6613000035 -98.68334961 0.7889000773 0.8010928035 0.6525999904
 1648.5108643  -999.250000 0.0155935306 12.265589714 12.250000954 239426.48438 -0.060302261 12.095219612  -999.250000 0.4465295970 2.1895980835 3.7970390320 94.929458618 2.0831749439 142.78460693 393.79910278 0.6639987826 -98.62917328 0.7935981154 0.8097428083 0.6561983824
 1648.6632080  -999.250000 -0.003799438 12.246200562 12.250000954 220018.45313 -0.059170071 12.363730431  -999.250000 0.4595701993 2.1981000900 3.5023989677 95.407379150 1.8239990473 141.94259644 390.57998657 0.6685997844 -98.56667328 0.8000996709 0.8146591187 0.6614996791
 1648.8156738  -999.250000 -0.088358887 12.161640167 12.250000954 700451.06250 -0.058070600 11.310130119  -999.250000 0.4429039061 2.2031979561 3.3815948963 95.963333130 2.1231400967 141.41700745 382.32901001 0.6744971275 -98.62082672 0.8083959222 0.8187168837 0.6677969098
 1648.9680176  -999.250000 -0.095599174 12.154400826 12.250000954 979967.93750 -0.057633851 11.828249931  -999.250000 0.4285261929 2.2083001137 3.4455060959 96.036689758 1.8052719831 142.13600159 378.68569946 0.6819990873 -98.68334198 0.8194987178 0.8372644782 0.6759989858
 1649.1204834  -999.250000 -0.084405899 12.165591240 12.250000954 845882.25000 -0.062850170 11.074410439  -999.250000 0.4254293144 2.2077000141 3.4512550831 94.824073792 1.9752781391 142.07310486 378.60983276 0.6927940249 -98.86242676 0.8354911804 0.8865938187 0.6871938109
 1649.2728271  -999.250000 -0.030909540 12.219090462 12.250000954 603760.25000 -0.058972459 11.079219818  -999.250000 0.4509620965 2.2105000019 3.6661920547 92.093589783 1.4958469868 140.00300598 378.22970581 0.7066975236 -98.75833130 0.8567962050 0.9262065291 0.7011975050
 1649.4251709  -999.250000 0.0176019706 12.267600060 12.250000954 469838.84375 -0.056837220 11.011690140  -999.250000 0.4505879879 2.2166059017 3.9406630993 87.571693420 1.5454070568 140.12440491 378.69439697 0.7215021849 -98.75000763 0.8800035119 0.9229063988 0.7161021829
 1649.5776367  -999.250000 0.0253982507 12.275400162 12.250000954 378957.18750 -0.062364150 11.146320343  -999.250000 0.4287432134 2.2468929291 4.1906571388 83.807411194 1.9449418783 139.52409363 379.65280151 0.7330971956 -98.69167328 0.8982955217 0.9053096175 0.7278972268
 1649.7299805  -999.250000 0.0263023395 12.276300430 12.250000954 450271.15625 -0.068787500 10.909399986  -999.250000 0.3871468008 2.2685980797 3.9016189575 83.928977966 2.4209609032 139.08900452 380.03851318 0.7380998135 -98.62921143 0.9053993821 0.8746995926 0.7332997918
 1649.8824463  -999.250000 0.0396957397 12.289698601 12.250000954 622336.06250 -0.068192847 10.566240311  -999.250000 0.4148991108 2.2539050579 3.6280400753 86.933486938 2.8593139648 138.56950378 380.59832764 0.7362005711 -98.62500000 0.9007014036 0.8618687987 0.7318004966
 1650.0347900  -999.250000 0.0481996462 12.298199654 12.250000954 634159.68750 -0.066833928 11.040900230  -999.250000 0.4219436944 2.2202990055 3.3476910591 89.729728699 2.8809089661 138.38389587 382.93771362 0.7297993898 -98.85822296 0.8878989816 0.8579941988 0.7246993780
 1650.1872559  -999.250000 0.0451011695 12.295099258 12.250000954 554380.75000 -0.066862270 11.337920189  -999.250000 0.4002192020 2.2027060986 3.2383990288 91.698966980 3.0876109600 139.14869690 388.87005615 0.7217028737 -98.75834656 0.8723056912 0.8490716815 0.7159032226
