# LAS format log file from PETREL
# Project units are specified as depth units
#==================================================================
~Version information
VERS.   2.0:
WRAP.   NO:
#==================================================================
~Well
STRT .m      1110.8436279 :
STOP .m      2733.1416016 :
STEP .m     0.00000000 :
NULL .        -999.250000 :
COMP.           : COMPANY
WELL.  16/7-6   : WELL
FLD.            : FIELD
LOC.            : LOCATION
SRVC.           : SERVICE COMPANY
DATE.  2018-09-11 14:48:11   : Log Export Date {yyyy-MM-dd HH:mm:ss}
PROV.           : PROVINCE
UWI.   16/7-6   : UNIQUE WELL ID
API.            : API NUMBER
#==================================================================
~Curve
DEPT .m                   : DEPTH
Lithology_geolink ._      : Lithology_geolink
DCAL .in                  : DCAL
CALI .in                  : CALI
BS .in                    : BS
ROP .m/h                  : ROP
DRHO .g/cm3               : DRHO
THOR .ppm                 : THOR
SGR .gAPI                 : SGR
NPHI .m3/m3               : NPHI
RHOB .g/cm3               : RHOB
PEF .b/e                  : PEF
GR .gAPI                  : GR
URAN .ppm                 : URAN
DTC .us/ft                : DTC
DTS .us/ft                : DTS
RDEP .ohm.m               : RDEP
SP .mV                    : SP
RSHA .ohm.m               : RSHA
RMIC .ohm.m               : RMIC
RMED .ohm.m               : RMED
~Parameter
#==================================================================
~Ascii
# ...
 1965.8076172  -999.250000 0.3026008904 12.552599907 12.250000954 172725.82813 -0.047447160 8.9312973022  -999.250000 0.4392938614 2.2249999046 4.0020141602 66.758781433 1.2158750296 145.02940369 480.72891235 0.4028921425 -95.30404663 0.5256863832 0.5039150715 0.4006921351
 1965.9600830  -999.250000 0.3138943315 12.563889503 12.250000954 253567.09375 -0.050488409 8.7992076874  -999.250000 0.4519865215 2.2168049812 3.9127659798 66.379768372 1.3278059959 147.11241150 482.11041260 0.3981959522 -95.25425720 0.5175931454 0.5081443787 0.3959957659
 1966.1124268  -999.250000 0.3025017083 12.552499771 12.250000954 445568.75000 -0.051352341 9.0474452972  -999.250000 0.4555203617 2.2091009617 3.9770879745 65.064414978 1.4882669449 147.38284302 481.67929077 0.3944970965 -95.30829620 0.5112956166 0.5179058313 0.3921969235
 1966.2648926  -999.250000 0.3185901940 12.568590164 12.250000954 564935.00000 -0.054765359 8.2678070068  -999.250000 0.4578290582 2.1986060143 3.9099359512 63.649299622 1.6057929993 147.31253052 480.94918823 0.3925006688 -95.31268311 0.5082022548 0.5353952050 0.3901004195
 1966.4172363  -999.250000 0.2833090127 12.533309937 12.250000954 710890.25000 -0.053810611 8.9905767441  -999.250000 0.4612632990 2.1965999603 3.9595510960 63.388122559 1.4841920137 145.49046326 477.74731445 0.3922015131 -95.48728943 0.5084037781 0.5780860186 0.3896013796
 1966.5697021  -999.250000 0.1754723042 12.425469398 12.250000954 605349.12500 -0.055046242 9.0475435257  -999.250000 0.4508078396 2.1970999241 3.9615740776 64.041419983 1.7493180037 145.07876587 478.67056274 0.3930021226 -95.32494354 0.5106049180 0.6575847268 0.3903018236
 1966.7220459  -999.250000 0.1668024063 12.416799545 12.250000954 266625.59375 -0.053726569 9.5237722397  -999.250000 0.4613916874 2.2058968544 4.0287327766 65.491706848 1.7233619690 145.37025452 487.79833984 0.3940005898 -95.13767242 0.5131012201 0.7773770094 0.3912004232
 1966.8745117  -999.250000 0.2104672790 12.460470200 12.250000954 169307.84375 -0.051738780 9.2690944672  -999.250000 0.5012677908 2.2071993351 4.2063689232 67.031074524 1.3658289909 146.04757690 488.26080322 0.3944985569 -95.24150085 0.5141975284 0.9389562011 0.3915989101
 1967.0268555  -999.250000 0.2608813941 12.510880470 12.250000954 172607.12500 -0.048211940 8.7482318878  -999.250000 0.4938947856 2.2052009106 4.7246232033 67.186286926 1.2831740379 146.40934753 484.70898438 0.3940980434 -95.13349915 0.5135965347 1.1508078575 0.3912978470
 1967.1793213  -999.250000 0.2559041977 12.505900383 12.250000954 160431.96875 -0.041754939 8.9188327789  -999.250000 0.4860816300 2.2000041008 4.9445018768 65.858489990 1.2100800276 146.84414673 483.87631226 0.3928970993 -95.29984283 0.5114944577 1.4556816816 0.3899968266
 1967.3316650  -999.250000 0.2493028939 12.499300957 12.250000954 134994.32813 -0.038976111 9.1313562393  -999.250000 0.4549708962 2.1962020397 4.5415601730 64.751625061 1.1592270136 146.62605286 484.95709229 0.3913980126 -95.25418854 0.5086964369 1.9046133757 0.3883980215
 1967.4840088  -999.250000 0.2234019935 12.473401070 12.250000954 155498.15625 -0.035391700 8.7561445236  -999.250000 0.4306409061 2.1940000057 4.0638399124 64.662269592 1.2263879776 147.18917847 487.16766357 0.3898975551 -95.19167328 0.5059969425 2.2042715549 0.3868977427
 1967.6364746  -999.250000 0.3116570115 12.561659813 12.250000954 214977.87500 -0.036101751 8.6791000366  -999.250000 0.4021689296 2.1955990791 3.9565989971 64.298362732 1.0513620377 147.17671204 495.02578735 0.3884994388 -95.12930298 0.5041998029 2.1773765087 0.3855997026
 1967.7888184  -999.250000 0.3857918382 12.635790825 12.250000954 231181.07813 -0.036655731 8.6468915939  -999.250000 0.3876362145 2.2076990604 4.0650591850 63.449378967 1.2113130093 146.81503296 491.32794189 0.3878004551 -95.18325043 0.5036008954 1.8470174074 0.3851005435
 1967.9412842  -999.250000 0.3964939415 12.646490097 12.250000954 225691.29688 -0.042536121 9.1285057068  -999.250000 0.4488327205 2.2195930481 4.1909952164 63.552421570 1.3195010424 146.11553955 490.51440430 0.3880015016 -95.12928772 0.5041018724 1.1375733614 0.3854016066
 1968.0936279  -999.250000 0.4121971130 12.662199974 12.250000954 226008.67188 -0.044092748 8.9837303162  -999.250000 0.4754140973 2.2243990898 4.2456269264 64.775360107 1.4696619511 146.53170776 494.02178955 0.3889019489 -95.00853729 0.5053025484 1.3180810213 0.3864019513
 1968.2460938  -999.250000 0.4379835427 12.687979698 12.250000954 232394.29688 -0.046907820 8.9800500870  -999.250000 0.4814819694 2.2157049179 4.2453460693 65.829994202 1.3570179939 147.04277039 489.59799194 0.3901018798 -95.17465973 0.5069019198 1.9726732969 0.3876018822
 1968.3984375  -999.250000 0.4861888587 12.736189842 12.250000954 250456.06250 -0.046431631 8.6305503845  -999.250000 0.4344350398 2.2126009464 4.3323988914 66.136611938 1.5278970003 147.24859619 488.59030151 0.3916028440 -95.01278687 0.5085024834 1.2095556259 0.3891024888
 1968.5509033  -999.250000 0.5224751830 12.772480011 12.250000954 282008.53125 -0.046491049 8.7230415344  -999.250000 0.4369057715 2.2093019485 4.2811532021 66.581047058 1.6213760376 147.11663818 487.81356812 0.3934038877 -95.00002289 0.5101041198 0.6976836920 0.3907038271
 1968.7032471  -999.250000 0.5001068115 12.750109673 12.250000954 284947.81250 -0.048200060 8.7507314682  -999.250000 0.4722490311 2.2115991116 4.7723898888 68.072738647 1.7142720222 147.07543945 480.41711426 0.3954027295 -94.88355255 0.5121043921 0.5481651425 0.3926031590
 1968.8557129  -999.250000 0.4629277885 12.712928772 12.250000954 263603.87500 -0.049503569 9.0349435806  -999.250000 0.4730572402 2.2079029083 4.6808691025 69.978225708 1.5823270082 147.37977600 483.35723877 0.3973060548 -94.99150848 0.5149084330 0.5386968255 0.3947066367
 1969.0080566  -999.250000 0.4490050972 12.699009895 12.250000954 244161.03125 -0.048821311 9.2024049759  -999.250000 0.4972319007 2.2021019459 4.5706911087 71.231666565 1.5334600210 146.86717224 481.69439697 0.4002063572 -94.88346100 0.5190080404 0.5700603127 0.3979059756
 1969.1605225  -999.250000 0.4326134026 12.682609558 12.250000954 226325.32813 -0.048007298 9.1274480820  -999.250000 0.4408551455 2.1999020576 4.3365120888 71.589134216 1.5596560240 145.96202087 475.98471069 0.4044092298 -94.99150848 0.5244131088 0.6032311320 0.4020095170
 1969.3128662  -999.250000 0.3187493682 12.568749428 12.250000954 210818.50000 -0.050385900 8.8733139038  -999.250000 0.4392754138 2.2047979832 4.3736310005 71.559875488 1.7752670050 145.60050964 469.87094116 0.4093084931 -95.17481995 0.5312113166 0.6206119061 0.4070084095
 1969.4652100  -999.250000 0.2868022919 12.536799431 12.250000954 239356.90625 -0.050441571 8.9705753326  -999.250000 0.4538957477 2.2164990902 4.5512647629 71.820510864 1.5986260176 145.48689270 484.09109497 0.4153118134 -95.01275635 0.5393166542 0.6309167147 0.4130116403
 1969.6176758  -999.250000 0.2693090141 12.519309998 12.250000954 284064.18750 -0.051275861 9.0080738068  -999.250000 0.4607079625 2.2148010731 4.3829531670 72.622528076 1.4516140223 145.35144043 473.07501221 0.4222106934 -94.88346863 0.5490158200 0.6661854982 0.4198099673
 1969.7700195  -999.250000 0.2579020858 12.507900238 12.250000954 288601.56250 -0.050881959 9.2219266891  -999.250000 0.4703033566 2.2179000378 4.3227381706 73.478256226 1.2097899914 144.38999939 462.08847046 0.4302143753 -94.81671906 0.5606220961 0.8236379623 0.4274136424
 1969.9224854  -999.250000 0.2547016144 12.504699707 12.250000954 279940.28125 -0.051434491 9.0933265686  -999.250000 0.3912468255 2.2112040520 4.3099670410 73.622215271 0.9095069766 143.12945557 457.48880005 0.4389113486 -94.63771820 0.5739156008 1.2529275417 0.4357103109
 1970.0748291  -999.250000 0.2604990005 12.510499954 12.250000954 260551.42188 -0.051078159 9.1555747986  -999.250000 0.3597441316 2.2191979885 4.3334732056 72.441368103 0.7057186961 141.84277344 452.98162842 0.4481142759 -94.62500000 0.5870157480 1.7211124897 0.4442117810
 1970.2272949  -999.250000 0.2860842049 12.536080360 12.250000954 234891.59375 -0.052419938 8.5828781128  -999.250000 0.3796544969 2.2241969109 4.5497980118 69.758316040 0.6774557233 141.44471741 449.50033569 0.4572069943 -94.74152374 0.5973029137 1.6029181480 0.4518044591
