# LAS format log file from PETREL
# Project units are specified as depth units
#==================================================================
~Version information
VERS.   2.0:
WRAP.   NO:
#==================================================================
~Well
STRT .m      1317.4000244 :
STOP .m      2886.4997559 :
STEP .m     0.00000000 :
NULL .        -999.250000 :
COMP.           : COMPANY
WELL.  16/7-8 S Beta West   : WELL
FLD.            : FIELD
LOC.            : LOCATION
SRVC.           : SERVICE COMPANY
DATE.  2018-09-11 14:48:11   : Log Export Date {yyyy-MM-dd HH:mm:ss}
PROV.           : PROVINCE
UWI.   16/7-8 S   : UNIQUE WELL ID
API.            : API NUMBER
#==================================================================
~Curve
DEPT .m                   : DEPTH
Lithology_geolink ._      : Lithology_geolink
CALI .in                  : CALI
BS .in                    : BS
NPHI .m3/m3               : NPHI
RHOB .g/cm3               : RHOB
GR .gAPI                  : GR
RDEP .ohm.m               : RDEP
RMED .ohm.m               : RMED
~Parameter
#==================================================================
~Ascii
# ...
 2255.8000488 4.0000000000 8.6409997940 8.5000000000 0.3104999959 2.3952000141 46.060001373 0.8799999952 0.6000000238
 2255.8999023 4.0000000000 8.6560001373 8.5000000000 0.3130936623 2.4350028038 46.060001373 1.0199999809 0.8500000238
 2256.0000000 4.0000000000 8.6560001373 8.5000000000 0.3298590183 2.4550511837 45.540000916 0.8799999952 1.2500000000
 2256.1000977 4.0000000000 8.6560001373 8.5000000000 0.3540999889 2.4551000595 46.110000610 0.7500000000 1.6599999666
 2256.1999512 4.0000000000 8.6560001373 8.5000000000 0.3781000078 2.4251000881 46.270000458 0.7900000215 1.5299999714
 2256.3000488 4.0000000000 8.6560001373 8.5000000000 0.4022000134 2.3852000237 46.540000916 1.0499999523 0.7900000215
 2256.4001465 4.0000000000 8.6560001373 8.5000000000 0.4239999950 2.3552999496 47.299999237 0.9800000191 0.6000000238
 2256.5000000 4.0000000000 8.6560001373 8.5000000000 0.4318999946 2.3452999592 48.139999390 0.7599999905 0.6299999952
 2256.5998535 4.0000000000 8.6560001373 8.5000000000 0.4231214523 2.3452999592 48.599998474 0.7699756026 0.5402195454
 2256.6999512 4.0000000000 8.6560001373 8.5000000000 0.4045453668 2.3353242874 48.959999084 0.7201219797 0.5699267983
 2256.8000488 4.0000000000 8.6560001373 8.5000000000 0.3885000050 2.3153998852 49.340000153 0.6999999881 0.5899999738
 2256.8999023 4.0000000000 8.6560001373 8.5000000000 0.3797214627 2.2954487801 49.759998322 0.6800000072 0.6499999762
 2257.0000000 4.0000000000 8.6560001373 8.5000000000 0.3826926649 2.2655730247 50.159999847 0.6600000262 0.6899999976
 2257.1000977 4.0000000000 8.6250000000 8.5000000000 0.3905999959 2.2753999233 50.970001221 0.6700000167 0.6600000262
 2257.1999512 4.0000000000 8.6250000000 8.5000000000 0.3972836733 2.2753999233 52.799999237 0.6700000167 0.6399999857
 2257.3000488 4.0000000000 8.6250000000 8.5000000000 0.3970000148 2.2655000687 55.479999542 0.6399999857 0.5699999928
 2257.4001465 4.0000000000 8.6560001373 8.5000000000 0.3919000030 2.2555000782 56.950000763 0.6200000048 0.5899999738
 2257.5000000 4.0000000000 8.6250000000 8.5000000000 0.3871000111 2.2355000973 54.930000305 0.5899999738 0.6000000238
 2257.6000977 19.000000000 8.6250000000 8.5000000000 0.3862000108 2.2156000137 50.840000153 0.5899999738 0.6000000238
 2257.6999512 19.000000000 8.6250000000 8.5000000000 0.3883946240 2.2056243420 47.299999237 0.5999756455 0.6000000238
 2257.8000488 19.000000000 8.6250000000 8.5000000000 0.3930999935 2.1956000328 45.310001373 0.6299999952 0.5799999833
 2257.8999023 19.000000000 8.6250000000 8.5000000000 0.3997836709 2.1956000328 45.040000916 0.6599268317 0.5699999928
 2258.0000000 19.000000000 8.6250000000 8.5000000000 0.4104738832 2.2155511379 46.639999390 0.6600000262 0.5699999928
 2258.1000977 19.000000000 8.6250000000 8.5000000000 0.4266999960 2.2255001068 50.229999542 0.6700000167 0.5799999833
 2258.1999512 19.000000000 8.6250000000 8.5000000000 0.4460526705 2.2554268837 55.040000916 0.6700000167 0.5799999833
 2258.3000488 19.000000000 8.6250000000 8.5000000000 0.4611000121 2.2853999138 58.599998474 0.6700000167 0.5899999738
 2258.4001465 19.000000000 8.6250000000 8.5000000000 0.4706000090 2.2953999043 59.509998322 0.6600000262 0.6000000238
 2258.5000000 19.000000000 8.6250000000 8.5000000000 0.4810000062 2.3053998947 58.090000153 0.6800000072 0.5899999738
 2258.6000977 19.000000000 8.6560001373 8.5000000000 0.4912000000 2.3053998947 55.389999390 0.6999999881 0.5799999833
 2258.6999512 19.000000000 8.6560001373 8.5000000000 0.4869000018 2.3053998947 51.919998169 0.6999999881 0.5600000024
 2258.8000488 19.000000000 8.6560001373 8.5000000000 0.4620000124 2.2853999138 47.909999847 0.6600000262 0.5400000215
 2258.8999023 19.000000000 8.6560001373 8.5000000000 0.4394551218 2.2754242420 44.400001526 0.6699756384 0.5400000215
 2259.0000000 19.000000000 8.6250000000 8.5000000000 0.4348999858 2.2655000687 42.650001526 0.6700000167 0.5699999928
 2259.0998535 19.000000000 8.6250000000 8.5000000000 0.4425812364 2.2753758430 42.229999542 0.6800000072 0.5799999833
 2259.1999512 19.000000000 8.6250000000 8.5000000000 0.4476875663 2.2953510284 42.139999390 0.7500000000 0.6000000238
 2259.3000488 19.000000000 8.6250000000 8.5000000000 0.4467999935 2.3153998852 41.509998322 0.8999999762 0.6000000238
 2259.3999023 19.000000000 8.6250000000 8.5000000000 0.4384204745 2.3252758980 39.919998169 0.8100000024 0.6899999976
 2259.5000000 19.000000000 8.6250000000 8.5000000000 0.4279255867 2.3352756500 38.180000305 0.6899999976 0.8000000119
 2259.6000977 19.000000000 8.6250000000 8.5000000000 0.4235999882 2.3252999783 37.029998779 0.6800000072 0.8000000119
 2259.6999512 19.000000000 8.6250000000 8.5000000000 0.4259000123 2.2953999043 36.830001831 0.6600000262 0.8100000024
 2259.8000488 19.000000000 8.6250000000 8.5000000000 0.4300000072 2.2655000687 37.639999390 0.7500000000 0.6999999881
 2259.9001465 19.000000000 8.6250000000 8.5000000000 0.4295000136 2.2355000973 39.349998474 0.7200000286 0.6100000143
 2260.0000000 19.000000000 8.6250000000 8.5000000000 0.4232999980 2.2156000137 42.250000000 0.6999999881 0.6600000262
 2260.0998535 19.000000000 8.6250000000 8.5000000000 0.4176138937 2.2156000137 46.400001526 0.7199512720 0.7098780274
 2260.1999512 19.000000000 8.6250000000 8.5000000000 0.4142082930 2.2156000137 50.389999390 0.8197560906 0.6900487542
 2260.3000488 19.000000000 8.6250000000 8.5000000000 0.4095000029 2.2156000137 52.069999695 0.8000000119 0.6899999976
 2260.3999023 19.000000000 8.6250000000 8.5000000000 0.4025170803 2.2156000137 51.470001221 0.7799999714 0.6899999976
 2260.5000000 19.000000000 8.6250000000 8.5000000000 0.3939209878 2.2056243420 49.819999695 0.7500000000 0.6800000072
 2260.6000977 19.000000000 8.6250000000 8.5000000000 0.3856999874 2.2056000233 47.490001678 0.7699999809 0.5899999738
 2260.6999512 19.000000000 8.6250000000 8.5000000000 0.3801136613 2.2056000233 44.279998779 0.6999999881 0.5799999833
 2260.8000488 19.000000000 8.6250000000 8.5000000000 0.3754000068 2.2056000233 40.419998169 0.6800000072 0.5799999833
 2260.9001465 19.000000000 8.6250000000 8.5000000000 0.3704999983 2.2056000233 37.090000153 0.6499999762 0.5799999833
 2261.0000000 19.000000000 8.6250000000 8.5000000000 0.3689000010 2.2156000137 35.490001678 0.6700000167 0.5500000119
 2261.1000977 19.000000000 8.6560001373 8.5000000000 0.3768000007 2.2355000973 35.500000000 0.7200000286 0.5699999928
 2261.2001953 19.000000000 8.6560001373 8.5000000000 0.3867999911 2.2555000782 36.604194641 0.6800000072 0.6200000048
 2261.3000488 19.000000000 8.6250000000 8.5000000000 0.3955999911 2.2753999233 38.319999695 0.6499999762 0.6700000167
 2261.3999023 19.000000000 8.6250000000 8.5000000000 0.4037800133 2.2853755951 40.090000153 0.6599756479 0.6600244045
 2261.5000000 19.000000000 8.6250000000 8.5000000000 0.4144000113 2.3053998947 41.209999084 0.6700000167 0.6399999857
 2261.6000977 19.000000000 8.6250000000 8.5000000000 0.4259000123 2.3252999783 41.259998322 0.6999999881 0.6000000238
 2261.6999512 19.000000000 8.5780000687 8.5000000000 0.4306882918 2.3352756500 40.229999542 0.7400000095 0.5600000024
 2261.8000488 19.000000000 8.6250000000 8.5000000000 0.4248000085 2.3452999592 38.439998627 0.6899999976 0.5799999833
 2261.8999023 19.000000000 8.6250000000 8.5000000000 0.4127295017 2.3452999592 36.029998779 0.7099999785 0.5899999738
 2262.0000000 19.000000000 8.6250000000 8.5000000000 0.4029999971 2.3552999496 33.520000458 0.7400000095 0.6000000238
 2262.1000977 19.000000000 8.5780000687 8.5000000000 0.4004999995 2.3652999401 31.450000763 0.7799999714 0.6000000238
 2262.1999512 19.000000000 8.6250000000 8.5000000000 0.4047999978 2.3652999401 30.120000839 0.8199999928 0.6000000238
 2262.3000488 19.000000000 8.6250000000 8.5000000000 0.4079999924 2.3552999496 29.771757126 0.8100000024 0.7900000215
 2262.3999023 19.000000000 8.5780000687 8.5000000000 0.4070024490 2.3453242779 30.489999771 0.7700975537 0.8398780227
 2262.5000000 19.000000000 8.6250000000 8.5000000000 0.4122000039 2.3452999592 31.719999313 0.8199999928 0.7599999905
