# LAS format log file from PETREL
# Project units are specified as depth units
#==================================================================
~Version information
VERS.   2.0:
WRAP.   NO:
#==================================================================
~Well
STRT .m      367.94241333 :
STOP .m      2651.6562500 :
STEP .m     0.00000000 :
NULL .        -999.250000 :
COMP.           : COMPANY
WELL.  16/7-1   : WELL
FLD.            : FIELD
LOC.            : LOCATION
SRVC.           : SERVICE COMPANY
DATE.  2018-09-11 14:48:09   : Log Export Date {yyyy-MM-dd HH:mm:ss}
PROV.           : PROVINCE
UWI.   16/7-1   : UNIQUE WELL ID
API.            : API NUMBER
#==================================================================
~Curve
DEPT .m                   : DEPTH
Lithology_geolink ._      : Lithology_geolink
DCAL .in                  : DCAL
CALI .in                  : CALI
BS .in                    : BS
DRHO .g/cm3               : DRHO
RHOB .g/cm3               : RHOB
GR .gAPI                  : GR
DTC .us/ft                : DTC
RDEP .ohm.m               : RDEP
SP .mV                    : SP
RSHA .ohm.m               : RSHA
RMED .ohm.m               : RMED
~Parameter
#==================================================================
~Ascii
# ...
 2182.1120605 21.000000000 2.3211209774 10.821120262 8.5000000000 -0.005903809 2.0464980602 5.1730499268 20.686132431 2383.0600586 62.633186340 18.339460373  -999.250000
 2182.2644043 21.000000000 2.3580639362 10.858058929 8.5000000000 -0.002703125 2.0475990772 4.6240010262 20.755142212 2391.9370117 62.705093384 14.500120163  -999.250000
 2182.4167480 21.000000000 2.3553030491 10.855299950 8.5000000000 -0.002000684 2.0480000973 4.7079811096 20.824056625 2400.8000488 62.840126038 8.6304597855  -999.250000
 2182.5693359 21.000000000 2.1750760078 10.675080299 8.5000000000 -0.002000000 2.0478999615 5.0821990967 20.893217087 2409.6479492 62.998802185 24.543109894  -999.250000
 2182.7216797 21.000000000 2.1384348869 10.638440132 8.5000000000 -0.003598437 2.0464019775 5.6107478142 20.934608459 2418.5229492 63.172050476 43.792301178  -999.250000
 2182.8740234 21.000000000 2.2928500175 10.792850494 8.5000000000 -0.008695019 2.0450019836 6.2645258904 20.955549240 2428.2260742 63.391723633 20.662860870  -999.250000
 2183.0263672 21.000000000 2.3620319366 10.862030029 8.5000000000 -0.015093750 2.0408039093 6.8108329773 20.932445526 2440.5620117 63.694595337 16.309240341  -999.250000
 2183.1789551 21.000000000 2.3472149372 10.847209930 8.5000000000 -0.011004000 2.0349059105 7.1956901550 20.991119385 2455.0090332 64.029319763 14.020700455  -999.250000
 2183.3312988 21.000000000 2.2942509651 10.794249535 8.5000000000 -0.004206641 2.0415940285 7.4690971375 21.065641403 2469.4479980 64.229103088 18.393850327  -999.250000
 2183.4836426 21.000000000 2.2840099335 10.784009933 8.5000000000 0.0004954102 2.0525889397 7.1801447868 21.151443481 2483.8950195 64.332023621 18.536109924  -999.250000
 2183.6359863 21.000000000 2.2835009098 10.783498764 8.5000000000 0.0028976561 2.0618910789 6.4001269341 21.144588470 2498.3410645 64.326477051 30.388950348  -999.250000
 2183.7885742 21.000000000 2.1737079620 10.673710823 8.5000000000 0.0005023438 2.0627989769 5.9461059570 21.174514771 2512.7580566 64.255813599 51.802600861  -999.250000
 2183.9409180 21.000000000 2.1936800480 10.693679810 8.5000000000 0.0027977540 2.0614008904 5.9024090767 21.095117569 2526.9990234 64.082351685 50.603610992  -999.250000
 2184.0932617 21.000000000 2.2449491024 10.744949341 8.5000000000 0.0025002931 2.0587029457 5.6261367798 21.099718094 2536.0930176 63.861518860 47.803619385  -999.250000
 2184.2456055 21.000000000 2.1848590374 10.684860229 8.5000000000 -0.001196387 2.0538051128 5.1535258293 20.913791656 2534.8798828 63.540115356 47.812030792  -999.250000
 2184.3979492 21.000000000 2.2613260746 10.761329651 8.5000000000 -0.000300879 2.0567970276 4.5577468872 20.908823013 2533.3820801 63.214363098 35.521690369  -999.250000
 2184.5505371 21.000000000 2.2836780548 10.783679008 8.5000000000 0.0048949225 2.0648920536 3.9354710579 20.826890945 2534.2219238 62.942684174 19.087429047  -999.250000
 2184.7028809 21.000000000 2.2650179863 10.765020370 8.5000000000 0.0066982419 2.0676970482 3.3866000175 20.905807495 2540.6879883 62.737041473 31.149360657  -999.250000
 2184.8552246 21.000000000 2.3374290466 10.837430000 8.5000000000 0.0037029299 2.0637040138 3.0356059074 20.893033981 2549.5520020 62.612205505 41.036651611  -999.250000
 2185.0075684 21.000000000 2.2011339664 10.701128960 8.5000000000 0.0036000970 2.0592041016 3.0012969971 20.855789185 2558.5659180 62.539516449 59.308109283  -999.250000
 2185.1601563 21.000000000 2.0828149319 10.582819939 8.5000000000 0.0114922803 2.0616979599 2.3873629570 20.904312134 2570.6169434 62.469539642 61.638679504  -999.250000
 2185.3125000 21.000000000 2.1029798985 10.602979660 8.5000000000 0.0144970696 2.0739879608 1.7760620117 20.795986176 2589.0449219 62.362998962 58.980060577  -999.250000
 2185.4648438 21.000000000 2.2615439892 10.761541367 8.5000000000 0.0129015604 2.0743989944 2.3027501106 20.836128235 2608.7009277 62.246669769 40.151409149  -999.250000
 2185.6171875 21.000000000 2.3947710991 10.894769669 8.5000000000 0.0080047864 2.0713028908 2.8768041134 20.883188248 2628.3459473 62.141460419 26.474000931  -999.250000
 2185.7697754 21.000000000 2.3576359749 10.857641220 8.5000000000 0.0024054691 2.0671041012 3.4931640625 20.858438492 2647.8669434 62.091880798 37.517051697  -999.250000
 2185.9221191 21.000000000 2.3997590542 10.899760246 8.5000000000 0.0014009770 2.0640029907 4.3097691536 20.923301697 2664.9541016 62.025531769 26.091880798  -999.250000
 2186.0744629 21.000000000 2.3344640732 10.834460258 8.5000000000 -0.001597070 2.0615019798 5.0664248466 20.897485733 2670.1689453 61.978828430 45.907020569  -999.250000
 2186.2268066 21.000000000 2.2816510201 10.781650543 8.5000000000 -0.001899707 2.0562050343 5.6142311096 20.951555252 2659.9619141 61.960010529 49.122711182  -999.250000
 2186.3791504 21.000000000 2.4714140892 10.971409798 8.5000000000 -0.000701172 2.0557010174 5.9779090881 20.985023499 2649.7719727 61.957008362 26.935720444  -999.250000
 2186.5317383 21.000000000 2.6479270458 11.147931099 8.5000000000 0.0008984375 2.0544009209 5.9941477776 20.925344467 2639.7070313 61.981628418 13.944890022  -999.250000
 2186.6840820 21.000000000 2.7035460472 11.203550339 8.5000000000 0.0019989260 2.0488049984 5.4163279533 20.898094177 2631.3330078 62.005901337 12.046739578  -999.250000
 2186.8364258 21.000000000 2.6395628452 11.139559746 8.5000000000 0.0013006839 2.0502982140 3.8698771000 20.977647781 2627.2548828 62.037189484 22.853260040  -999.250000
 2186.9887695 21.000000000 2.6160228252 11.116020203 8.5000000000 -0.003894922 2.0475029945 3.4587669373 20.966033936 2625.7580566 62.076580048 15.532790184  -999.250000
 2187.1413574 21.000000000 2.5836319923 11.083629608 8.5000000000 -0.009394629 2.0406069756 3.5804440975 21.120082855 2625.9450684 62.128368378 27.278730392  -999.250000
 2187.2937012 21.000000000 2.4503309727 10.950329781 8.5000000000 -0.010598830 2.0352048874 3.7096409798 21.014621735 2633.2028809 62.209461212 58.652881622  -999.250000
 2187.4460449 21.000000000 2.5094408989 11.009441376 8.5000000000 -0.008901660 2.0237109661 4.6800160408 21.088228226 2648.1989746 62.265388489 48.972171783  -999.250000
 2187.5983887 21.000000000 2.8486680984 11.348670006 8.5000000000 -0.006302539 2.0112121105 5.7635078430 21.387451172 2655.0878906 62.312198639 21.451770782  -999.250000
 2187.7507324 21.000000000 3.0516009331 11.551600456 8.5000000000 -0.005800488 2.0101010799 6.7017478943 21.467796326 2647.0239258 62.351490021 7.1594448090  -999.250000
 2187.9030762 21.000000000 2.9268219471 11.426819801 8.5000000000 -0.010295609 2.0239861012 6.9944801331 21.468738556 2637.4270020 62.430789948 14.078530312  -999.250000
 2188.0554199 21.000000000 2.7234981060 11.223500252 8.5000000000 -0.000809277 2.0480759144 7.0702900887 21.375442505 2627.8039551 62.520401001 9.5819005966  -999.250000
 2188.2080078 21.000000000 2.6332869530 11.133290291 8.5000000000 0.0024967771 2.0622859001 6.9678649902 21.145195007 2618.7070313 62.604152679 9.5884504318  -999.250000
 2188.3603516 21.000000000 2.4987320900 10.998729706 8.5000000000 -0.002994629 2.0603020191 6.7292981148 21.019435883 2615.8830566 62.715450287 16.075170517  -999.250000
 2188.5126953 21.000000000 2.4777200222 10.977720261 8.5000000000 -0.011491700 2.0481119156 7.0419578552 20.962497711 2624.3530273 62.847591400 27.439449310  -999.250000
 2188.6650391 21.000000000 2.5685110092 11.068510056 8.5000000000 -0.018293360 2.0349130630 8.4568824768 20.912542343 2633.4938965 62.925048828 32.627540588  -999.250000
 2188.8176270 21.000000000 2.6209490299 11.120949745 8.5000000000 -0.013304880 2.0337009430 9.0456924438 20.915407181 2639.9069824 62.992923737 13.615200043  -999.250000
 2188.9699707 21.000000000 2.5809392929 11.080940247 8.5000000000 -0.008504688 2.0292038918 8.5902099609 20.951038361 2636.7519531 63.086807251 27.513719559  -999.250000
 2189.1223145 21.000000000 2.5647161007 11.064720154 8.5000000000 -0.004304102 2.0251040459 8.0497932434 20.981212616 2623.7219238 63.268741608 39.464771271  -999.250000
 2189.2746582 21.000000000 2.7128548622 11.212860107 8.5000000000 -0.000503711 2.0295960903 7.7768330574 21.054304123 2611.6940918 63.385875702 15.645999908  -999.250000
