# LAS format log file from PETREL
# Project units are specified as depth units
#==================================================================
~Version information
VERS.   2.0:
WRAP.   NO:
#==================================================================
~Well
STRT .m      367.94241333 :
STOP .m      2651.6562500 :
STEP .m     0.00000000 :
NULL .        -999.250000 :
COMP.           : COMPANY
WELL.  16/7-1   : WELL
FLD.            : FIELD
LOC.            : LOCATION
SRVC.           : SERVICE COMPANY
DATE.  2018-09-11 14:48:09   : Log Export Date {yyyy-MM-dd HH:mm:ss}
PROV.           : PROVINCE
UWI.   16/7-1   : UNIQUE WELL ID
API.            : API NUMBER
#==================================================================
~Curve
DEPT .m                   : DEPTH
Lithology_geolink ._      : Lithology_geolink
DCAL .in                  : DCAL
CALI .in                  : CALI
BS .in                    : BS
DRHO .g/cm3               : DRHO
RHOB .g/cm3               : RHOB
GR .gAPI                  : GR
DTC .us/ft                : DTC
RDEP .ohm.m               : RDEP
SP .mV                    : SP
RSHA .ohm.m               : RSHA
RMED .ohm.m               : RMED
~Parameter
#==================================================================
~Ascii
# ...
 1275.0272217 6.0000000000 -0.276986092 11.973009109 12.250000954  -999.250000  -999.250000 88.558441162  -999.250000 0.9894238710 79.094802856 1.1321810484 1.2758539915
 1275.1796875 6.0000000000 -0.295381486 11.954620361 12.250000954  -999.250000  -999.250000 90.363327026  -999.250000 0.9930608273 79.316543579 1.2008470297 1.2743450403
 1275.3320313 6.0000000000 -0.336159736 11.913839340 12.250000954  -999.250000  -999.250000 90.946533203  -999.250000 0.9973772168 79.481216431 1.1840770245 1.2717880011
 1275.4844971 6.0000000000 -0.411226332 11.838768005 12.250000954  -999.250000  -999.250000 91.360092163  -999.250000 1.0027519464 79.429817200 1.1102520227 1.2683830261
 1275.6368408 6.0000000000 -0.452460289 11.797538757 12.250000954  -999.250000  -999.250000 91.799468994  -999.250000 1.0080610514 79.428039551 1.0436010361 1.2703310251
 1275.7891846 7.0000000000 -0.404646903 11.845350266 12.250000954  -999.250000  -999.250000 93.031677246  -999.250000 1.0132869482 79.377777100 1.0645860434 1.2727119923
 1275.9416504 7.0000000000 -0.353749305 11.896249771 12.250000954  -999.250000  -999.250000 94.281776428  -999.250000 1.0176969767 79.385673523 1.0907959938 1.2731159925
 1276.0939941 7.0000000000 -0.346606314 11.903389931 12.250000954  -999.250000  -999.250000 96.387336731  -999.250000 1.0192010403 79.372970581 1.0881379843 1.2749910355
 1276.2464600 7.0000000000 -0.304041892 11.945960999 12.250000954  -999.250000  -999.250000 97.376426697  -999.250000 1.0165829659 79.388580322 1.0757739544 1.2795209885
 1276.3988037 7.0000000000 -0.284019500 11.965979576 12.250000954  -999.250000  -999.250000 96.661087036  -999.250000 1.0140130520 79.333381653 1.0408610106 1.2813249826
 1276.5512695 7.0000000000 -0.317766190 11.932229996 12.250000954  -999.250000  -999.250000 93.437248230  -999.250000 1.0094820261 79.308830261 1.0193820000 1.2782210112
 1276.7036133 6.0000000000 -0.311307013 11.938691139 12.250000954  -999.250000  -999.250000 88.198112488  -999.250000 1.0047889948 79.304687500 1.0222949982 1.2735359669
 1276.8560791 6.0000000000 -0.270540208 11.979459763 12.250000954  -999.250000  -999.250000 84.586120605  -999.250000 1.0016820431 79.304000854 1.0447709560 1.2683010101
 1277.0084229 6.0000000000 -0.239131004 12.010870934 12.250000954  -999.250000  -999.250000 83.152687073  -999.250000 0.9937074184 79.295516968 1.0244849920 1.2640719414
 1277.1608887 6.0000000000 -0.221117005 12.028881073 12.250000954  -999.250000  -999.250000 82.691146851  -999.250000 0.9857956767 79.346153259 1.0496939421 1.2645050287
 1277.3132324 6.0000000000 -0.214905694 12.035089493 12.250000954  -999.250000  -999.250000 84.237586975  -999.250000 0.9981555939 79.475311279 1.0633269548 1.2683360577
 1277.4656982 6.0000000000 -0.211004317 12.039000511 12.250000954  -999.250000  -999.250000 85.110237122  -999.250000 0.9970691204 79.606819153 1.0731019974 1.2735869884
 1277.6180420 6.0000000000 -0.207003608 12.043000221 12.250000954  -999.250000  -999.250000 85.554763794  -999.250000 0.9962301850 79.622123718 1.1183279753 1.2814790010
 1277.7703857 6.0000000000 -0.205901101 12.044099808 12.250000954  -999.250000  -999.250000 86.755821228  -999.250000 0.9951413274 79.792839050 1.0867530107 1.2873859406
 1277.9228516 6.0000000000 -0.210995719 12.039000511 12.250000954  -999.250000  -999.250000 89.263946533  -999.250000 0.9937397838 79.862716675 1.0817079544 1.2864890099
 1278.0751953 6.0000000000 -0.218992174 12.031009674 12.250000954  -999.250000  -999.250000 90.216362000  -999.250000 0.9923310876 79.934242249 1.0750999451 1.2797809839
 1278.2276611 6.0000000000 -0.222197503 12.027799606 12.250000954  -999.250000  -999.250000 87.786369324  -999.250000 0.9888530970 79.837608337 1.0273089409 1.2656910419
 1278.3800049 6.0000000000 -0.220401794 12.029601097 12.250000954  -999.250000  -999.250000 84.756156921  -999.250000 0.9837797880 79.578102112 1.0017600060 1.2530670166
 1278.5324707 6.0000000000 -0.217802987 12.032200813 12.250000954  -999.250000  -999.250000 83.003013611  -999.250000 0.9850065708 79.438552856 0.9943258166 1.2495009899
 1278.6848145 6.0000000000 -0.215203285 12.034799576 12.250000954  -999.250000  -999.250000 84.283241272  -999.250000 0.9899861813 79.408523560 0.9973294735 1.2532939911
 1278.8372803 6.0000000000 -0.212602586 12.037399292 12.250000954  -999.250000  -999.250000 85.860351563  -999.250000 0.9909163713 79.400611877 0.9638692141 1.2556990385
 1278.9896240 6.0000000000 -0.210002899 12.039999962 12.250000954  -999.250000  -999.250000 86.058197021  -999.250000 0.9855937958 79.393600464 0.9839395285 1.2709569931
 1279.1420898 6.0000000000 -0.204804391 12.045200348 12.250000954  -999.250000  -999.250000 84.844879150  -999.250000 0.9811239839 79.385841370 0.9923241735 1.2977529764
 1279.2944336 6.0000000000 -0.203500688 12.046500206 12.250000954  -999.250000  -999.250000 83.395011902  -999.250000 0.9796999097 79.378601074 1.0786809921 1.3204419613
 1279.4468994 6.0000000000 -0.251353294 11.998648643 12.250000954  -999.250000  -999.250000 83.931671143  -999.250000 0.9832841754 79.371612549 1.0835299492 1.3185210228
 1279.5992432 6.0000000000 -0.337415665 11.912579536 12.250000954  -999.250000  -999.250000 85.511863708  -999.250000 0.9881048203 79.364601135 0.9870656729 1.2916699648
 1279.7515869 6.0000000000 -0.395143509 11.854861259 12.250000954  -999.250000  -999.250000 87.248802185  -999.250000 0.9866610765 79.357612610 1.0304800272 1.2623159885
 1279.9040527 6.0000000000 -0.420974702 11.829030037 12.250000954  -999.250000  -999.250000 88.419853210  -999.250000 0.9750577211 79.349830627 1.0545430183 1.2475450039
 1280.0563965 6.0000000000 -0.408212721 11.841789246 12.250000954  -999.250000  -999.250000 89.116523743  -999.250000 0.9653239250 79.350311279 1.0318239927 1.2414989471
 1280.2088623 6.0000000000 -0.358848602 11.891150475 12.250000954  -999.250000  -999.250000 89.819313049  -999.250000 0.9616479874 79.388771057 0.9636142850 1.2406970263
 1280.3612061 6.0000000000 -0.315042496 11.934959412 12.250000954  -999.250000  -999.250000 89.739372253  -999.250000 0.9594938159 79.467010498 0.9582787752 1.2415659428
 1280.5136719 6.0000000000 -0.297616988 11.952380180 12.250000954  -999.250000  -999.250000 90.450302124  -999.250000 0.9574518800 79.546356201 0.9983565807 1.2448890209
 1280.6660156 6.0000000000 -0.301596612 11.948399544 12.250000954  -999.250000  -999.250000 93.199508667  -999.250000 0.9556564093 79.402252197 0.9993609786 1.2532019615
 1280.8184814 6.0000000000 -0.312189102 11.937809944 12.250000954  -999.250000  -999.250000 94.876457214  -999.250000 0.9536095262 79.396392822 1.0310230255 1.2627550364
 1280.9708252 6.0000000000 -0.322689086 11.927309036 12.250000954  -999.250000  -999.250000 93.585762024  -999.250000 0.9508634806 79.509208679 1.0443780422 1.2606110573
 1281.1232910 6.0000000000 -0.332190514 11.917809486 12.250000954  -999.250000  -999.250000 91.869071960  -999.250000 0.9480035901 79.515129089 1.0940610170 1.2562270164
 1281.2756348 6.0000000000 -0.340192765 11.909811020 12.250000954  -999.250000  -999.250000 90.979362488  -999.250000 0.9463363290 79.513397217 1.0495250225 1.2545180321
 1281.4281006 6.0000000000 -0.345694512 11.904310226 12.250000954  -999.250000  -999.250000 89.493240356  -999.250000 0.9468659759 79.330917358 1.0839120150 1.2516109943
 1281.5804443 6.0000000000 -0.340604782 11.909399986 12.250000954  -999.250000  -999.250000 87.582962036  -999.250000 0.9480404854 79.401649475 1.0721939802 1.2466510534
 1281.7327881 6.0000000000 -0.331309229 11.918690681 12.250000954  -999.250000  -999.250000 86.484069824  -999.250000 0.9495335221 79.459022522 1.0352900028 1.2460470200
 1281.8852539 6.0000000000 -0.322308511 11.927689552 12.250000954  -999.250000  -999.250000 85.892677307  -999.250000 0.9511259198 79.387153625 1.0586609840 1.2466119528
 1282.0375977 6.0000000000 -0.323099107 11.926899910 12.250000954  -999.250000  -999.250000 86.490707397  -999.250000 0.9565693140 79.425613403 1.0691920519 1.2524750233
 1282.1900635 6.0000000000 -0.341181844 11.908820152 12.250000954  -999.250000  -999.250000 87.510093689  -999.250000 0.9685934186 79.351501465 1.0482029915 1.2655199766
