# LAS format log file from PETREL
# Project units are specified as depth units
#==================================================================
~Version information
VERS.   2.0:
WRAP.   NO:
#==================================================================
~Well
STRT .m      1317.4000244 :
STOP .m      2886.4997559 :
STEP .m     0.00000000 :
NULL .        -999.250000 :
COMP.           : COMPANY
WELL.  16/7-8 S Beta West   : WELL
FLD.            : FIELD
LOC.            : LOCATION
SRVC.           : SERVICE COMPANY
DATE.  2018-09-11 14:48:11   : Log Export Date {yyyy-MM-dd HH:mm:ss}
PROV.           : PROVINCE
UWI.   16/7-8 S   : UNIQUE WELL ID
API.            : API NUMBER
#==================================================================
~Curve
DEPT .m                   : DEPTH
Lithology_geolink ._      : Lithology_geolink
CALI .in                  : CALI
BS .in                    : BS
NPHI .m3/m3               : NPHI
RHOB .g/cm3               : RHOB
GR .gAPI                  : GR
RDEP .ohm.m               : RDEP
RMED .ohm.m               : RMED
~Parameter
#==================================================================
~Ascii
# ...
 1841.0000000  -999.250000 8.5780000687 8.5000000000 0.5309157372 2.2555000782 84.669998169 0.8600000143 0.7099999785
 1841.0999756  -999.250000 8.5780000687 8.5000000000 0.5207248330 2.2455244064 84.199996948 0.8700000048 0.7200000286
 1841.2000732  -999.250000 8.5780000687 8.5000000000 0.5241000056 2.2255001068 83.330001831 0.8700000048 0.7300000191
 1841.3000488  -999.250000 8.5780000687 8.5000000000 0.5485000014 2.2156000137 82.230003357 0.8700000048 0.7400000095
 1841.4000244  -999.250000 8.5780000687 8.5000000000 0.5866000056 2.2056000233 81.500000000 0.8799999952 0.7599999905
 1841.5001221  -999.250000 8.5780000687 8.5000000000 0.6136000156 2.2056000233 81.129997253 0.8600000143 0.7799999714
 1841.6000977  -999.250000 8.5620002747 8.5000000000 0.6164000034 2.2056000233 80.438644409 0.8600000143 0.7599999905
 1841.7000732  -999.250000 8.5469999313 8.5000000000 0.6069999933 2.2156000137 79.328475952 0.8700000048 0.7400000095
 1841.7999268  -999.250000 8.5620002747 8.5000000000 0.5838283300 2.2056121826 78.080001831 0.8999633193 0.6800732613
 1841.9000244  -999.250000 8.5780000687 8.5000000000 0.5425503850 2.1956121922 77.319999695 0.8700000048 0.6899999976
 1842.0000000  -999.250000 8.5780000687 8.5000000000 0.5011505485 2.1756243706 76.910003662 0.8399999738 0.6899999976
 1842.0999756  -999.250000 8.5780000687 8.5000000000 0.4740330875 2.1657121181 76.910003662 0.8199999928 0.6999999881
 1842.1999512  -999.250000 8.5780000687 8.5000000000 0.4611314833 2.1557242870 77.580001831 0.8000000119 0.7099999785
 1842.3000488  -999.250000 8.5780000687 8.5000000000 0.4542084336 2.1556999683 78.879997253 0.8000000119 0.6800000072
 1842.4000244  -999.250000 8.5780000687 8.5000000000 0.4496000111 2.1656999588 79.550003052 0.8199999928 0.6700000167
 1842.5000000  -999.250000 8.5780000687 8.5000000000 0.4508000016 2.1756000519 78.449996948 0.8500000238 0.6600000262
 1842.6000977  -999.250000 8.5780000687 8.5000000000 0.4625999928 2.1856000423 74.440002441 0.9700000286 0.6899999976
 1842.7000732  -999.250000 8.5780000687 8.5000000000 0.4862000048 2.2056000233 67.919998169 0.8500000238 0.8999999762
 1842.8000488  -999.250000 8.5780000687 8.5000000000 0.5230000019 2.2156000137 61.344566345 0.7300000191 1.1200000048
 1842.9001465  -999.250000 8.5780000687 8.5000000000 0.5687000155 2.2455000877 56.897514343 0.7300000191 1.1699999571
 1843.0000000  -999.250000 8.5780000687 8.5000000000 0.6032577157 2.2554879189 55.880001068 0.7200122476 1.2200000286
 1843.0999756  -999.250000 8.5780000687 8.5000000000 0.5974072218 2.2654879093 60.540000916 0.8700000048 0.9399999976
 1843.1999512  -999.250000 8.5780000687 8.5000000000 0.5729299188 2.2753877640 68.089996338 1.0199999809 0.6700000167
 1843.3000488  -999.250000 8.5780000687 8.5000000000 0.5573189855 2.2753999233 74.819999695 0.8500000238 0.6100000143
 1843.4000244  -999.250000 8.6020002365 8.5000000000 0.5539041758 2.2753999233 78.699996948 0.8299999833 0.6100000143
 1843.5000000  -999.250000 8.6250000000 8.5000000000 0.5517026782 2.2655122280 80.360000610 0.8100000024 0.6200000048
 1843.5999756  -999.250000 8.6020002365 8.5000000000 0.5461999774 2.2555000782 80.889999390 0.8100000024 0.6299999952
 1843.7000732  -999.250000 8.5780000687 8.5000000000 0.5440000296 2.2455000877 81.349998474 0.8000000119 0.6499999762
 1843.8000488  -999.250000 8.5780000687 8.5000000000 0.5469999909 2.2455000877 82.239997864 0.8700000048 0.6499999762
 1843.9000244  -999.250000 8.5780000687 8.5000000000 0.5500000119 2.2455000877 82.889999390 0.8600000143 0.6700000167
 1844.0001221  -999.250000 8.5780000687 8.5000000000 0.5363000035 2.2455000877 82.808753967 0.8500000238 0.6899999976
 1844.0999756  -999.250000 8.5780000687 8.5000000000 0.5063366294 2.2455000877 82.300003052 0.8400121927 0.7099755406
 1844.1999512  -999.250000 8.5780000687 8.5000000000 0.4692452848 2.2355122566 82.019996643 0.8299999833 0.7300000191
 1844.2999268  -999.250000 8.5780000687 8.5000000000 0.4392731786 2.2355000973 82.410003662 0.8299999833 0.7300000191
 1844.4000244  -999.250000 8.5780000687 8.5000000000 0.4234192967 2.2355000973 82.470001221 0.8299999833 0.7300000191
 1844.5000000  -999.250000 8.5780000687 8.5000000000 0.4186058640 2.2454879284 81.370002747 0.8299999833 0.7300000191
 1844.5999756  -999.250000 8.5780000687 8.5000000000 0.4233941436 2.2455000877 79.019996643 0.8299999833 0.7300000191
 1844.7000732  -999.250000 8.5780000687 8.5000000000 0.4367836714 2.2455000877 76.139999390 0.8299999833 0.7300000191
 1844.8000488  -999.250000 8.5780000687 8.5000000000 0.4560999870 2.2455000877 73.889999390 0.8100000024 0.7300000191
 1844.9000244  -999.250000 8.5780000687 8.5000000000 0.4736000001 2.2555000782 73.290000916 0.8100000024 0.7200000286
 1845.0000000  -999.250000 8.5780000687 8.5000000000 0.4812000096 2.2753999233 74.050003052 0.8100000024 0.7099999785
 1845.1000977  -999.250000 8.5780000687 8.5000000000 0.4693999887 2.3053998947 75.962333679 0.8100000024 0.6999999881
 1845.2000732  -999.250000 8.5780000687 8.5000000000 0.4433000088 2.3452999592 77.871391296 0.8199999928 0.6899999976
 1845.2999268  -999.250000 8.5780000687 8.5000000000 0.4256215990 2.4051268101 79.010002136 0.8299877644 0.7099755406
 1845.3999023  -999.250000 8.5780000687 8.5000000000 0.4283931851 2.4549784660 78.129997253 0.8500000238 0.7200000286
 1845.5000000  -999.250000 8.5780000687 8.5000000000 0.4487750828 2.4849634171 75.419998169 0.7900000215 1.0299999714
 1845.5999756  -999.250000 8.5780000687 8.5000000000 0.4764661789 2.4651243687 72.120002747 0.8600000143 1.0499999523
 1845.6999512  -999.250000 8.5469999313 8.5000000000 0.5014390349 2.4351732731 70.059997559 0.9399999976 1.0700000525
 1845.8000488  -999.250000 8.5620002747 8.5000000000 0.5222746134 2.3852610588 70.680000305 1.0900000334 0.7500000000
 1845.9000244  -999.250000 8.5780000687 8.5000000000 0.5403000116 2.3552999496 73.720001221 1.0099999905 0.7200000286
 1846.0000000  -999.250000 8.5780000687 8.5000000000 0.5710999966 2.3153998852 77.019996643 0.9200000167 0.6999999881
 1846.1000977  -999.250000 8.5780000687 8.5000000000 0.5936999917 2.2853999138 79.410003662 0.8799999952 0.6999999881
 1846.2000732  -999.250000 8.6250000000 8.5000000000 0.5873000026 2.2555000782 80.419998169 0.8799999952 0.6999999881
 1846.3000488  -999.250000 8.6250000000 8.5000000000 0.5683000088 2.2355000973 81.141059875 0.8700000048 0.7099999785
 1846.4001465  -999.250000 8.6250000000 8.5000000000 0.5515000224 2.2255001068 82.013565063 0.8600000143 0.7099999785
 1846.5000000  -999.250000 8.5780000687 8.5000000000 0.5401139259 2.2255001068 83.470001221 0.8600000143 0.6999999881
 1846.5999756  -999.250000 8.5780000687 8.5000000000 0.5267163515 2.2354879379 85.089996338 0.8600000143 0.6999999881
 1846.6999512  -999.250000 8.5780000687 8.5000000000 0.5072237849 2.2454879284 86.019996643 0.8399999738 0.6800000072
 1846.8000488  -999.250000 8.5780000687 8.5000000000 0.4940160811 2.2455000877 85.720001221 0.8299999833 0.6700000167
 1846.9000244  -999.250000 8.5780000687 8.5000000000 0.4949987829 2.2554879189 84.260002136 0.8299999833 0.6700000167
 1847.0000000  -999.250000 8.5780000687 8.5000000000 0.5079841614 2.2555000782 82.790000916 0.8199999928 0.6800000072
 1847.0999756  -999.250000 8.5780000687 8.5000000000 0.5192000270 2.2555000782 81.660003662 0.8100000024 0.6899999976
 1847.2000732  -999.250000 8.5780000687 8.5000000000 0.5088000298 2.2555000782 80.809997559 0.8100000024 0.6999999881
 1847.3000488  -999.250000 8.5780000687 8.5000000000 0.4751999974 2.2555000782 80.300003052 0.8299999833 0.6899999976
 1847.4000244  -999.250000 8.5780000687 8.5000000000 0.4424000084 2.2455000877 80.349998474 0.8199999928 0.6999999881
 1847.5001221  -999.250000 8.5780000687 8.5000000000 0.4250000119 2.2455000877 80.539146423 0.8199999928 0.6999999881
 1847.5999756  -999.250000 8.5780000687 8.5000000000 0.4222034216 2.2355122566 80.190002441 0.8199999928 0.6999999881
 1847.6999512  -999.250000 8.5780000687 8.5000000000 0.4313887656 2.2255122662 78.860000610 0.8100000024 0.6999999881
