# LAS format log file from PETREL
# Project units are specified as depth units
#==================================================================
~Version information
VERS.   2.0:
WRAP.   NO:
#==================================================================
~Well
STRT .m      1317.4000244 :
STOP .m      2886.4997559 :
STEP .m     0.00000000 :
NULL .        -999.250000 :
COMP.           : COMPANY
WELL.  16/7-8 S Beta West   : WELL
FLD.            : FIELD
LOC.            : LOCATION
SRVC.           : SERVICE COMPANY
DATE.  2018-09-11 14:48:11   : Log Export Date {yyyy-MM-dd HH:mm:ss}
PROV.           : PROVINCE
UWI.   16/7-8 S   : UNIQUE WELL ID
API.            : API NUMBER
#==================================================================
~Curve
DEPT .m                   : DEPTH
Lithology_geolink ._      : Lithology_geolink
CALI .in                  : CALI
BS .in                    : BS
NPHI .m3/m3               : NPHI
RHOB .g/cm3               : RHOB
GR .gAPI                  : GR
RDEP .ohm.m               : RDEP
RMED .ohm.m               : RMED
~Parameter
#==================================================================
~Ascii
# ...
 1943.0000000  -999.250000 8.6560001373 8.5000000000 0.6000583172 2.3053998947 91.199996948 0.9800000191 0.7900000215
 1943.0999756  -999.250000 8.6870002747 8.5000000000 0.6209490299 2.2954242229 91.290000916 0.9700000286 0.7900000215
 1943.2000732  -999.250000 8.6719999313 8.5000000000 0.6105999947 2.2953999043 91.800003052 0.9499999881 0.8000000119
 1943.3000488  -999.250000 8.6560001373 8.5000000000 0.5723999739 2.2953999043 92.099998474 0.9599999785 0.7900000215
 1943.4000244  -999.250000 8.6560001373 8.5000000000 0.5375000238 2.2953999043 91.769996643 0.9800000191 0.7799999714
 1943.5001221  -999.250000 8.6250000000 8.5000000000 0.5120000243 2.3053998947 90.750000000 0.9900000095 0.7699999809
 1943.6000977  -999.250000 8.6250000000 8.5000000000 0.4941999912 2.3252999783 89.287940979 1.0000000000 0.7699999809
 1943.6999512  -999.250000 8.6560001373 8.5000000000 0.4785191715 2.3352878094 87.599998474 1.0000000000 0.7899755836
 1943.7999268  -999.250000 8.6250000000 8.5000000000 0.4731065929 2.3352999687 85.819999695 1.0099878311 0.8199999928
 1943.9000244  -999.250000 8.6250000000 8.5000000000 0.4814897478 2.3352999687 84.139999390 0.9900000095 0.8700000048
 1944.0000000  -999.250000 8.6250000000 8.5000000000 0.4974804521 2.3253121376 83.099998474 0.9399999976 0.9800000191
 1944.0999756  -999.250000 8.6250000000 8.5000000000 0.5072880387 2.3154120445 83.330001831 0.9399999976 0.9900000095
 1944.1999512  -999.250000 8.6250000000 8.5000000000 0.5012149215 2.3153998852 84.330001831 0.9800000191 0.9399999976
 1944.3000488  -999.250000 8.6250000000 8.5000000000 0.4874168336 2.3054120541 85.300003052 1.0000000000 0.8999999762
 1944.4000244  -999.250000 8.6250000000 8.5000000000 0.4826999903 2.3053998947 85.959999084 1.0099999905 0.8899999857
 1944.5000000  -999.250000 8.6250000000 8.5000000000 0.4884000123 2.3004000187 86.779998779 1.0199999809 0.8600000143
 1944.6000977  -999.250000 8.6250000000 8.5000000000 0.4941999912 2.2953999043 88.370002747 1.0399999619 0.8299999833
 1944.7000732  -999.250000 8.6560001373 8.5000000000 0.5177999735 2.2953999043 90.470001221 1.0199999809 0.8100000024
 1944.8000488  -999.250000 8.6560001373 8.5000000000 0.5446000099 2.2953999043 92.130874634 1.0000000000 0.8199999928
 1944.8999023  -999.250000 8.6250000000 8.5000000000 0.5627555847 2.2953999043 92.849998474 0.9900243878 0.8199999928
 1945.0000000  -999.250000 8.6250000000 8.5000000000 0.5605028272 2.2953999043 93.029998779 0.9800000191 0.8199999928
 1945.0999756  -999.250000 8.6409997940 8.5000000000 0.5339325070 2.2953999043 93.120002747 0.9800000191 0.8000000119
 1945.1999512  -999.250000 8.6560001373 8.5000000000 0.5091605186 2.2953999043 93.510002136 0.9800000191 0.7799999714
 1945.3000488  -999.250000 8.6560001373 8.5000000000 0.5030074716 2.2854120731 93.919998169 0.9700000286 0.7699999809
 1945.4000244  -999.250000 8.6560001373 8.5000000000 0.5148854852 2.2853999138 93.930000305 0.9599999785 0.7699999809
 1945.5000000  -999.250000 8.6560001373 8.5000000000 0.5282999873 2.2853999138 93.400001526 0.9599999785 0.7699999809
 1945.5999756  -999.250000 8.6409997940 8.5000000000 0.5306000113 2.2853999138 92.599998474 0.9599999785 0.7699999809
 1945.7000732  -999.250000 8.6250000000 8.5000000000 0.5228999853 2.2953999043 91.790000916 0.9800000191 0.7699999809
 1945.8000488  -999.250000 8.6250000000 8.5000000000 0.5167999864 2.2953999043 91.050003052 0.9800000191 0.7900000215
 1945.9000244  -999.250000 8.5780000687 8.5000000000 0.5166000128 2.3053998947 89.938156128 1.0000000000 0.8000000119
 1946.0001221  -999.250000 8.5780000687 8.5000000000 0.5144000053 2.3153998852 88.427169800 1.0000000000 0.8199999928
 1946.0999756  -999.250000 8.5780000687 8.5000000000 0.5077081919 2.3153998852 87.269996643 0.9900122285 0.8599511981
 1946.1999512  -999.250000 8.5780000687 8.5000000000 0.4996098876 2.3153998852 87.099998474 0.9900000095 0.8899999857
 1946.2999268  -999.250000 8.5780000687 8.5000000000 0.4944126904 2.3153998852 87.919998169 0.9900000095 0.8999999762
 1946.4000244  -999.250000 8.6250000000 8.5000000000 0.4942002296 2.3153998852 89.150001526 0.9900000095 0.8999999762
 1946.5000000  -999.250000 8.5780000687 8.5000000000 0.4975958467 2.3153998852 90.220001221 0.9900000095 0.8700000048
 1946.5999756  -999.250000 8.6020002365 8.5000000000 0.5035853386 2.3054242134 91.089996338 1.0000000000 0.8700000048
 1946.7000732  -999.250000 8.6250000000 8.5000000000 0.5095000267 2.3053998947 91.940002441 1.0000000000 0.8600000143
 1946.8000488  -999.250000 8.6250000000 8.5000000000 0.5164999962 2.3053998947 92.809997559 1.0000000000 0.8299999833
 1946.9000244  -999.250000 8.6250000000 8.5000000000 0.5242000222 2.3053998947 93.589996338 0.9900000095 0.8199999928
 1947.0001221  -999.250000 8.6250000000 8.5000000000 0.5288000107 2.3104000092 94.029998779 0.9800000191 0.8100000024
 1947.1000977  -999.250000 8.6250000000 8.5000000000 0.5335000157 2.3153998852 93.899131775 1.0000000000 0.8000000119
 1947.1999512  -999.250000 8.6250000000 8.5000000000 0.5415900946 2.3153998852 93.190002441 1.0299633741 0.7900122404
 1947.2999268  -999.250000 8.6250000000 8.5000000000 0.5442967415 2.3153998852 92.059997559 1.0200121403 0.7900000215
 1947.4000244  -999.250000 8.6250000000 8.5000000000 0.5328140259 2.3054120541 91.360000610 1.0099999905 0.8000000119
 1947.5000000  -999.250000 8.6250000000 8.5000000000 0.5067318678 2.2954120636 91.510002136 1.0000000000 0.8000000119
 1947.5999756  -999.250000 8.6250000000 8.5000000000 0.4727415144 2.2953999043 91.639999390 1.0000000000 0.8000000119
 1947.6999512  -999.250000 8.6250000000 8.5000000000 0.4467634261 2.2953999043 90.040000916 1.0299999714 0.8199999928
 1947.8000488  -999.250000 8.6250000000 8.5000000000 0.4363127053 2.3053877354 85.769996643 1.0800000429 0.8399999738
 1947.9000244  -999.250000 8.6250000000 8.5000000000 0.4368999898 2.3352999687 79.819999695 1.2000000477 0.8500000238
 1948.0000000  -999.250000 8.6250000000 8.5000000000 0.4445999861 2.3852000237 73.750000000 1.1299999952 0.9800000191
 1948.1000977  -999.250000 8.6250000000 8.5000000000 0.4593000114 2.4451000690 69.519996643 1.0700000525 1.1100000143
 1948.2000732  -999.250000 8.6250000000 8.5000000000 0.4819000065 2.5050001144 68.589996338 0.9100000262 1.4400000572
 1948.3000488  -999.250000 8.5780000687 8.5000000000 0.5091999769 2.5150001049 71.397438049 0.9100000262 1.3600000143
 1948.3999023  -999.250000 8.5780000687 8.5000000000 0.5245624781 2.4850730896 77.480003357 1.0297073126 1.1704633236
 1948.5000000  -999.250000 8.5780000687 8.5000000000 0.5250993967 2.4152851105 84.440002441 1.1499999762 0.9800000191
 1948.5999756  -999.250000 8.5780000687 8.5000000000 0.5289952159 2.3553731441 89.669998169 1.0700000525 0.8600000143
 1948.6999512  -999.250000 8.5780000687 8.5000000000 0.5348927975 2.3253366947 91.620002747 1.0499999523 0.8500000238
 1948.8000488  -999.250000 8.5780000687 8.5000000000 0.5389949679 2.3154120445 91.589996338 1.0299999714 0.8299999833
 1948.9000244  -999.250000 8.5780000687 8.5000000000 0.5367028117 2.3054120541 91.300003052 1.0099999905 0.8199999928
 1949.0000000  -999.250000 8.5780000687 8.5000000000 0.5229168534 2.3053998947 91.260002136 0.9900000095 0.8199999928
 1949.0999756  -999.250000 8.5780000687 8.5000000000 0.5054000020 2.3053998947 91.569999695 1.0199999809 0.7900000215
 1949.2000732  -999.250000 8.5780000687 8.5000000000 0.4963999987 2.2953999043 92.279998779 1.0099999905 0.7799999714
 1949.3000488  -999.250000 8.5780000687 8.5000000000 0.4749999940 2.3053998947 93.279998779 1.0199999809 0.7900000215
 1949.4000244  -999.250000 8.5780000687 8.5000000000 0.4476999938 2.3053998947 94.270225525 0.9900000095 0.8100000024
 1949.5001221  -999.250000 8.5780000687 8.5000000000 0.4289999902 2.3053998947 94.457946777 0.9800000191 0.8199999928
 1949.5999756  -999.250000 8.6250000000 8.5000000000 0.4244056046 2.3053998947 93.620002747 0.9700122476 0.8299877644
 1949.6999512  -999.250000 8.6250000000 8.5000000000 0.4288945198 2.3153877258 92.040000916 0.9599999785 0.8199999928
