# LAS format log file from PETREL
# Project units are specified as depth units
#==================================================================
~Version information
VERS.   2.0:
WRAP.   NO:
#==================================================================
~Well
STRT .m      367.94241333 :
STOP .m      2651.6562500 :
STEP .m     0.00000000 :
NULL .        -999.250000 :
COMP.           : COMPANY
WELL.  16/7-1   : WELL
FLD.            : FIELD
LOC.            : LOCATION
SRVC.           : SERVICE COMPANY
DATE.  2018-09-11 14:48:09   : Log Export Date {yyyy-MM-dd HH:mm:ss}
PROV.           : PROVINCE
UWI.   16/7-1   : UNIQUE WELL ID
API.            : API NUMBER
#==================================================================
~Curve
DEPT .m                   : DEPTH
Lithology_geolink ._      : Lithology_geolink
DCAL .in                  : DCAL
CALI .in                  : CALI
BS .in                    : BS
DRHO .g/cm3               : DRHO
RHOB .g/cm3               : RHOB
GR .gAPI                  : GR
DTC .us/ft                : DTC
RDEP .ohm.m               : RDEP
SP .mV                    : SP
RSHA .ohm.m               : RSHA
RMED .ohm.m               : RMED
~Parameter
#==================================================================
~Ascii
# ...
 1574.9504395 5.0000000000 1.1107660532 9.6107664108 8.5000000000 0.0032020509 2.0942029953 57.686641693 49.529270172 0.1810377985 67.206359863 0.2738699913  -999.250000
 1575.1027832 5.0000000000 1.1292819977 9.6292819977 8.5000000000 0.0013018550 2.0882060528 56.439579010 49.476139069 0.1661614031 67.158996582 0.2724885046  -999.250000
 1575.2552490 5.0000000000 1.0925359726 9.5925359726 8.5000000000 0.0030982420 2.0831050873 53.806240082 49.352573395 0.1802691072 67.193092346 0.3310351968  -999.250000
 1575.4075928 5.0000000000 1.1272660494 9.6272659302 8.5000000000 0.0077954102 2.0864970684 51.067741394 49.555820465 0.1975751966 67.314453125 0.3266584873  -999.250000
 1575.5600586 5.0000000000 1.1966320276 9.6966323853 8.5000000000 0.0074003912 2.0884981155 48.518550873 49.855316162 0.2158754021 67.409431458 0.3083822131  -999.250000
 1575.7124023 5.0000000000 1.2873121500 9.7873115540 8.5000000000 0.0106967799 2.0941939354 46.772571564 50.154899597 0.2306495011 67.479629517 0.3022531867  -999.250000
 1575.8648682 5.0000000000 1.3385510445 9.8385505676 8.5000000000 0.0142964805 2.1088860035 46.051269531 50.581104279 0.2414804995 67.520431519 0.3580003977  -999.250000
 1576.0172119 4.0000000000 1.3405978680 9.8405981064 8.5000000000 0.0160982404 2.1192901134 46.118900299 51.141967773 0.2150705010 67.512580872 0.3183462918  -999.250000
 1576.1696777 4.0000000000 1.3746659756 9.8746662140 8.5000000000 0.0206955094 2.1497700214 46.277511597 51.703529358 0.2063280940 67.504158020 0.3258776069  -999.250000
 1576.3220215 4.0000000000 1.4659110308 9.9659109116 8.5000000000 0.0187019501 2.1676828861 43.509170532 51.872722626 0.2383763939 67.465232849 0.3448599875  -999.250000
 1576.4744873 4.0000000000 1.5625059605 10.062510490 8.5000000000 0.0126059595 2.1580100060 40.600608826 51.964435577 0.2596448958 67.400093079 0.3300909996  -999.250000
 1576.6268311 4.0000000000 1.5820809603 10.082079887 8.5000000000 0.0074050780 2.1274299622 38.923400879 51.049335480 0.2063076049 67.322341919 0.3197863102  -999.250000
 1576.7792969 4.0000000000 1.5396419764 10.039641380 8.5000000000 0.0087986328 2.1110160351 39.621280670 51.718891144 0.2015769035 67.170761108 0.3141371906  -999.250000
 1576.9316406 4.0000000000 1.4279090166 9.9279088974 8.5000000000 0.0013073240 2.0885219574 42.838520050 51.624248505 0.2058686018 67.002296448 0.3079304993  -999.250000
 1577.0839844 4.0000000000 1.2736508846 9.7736511230 8.5000000000 -0.005393457 2.0676209927 46.571521759 51.152938843 0.1949077994 66.852348328 0.3591451049  -999.250000
 1577.2364502 4.0000000000 1.0841850042 9.5841846466 8.5000000000 -0.006898535 2.0563108921 48.354629517 50.951251984 0.1626138985 66.713417053 0.3082566857  -999.250000
 1577.3887939 4.0000000000 0.8704090118 9.3704090118 8.5000000000 0.0010921870 2.0518040657 47.664440155 50.185897827 0.1494504958 66.621131897 0.3020637929  -999.250000
 1577.5412598 5.0000000000 0.8554143310 9.3554143906 8.5000000000 0.0076935552 2.0434079170 47.217399597 50.398956299 0.1486929059 66.572166443 0.3748865128  -999.250000
 1577.6936035 5.0000000000 1.1007599831 9.6007604599 8.5000000000 0.0061015622 2.0346090794 47.779621124 50.595214844 0.1565608978 66.539108276 0.4005992115  -999.250000
 1577.8460693 5.0000000000 1.1993039846 9.6993036270 8.5000000000 0.0045015621 2.0335009098 48.220539093 50.541965485 0.1651979983 66.518898010 0.2870881855  -999.250000
 1577.9984131 5.0000000000 0.9707232118 9.4707231522 8.5000000000 0.0138908196 2.0371959209 48.266620636 49.656581879 0.1468918025 66.476463318 0.2761177123  -999.250000
 1578.1508789 5.0000000000 1.3042739630 9.8042736053 8.5000000000 0.0239901394 2.0198171139 47.363750458 49.581573486 0.1285043955 66.394836426 0.3149355948  -999.250000
 1578.3032227 5.0000000000 2.1848399639 10.684839249 8.5000000000 0.0233006794 1.9838349819 45.603790283 49.557640076 0.1043831035 66.377098083 0.3337248862  -999.250000
 1578.4556885 5.0000000000 2.6637330055 11.163730621 8.5000000000 0.0175056607 1.9669159651 44.388248444 49.525001526 0.1043300033 66.411117554 0.3500353992  -999.250000
 1578.6080322 5.0000000000 2.6805839539 11.180580139 8.5000000000 0.0125048803 1.9699970484 44.361289978 49.492385864 0.0966676325 66.474166870 0.3033322990  -999.250000
 1578.7604980 5.0000000000 2.2784929276 10.778490067 8.5000000000 0.0111013697 1.9940760136 45.714038849 49.459777832 0.1001731977 66.550056458 0.2446777970  -999.250000
 1578.9128418 5.0000000000 1.5542079210 10.054209709 8.5000000000 0.0129981497 2.0221729279 46.564929962 49.427162170 0.1116018966 66.721389771 0.2635554075  -999.250000
 1579.0653076 5.0000000000 1.1321120262 9.6321115494 8.5000000000 0.0158971697 2.0644590855 45.776538849 49.394515991 0.1218276024 66.925628662 0.2756091952  -999.250000
 1579.2176514 5.0000000000 1.2075250149 9.7075252533 8.5000000000 0.0182976592 2.0837810040 44.145259857 49.361900330 0.1279615015 67.115562439 0.2975051999  -999.250000
 1579.3699951 5.0000000000 1.4252870083 9.9252872467 8.5000000000 0.0184997991 2.0965878963 43.062118530 49.329292297 0.1079799011 67.249618530 0.2997797132  -999.250000
 1579.5224609 5.0000000000 1.5479799509 10.047981262 8.5000000000 0.0137046902 2.1188778877 42.773849487 49.296672821 0.1108231023 67.359458923 0.3133150935  -999.250000
 1579.6748047 5.0000000000 1.5569921732 10.056989670 8.5000000000 0.0153000001 2.1299889088 43.249698639 49.264030457 0.1214947999 67.451042175 0.3269650936  -999.250000
 1579.8272705 5.0000000000 1.6410181522 10.141018867 8.5000000000 0.0141000003 2.1075220108 44.893161774 49.231422424 0.1413694024 67.501052856 0.3055599928  -999.250000
 1579.9796143 5.0000000000 1.8934531212 10.393449783 8.5000000000 0.0044000000 2.0598459244 46.213581085 49.198806763 0.1731981039 67.538513184 0.3054589927  -999.250000
 1580.1320801 5.0000000000 2.0427539349 10.542750359 8.5000000000 -0.006700000 2.0367228985 47.060539246 49.166187286 0.1691734046 67.570892334 0.2952178121  -999.250000
 1580.2844238 5.0000000000 1.9297099113 10.429710388 8.5000000000 -0.005400000 2.0515849590 47.527011871 49.133544922 0.1323872954 67.580307007 0.3126237988  -999.250000
 1580.4368896 5.0000000000 1.8645639420 10.364560127 8.5000000000 0.0035000001 2.0807709694 48.026279449 49.100933075 0.1156864017 67.564056396 0.3102700114  -999.250000
 1580.5892334 5.0000000000 1.9320341349 10.432028770 8.5000000000 0.0088000000 2.1123690605 47.975410461 49.068321228 0.0839475021 67.555923462 0.2931269109  -999.250000
 1580.7416992 5.0000000000 2.0470879078 10.547089577 8.5000000000 0.0110999998 2.1446690559 47.339389801 49.035709381 0.0511345603 67.569641113 0.2797794044  -999.250000
 1580.8940430 5.0000000000 2.2556960583 10.755700111 8.5000000000 0.0179999992 2.1798660755 47.282520294 49.003093719 0.0971447974 67.648773193 0.2882573009  -999.250000
 1581.0465088 5.0000000000 2.4277319908 10.927730560 8.5000000000 0.0176999997 2.1887919903 48.240921021 48.970447540 0.1560357064 67.684066772 0.2771083117  -999.250000
 1581.1988525 5.0000000000 2.3840429783 10.884040833 8.5000000000 0.0111999996 2.1443428993 47.711780548 48.937835693 0.1638662070 67.702636719 0.2903693914  -999.250000
 1581.3511963 5.0000000000 2.3293530941 10.829350471 8.5000000000 0.0029000000 2.0983450413 46.765888214 48.905220032 0.1638000011 67.701606750 0.3036631942  -999.250000
 1581.5036621 5.0000000000 2.3150138855 10.815010071 8.5000000000 -0.000700000 2.0825150013 45.878330231 48.872608185 0.1618527025 67.719276428 0.3131166101  -999.250000
 1581.6560059 5.0000000000 2.2081050873 10.708108902 8.5000000000 -0.001600000 2.0804018974 45.466060638 48.839962006 0.1578415036 67.753517151 0.2952050865  -999.250000
 1581.8084717 5.0000000000 2.2427649498 10.742770195 8.5000000000 -0.001100000 2.0795009136 45.308921814 49.110015869 0.1616788954 67.741172791 0.3008469939  -999.250000
 1581.9608154 5.0000000000 2.3267180920 10.826720238 8.5000000000 -0.002900000 2.0812981129 46.084510803 49.252601624 0.1657053977 67.718048096 0.2933874130  -999.250000
 1582.1132813 5.0000000000 2.3102159500 10.810219765 8.5000000000 -0.004900000 2.0835978985 47.566520691 49.319595337 0.1560709029 67.675216675 0.2878482938  -999.250000
