# LAS format log file from PETREL
# Project units are specified as depth units
#==================================================================
~Version information
VERS.   2.0:
WRAP.   NO:
#==================================================================
~Well
STRT .m      367.94241333 :
STOP .m      2651.6562500 :
STEP .m     0.00000000 :
NULL .        -999.250000 :
COMP.           : COMPANY
WELL.  16/7-1   : WELL
FLD.            : FIELD
LOC.            : LOCATION
SRVC.           : SERVICE COMPANY
DATE.  2018-09-11 14:48:09   : Log Export Date {yyyy-MM-dd HH:mm:ss}
PROV.           : PROVINCE
UWI.   16/7-1   : UNIQUE WELL ID
API.            : API NUMBER
#==================================================================
~Curve
DEPT .m                   : DEPTH
Lithology_geolink ._      : Lithology_geolink
DCAL .in                  : DCAL
CALI .in                  : CALI
BS .in                    : BS
DRHO .g/cm3               : DRHO
RHOB .g/cm3               : RHOB
GR .gAPI                  : GR
DTC .us/ft                : DTC
RDEP .ohm.m               : RDEP
SP .mV                    : SP
RSHA .ohm.m               : RSHA
RMED .ohm.m               : RMED
~Parameter
#==================================================================
~Ascii
# ...
 1428.6464844 5.0000000000 1.2904570103 13.540459633 12.250000954  -999.250000  -999.250000 57.731781006  -999.250000 0.6392037868 80.156463623 0.7961274981 0.7917708755
 1428.7988281 5.0000000000 1.9439610243 14.193960190 12.250000954 0.0060000001 1.9529080391 59.895980835  -999.250000 0.6436349154 80.256072998 0.8745113015 0.7976766825
 1428.9512939 5.0000000000 1.7880531549 14.038049698 12.250000954 0.0062000002 1.9420109987 62.470180511  -999.250000 0.6470777988 80.337516785 0.6480460763 0.8029267788
 1429.1036377 5.0000000000 1.1105619669 13.360560417 12.250000954 0.0059000002 1.9271140099 64.163940430  -999.250000 0.6501888037 80.354209900 0.8779656887 0.8010010719
 1429.2561035 5.0000000000 1.1252850294 13.375290871 12.250000954 0.0073000002 1.9120149612 65.322563171  -999.250000 0.6566287875 80.315483093 0.8885490894 0.7924302816
 1429.4084473 5.0000000000 1.3273030519 13.577300072 12.250000954 0.0031999999 1.9020099640 66.483459473  -999.250000 0.6650732160 80.259300232 0.9029796124 0.7897962928
 1429.5607910 5.0000000000 1.6172168255 13.867219925 12.250000954 -0.000900000 1.8946069479 66.319152832  -999.250000 0.6724045873 80.199028015 0.7002025843 0.7964233756
 1429.7132568 5.0000000000 1.9372869730 14.187290192 12.250000954 -0.004600000 1.8890060186 64.163101196  -999.250000 0.6764454246 80.134132385 0.7894734144 0.8074625134
 1429.8656006 5.0000000000 2.2279160023 14.477920532 12.250000954 -0.007600000 1.8938950300 61.980220795  -999.250000 0.6771141291 80.066596985 0.9013438821 0.8107566237
 1430.0180664 5.0000000000 2.5429923534 14.792989731 12.250000954 -0.009200000 1.9101840258 60.606140137  -999.250000 0.6730607748 79.994720459 0.7873414755 0.8109474778
 1430.1704102 5.0000000000 2.3151240349 14.565119743 12.250000954 -0.006000000 1.9247859716 61.413108826  -999.250000 0.6672729254 79.908638000 0.7673802972 0.8080356121
 1430.3228760 5.0000000000 1.8677370548 14.117738724 12.250000954 -0.001500000 1.9205039740 61.517589569  -999.250000 0.6584020853 79.819396973 0.9619743228 0.8011398911
 1430.4752197 5.0000000000 2.0056650639 14.255660057 12.250000954 0.0027000001 1.9101099968 62.195728302  -999.250000 0.6463075876 79.729637146 0.7713574171 0.7961665988
 1430.6276855 5.0000000000 1.9380660057 14.188070297 12.250000954 0.0055999998 1.9002101421 62.945358276  -999.250000 0.6359009743 79.653556824 0.6677036881 0.7953289151
 1430.7800293 5.0000000000 1.9474911690 14.197489738 12.250000954 0.0038999999 1.8899099827 62.889350891  -999.250000 0.6308454275 79.683273315 0.7902768850 0.7953209877
 1430.9324951 5.0000000000 1.9327141047 14.182709694 12.250000954 -0.001000000 1.8882019520 63.196388245  -999.250000 0.6285269856 79.783256531 0.5809990764 0.7950835824
 1431.0848389 5.0000000000 1.5557680130 13.805769920 12.250000954 -0.005800000 1.8934949636 64.592628479  -999.250000 0.6271023154 79.892227173 0.5811073184 0.7927439213
 1431.2373047 5.0000000000 1.8651969433 14.115200043 12.250000954 -0.008100000 1.9015920162 65.795516968  -999.250000 0.6267675161 79.972427368 0.6407502294 0.7888603806
 1431.3896484 5.0000000000 2.5649173260 14.814919472 12.250000954 -0.004900000 1.9123899937 66.359252930  -999.250000 0.6264346242 79.998229980 0.8294178843 0.7907367945
 1431.5419922 5.0000000000 2.8454272747 15.095430374 12.250000954 -0.001800000 1.9375749826 66.603446960  -999.250000 0.6260877252 80.000999451 0.9473013282 0.7956519127
 1431.6944580 5.0000000000 2.6312086582 14.881211281 12.250000954 -0.003000000 1.9477900267 66.776016235  -999.250000 0.6268813014 80.000999451 0.6941378713 0.7991281748
 1431.8468018 5.0000000000 2.3751499653 14.625147820 12.250000954 -0.007200000 1.9433039427 66.892578125  -999.250000 0.6293364763 80.000999451 0.8164417148 0.8014773726
 1431.9992676 5.0000000000 2.4198560715 14.669859886 12.250000954 -0.011000000 1.9278149605 66.569206238  -999.250000 0.6327579021 80.000999451 0.6432101130 0.7998616099
 1432.1516113 4.0000000000 2.4817399979 14.731739998 12.250000954 -0.007800000 1.9097180367 65.282150269  -999.250000 0.6392557025 80.000999451 0.7064142823 0.7962455750
 1432.3040771 4.0000000000 2.2875900269 14.537590027 12.250000954 -0.016000001 1.8913179636 63.352180481  -999.250000 0.6473537087 80.000999451 0.9816558957 0.7952417731
 1432.4564209 4.0000000000 2.0810019970 14.331000328 12.250000954 -0.024599999 1.8756150007 60.772811890  -999.250000 0.6544197798 80.000228882 0.8734704256 0.7952358723
 1432.6088867 4.0000000000 1.8898869753 14.139890671 12.250000954 -0.032699998 1.8687069416 59.426700592  -999.250000 0.6599128842 79.990753174 0.8347851038 0.7954968214
 1432.7612305 4.0000000000 1.5892930031 13.839289665 12.250000954 -0.037400000 1.8668019772 60.209228516  -999.250000 0.6591143012 79.962562561 0.7846567035 0.7965424061
 1432.9136963 4.0000000000 1.3422410488 13.592239380 12.250000954 -0.028800000 1.8698970079 63.374500275  -999.250000 0.6514722705 79.925743103 0.7490968704 0.7958483100
 1433.0660400 4.0000000000 1.4725718498 13.722570419 12.250000954 -0.019099999 1.8794909716 66.171356201  -999.250000 0.6461747885 79.887710571 0.9539443851 0.7893595099
 1433.2185059 4.0000000000 2.2649259567 14.514931679 12.250000954 -0.010100000 1.8928869963 66.969116211  -999.250000 0.6436626911 79.849739075 1.0350199938 0.7842795849
 1433.3708496 5.0000000000 3.1968901157 15.446889877 12.250000954 -0.007000000 1.9016909599 66.821037292  -999.250000 0.6412039995 79.813262939 0.9245272279 0.7870113850
 1433.5233154 5.0000000000 3.6949138641 15.944909096 12.250000954 -0.012400000 1.8982030153 66.156539917  -999.250000 0.6397486925 79.780357361 0.6765112281 0.7906866074
 1433.6756592 5.0000000000 3.6969976425 15.947000504 12.250000954 -0.000900000 1.8900079727 65.095932007  -999.250000 0.6383234859 79.749107361 0.5850716829 0.7945352197
 1433.8280029 5.0000000000 2.6046679020 14.854668617 12.250000954 0.0019000000 1.8778120279 63.448898315  -999.250000 0.6315410733 79.718887329 0.5817363262 0.7908235192
 1433.9804688 5.0000000000 1.6280541420 13.878049850 12.250000954 0.0005000000 1.8702069521 62.868461609  -999.250000 0.6227269769 79.688110352 0.6535511017 0.7811005116
 1434.1328125 5.0000000000 1.1733440161 13.423338890 12.250000954 0.0027999999 1.8764940500 63.831348419  -999.250000 0.6154382229 79.658653259 0.7148854733 0.7758312821
 1434.2852783 5.0000000000 0.5881710052 12.838170052 12.250000954 0.0049999999 1.8760999441 65.506950378  -999.250000 0.6104164720 79.655090332 0.6493809819 0.7718899846
 1434.4376221 5.0000000000 0.5150709152 12.765069962 12.250000954 0.0104999999 1.8804960251 66.540687561  -999.250000 0.6125540733 79.761596680 0.7968822122 0.7625393271
 1434.5900879 5.0000000000 1.3415920734 13.591589928 12.250000954 0.0155999996 1.9060750008 66.037292480  -999.250000 0.6205369830 79.907859802 0.8613598943 0.7468590140
 1434.7424316 5.0000000000 2.6593120098 14.909310341 12.250000954 0.0132999998 1.9320750237 64.703903198  -999.250000 0.6280767918 80.056831360 0.5216255188 0.7532985806
 1434.8948975 5.0000000000 3.1203510761 15.370349884 12.250000954 0.0114000002 1.9436889887 64.004676819  -999.250000 0.6347144246 80.205726624 0.5653622150 0.7670670748
 1435.0472412 5.0000000000 2.6706404686 14.920639038 12.250000954 0.0126000000 1.9436999559 63.658931732  -999.250000 0.6369888783 80.338638306 0.4681681097 0.7758485079
 1435.1997070 5.0000000000 1.9051480293 14.155150414 12.250000954 0.0148000000 1.9469970465 63.039299011  -999.250000 0.6314517260 80.366416931 0.4733788073 0.7731730938
 1435.3520508 5.0000000000 1.7073930502 13.957389832 12.250000954 0.0149999997 1.9582890272 62.863269806  -999.250000 0.6249933243 80.316673279 0.5660998225 0.7684487104
 1435.5045166 5.0000000000 1.9693430662 14.219340324 12.250000954 0.0135000004 1.9681899548 63.048610687  -999.250000 0.6256350875 80.241172791 0.6848970056 0.7652788758
 1435.6568604 5.0000000000 1.9554150105 14.205410004 12.250000954 0.0107000005 1.9721958637 63.481769562  -999.250000 0.6282206774 80.162117004 0.7008249760 0.7651106119
 1435.8092041 5.0000000000 1.5122328997 13.762229919 12.250000954 0.0052000000 1.9686030149 62.673889160  -999.250000 0.6318219900 80.083168030 0.8467953801 0.7670571208
