# LAS format log file from PETREL
# Project units are specified as depth units
#==================================================================
~Version information
VERS.   2.0:
WRAP.   NO:
#==================================================================
~Well
STRT .m      1317.4000244 :
STOP .m      2886.4997559 :
STEP .m     0.00000000 :
NULL .        -999.250000 :
COMP.           : COMPANY
WELL.  16/7-8 S Beta West   : WELL
FLD.            : FIELD
LOC.            : LOCATION
SRVC.           : SERVICE COMPANY
DATE.  2018-09-11 14:48:11   : Log Export Date {yyyy-MM-dd HH:mm:ss}
PROV.           : PROVINCE
UWI.   16/7-8 S   : UNIQUE WELL ID
API.            : API NUMBER
#==================================================================
~Curve
DEPT .m                   : DEPTH
Lithology_geolink ._      : Lithology_geolink
CALI .in                  : CALI
BS .in                    : BS
NPHI .m3/m3               : NPHI
RHOB .g/cm3               : RHOB
GR .gAPI                  : GR
RDEP .ohm.m               : RDEP
RMED .ohm.m               : RMED
~Parameter
#==================================================================
~Ascii
# ...
 1528.1999512  -999.250000 8.5780000687 8.5000000000 0.4866043925 2.1855757236 76.650001526 0.9900000095 0.8600000143
 1528.3000488  -999.250000 8.5780000687 8.5000000000 0.4806073308 2.1856000423 76.730003357 0.9900000095 0.8600000143
 1528.4000244  -999.250000 8.5780000687 8.5000000000 0.4774999917 2.1956000328 76.919998169 1.0000000000 0.8500000238
 1528.5000000  -999.250000 8.5780000687 8.5000000000 0.4817000031 2.1956000328 77.330001831 1.0000000000 0.8600000143
 1528.6000977  -999.250000 8.5780000687 8.5000000000 0.4927000105 2.1956000328 77.589996338 1.0000000000 0.8600000143
 1528.7000732  -999.250000 8.6250000000 8.5000000000 0.5044999719 2.1856000423 77.389411926 1.0000000000 0.8600000143
 1528.8000488  -999.250000 8.5780000687 8.5000000000 0.5127999783 2.1856000423 76.909515381 0.9900000095 0.8700000048
 1528.8999023  -999.250000 8.5780000687 8.5000000000 0.5215785503 2.1756243706 76.510002136 0.9999756217 0.8799999952
 1529.0000000  -999.250000 8.5780000687 8.5000000000 0.5366815925 2.1756000519 76.440002441 1.0099999905 0.8799999952
 1529.0999756  -999.250000 8.5780000687 8.5000000000 0.5534794927 2.1756000519 76.489997864 1.0199999809 0.8799999952
 1529.1999512  -999.250000 8.5780000687 8.5000000000 0.5587870479 2.1756000519 76.410003662 0.9900000095 0.8500000238
 1529.3000488  -999.250000 8.5780000687 8.5000000000 0.5376258492 2.1657121181 76.309997559 1.0000000000 0.8600000143
 1529.4000244  -999.250000 8.5780000687 8.5000000000 0.5064380765 2.1656999588 76.190002441 0.9900000095 0.8700000048
 1529.5000000  -999.250000 8.6020002365 8.5000000000 0.4862999916 2.1756000519 76.180000305 0.9900000095 0.8700000048
 1529.6000977  -999.250000 8.6250000000 8.5000000000 0.4857999980 2.1756000519 76.410003662 0.9900000095 0.8700000048
 1529.7000732  -999.250000 8.5780000687 8.5000000000 0.4990999997 2.1756000519 77.139999390 1.0000000000 0.8700000048
 1529.8000488  -999.250000 8.5780000687 8.5000000000 0.5188000202 2.1756000519 78.220001221 1.0000000000 0.8700000048
 1529.9000244  -999.250000 8.5780000687 8.5000000000 0.5304999948 2.1756000519 78.990287781 1.0000000000 0.8700000048
 1530.0001221  -999.250000 8.5780000687 8.5000000000 0.5253000259 2.1756000519 79.229858398 1.0000000000 0.8700000048
 1530.0999756  -999.250000 8.5780000687 8.5000000000 0.5135143995 2.1756000519 79.110000610 1.0000000000 0.8700000048
 1530.1999512  -999.250000 8.5780000687 8.5000000000 0.5070079565 2.1756000519 78.739997864 1.0000000000 0.8799999952
 1530.2999268  -999.250000 8.5780000687 8.5000000000 0.5064014792 2.1756000519 78.190002441 1.0099999905 0.8799999952
 1530.4000244  -999.250000 8.5780000687 8.5000000000 0.5096959472 2.1756000519 77.459999084 1.0099999905 0.8799999952
 1530.5000000  -999.250000 8.5780000687 8.5000000000 0.5128960609 2.1756000519 76.790000916 0.9900000095 0.8799999952
 1530.5999756  -999.250000 8.5780000687 8.5000000000 0.5142965913 2.1756000519 76.430000305 1.0000000000 0.8600000143
 1530.7000732  -999.250000 8.5780000687 8.5000000000 0.5145000219 2.1756000519 76.559997559 1.0000000000 0.8399999738
 1530.8000488  -999.250000 8.5780000687 8.5000000000 0.5144000053 2.1856000423 76.900001526 1.0000000000 0.8399999738
 1530.9000244  -999.250000 8.5780000687 8.5000000000 0.5092999935 2.1856000423 77.059997559 1.0199999809 0.8399999738
 1531.0001221  -999.250000 8.5780000687 8.5000000000 0.4997999966 2.1856000423 77.260002136 1.0199999809 0.8500000238
 1531.1000977  -999.250000 8.5780000687 8.5000000000 0.4914000034 2.1856000423 80.639999390 1.0299999714 0.8600000143
 1531.2000732  -999.250000 8.5780000687 8.5000000000 0.4907999933 2.1856000423 80.639656067 1.0199999809 0.8899999857
 1531.2999268  -999.250000 8.5780000687 8.5000000000 0.4960935414 2.1756122112 80.360000610 1.0099999905 0.9100000262
 1531.4000244  -999.250000 8.5780000687 8.5000000000 0.4997954965 2.1756000519 79.680000305 1.0299999714 0.9100000262
 1531.5000000  -999.250000 8.5780000687 8.5000000000 0.4980022013 2.1657121181 78.970001221 1.0299999714 0.9100000262
 1531.5999756  -999.250000 8.5780000687 8.5000000000 0.4937052429 2.1656999588 78.339996338 1.0299999714 0.9100000262
 1531.6999512  -999.250000 8.5780000687 8.5000000000 0.4888119400 2.1755759716 77.650001526 1.0399999619 0.9100000262
 1531.8000488  -999.250000 8.5780000687 8.5000000000 0.4827074409 2.1955757141 76.910003662 1.0399999619 0.8999999762
 1531.9000244  -999.250000 8.5780000687 8.5000000000 0.4731000066 2.2056000233 76.239997864 1.0399999619 0.8999999762
 1532.0000000  -999.250000 8.5780000687 8.5000000000 0.4663999975 2.2255001068 76.069999695 1.0499999523 0.8999999762
 1532.1000977  -999.250000 8.5780000687 8.5000000000 0.4670999944 2.2255001068 76.599998474 1.0499999523 0.9200000167
 1532.2000732  -999.250000 8.5780000687 8.5000000000 0.4758999944 2.2255001068 77.080001831 1.0499999523 0.9399999976
 1532.3000488  -999.250000 8.5780000687 8.5000000000 0.4837000072 2.2255001068 76.909027100 1.0199999809 0.9499999881
 1532.3999023  -999.250000 8.5780000687 8.5000000000 0.4787122011 2.2156240940 76.110000610 1.0000487566 0.9599999785
 1532.5000000  -999.250000 8.5780000687 8.5000000000 0.4622201324 2.2056121826 75.410003662 1.0299999714 0.8899999857
 1532.5999756  -999.250000 8.5780000687 8.5000000000 0.4474180639 2.2056000233 75.089996338 1.0099999905 0.8899999857
 1532.6999512  -999.250000 8.5780000687 8.5000000000 0.4429109693 2.2056000233 74.709999084 1.0099999905 0.8799999952
 1532.8000488  -999.250000 8.5780000687 8.5000000000 0.4490924180 2.2056000233 73.610000610 1.0099999905 0.8799999952
 1532.9000244  -999.250000 8.5780000687 8.5000000000 0.4573898613 2.2056000233 71.819999695 1.0099999905 0.8700000048
 1533.0000000  -999.250000 8.5780000687 8.5000000000 0.4627000093 2.2056000233 70.690002441 0.9900000095 0.8799999952
 1533.0999756  -999.250000 8.5780000687 8.5000000000 0.4666999876 2.2056000233 71.059997559 0.9800000191 0.8799999952
 1533.2000732  -999.250000 8.5780000687 8.5000000000 0.4724000096 2.2056000233 72.330001831 0.9700000286 0.8700000048
 1533.3000488  -999.250000 8.5780000687 8.5000000000 0.4781999886 2.2056000233 73.650001526 0.9800000191 0.8500000238
 1533.4000244  -999.250000 8.5780000687 8.5000000000 0.4844999909 2.2056000233 74.961563110 0.9900000095 0.8299999833
 1533.5001221  -999.250000 8.5780000687 8.5000000000 0.4891999960 2.1956000328 76.242073059 0.9800000191 0.8299999833
 1533.5999756  -999.250000 8.5780000687 8.5000000000 0.4872024357 2.1856122017 77.089996338 0.9800000191 0.8299999833
 1533.6999512  -999.250000 8.5780000687 8.5000000000 0.4757140279 2.1856000423 77.089996338 0.9700000286 0.8399999738
 1533.7999268  -999.250000 8.6020002365 8.5000000000 0.4615346193 2.1856000423 76.220001221 0.9700000286 0.8399999738
 1533.9000244  -999.250000 8.6250000000 8.5000000000 0.4547083080 2.1856000423 74.959999084 0.9800000191 0.8399999738
 1534.0000000  -999.250000 8.5780000687 8.5000000000 0.4568973184 2.1955878735 73.669998169 0.9599999785 0.8600000143
 1534.0999756  -999.250000 8.6020002365 8.5000000000 0.4657782912 2.1956000328 72.949996948 0.9499999881 0.8700000048
 1534.2000732  -999.250000 8.6250000000 8.5000000000 0.4742000103 2.1856000423 73.010002136 0.9800000191 0.8399999738
 1534.3000488  -999.250000 8.6250000000 8.5000000000 0.4794999957 2.1856000423 73.489997864 0.9900000095 0.8399999738
 1534.4000244  -999.250000 8.6250000000 8.5000000000 0.4833999872 2.1956000328 73.989997864 0.9900000095 0.8399999738
 1534.5001221  -999.250000 8.6250000000 8.5000000000 0.4869000018 2.1856000423 73.879997253 0.9800000191 0.8500000238
 1534.6000977  -999.250000 8.6020002365 8.5000000000 0.4936000109 2.1856000423 73.500144958 0.9800000191 0.8700000048
 1534.7000732  -999.250000 8.5780000687 8.5000000000 0.5012999773 2.1756000519 73.621223450 0.9599999785 0.8999999762
 1534.7999268  -999.250000 8.5780000687 8.5000000000 0.5015996695 2.1756000519 74.620002747 0.9700000286 0.8799999952
 1534.9000244  -999.250000 8.6020002365 8.5000000000 0.4904136360 2.1756000519 76.050003052 0.9800000191 0.8600000143
