# LAS format log file from PETREL
# Project units are specified as depth units
#==================================================================
~Version information
VERS.   2.0:
WRAP.   NO:
#==================================================================
~Well
STRT .m      1110.8436279 :
STOP .m      2733.1416016 :
STEP .m     0.00000000 :
NULL .        -999.250000 :
COMP.           : COMPANY
WELL.  16/7-6   : WELL
FLD.            : FIELD
LOC.            : LOCATION
SRVC.           : SERVICE COMPANY
DATE.  2018-09-11 14:48:11   : Log Export Date {yyyy-MM-dd HH:mm:ss}
PROV.           : PROVINCE
UWI.   16/7-6   : UNIQUE WELL ID
API.            : API NUMBER
#==================================================================
~Curve
DEPT .m                   : DEPTH
Lithology_geolink ._      : Lithology_geolink
DCAL .in                  : DCAL
CALI .in                  : CALI
BS .in                    : BS
ROP .m/h                  : ROP
DRHO .g/cm3               : DRHO
THOR .ppm                 : THOR
SGR .gAPI                 : SGR
NPHI .m3/m3               : NPHI
RHOB .g/cm3               : RHOB
PEF .b/e                  : PEF
GR .gAPI                  : GR
URAN .ppm                 : URAN
DTC .us/ft                : DTC
DTS .us/ft                : DTS
RDEP .ohm.m               : RDEP
SP .mV                    : SP
RSHA .ohm.m               : RSHA
RMIC .ohm.m               : RMIC
RMED .ohm.m               : RMED
~Parameter
#==================================================================
~Ascii
# ...
 2176.1196289 6.0000000000 0.0473976098 12.297400475 12.250000954 323961.37500 -0.067629866 11.131649971  -999.250000 0.3420063853 2.3199119568 3.8779649734 75.430877686 0.3993161023 130.89509583 309.41088867 0.5259928703 -91.63947296 0.7322862744 1.2199640274 0.5333917737
 2176.2719727 6.0000000000 0.0604810752 12.310480118 12.250000954 351816.71875 -0.066227697 11.863069534  -999.250000 0.3393135965 2.3152070045 3.9183290005 74.711402893 0.2838633060 128.80979919 312.85858154 0.5325990915 -91.09483337 0.7387968898 1.3419170380 0.5398998857
 2176.4243164 6.0000000000 0.0962619781 12.346260071 12.250000954 294552.87500 -0.068913497 12.544810295  -999.250000 0.3519197106 2.3073079586 3.6517660618 73.985000610 0.0242343508 129.49879456 307.69470215 0.5370038748 -91.06253052 0.7420045733 1.5140240192 0.5446035266
 2176.5769043 6.0000000000 0.1808414012 12.430839539 12.250000954 273272.46875 -0.074052498 12.273539543  -999.250000 0.3418647945 2.3128960133 3.5349349976 74.671981812 0.0202111099 130.01750183 301.86309814 0.5414059162 -91.06250000 0.7461091876 1.7438549995 0.5490052104
 2176.7292480 6.0000000000 0.5369166732 12.786919594 12.250000954 289091.71875 -0.075583063 11.620189667  -999.250000 0.3639835119 2.3135991096 3.6446919441 75.835639954 -0.148221895 129.90040588 303.82849121 0.5459989905 -90.76809692 0.7522987723 2.0504019260 0.5531982780
 2176.8815918 6.0000000000 0.0780134201 12.328009605 12.250000954 276887.12500 -0.078262687 10.611590385  -999.250000 0.3602576852 2.3141989708 3.7104470730 74.816528320 0.1242069900 128.81660461 309.76760864 0.5499975085 -90.45498657 0.7577909827 2.4700610638 0.5564969778
 2177.0339355 6.0000000000 0.0440387689 12.294039726 12.250000954 229472.50000 -0.077142060 9.9092855453  -999.250000 0.3654066920 2.3107039928 3.7885069847 71.872291565 0.4483548999 128.42909241 314.59170532 0.5518947244 -90.14240265 0.7575842142 3.0667610168 0.5575947762
 2177.1865234 6.0000000000 0.0280132312 12.278008461 12.250000954 189544.48438 -0.072584018 10.032830238  -999.250000 0.3509353101 2.2992091179 3.8772408962 69.889846802 0.5232790112 129.00190735 325.29098511 0.5502920151 -89.35740662 0.7493786216 2.6235439777 0.5555918217
 2177.3388672 6.0000000000 0.0419940911 12.291990280 12.250000954 150244.26563 -0.067919880 9.6397304535  -999.250000 0.3796004057 2.2856059074 4.0481619835 70.577392578 0.6092818975 130.98199463 329.09298706 0.5455911756 -89.90319824 0.7351753712 1.2546590567 0.5505902171
 2177.4912109 6.0000000000 0.0744457170 12.324450493 12.250000954 151920.23438 -0.064104088 9.4717035294  -999.250000 0.3755429089 2.2772140503 4.1247649193 72.231880188 0.7131379843 131.64300537 329.38571167 0.5401027203 -89.93744659 0.7196061015 1.1592539549 0.5445020795
 2177.6435547 6.0000000000 0.1027631983 12.352760315 12.250000954 187481.21875 -0.060558818 8.8661909103  -999.250000 0.3763881028 2.2728059292 3.7921860218 72.977256775 0.7959743142 131.12820435 322.93350220 0.5368065238 -90.58669281 0.7096133232 2.2531828880 0.5404058099
 2177.7961426 6.0000000000 0.1017007977 12.351700783 12.250000954 180462.29688 -0.064262182 9.1907520294  -999.250000 0.3691540062 2.2779951096 3.5593450069 73.038764954 0.6211931109 133.27000427 314.04058838 0.5379117727 -90.97920227 0.7098203897 2.4618349075 0.5406097174
 2177.9484863 6.0000000000 0.1145925969 12.364589691 12.250000954 143865.10938 -0.067758992 7.6480998993  -999.250000 0.3853394091 2.2812979221 3.3705298901 72.505889893 0.8889561892 131.66580200 300.72198486 0.5445150137 -90.94093323 0.7204263210 2.2407939434 0.5457121730
 2178.1008301 16.000000000 0.0348443985 12.284838676 12.250000954 171654.45313 -0.066975452 6.9563260078  -999.250000 0.3681864142 2.2846939564 3.4363598824 70.532661438 1.2326619625 130.29760742 296.59091187 0.5541980863 -90.52388763 0.7371972799 2.8794538975 0.5534985065
 2178.2531738 16.000000000 0.0251131095 12.275111198 12.250000954 246524.76563 -0.063099340 7.0948457718  -999.250000 0.2933405042 2.2846000195 3.2318561077 67.307518005 1.1804809570 129.41400146 306.18292236 0.5622934103 -90.73607635 0.7515891790 2.2764389515 0.5599930286
 2178.4057617 16.000000000 0.0245008506 12.274499893 12.250000954 233122.32813 -0.061869681 8.3804893494  -999.250000 0.3856315017 2.2844998837 3.4021410942 66.083702087 1.3080079556 127.92680359 313.36151123 0.5648880005 -91.10417938 0.7566816211 1.6360410452 0.5611888170
 2178.5581055 6.0000000000 0.0230007209 12.272999763 12.250000954 160847.12500 -0.056032080 8.4650154114  -999.250000 0.4344780147 2.2788040638 3.5069339275 68.648109436 1.2805889845 128.79809570 315.18121338 0.5601844788 -91.36121368 0.7500733733 1.2998059988 0.5560849905
 2178.7104492 6.0000000000 0.0328807794 12.282878876 12.250000954 132460.87500 -0.051387850 8.6477384567  -999.250000 0.4468731880 2.2813949585 3.8047389984 73.188720703 0.9365677238 130.21650696 335.09390259 0.5506960750 -91.72944641 0.7342907190 1.4148570299 0.5466955900
 2178.8627930 6.0000000000 0.0550661124 12.305069923 12.250000954 118821.72656 -0.051389862 8.1740369797  -999.250000 0.3365836143 2.2914841175 3.7628040314 75.231277466 1.1207740307 132.78230286 342.27249146 0.5395960212 -91.45493317 0.7143911719 1.0684260130 0.5353962779
 2179.0151367 6.0000000000 0.0567979775 12.306799889 12.250000954 145163.04688 -0.060052309 7.9646925926  -999.250000 0.3963645101 2.2866060734 3.5131070614 73.210372925 0.9269518852 133.74110413 349.25588989 0.5288934708 -91.08336639 0.6944879889 0.6983888149 0.5246942043
 2179.1677246 6.0000000000 0.0460081138 12.296010017 12.250000954 293017.90625 -0.064672247 9.1659555435  -999.250000 0.4430907071 2.2457330227 3.4114038944 69.665023804 0.6007031202 136.58720398 349.63369751 0.5191774964 -90.76728821 0.6766732931 0.9025831819 0.5153813958
 2179.3200684 6.0000000000 0.0671558380 12.317160606 12.250000954 430574.15625 -0.059292018 10.052530289  -999.250000 0.4622938931 2.1959021091 3.4814920425 67.853004456 0.6631268263 137.79400635 355.33029175 0.5106932521 -90.33654022 0.6652081013 1.2274700403 0.5080948472
 2179.4724121 6.0000000000 0.1705256104 12.420531273 12.250000954 336738.78125 -0.055893801 10.603910446  -999.250000 0.4509403110 2.1854169369 3.8689160347 69.388977051 0.6905078888 138.90719604 355.39718628 0.5040013790 -90.43054962 0.6609019041 1.1300829649 0.5025007725
 2179.6247559 6.0000000000 0.2603816986 12.510379791 12.250000954 239482.34375 -0.056655429 10.608460426  -999.250000 0.4043968916 2.2259469032 4.0205230713 72.447486877 0.4833071828 137.34750366 347.92819214 0.4990034103 -90.61454773 0.6582065225 1.2982269526 0.4981021881
 2179.7773438 6.0000000000 0.5998793244 12.849880219 12.250000954 328896.50000 -0.060089018 10.206890106  -999.250000 0.3941577077 2.2728559971 3.6661229134 74.397254944 0.5165882707 136.31120300 337.49328613 0.4974004328 -90.50691986 0.6597099304 1.5471529961 0.4963002503
 2179.9296875 6.0000000000 0.1729449928 12.422949791 12.250000954 409312.09375 -0.060451038 9.9560813904  -999.250000 0.3731018007 2.2934880257 3.4421091080 74.280227661 0.7901391983 134.00459290 333.57525635 0.4970998466 -90.14584351 0.6629052162 1.8000810146 0.4958995879
 2180.0820313 6.0000000000 0.1082163006 12.358220100 12.250000954 329164.96875 -0.061523542 8.8665237427  -999.250000 0.3752501905 2.2932000160 3.3168439865 72.751396179 0.9720997810 131.56210327 336.78491211 0.4970069528 -90.30021667 0.6649140716 1.9886509180 0.4957084656
 2180.2343750 6.0000000000 0.0425939597 12.292590141 12.250000954 226405.98438 -0.060295489 8.6478605270  -999.250000 0.3601439893 2.2926011086 3.5217399597 70.765037537 0.8217691779 133.06649780 337.84799194 0.4989035130 -89.60517120 0.6699076891 2.0640730858 0.4980047941
 2180.3869629 6.0000000000 0.0051403046 12.255141258 12.250000954 163572.87500 -0.059294522 8.1364336014  -999.250000 0.3688755929 2.2945981026 3.7057490349 69.060554504 1.0124659538 131.91209412 335.22070313 0.5021026134 -90.62658691 0.6776095033 1.9689698219 0.5022050738
 2180.5393066 6.0000000000 0.0244865399 12.274490356 12.250000954 158895.46875 -0.058078479 8.1830854416  -999.250000 0.3656368852 2.2917020321 3.9393579960 68.116302490 0.8242139220 131.87780762 334.28903198 0.5037977099 -90.80555725 0.6825975776 1.7148761749 0.5049002767
