# LAS format log file from PETREL
# Project units are specified as depth units
#==================================================================
~Version information
VERS.   2.0:
WRAP.   NO:
#==================================================================
~Well
STRT .m      446.31985474 :
STOP .m      2908.1892090 :
STEP .m     0.00000000 :
NULL .        -999.250000 :
COMP.           : COMPANY
WELL.  16/7-5   : WELL
FLD.            : FIELD
LOC.            : LOCATION
SRVC.           : SERVICE COMPANY
DATE.  2018-09-11 14:48:11   : Log Export Date {yyyy-MM-dd HH:mm:ss}
PROV.           : PROVINCE
UWI.   16/7-5   : UNIQUE WELL ID
API.            : API NUMBER
#==================================================================
~Curve
DEPT .m                   : DEPTH
Lithology_geolink ._      : Lithology_geolink
CALI .in                  : CALI
DRHO .g/cm3               : DRHO
NPHI .m3/m3               : NPHI
RHOB .g/cm3               : RHOB
PEF .b/e                  : PEF
GR .gAPI                  : GR
DTC .us/ft                : DTC
RDEP .ohm.m               : RDEP
SP .mV                    : SP
RSHA .ohm.m               : RSHA
RMED .ohm.m               : RMED
~Parameter
#==================================================================
~Ascii
# ...
 1104.6878662  -999.250000  -999.250000  -999.250000  -999.250000 2.0092904568  -999.250000 43.662120819 162.58261108 0.7779815793 43.925098419 0.7248719335 0.7248719335
 1104.8402100  -999.250000  -999.250000  -999.250000  -999.250000 2.0098867416  -999.250000 39.456470490 162.26110840 0.7549839616 43.949604034 0.6929615736 0.6929615736
 1104.9926758  -999.250000  -999.250000  -999.250000  -999.250000 2.0098698139  -999.250000 37.737236023 162.27125549 0.7349823713 43.823562622 0.6809599400 0.6809599400
 1105.1450195  -999.250000  -999.250000  -999.250000  -999.250000 2.0096132755  -999.250000 38.039905548 162.40960693 0.7129887938 43.216236115 0.6709807515 0.6709807515
 1105.2973633  -999.250000  -999.250000  -999.250000  -999.250000 2.0095865726  -999.250000 36.457309723 162.42240906 0.6990000010 42.979629517 0.6650000215 0.6650000215
 1105.4498291  -999.250000  -999.250000  -999.250000  -999.250000 2.0094833374  -999.250000 36.857330322 162.47949219 0.6950016022 43.174438477 0.6650096178 0.6650096178
 1105.6021729  -999.250000  -999.250000  -999.250000  -999.250000 2.0084204674  -999.250000 34.473644257 163.02099609 0.6970000267 42.688350677 0.6680223942 0.6680223942
 1105.7546387  -999.250000  -999.250000  -999.250000  -999.250000 2.0063588619  -999.250000 35.297073364 164.07118225 0.7000072002 42.488403320 0.6750192642 0.6750192642
 1105.9069824  -999.250000  -999.250000  -999.250000  -999.250000 2.0041754246  -999.250000 35.327003479 165.20515442 0.7089999914 42.921470642 0.6809999943 0.6809999943
 1106.0594482  -999.250000  -999.250000  -999.250000  -999.250000 2.0029697418  -999.250000 37.508804321 165.82487488 0.7180063725 41.825496674 0.6810160279 0.6810160279
 1106.2117920  -999.250000  -999.250000  -999.250000  -999.250000 2.0033640862  -999.250000 38.058784485 165.59794617 0.7260000110 42.605319977 0.6860192418 0.6860192418
 1106.3642578  -999.250000  -999.250000  -999.250000  -999.250000 2.0049686432  -999.250000 34.574115753 164.76455688 0.7330023646 43.943325043 0.6919839382 0.6919839382
 1106.5166016  -999.250000  -999.250000  -999.250000  -999.250000 2.0070545673  -999.250000 35.350864410 163.71234131 0.7360000014 42.781253815 0.6879807711 0.6879807711
 1106.6689453  -999.250000  -999.250000  -999.250000  -999.250000 2.0089068413  -999.250000 35.631019592 162.77868652 0.7390000224 43.174541473 0.6819743514 0.6819743514
 1106.8214111  -999.250000  -999.250000  -999.250000  -999.250000 2.0097868443  -999.250000 39.054412842 162.32588196 0.7419999838 43.965633392 0.6739519238 0.6739519238
 1106.9737549  -999.250000  -999.250000  -999.250000  -999.250000 2.0097267628  -999.250000 37.008728027 162.35292053 0.7450000048 44.158153534 0.6589743495 0.6589743495
 1107.1260986  -999.250000  -999.250000  -999.250000  -999.250000 2.0095000267  -999.250000 37.864601135 162.47010803 0.7429999709 42.963378906 0.6510096192 0.6510096192
 1107.2785645  -999.250000  -999.250000  -999.250000  -999.250000 2.0095000267  -999.250000 40.603515625 162.47485352 0.7400000095 43.950992584 0.6550127864 0.6550127864
 1107.4309082  -999.250000  -999.250000  -999.250000  -999.250000 2.0095431805  -999.250000 40.446964264 162.44818115 0.7369999886 43.951370239 0.6590120196 0.6590120196
 1107.5833740  -999.250000  -999.250000  -999.250000  -999.250000 2.0101201534  -999.250000 37.934608459 162.15893555 0.7340000272 44.932788849 0.6640191674 0.6640191674
 1107.7357178  -999.250000  -999.250000  -999.250000  -999.250000 2.0118837357  -999.250000 35.639747620 161.27264404 0.7340000272 44.241535187 0.6700096130 0.6700096130
 1107.8881836  -999.250000  -999.250000  -999.250000  -999.250000 2.0139074326  -999.250000 38.443634033 160.27760315 0.7490000129 43.220870972 0.6740000248 0.6740000248
 1108.0405273  -999.250000  -999.250000  -999.250000  -999.250000 2.0142230988  -999.250000 39.574211121 160.11439514 0.7630000114 43.804870605 0.6740000248 0.6740000248
 1108.1929932  -999.250000  -999.250000  -999.250000  -999.250000 2.0123848915  -999.250000 39.248592377 161.03692627 0.7779999971 44.580478668 0.6740096211 0.6740096211
 1108.3453369  -999.250000  -999.250000  -999.250000  -999.250000 2.0095860958  -999.250000 39.746200562 162.43855286 0.7760000229 44.412658691 0.6770256162 0.6770256162
 1108.4978027  -999.250000  -999.250000  -999.250000  -999.250000 2.0073490143  -999.250000 40.746746063 163.54656982 0.7720000148 42.752326965 0.6850352883 0.6850352883
 1108.6501465  -999.250000  -999.250000  -999.250000  -999.250000 2.0064132214  -999.250000 42.222358704 164.01979065 0.7670000196 43.166065216 0.6960384250 0.6960384250
 1108.8026123  -999.250000  -999.250000  -999.250000  -999.250000 2.0062999725  -999.250000 42.337196350 164.08654785 0.7630000114 43.498260498 0.7079904079 0.7079904079
 1108.9549561  -999.250000  -999.250000  -999.250000  -999.250000 2.0059964657  -999.250000 43.330276489 164.25039673 0.7590000033 43.885421753 0.7049775720 0.7049775720
 1109.1072998  -999.250000  -999.250000  -999.250000  -999.250000 2.0051667690  -999.250000 43.104663849 164.67665100 0.7630000114 42.461471558 0.6979855895 0.6979855895
 1109.2597656  -999.250000  -999.250000  -999.250000  -999.250000 2.0045132637  -999.250000 42.958698273 165.01080322 0.7689999938 42.657371521 0.6919999719 0.6919999719
 1109.4121094  -999.250000  -999.250000  -999.250000  -999.250000 2.0047032833  -999.250000 40.683193207 164.91891479 0.7720000148 42.462776184 0.6919975877 0.6919975877
 1109.5645752  -999.250000  -999.250000  -999.250000  -999.250000 2.0058803558  -999.250000 39.511684418 164.31716919 0.7720000148 43.199996948 0.6909807920 0.6909807920
 1109.7169189  -999.250000  -999.250000  -999.250000  -999.250000 2.0080704689  -999.250000 37.545780182 163.19519043 0.7720000148 43.198444366 0.6849879622 0.6849879622
 1109.8693848  -999.250000  -999.250000  -999.250000  -999.250000 2.0111622810  -999.250000 37.455646515 161.63183594 0.7730000019 42.969554901 0.6799871922 0.6799871922
 1110.0217285  -999.250000  -999.250000  -999.250000  -999.250000 2.0149772167  -999.250000 37.973384857 159.78608704 0.7760000229 43.765941620 0.6759927869 0.6759927869
 1110.1741943  -999.250000  -999.250000  -999.250000  -999.250000 2.0189490318  -999.250000 39.793388367 157.88220215 0.7789999843 44.155536652 0.6730095744 0.6730095744
 1110.3265381  -999.250000  -999.250000  -999.250000  -999.250000 2.0227038860  -999.250000 39.914947510 156.10246277 0.7770000100 43.699996948 0.6760072112 0.6760072112
 1110.4790039  -999.250000  -999.250000  -999.250000  -999.250000 2.0261886120  -999.250000 40.304313660 154.51728821 0.7749999762 43.699005127 0.6790224314 0.6790224314
 1110.6313477  -999.250000  -999.250000  -999.250000  -999.250000 2.0286502838  -999.250000 39.473331451 153.41082764 0.7730000019 43.697807312 0.6860256195 0.6860256195
 1110.7838135  -999.250000  -999.250000  -999.250000  -999.250000 2.0295000076  -999.250000 40.819786072 153.03367615 0.7710000277 43.016258240 0.6940096021 0.6940096021
 1110.9361572  -999.250000  -999.250000  -999.250000  -999.250000 2.0289797783  -999.250000 40.443904877 153.27488708 0.7689999938 43.409652710 0.6970000267 0.6970000267
 1111.0885010  -999.250000  -999.250000  -999.250000  -999.250000 2.0266540051  -999.250000 40.727737427 154.31417847 0.7670000196 43.922534943 0.6970000267 0.6970000267
 1111.2409668  -999.250000  -999.250000  -999.250000  -999.250000 2.0216822624  -999.250000 41.860542297 156.60021973 0.7659999728 43.315395355 0.6970000267 0.6970000267
 1111.3933105  -999.250000  -999.250000  -999.250000  -999.250000 2.0154876709  -999.250000 40.781806946 159.55380249 0.7639999986 43.440830231 0.6970000267 0.6970000267
 1111.5457764  -999.250000  -999.250000  -999.250000  -999.250000 2.0108561516  -999.250000 39.447982788 161.80734253 0.7620000243 44.199996948 0.6970128417 0.6970128417
 1111.6981201  -999.250000  -999.250000  -999.250000  -999.250000 2.0086231232  -999.250000 36.953239441 162.90853882 0.7609999776 44.196807861 0.7010071874 0.7010071874
 1111.8505859  -999.250000  -999.250000  -999.250000  -999.250000 2.0076961517  -999.250000 37.471374512 163.39569092 0.7599999905 43.291229248 0.7040095925 0.7040095925
