# LAS format log file from PETREL
# Project units are specified as depth units
#==================================================================
~Version information
VERS.   2.0:
WRAP.   NO:
#==================================================================
~Well
STRT .m      1110.8436279 :
STOP .m      2733.1416016 :
STEP .m     0.00000000 :
NULL .        -999.250000 :
COMP.           : COMPANY
WELL.  16/7-6   : WELL
FLD.            : FIELD
LOC.            : LOCATION
SRVC.           : SERVICE COMPANY
DATE.  2018-09-11 14:48:11   : Log Export Date {yyyy-MM-dd HH:mm:ss}
PROV.           : PROVINCE
UWI.   16/7-6   : UNIQUE WELL ID
API.            : API NUMBER
#==================================================================
~Curve
DEPT .m                   : DEPTH
Lithology_geolink ._      : Lithology_geolink
DCAL .in                  : DCAL
CALI .in                  : CALI
BS .in                    : BS
ROP .m/h                  : ROP
DRHO .g/cm3               : DRHO
THOR .ppm                 : THOR
SGR .gAPI                 : SGR
NPHI .m3/m3               : NPHI
RHOB .g/cm3               : RHOB
PEF .b/e                  : PEF
GR .gAPI                  : GR
URAN .ppm                 : URAN
DTC .us/ft                : DTC
DTS .us/ft                : DTS
RDEP .ohm.m               : RDEP
SP .mV                    : SP
RSHA .ohm.m               : RSHA
RMIC .ohm.m               : RMIC
RMED .ohm.m               : RMED
~Parameter
#==================================================================
~Ascii
# ...
 1536.0395508  -999.250000 0.1489600986 12.398960114 12.250000954 338497.53125 -0.065003753 12.827659607  -999.250000 0.4690712094 2.1092019081 3.2593379021 88.682167053 1.9328379631 152.15719604 439.74636841 0.6616023183 -104.5041504 0.7641019821 0.7717506289 0.6426020861
 1536.1918945  -999.250000 0.2088461220 12.458848953 12.250000954 359345.75000 -0.063473307 12.416830063  -999.250000 0.4760878980 2.1077020168 3.2717781067 87.154510498 2.0232620239 150.56629944 432.27297974 0.6655009985 -104.4998093 0.7668011189 0.7717865705 0.6461008191
 1536.3443604  -999.250000 0.2713671029 12.521369934 12.250000954 783052.50000 -0.069146506 11.733869553  -999.250000 0.4865852892 2.1131970882 3.3823289871 87.070831299 2.1422989368 149.05909729 423.30148315 0.6702020764 -104.2666931 0.7704023123 0.7760648131 0.6503018141
 1536.4967041  -999.250000 0.3195534348 12.569550514 12.250000954 1101824.2500 -0.070485473 10.714139938  -999.250000 0.5066729784 2.1217920780 3.8310880661 86.337181091 2.1161210537 150.19000244 418.17660522 0.6749997139 -104.3084335 0.7748004794 0.7886090279 0.6543999910
 1536.6491699  -999.250000 0.3441848755 12.594180107 12.250000954 833824.43750 -0.070859097 10.036930084  -999.250000 0.4430232942 2.1182019711 3.8092589378 82.509750366 2.1152989864 147.91009521 419.29989624 0.6795011163 -104.4873581 0.7797011137 0.7976052761 0.6585013270
 1536.8015137  -999.250000 0.3104352951 12.560440063 12.250000954 535819.56250 -0.072923377 9.9745340347  -999.250000 0.4076842070 2.1272900105 3.8131260872 77.226631165 1.9999040365 149.18370056 414.51370239 0.6833981872 -104.3251572 0.7838976979 0.7940385938 0.6623979211
 1536.9539795  -999.250000 0.2773217857 12.527320862 12.250000954 334393.87500 -0.076054037 9.8379306793  -999.250000 0.4078727067 2.1268999577 3.6489470005 74.420860291 2.2055881023 149.22279358 414.45834351 0.6857975721 -104.4290161 0.7859972119 0.7834364772 0.6643980145
 1537.1063232  -999.250000 0.2751007080 12.525099754 12.250000954 159176.64063 -0.074948698 9.7710256577  -999.250000 0.4430544972 2.1224007607 3.7058160305 75.237083435 2.4292860031 148.37899780 417.89825439 0.6848961115 -104.2041855 0.7845956087 0.7729033828 0.6636971831
 1537.2587891  -999.250000 0.2784967124 12.528498650 12.250000954 176765.29688 -0.075643636 9.9461259842  -999.250000 0.5312538147 2.1046130657 3.6465260983 78.124618530 2.2629621029 147.89759827 420.91534424 0.6806973815 -103.9541016 0.7796964049 0.7647004128 0.6606975794
 1537.4111328  -999.250000 0.2002287060 12.450229645 12.250000954 240149.12500 -0.073640123 9.5830488205  -999.250000 0.5449100733 2.1008009911 3.5901310444 80.809226990 2.3302059174 146.59950256 421.94436646 0.6749964952 -103.7625504 0.7723945975 0.7572280765 0.6559962034
 1537.5635986  -999.250000 0.1338520050 12.383850098 12.250000954 413621.15625 -0.073205493 9.1391878128  -999.250000 0.5384889841 2.0990009308 3.6533839703 81.931129456 2.0951430798 147.07749939 423.50720215 0.6692994237 -103.7500076 0.7641981840 0.7487218976 0.6503981948
 1537.7159424  -999.250000 0.1435966045 12.393600464 12.250000954 783096.37500 -0.070069119 9.2363691330  -999.250000 0.5086988807 2.1071960926 3.7818560600 81.529663086 2.0124719143 147.11520386 423.66891479 0.6639959216 -103.9249649 0.7557948828 0.7397065163 0.6440958977
 1537.8684082  -999.250000 0.0480823554 12.298080444 12.250000954 733214.31250 -0.070072293 9.6903190613  -999.250000 0.5049446225 2.1106970310 3.7926170826 80.488861084 1.8256269693 147.02009583 424.42260742 0.6575977802 -103.8791351 0.7469980121 0.7291833758 0.6371983886
 1538.0207520  -999.250000 0.0068197255 12.256819725 12.250000954 315920.78125 -0.068421267 10.055470467  -999.250000 0.4893974066 2.1154980659 3.7082929611 79.739547729 1.7703839540 147.15469360 423.99710083 0.6498954892 -103.9333572 0.7372940779 0.7157012224 0.6296954751
 1538.1730957  -999.250000 -0.049148560 12.200848579 12.250000954 320091.84375 -0.070150159 10.571310043  -999.250000 0.4512549043 2.1142010689 3.5821280479 80.230857849 1.6073340178 147.08639526 423.99911499 0.6414986849 -104.0541077 0.7265983224 0.7006375790 0.6213988066
 1538.3255615  -999.250000 -0.038305279 12.211688995 12.250000954 640403.75000 -0.067303494 11.076560020  -999.250000 0.4511170089 2.1157987118 3.4258980751 82.180221558 1.5298949480 147.60409546 431.35708618 0.6323953271 -103.9457855 0.7148938775 0.6869794726 0.6124960780
 1538.4779053  -999.250000 -0.024813650 12.225191116 12.250000954 601019.43750 -0.064912647 11.405659676  -999.250000 0.4447061121 2.1141018867 3.6180069447 84.115898132 1.3946269751 146.89259338 436.05740356 0.6225997210 -103.7626877 0.7021993995 0.6755104065 0.6035997868
 1538.6303711  -999.250000 -0.026999470 12.223000526 12.250000954 288356.50000 -0.066734418 11.085550308  -999.250000 0.4765962064 2.1066050529 4.2028188705 85.036781311 1.4068479538 149.72099304 440.47860718 0.6125959754 -103.6333084 0.6890953183 0.6626415253 0.5945966840
 1538.7827148  -999.250000 -0.028199198 12.221799850 12.250000954 229562.48438 -0.063905492 10.703630447  -999.250000 0.4861255884 2.0869200230 4.3162088394 84.464088440 1.5025060177 151.06379700 441.16229248 0.6024019122 -103.5667038 0.6763026118 0.6481848955 0.5857012868
 1538.9351807  -999.250000 -0.080164902 12.169838905 12.250000954 327709.71875 -0.059101779 10.056920052  -999.250000 0.5169429779 2.0665140152 4.1533379555 82.614341736 1.5898350477 150.95909119 441.44949341 0.5936003923 -103.2123795 0.6655005813 0.6405379772 0.5777000785
 1539.0875244  -999.250000 -0.081199653 12.168799400 12.250000954 456681.68750 -0.062383689 10.495329857  -999.250000 0.5083882213 2.0657000542 3.7162530422 80.352012634 1.4624979496 151.63720703 440.35940552 0.5880008936 -102.7792435 0.6588013172 0.6472569704 0.5723006725
 1539.2399902  -999.250000 -0.145352393 12.104649544 12.250000954 645153.81250 -0.069098443 10.957329750  -999.250000 0.4923489988 2.0843863487 3.5761909485 78.223770142 1.5822019577 150.44369507 435.48315430 0.5872048736 -102.8082733 0.6580063105 0.6680266261 0.5713049173
 1539.3923340  -999.250000 -0.130305305 12.119690895 12.250000954 614296.00000 -0.067438200 11.149920464  -999.250000 0.4644612968 2.0925970078 3.5104119778 77.809211731 1.9786829948 152.24850464 433.39440918 0.5917071104 -101.9375992 0.6638085842 0.6945911050 0.5756065845
 1539.5447998  -999.250000 -0.001003265 12.249000549 12.250000954 439014.12500 -0.069378868 10.959480286  -999.250000 0.4773572087 2.0941989422 3.2744278908 79.610252380 2.1115300655 149.45120239 432.89898682 0.6007038951 -102.0501099 0.6749048233 0.7154573798 0.5841032863
 1539.6971436  -999.250000 0.0745677873 12.324569702 12.250000954 349830.15625 -0.067848548 10.588479996  -999.250000 0.4919767082 2.1023960114 3.1457259655 82.066230774 2.0411620140 150.04870605 435.51724243 0.6122059822 -102.2374496 0.6891072989 0.7241638899 0.5946059823
 1539.8496094  -999.250000 0.1206597909 12.370659828 12.250000954 283298.00000 -0.065545507 10.510829926  -999.250000 0.5001963973 2.1048979759 3.0384678841 83.285293579 2.0544168949 149.90480042 435.15478516 0.6235995293 -102.2499924 0.7029985189 0.7255449295 0.6054996252
 1540.0019531  -999.250000 0.1662769020 12.416279793 12.250000954 321596.78125 -0.064790078 10.892330170  -999.250000 0.4636687934 2.1070990562 3.2400848866 83.024467468 2.2111480236 149.48609924 434.89379883 0.6333011985 -102.2500000 0.7139011025 0.7260575294 0.6149013042
 1540.1542969  -999.250000 0.1838836968 12.433879852 12.250000954 449602.12500 -0.064296953 11.237360001  -999.250000 0.4491359890 2.1071000099 3.8761749268 83.680671692 2.2285079956 149.88697815 438.24563599 0.6394975185 -102.2500000 0.7205970287 0.7269889712 0.6210976243
 1540.3067627  -999.250000 0.1873980016 12.437398911 12.250000954 640101.87500 -0.062918857 10.796500206  -999.250000 0.4648042917 2.1028020382 4.2945771217 86.425621033 2.2818639278 149.86570740 438.67221069 0.6427997947 -102.0748978 0.7238994241 0.7276275158 0.6244999170
 1540.4591064  -999.250000 0.1845026165 12.434498787 12.250000954 887637.12500 -0.064782120 11.045669556  -999.250000 0.5033028722 2.0933089256 4.2047729492 88.006523132 1.8719320297 149.70809937 437.93908691 0.6444988847 -101.8874969 0.7250990868 0.7257530093 0.6263989210
