# LAS format log file from PETREL
# Project units are specified as depth units
#==================================================================
~Version information
VERS.   2.0:
WRAP.   NO:
#==================================================================
~Well
STRT .m      1110.8436279 :
STOP .m      2733.1416016 :
STEP .m     0.00000000 :
NULL .        -999.250000 :
COMP.           : COMPANY
WELL.  16/7-6   : WELL
FLD.            : FIELD
LOC.            : LOCATION
SRVC.           : SERVICE COMPANY
DATE.  2018-09-11 14:48:11   : Log Export Date {yyyy-MM-dd HH:mm:ss}
PROV.           : PROVINCE
UWI.   16/7-6   : UNIQUE WELL ID
API.            : API NUMBER
#==================================================================
~Curve
DEPT .m                   : DEPTH
Lithology_geolink ._      : Lithology_geolink
DCAL .in                  : DCAL
CALI .in                  : CALI
BS .in                    : BS
ROP .m/h                  : ROP
DRHO .g/cm3               : DRHO
THOR .ppm                 : THOR
SGR .gAPI                 : SGR
NPHI .m3/m3               : NPHI
RHOB .g/cm3               : RHOB
PEF .b/e                  : PEF
GR .gAPI                  : GR
URAN .ppm                 : URAN
DTC .us/ft                : DTC
DTS .us/ft                : DTS
RDEP .ohm.m               : RDEP
SP .mV                    : SP
RSHA .ohm.m               : RSHA
RMIC .ohm.m               : RMIC
RMED .ohm.m               : RMED
~Parameter
#==================================================================
~Ascii
# ...
 1215.9996338  -999.250000 -0.015299800 12.234700203 12.250000954 278545.75000 -0.077702537 8.5411787033  -999.250000 0.5240334868 2.0711998940 3.5842220783 97.244087219 4.1693921089 141.44970703 349.87344360 1.2366969585 -142.1250000 1.1508990526 1.2527589798 1.1797970533
 1216.1520996  -999.250000 -0.024804119 12.225199699 12.250000954 267595.28125 -0.075544953 9.0361642838  -999.250000 0.4780695140 2.0894050598 3.7906088829 95.310188293 3.3831510544 140.47196960 345.14117432 1.2508180141 -142.2420044 1.1842403412 1.3814460039 1.1954213381
 1216.3044434  -999.250000 -0.053544041 12.196459770 12.250000954 291998.96875 -0.072033152 8.3285779953  -999.250000 0.4337978065 2.1197168827 3.9693739414 89.600685120 3.1185429096 139.31370544 337.87130737 1.2696124315 -142.1331024 1.2270419598 1.4088010788 1.2183181047
 1216.4569092  -999.250000 -0.138903603 12.111100197 12.250000954 371806.06250 -0.072633013 8.4815816879  -999.250000 0.3552803099 2.1528010368 4.0192279816 82.002281189 3.4167981148 135.34144592 343.20379639 1.2788950205 -141.9494934 1.2594075203 1.2889351845 1.2321953773
 1216.6092529  -999.250000 -0.182465613 12.067529678 12.250000954 445161.15625 -0.073434643 9.1478118896  -999.250000 0.3498238027 2.1658949852 3.7782549858 77.461997986 3.5935399532 134.27317810 351.39990234 1.2726806402 -141.9960938 1.2675608397 1.1645034552 1.2263755798
 1216.7615967  -999.250000 -0.107198700 12.142800331 12.250000954 373206.50000 -0.073005341 9.8836336136  -999.250000 0.4063487947 2.1549990177 3.4200661182 79.447647095 3.9947967529 134.60879517 361.58709717 1.2572000027 -142.1170044 1.2361990213 1.0876710415 1.2071989775
 1216.9140625  -999.250000 -0.061500549 12.188499451 12.250000954 286767.62500 -0.076013587 10.539389610  -999.250000 0.5174440742 2.1286900043 3.2916789055 86.164451599 3.7445170879 136.92828369 373.67022705 1.2379765511 -141.9494934 1.1824421883 1.0497359037 1.1830724478
 1217.0664063  -999.250000 -0.063899986 12.186100006 12.250000954 298810.53125 -0.076735049 11.118599892  -999.250000 0.5821347833 2.1038010120 3.1988101006 92.918327332 3.7094550133 139.03019714 382.36331177 1.2187010050 -141.9960022 1.1339019537 1.0632330179 1.1598010063
 1217.2188721  -999.250000 0.0383224487 12.288319588 12.250000954 313042.31250 -0.074022837 12.118940353  -999.250000 0.5537958741 2.0899019241 3.1264359951 96.913024902 3.4943749905 140.21826172 387.91210938 1.2065998316 -141.9414978 1.0984836817 1.0906059742 1.1443961859
 1217.3712158  -999.250000 0.1074924022 12.357490540 12.250000954 280314.06250 -0.072133362 12.001540184  -999.250000 0.5442965031 2.0959990025 2.9612290859 99.152168274 3.3949649334 141.79820251 389.10629272 1.2064000368 -141.9375000 1.0843009949 1.0891940594 1.1407999992
 1217.5236816  -999.250000 0.1544075012 12.404410362 12.250000954 236045.54688 -0.073992029 11.841910362  -999.250000 0.5222495794 2.1122028828 2.9162750244 100.44889832 3.1982688904 143.49615479 387.12368774 1.2142121792 -141.9375000 1.0851038694 1.0876222849 1.1463112831
 1217.6760254  -999.250000 0.1834954917 12.433500290 12.250000954 191411.68750 -0.071746387 12.669939995  -999.250000 0.5408068895 2.1234979630 2.9179799557 99.820709229 3.0248200893 143.43440247 386.28640747 1.2256979942 -141.8789978 1.0886989832 1.1141849756 1.1565979719
 1217.8284912  -999.250000 0.1859999150 12.435999870 12.250000954 198992.59375 -0.069349371 12.509799957  -999.250000 0.4846752882 2.1221001148 3.0106790066 98.720504761 3.1061720848 142.63841248 387.53659058 1.2380057573 -141.9335022 1.0962064266 1.1366046667 1.1678062677
 1217.9808350  -999.250000 0.1859999150 12.435999870 12.250000954 343729.37500 -0.070291691 12.601770401  -999.250000 0.4692972004 2.1221001148 3.0217099190 99.132911682 3.0272750854 142.16999817 385.13439941 1.2439990044 -141.9375000 1.1030980349 1.1198890209 1.1743979454
 1218.1333008  -999.250000 0.1880951077 12.438099861 12.250000954 495843.53125 -0.072084285 12.108830452  -999.250000 0.4490666986 2.1262989044 3.1196939945 99.779617310 2.9327321053 142.16799927 383.30529785 1.2457013130 -141.8204956 1.1074062586 1.0904306173 1.1776022911
 1218.2856445  -999.250000 0.1568984985 12.406901360 12.250000954 623524.68750 -0.073967062 11.842049599  -999.250000 0.4665453136 2.1219971180 3.1583468914 99.054840088 3.0483620167 142.30960083 380.82922363 1.2474002838 -141.8125000 1.1139097214 1.1124628782 1.1804025173
 1218.4381104  -999.250000 0.1527996063 12.402798653 12.250000954 655846.87500 -0.075978845 11.654529572  -999.250000 0.5107399821 2.1159989834 3.3234848976 96.570709229 3.0637168884 142.44604492 378.86010742 1.2476986647 -141.6369934 1.1210069656 1.1622709036 1.1824005842
 1218.5904541  -999.250000 0.1518974006 12.401899338 12.250000954 489420.68750 -0.078490518 11.184591293  -999.250000 0.5367894769 2.1065969467 3.2620720863 94.189216614 3.3265933990 142.50296021 378.35681152 1.2460054159 -141.5666046 1.1285159588 1.1782834530 1.1831058264
 1218.7427979  -999.250000 0.1454000026 12.395399094 12.250000954 457479.09375 -0.077400148 11.997469902  -999.250000 0.5420891047 2.1001999378 3.5534760952 92.839797974 3.3071300983 143.44859314 370.97848511 1.2503000498 -141.6210022 1.1410000324 1.1550810337 1.1878999472
 1218.8952637  -999.250000 0.1240921021 12.374089241 12.250000954 700534.12500 -0.073860019 12.133555412  -999.250000 0.4743664861 2.0986039639 3.9545249939 92.910751343 3.6621234417 142.13304138 366.66522217 1.2626194954 -141.5664978 1.1565210819 1.1199182272 1.1992189884
 1219.0476074  -999.250000 0.1048012078 12.354800224 12.250000954 742853.75000 -0.071126208 11.902620316  -999.250000 0.4503323138 2.1085000038 5.1046361923 95.821563721 4.0083708763 140.18330383 357.23840332 1.2794990540 -141.5625000 1.1740989685 1.1626319885 1.2154990435
 1219.2000732  -999.250000 0.0282659493 12.278269768 12.250000954 432169.00000 -0.066153564 11.657185555  -999.250000 0.4414826035 2.1170039177 4.7644510269 99.221511841 3.7709550858 137.59919739 350.96499634 1.2995250225 -141.5039978 1.1936340332 1.3110206127 1.2346222401
 1219.3524170  -999.250000 -0.078588493 12.171409607 12.250000954 306131.21875 -0.058762342 10.628919601  -999.250000 0.4393163919 2.1292989254 4.1370649338 99.236701965 3.6275310516 135.59790039 351.52078247 1.3219980001 -141.5585022 1.2236969471 1.4416470528 1.2547980547
 1219.5048828  -999.250000 -0.308213204 11.941788673 12.250000954 430557.78125 -0.053892422 10.242208481  -999.250000 0.4018560052 2.1341030598 3.7696986198 95.526741028 3.7772634029 134.80471802 363.91360474 1.3495197296 -141.5625000 1.2618247271 1.3440819979 1.2789176702
 1219.6572266  -999.250000 -0.358591139 11.891409874 12.250000954 452075.68750 -0.054928161 10.651869774  -999.250000 0.4141897857 2.1447980404 3.7332060337 92.174392700 3.8001160622 134.81790161 366.92950439 1.3679970503 -141.4454956 1.2851959467 1.1993540525 1.2959970236
 1219.8096924  -999.250000 -0.312980711 11.937020302 12.250000954 339934.96875 -0.054576274 11.521286964  -999.250000 0.4764988124 2.1360960007 3.8309381008 92.885589600 3.7506332397 141.25680542 365.07009888 1.3660835028 -141.3204956 1.2831766605 1.1709451675 1.2930827141
 1219.9620361  -999.250000 -0.214523286 12.035478592 12.250000954 264031.06250 -0.059449509 11.530159950  -999.250000 0.5416222215 2.1159050465 3.4241230488 95.789810181 3.6808629036 140.50720215 366.79278564 1.3492039442 -141.1956024 1.2602050304 1.2222830057 1.2752039433
 1220.1145020  -999.250000 -0.038292881 12.211709976 12.250000954 202360.15625 -0.065187946 11.977253914  -999.250000 0.5677087903 2.1054990292 3.3798213005 97.530593872 3.4012551308 141.36581421 371.72171021 1.3287875652 -141.3043518 1.2331818342 1.2528706789 1.2550873756
 1220.2668457  -999.250000 0.0098857870 12.259889603 12.250000954 351542.15625 -0.070815504 12.381779671  -999.250000 0.5598186851 2.0979020596 3.2228779793 97.406341553 3.1270039082 142.76530457 377.62069702 1.3157039881 -141.2539978 1.2143059969 1.2038199902 1.2418040037
 1220.4193115  -999.250000 0.0440015756 12.293998718 12.250000954 760314.68750 -0.074687868 11.865438461  -999.250000 0.5385636091 2.1020998955 3.2555825710 96.361610413 2.9460191727 142.99789429 377.04364014 1.3136025667 -141.1330566 1.2074925900 1.1603839397 1.2380009890
