# LAS format log file from PETREL
# Project units are specified as depth units
#==================================================================
~Version information
VERS.   2.0:
WRAP.   NO:
#==================================================================
~Well
STRT .m      367.94241333 :
STOP .m      2651.6562500 :
STEP .m     0.00000000 :
NULL .        -999.250000 :
COMP.           : COMPANY
WELL.  16/7-1   : WELL
FLD.            : FIELD
LOC.            : LOCATION
SRVC.           : SERVICE COMPANY
DATE.  2018-09-11 14:48:09   : Log Export Date {yyyy-MM-dd HH:mm:ss}
PROV.           : PROVINCE
UWI.   16/7-1   : UNIQUE WELL ID
API.            : API NUMBER
#==================================================================
~Curve
DEPT .m                   : DEPTH
Lithology_geolink ._      : Lithology_geolink
DCAL .in                  : DCAL
CALI .in                  : CALI
BS .in                    : BS
DRHO .g/cm3               : DRHO
RHOB .g/cm3               : RHOB
GR .gAPI                  : GR
DTC .us/ft                : DTC
RDEP .ohm.m               : RDEP
SP .mV                    : SP
RSHA .ohm.m               : RSHA
RMED .ohm.m               : RMED
~Parameter
#==================================================================
~Ascii
# ...
 667.86560059  -999.250000 -0.016000750 12.233999252 12.250000954  -999.250000  -999.250000 90.899543762  -999.250000 1.3844829798 77.309547424 1.1100039482 1.4600260258
 668.01800537  -999.250000 -0.190914199 12.059089661 12.250000954  -999.250000  -999.250000 91.334678650  -999.250000 1.3936090469 77.386802673 1.0914039612 1.4662350416
 668.17041016  -999.250000 -0.371111929 11.878890038 12.250000954  -999.250000  -999.250000 92.478637695  -999.250000 1.4009089470 77.441513062 1.0959210396 1.4675559998
 668.32281494  -999.250000 -0.414878786 11.835120201 12.250000954  -999.250000  -999.250000 93.500297546  -999.250000 1.4063869715 77.373611450 1.1626399755 1.4660940170
 668.47521973  -999.250000 -0.415699989 11.834300041 12.250000954  -999.250000  -999.250000 93.378753662  -999.250000 1.4052519798 77.309020996 1.2227050066 1.4621900320
 668.62762451  -999.250000 -0.430093795 11.819910049 12.250000954  -999.250000  -999.250000 92.401466370  -999.250000 1.4016890526 77.223678589 1.1131119728 1.4625719786
 668.78002930  -999.250000 -0.458585680 11.791410446 12.250000954  -999.250000  -999.250000 90.849853516  -999.250000 1.4098639488 77.126373291 1.0567430258 1.4707219601
 668.93243408  -999.250000 -0.473292410 11.776709557 12.250000954  -999.250000  -999.250000 88.667556763  -999.250000 1.4175239801 77.030738831 1.0447380543 1.4804849625
 669.08483887  -999.250000 -0.466603309 11.783399582 12.250000954  -999.250000  -999.250000 87.135940552  -999.250000 1.4235390425 76.940406799 1.0928039551 1.4859750271
 669.23724365  -999.250000 -0.454805404 11.795188904 12.250000954  -999.250000  -999.250000 85.930778503  -999.250000 1.4261389971 76.876121521 1.1675980091 1.4840070009
 669.38958740  -999.250000 -0.400026262 11.849969864 12.250000954  -999.250000  -999.250000 84.754173279  -999.250000 1.4178960323 76.855140686 1.2388440371 1.4861609936
 669.54199219  -999.250000 -0.258468598 11.991530418 12.250000954  -999.250000  -999.250000 83.706802368  -999.250000 1.4016569853 76.784378052 1.2630430460 1.4912259579
 669.69439697  -999.250000 -0.139158204 12.110839844 12.250000954  -999.250000  -999.250000 83.730979919  -999.250000 1.3931879997 76.706329346 1.3160599470 1.4859080315
 669.84680176  -999.250000 -0.145896897 12.104100227 12.250000954  -999.250000  -999.250000 83.715499878  -999.250000 1.3887569904 76.703796387 1.3569740057 1.4723000526
 669.99920654  -999.250000 -0.246950105 12.003049850 12.250000954  -999.250000  -999.250000 83.257019043  -999.250000 1.3829090595 76.780899048 1.0433069468 1.4607319832
 670.15161133  -999.250000 -0.369139701 11.880861282 12.250000954  -999.250000  -999.250000 83.812423706  -999.250000 1.3766039610 76.718360901 1.0376319885 1.4507900476
 670.30401611  -999.250000 -0.432569504 11.817429543 12.250000954  -999.250000  -999.250000 84.582420349  -999.250000 1.3701150417 76.693840027 1.2126799822 1.4478349686
 670.45642090  -999.250000 -0.448792517 11.801210403 12.250000954  -999.250000  -999.250000 84.129013062  -999.250000 1.3677660227 76.722740173 1.2410680056 1.4622069597
 670.60882568  -999.250000 -0.462492913 11.787509918 12.250000954  -999.250000  -999.250000 84.197662354  -999.250000 1.3746279478 76.835258484 1.1618920565 1.4774600267
 670.76123047  -999.250000 -0.430815697 11.819179535 12.250000954  -999.250000  -999.250000 85.204513550  -999.250000 1.3813790083 77.000701904 1.2491769791 1.4881579876
 670.91363525  -999.250000 -0.339944780 11.910060883 12.250000954  -999.250000  -999.250000 85.070472717  -999.250000 1.3874720335 77.028808594 1.1718970537 1.4863309860
 671.06604004  -999.250000 -0.231752396 12.018249512 12.250000954  -999.250000  -999.250000 83.606712341  -999.250000 1.3913069963 77.073631287 1.1770930290 1.4704680443
 671.21844482  -999.250000 -0.126951203 12.123050690 12.250000954  -999.250000  -999.250000 82.847366333  -999.250000 1.3907719851 77.151008606 1.1763989925 1.4599699974
 671.37078857  -999.250000 -0.072826393 12.177169800 12.250000954  -999.250000  -999.250000 83.769241333  -999.250000 1.3779460192 77.132820129 1.0327939987 1.4634499550
 671.52319336  -999.250000 -0.135369301 12.114630699 12.250000954  -999.250000  -999.250000 86.071083069  -999.250000 1.3548090458 77.021133423 0.9989433289 1.4693460464
 671.67559814  -999.250000 -0.264436692 11.985560417 12.250000954  -999.250000  -999.250000 87.354568481  -999.250000 1.3283669949 76.963462830 1.1101039648 1.4707670212
 671.82800293  -999.250000 -0.328468293 11.921529770 12.250000954  -999.250000  -999.250000 87.059242249  -999.250000 1.2951370478 77.019950867 1.1729470491 1.4590909481
 671.98040771  -999.250000 -0.363682687 11.886319160 12.250000954  -999.250000  -999.250000 86.417106628  -999.250000 1.2619999647 77.166053772 1.1000809669 1.4382719994
 672.13281250  -999.250000 -0.420672387 11.829330444 12.250000954  -999.250000  -999.250000 86.104049683  -999.250000 1.2272850275 77.234626770 1.2223279476 1.4180350304
 672.28521729  -999.250000 -0.389315605 11.860680580 12.250000954  -999.250000  -999.250000 86.928192139  -999.250000 1.1787869930 77.179222107 1.2006059885 1.4012349844
 672.43762207  -999.250000 -0.271656990 11.978341103 12.250000954  -999.250000  -999.250000 88.063140869  -999.250000 1.1256840229 77.100502014 1.1994470358 1.3875099421
 672.59002686  -999.250000 -0.148460403 12.101540565 12.250000954  -999.250000  -999.250000 88.067787170  -999.250000 1.0912749767 76.991821289 1.2020070553 1.3728740215
 672.74243164  -999.250000 0.0022268300 12.252229691 12.250000954  -999.250000  -999.250000 88.529067993  -999.250000 1.0889879465 76.830390930 0.9796304703 1.3452459574
 672.89483643  -999.250000 -0.003497124 12.246500969 12.250000954  -999.250000  -999.250000 89.899520874  -999.250000 1.1071159840 76.523727417 0.9381541014 1.3115309477
 673.04724121  -999.250000 -0.202202797 12.047800064 12.250000954  -999.250000  -999.250000 91.730400085  -999.250000 1.1267100573 76.707763672 1.1741520166 1.2895400524
 673.19964600  -999.250000 -0.317644089 11.932359695 12.250000954  -999.250000  -999.250000 94.149711609  -999.250000 1.1265889406 76.810981750 1.2098419666 1.2957680225
 673.35205078  -999.250000 -0.409355223 11.840640068 12.250000954  -999.250000  -999.250000 95.412567139  -999.250000 1.1035690308 76.868591309 1.1165620089 1.3198330402
 673.50439453  -999.250000 -0.480565995 11.769429207 12.250000954  -999.250000  -999.250000 96.233291626  -999.250000 1.0782740116 76.802642822 1.0666199923 1.3544809818
 673.65679932  -999.250000 -0.383447587 11.866550446 12.250000954  -999.250000  -999.250000 96.552642822  -999.250000 1.0585390329 76.550392151 1.1626139879 1.3820999861
 673.80920410  -999.250000 -0.233373597 12.016629219 12.250000954  -999.250000  -999.250000 95.758476257  -999.250000 1.0467009544 76.454330444 1.4477880001 1.3761490583
 673.96160889  -999.250000 -0.210311905 12.039690018 12.250000954  -999.250000  -999.250000 96.554801941  -999.250000 1.0440720320 76.771812439 1.3873310089 1.3390890360
 674.11401367  -999.250000 -0.291759491 11.958239555 12.250000954  -999.250000  -999.250000 96.150703430  -999.250000 1.0480140448 77.093070984 1.2720769644 1.2965350151
 674.26641846  -999.250000 -0.358667403 11.891329765 12.250000954  -999.250000  -999.250000 93.745170593  -999.250000 1.0483529568 77.219276428 1.0904649496 1.2626700401
 674.41882324  -999.250000 -0.402278870 11.847719193 12.250000954  -999.250000  -999.250000 90.895393372  -999.250000 1.0459350348 77.247200012 1.1145689487 1.2552880049
 674.57122803  -999.250000 -0.395303667 11.854700089 12.250000954  -999.250000  -999.250000 90.522583008  -999.250000 1.0532180071 77.328376770 1.0588920116 1.2835910320
 674.72363281  -999.250000 -0.281056404 11.968939781 12.250000954  -999.250000  -999.250000 92.384986877  -999.250000 1.0816270113 77.294998169 1.0207430124 1.3259290457
 674.87603760  -999.250000 -0.120078102 12.129919052 12.250000954  -999.250000  -999.250000 95.207313538  -999.250000 1.1347440481 77.265998840 0.9860137105 1.3664150238
 675.02844238  -999.250000 -0.094912529 12.155090332 12.250000954  -999.250000  -999.250000 97.154342651  -999.250000 1.2082020044 77.391120911 1.0426599979 1.3948730230
