# LAS format log file from PETREL
# Project units are specified as depth units
#==================================================================
~Version information
VERS.   2.0:
WRAP.   NO:
#==================================================================
~Well
STRT .m      1110.8436279 :
STOP .m      2733.1416016 :
STEP .m     0.00000000 :
NULL .        -999.250000 :
COMP.           : COMPANY
WELL.  16/7-6   : WELL
FLD.            : FIELD
LOC.            : LOCATION
SRVC.           : SERVICE COMPANY
DATE.  2018-09-11 14:48:11   : Log Export Date {yyyy-MM-dd HH:mm:ss}
PROV.           : PROVINCE
UWI.   16/7-6   : UNIQUE WELL ID
API.            : API NUMBER
#==================================================================
~Curve
DEPT .m                   : DEPTH
Lithology_geolink ._      : Lithology_geolink
DCAL .in                  : DCAL
CALI .in                  : CALI
BS .in                    : BS
ROP .m/h                  : ROP
DRHO .g/cm3               : DRHO
THOR .ppm                 : THOR
SGR .gAPI                 : SGR
NPHI .m3/m3               : NPHI
RHOB .g/cm3               : RHOB
PEF .b/e                  : PEF
GR .gAPI                  : GR
URAN .ppm                 : URAN
DTC .us/ft                : DTC
DTS .us/ft                : DTS
RDEP .ohm.m               : RDEP
SP .mV                    : SP
RSHA .ohm.m               : RSHA
RMIC .ohm.m               : RMIC
RMED .ohm.m               : RMED
~Parameter
#==================================================================
~Ascii
# ...
 2605.8876953 5.0000000000 -0.101385094 12.148610115 12.250000954 337309.84375 -0.026905717 10.787870407 82.693901062 0.2055803984 2.4194912910 3.9335370064 89.548881531 2.2894139290 83.601463318 169.41909790 0.6951727271 -78.25007629 1.0783479214 1.9343401194 0.6984767914
 2606.0400391 5.0000000000 -0.298249215 11.951748848 12.250000954 349641.96875 -0.035624318 9.3101711273 84.325798035 0.2028692216 2.4152734280 4.2023711205 89.238952637 2.2975618839 84.250740051 173.01919556 0.6570200920 -78.00047302 1.0052375793 1.4579221010 0.6616276503
 2606.1926270 5.0000000000 -0.392858505 11.857138634 12.250000954 383143.12500 -0.038808282 8.4169416428 77.973098755 0.2180321664 2.3978888988 4.0061621666 88.543960571 2.0759570599 84.730888367 176.36100769 0.6048964262 -78.31202698 0.9011940956 1.1432890892 0.6116005182
 2606.3447266 5.0000000000 -0.456628829 11.793370247 12.250000954 450850.71875 -0.041544121 7.8697166443 71.473632813 0.2233204991 2.3551480770 3.8046720028 85.204559326 2.0756974220 87.293914795 178.93406677 0.5520669222 -78.56181335 0.7968391776 0.9324585199 0.5600649714
 2606.4970703 5.0000000000 -0.511259079 11.738740921 12.250000954 483057.75000 -0.037526499 8.0167274475 68.651016235 0.2473367006 2.3200259209 3.5951659679 81.113838196 2.1649668217 89.136871338 180.08247375 0.5079737902 -78.56250000 0.7139565945 0.8320298195 0.5156711936
 2606.6494141 5.0000000000 -0.514899313 11.735099792 12.250000954 415682.25000 -0.037633080 7.5909967422 70.147087097 0.2516736090 2.2949090004 3.7410190105 79.359710693 2.6353311539 91.088623047 179.65888977 0.4791898131 -78.50012207 0.6634877920 0.9065195918 0.4854888916
 2606.8017578 5.0000000000 -0.516696870 11.733300209 12.250000954 347865.87500 -0.032092441 7.9629449844 73.312843323 0.2415446937 2.2957990170 3.9565041065 80.507659912 2.5496912003 91.333831787 177.00889587 0.4686293006 -78.31341553 0.6479561925 1.2137789726 0.4742308855
 2606.9543457 5.0000000000 -0.515002310 11.734999657 12.250000954 326528.75000 -0.028143810 9.3256654739 77.551612854 0.2305472940 2.3023920059 4.3814787865 82.713790894 2.3984832764 91.216033936 174.27836609 0.4750319123 -78.25017548 0.6642566919 1.5586769581 0.4809297919
 2607.1066895 5.0000000000 -0.502510071 11.747488976 12.250000954 304970.40625 -0.028803799 9.3468399048 78.120498657 0.2381923050 2.3265790939 4.9300479889 85.193893433 2.3359308243 90.620384216 170.93116760 0.4959334135 -78.25000000 0.7050660253 1.6164180040 0.5009326935
 2607.2590332 5.0000000000 -0.502499580 11.747500420 12.250000954 265393.03125 -0.029234590 9.4438104630 77.401855469 0.2323037982 2.3512868881 4.9781861305 88.351486206 2.4211561680 89.499961853 167.28724670 0.5233367085 -78.18762970 0.7597759962 1.5738459826 0.5275378823
 2607.4113770 5.0000000000 -0.502699912 11.747299194 12.250000954 232503.92188 -0.030900043 9.6906881332 76.553817749 0.2193526030 2.3670730591 4.7651820183 91.105026245 2.5951995850 87.451934814 165.86546326 0.5500962138 -78.18750000 0.8152813911 1.5212819576 0.5547000766
 2607.5639648 5.0000000000 -0.519476891 11.730519295 12.250000954 302634.62500 -0.031896740 9.7611207962 79.180778503 0.2292172015 2.3635048866 4.5919032097 92.550559998 2.6761927605 86.563026428 166.08503723 0.5730041265 -78.56138611 0.8580889106 1.4615579844 0.5801022053
 2607.7163086 5.0000000000 -0.522697389 11.727299690 12.250000954 405227.62500 -0.032846101 9.8995466232 81.685684204 0.2317491025 2.3547089100 4.7419438362 92.723609924 2.8895695210 85.767677307 165.16168213 0.5918061137 -78.31314850 0.8836014271 1.4038800001 0.5998064876
 2607.8686523 5.0000000000 -0.522000313 11.728001595 12.250000954 418572.50000 -0.026612209 10.283864021 82.268272400 0.2288679034 2.3538010120 4.6631751060 92.817253113 2.6925916672 86.899658203 165.78041077 0.6049103737 -78.31250000 0.8977122903 1.3683249950 0.6136127114
 2608.0209961 5.0000000000 -0.523099899 11.726901054 12.250000954 427852.21875 -0.033580240 10.923954010 80.806152344 0.2231339067 2.3578989506 4.7356548309 92.672523499 2.5238363743 87.096946716 166.44743347 0.6146141291 -78.49935150 0.9087190032 1.3970119953 0.6247158051
 2608.1733398 5.0000000000 -0.522800386 11.727199554 12.250000954 507088.65625 -0.030722961 10.908123970 75.574684143 0.2261631042 2.3667869568 4.7389712334 92.203079224 2.5921616554 86.704689026 166.78681946 0.6232010722 -78.62441254 0.9200028181 1.4837570190 0.6344004273
 2608.3259277 5.0000000000 -0.522300720 11.727701187 12.250000954 603522.68750 -0.025515700 12.045813560 75.629684448 0.2264034003 2.3583099842 4.6938948631 92.138221741 2.1937179565 84.808746338 166.92169189 0.6303985119 -78.74966431 0.9302002788 1.5273699760 0.6420993209
 2608.4782715 5.0000000000 -0.523098886 11.726901054 12.250000954 613191.93750 -0.021746339 11.997500420 82.638847351 0.2214102000 2.3584001064 4.4039211273 92.114532471 2.1560444832 84.092842102 170.64073181 0.6337980032 -78.25064850 0.9362940192 1.4439619780 0.6461985111
 2608.6306152 5.0000000000 -0.524998724 11.724999428 12.250000954 599692.75000 -0.028178809 11.518328667 87.622222900 0.2323057950 2.3625979424 4.1920218468 91.660087585 2.2388999462 84.136177063 171.53077698 0.6340956092 -78.18654633 0.9355862141 1.3117439747 0.6469966173
 2608.7829590 5.0000000000 -0.522304475 11.727701187 12.250000954 569443.43750 -0.026338911 12.460632324 87.855072021 0.2350990027 2.3657948971 4.1849050522 91.263221741 2.3315989971 86.082733154 172.06788635 0.6318963170 -77.81309509 0.9283913970 1.2396539450 0.6453962922
 2608.9355469 5.0000000000 -0.527093887 11.722909927 12.250000954 541092.81250 -0.026992120 12.510913849 85.707244873 0.2473603040 2.3532159328 3.9698359966 92.792709351 2.4093766212 85.754623413 172.93070984 0.6281971931 -77.62506104 0.9180939794 1.2575910091 0.6421974897
 2609.0878906 6.0000000000 -0.544184685 11.705819130 12.250000954 557347.68750 -0.029689889 12.927990913 87.286262512 0.2290748060 2.3566970825 3.9145579338 95.879699707 2.1669492722 89.397773743 173.37739563 0.6243965030 -77.50033569 0.9084944725 1.3249690533 0.6388980150
 2609.2402344 6.0000000000 -0.564989090 11.685009956 12.250000954 596257.37500 -0.033763569 11.717673302 84.491683960 0.2241052985 2.3600978851 3.8455550671 98.042953491 2.0169429779 89.342628479 173.50509644 0.6208971143 -77.56407928 0.9013953805 1.3474609852 0.6363983750
 2609.3925781 6.0000000000 -0.575881004 11.674119949 12.250000954 668138.25000 -0.029568000 10.903796196 84.190650940 0.2161255032 2.3698830605 4.0296897888 96.638328552 1.9023371935 89.310462952 173.33595276 0.6185020208 -78.18493652 0.8972032070 1.2498140335 0.6349020004
 2609.5451660 5.0000000000 -0.573203981 11.676800728 12.250000954 722085.31250 -0.027107110 9.9591436386 78.341384888 0.2250299007 2.3701000214 4.5760550499 90.587318420 1.8407284021 90.664329529 172.33370972 0.6174013019 -78.00064087 0.8951032758 1.1259039640 0.6346020103
 2609.6975098 5.0000000000 -0.580892622 11.669111252 12.250000954 647609.68750 -0.020458709 10.318670273 72.200141907 0.2317789048 2.3650050163 5.0721240044 83.405456543 2.2168571949 89.835243225 172.66654968 0.6173027754 -78.18720245 0.8953065872 1.0948439837 0.6354032755
 2609.8498535 4.0000000000 -0.618676186 11.631320000 12.250000954 554354.25000 -0.014482480 11.506254196 71.640487671 0.2272505015 2.3524079323 5.6913318634 79.366798401 2.2380368710 88.583694458 171.84432983 0.6187068820 -78.18750000 0.8988124728 1.1664839983 0.6375076175
 2610.0021973 4.0000000000 -0.676783621 11.573221207 12.250000954 502258.59375 -0.010905600 13.025294304 74.254104614 0.2166734040 2.3453021049 5.6476750374 80.757347107 2.3409857750 86.183258057 172.71359253 0.6227120757 -78.18750000 0.9064205885 1.2923729420 0.6421126723
 2610.1545410 5.0000000000 -0.709351540 11.540650368 12.250000954 461868.84375 -0.011610080 14.454280853 76.936004639 0.2198597044 2.3474969864 5.5834970474 86.251411438 2.6038835049 86.302314758 173.49201965 0.6295068264 -78.12520599 0.9181116223 1.4303820133 0.6493064165
 2610.3071289 5.0000000000 -0.673141479 11.576860428 12.250000954 491252.21875 -0.010859750 15.497115135 86.610183716 0.2265637964 2.3529939651 4.9276590347 93.870018005 2.8460335732 86.027313232 173.92869568 0.6383091211 -78.18747711 0.9332144856 1.5659320354 0.6582071185
