# LAS format log file from PETREL
# Project units are specified as depth units
#==================================================================
~Version information
VERS.   2.0:
WRAP.   NO:
#==================================================================
~Well
STRT .m      1317.4000244 :
STOP .m      2886.4997559 :
STEP .m     0.00000000 :
NULL .        -999.250000 :
COMP.           : COMPANY
WELL.  16/7-8 S Beta West   : WELL
FLD.            : FIELD
LOC.            : LOCATION
SRVC.           : SERVICE COMPANY
DATE.  2018-09-11 14:48:11   : Log Export Date {yyyy-MM-dd HH:mm:ss}
PROV.           : PROVINCE
UWI.   16/7-8 S   : UNIQUE WELL ID
API.            : API NUMBER
#==================================================================
~Curve
DEPT .m                   : DEPTH
Lithology_geolink ._      : Lithology_geolink
CALI .in                  : CALI
BS .in                    : BS
NPHI .m3/m3               : NPHI
RHOB .g/cm3               : RHOB
GR .gAPI                  : GR
RDEP .ohm.m               : RDEP
RMED .ohm.m               : RMED
~Parameter
#==================================================================
~Ascii
# ...
 2670.6000977 9.0000000000 8.6560001373 8.5000000000 0.0500000007 2.6447000504 3.6600000858 8.8199996948 7.8000001907
 2670.7001953 9.0000000000 8.7189998627 8.5000000000 0.0504000001 2.6447000504 3.6501467228 8.6899995804 7.4699997902
 2670.7998047 9.0000000000 8.7189998627 8.5000000000 0.0507990196 2.6447000504 3.7100000381 8.5204162598 7.4899506569
 2670.8999023 9.0000000000 8.7189998627 8.5000000000 0.0506004877 2.6447000504 3.8699998856 8.4302196503 7.5299024582
 2671.0000000 9.0000000000 8.7189998627 8.5000000000 0.0495026819 2.6447000504 4.1900000572 8.3801221848 7.2107806206
 2671.0998535 9.0000000000 8.7189998627 8.5000000000 0.0482031778 2.6447000504 4.6799998283 8.3699998856 6.8800001144
 2671.1999512 9.0000000000 8.6870002747 8.5000000000 0.0475017056 2.6447000504 5.1399998665 8.2299995422 6.9499998093
 2671.3000488 9.0000000000 8.7189998627 8.5000000000 0.0474999994 2.6546757221 5.4000000954 8.1899995804 6.8200001717
 2671.3999023 9.0000000000 8.6870002747 8.5000000000 0.0476995111 2.6547000408 5.4600000381 8.1199998856 7.0799999237
 2671.5000000 9.0000000000 8.6870002747 8.5000000000 0.0476999991 2.6547000408 5.4800000191 8.0200004578 7.3200001717
 2671.5998535 9.0000000000 8.7189998627 8.5000000000 0.0472000018 2.6447000504 5.4899997711 8.0200004578 7.0599999428
 2671.6999512 9.0000000000 8.7189998627 8.5000000000 0.0461000018 2.6447000504 5.4000000954 7.9600000381 7.0199999809
 2671.8000488 9.0000000000 8.6870002747 8.5000000000 0.0447999984 2.6447000504 5.1199998856 7.9400000572 7.1900000572
 2671.8999023 9.0000000000 8.7189998627 8.5000000000 0.0447000004 2.6547000408 4.6599998474 7.9099998474 7.4899997711
 2672.0000000 9.0000000000 8.7189998627 8.5000000000 0.0452999994 2.6547000408 4.1300001144 7.8200001717 7.6700000763
 2672.1000977 9.0000000000 8.7189998627 8.5000000000 0.0460000001 2.6447000504 3.6700000763 7.7600002289 7.6700000763
 2672.1999512 9.0000000000 8.6870002747 8.5000000000 0.0465999991 2.6447000504 3.4400000572 7.7500000000 7.6199998856
 2672.3000488 9.0000000000 8.6870002747 8.5000000000 0.0469999984 2.6447000504 3.4600000381 7.7399997711 7.3800001144
 2672.4001465 9.0000000000 8.7189998627 8.5000000000 0.0474999994 2.6447000504 3.6500000954 7.7500000000 7.2500000000
 2672.5000000 9.0000000000 8.6870002747 8.5000000000 0.0483999997 2.6547000408 3.9700000286 7.6900000572 7.3000001907
 2672.6000977 9.0000000000 8.6870002747 8.5000000000 0.0498000011 2.6547000408 4.4299998283 7.7399997711 7.2800002098
 2672.7001953 9.0000000000 8.6870002747 8.5000000000 0.0511999987 2.6547000408 4.9499998093 7.7399997711 6.9600000381
 2672.8000488 9.0000000000 8.6870002747 8.5000000000 0.0520999990 2.6547000408 5.4400000572 7.7600002289 6.6599998474
 2672.9001465 9.0000000000 8.6870002747 8.5000000000 0.0520000011 2.6547000408 5.8400001526 7.7100000381 7.1100001335
 2673.0002441 9.0000000000 8.6870002747 8.5000000000 0.0507999994 2.6447000504 6.0300002098 7.6599998474 6.4200000763
 2673.0998535 9.0000000000 8.6870002747 8.5000000000 0.0494034253 2.6447000504 5.9400000572 7.6300735474 6.4399509430
 2673.1999512 9.0000000000 8.7189998627 8.5000000000 0.0482029282 2.6447000504 5.6799998283 7.5202684402 6.5696830750
 2673.2998047 9.0000000000 8.7189998627 8.5000000000 0.0474039055 2.6447000504 5.3499999046 7.1418533325 6.9381952286
 2673.3999023 9.0000000000 8.6870002747 8.5000000000 0.0469012223 2.6546754837 5.0500001907 7.1000976563 6.9899997711
 2673.5000000 9.0000000000 8.6870002747 8.5000000000 0.0468002409 2.6547000408 4.8099999428 7.0799999237 6.9400000572
 2673.5998535 9.0000000000 8.6870002747 8.5000000000 0.0467999987 2.6547000408 4.5999999046 6.9000000954 6.8800001144
 2673.6999512 9.0000000000 8.7189998627 8.5000000000 0.0472987816 2.6547000408 4.4899997711 6.7600002289 6.8899998665
 2673.8000488 9.0000000000 8.7189998627 8.5000000000 0.0484970734 2.6547000408 4.5700001717 6.6999998093 6.8099999428
 2673.8999023 9.0000000000 8.7189998627 8.5000000000 0.0505999997 2.6447000504 4.9699997902 6.5399999619 6.5300002098
 2674.0000000 9.0000000000 8.7189998627 8.5000000000 0.0531000011 2.6447000504 5.5500001907 6.1399998665 6.5300002098
 2674.1000977 9.0000000000 8.7189998627 8.5000000000 0.0538999997 2.6447000504 5.9800000191 6.0199999809 6.3899998665
 2674.1999512 10.000000000 8.7189998627 8.5000000000 0.0524000004 2.6447000504 6.0000000000 6.0500001907 6.2199997902
 2674.3000488 10.000000000 8.7189998627 8.5000000000 0.0498999991 2.6447000504 5.5500001907 5.8000001907 6.3600001335
 2674.3999023 10.000000000 8.6870002747 8.5000000000 0.0480000004 2.6447000504 4.8400001526 5.6799998283 6.5000000000
 2674.5000000 10.000000000 8.6870002747 8.5000000000 0.0478000008 2.6547000408 4.3200001717 5.6399998665 6.3899998665
 2674.6000977 10.000000000 8.6560001373 8.5000000000 0.0496000014 2.6547000408 4.3200001717 5.5300002098 6.0199999809
 2674.6999512 10.000000000 8.6870002747 8.5000000000 0.0535000004 2.6447000504 4.9000000954 5.4400000572 5.8000001907
 2674.8000488 10.000000000 8.6870002747 8.5000000000 0.0597999990 2.6447000504 5.8099999428 5.3299999237 5.5000000000
 2674.9001465 10.000000000 8.6870002747 8.5000000000 0.0680999979 2.6347000599 6.7300000191 5.2899999619 4.7500000000
 2675.0000000 10.000000000 8.7189998627 8.5000000000 0.0745000020 2.6147999763 7.2899999619 4.9400000572 4.5500001907
 2675.1000977 10.000000000 8.7189998627 8.5000000000 0.0756999999 2.6047999859 7.3200001717 5.0799999237 4.4499998093
 2675.2001953 10.000000000 8.6870002747 8.5000000000 0.0729999989 2.6047999859 6.7100000381 5.1599998474 4.6199998856
 2675.3000488 10.000000000 8.6870002747 8.5000000000 0.0688999966 2.6147999763 5.6999998093 4.8899998665 5.0799999237
 2675.4001465 10.000000000 8.6870002747 8.5000000000 0.0648000017 2.6247999668 4.6583862305 4.6700000763 5.3400001526
 2675.4997559 10.000000000 8.6870002747 8.5000000000 0.0628097504 2.6346516609 4.0000000000 4.5605363846 5.3400001526
 2675.5998535 10.000000000 8.7189998627 8.5000000000 0.0679872930 2.6347000599 4.0100002289 4.5300736427 5.1404891014
 2675.6999512 10.000000000 8.6870002747 8.5000000000 0.0739853680 2.6248240471 4.5399999619 4.5200242996 5.0202927589
 2675.7998047 10.000000000 8.7189998627 8.5000000000 0.0809658542 2.6247999668 5.4600000381 4.2899999619 4.7699999809
 2675.8999023 10.000000000 8.6870002747 8.5000000000 0.0880826414 2.6148245335 6.5700001717 4.4099998474 4.1999998093
 2676.0000000 10.000000000 8.7189998627 8.5000000000 0.0942848772 2.6048243046 7.5799999237 4.2600002289 3.8099999428
 2676.0998535 10.000000000 8.7189998627 8.5000000000 0.0981809795 2.6047999859 8.1999998093 4.1599998474 3.5999999046
 2676.1999512 10.000000000 8.7500000000 8.5000000000 0.0974000022 2.5947999954 8.2600002289 4.1599998474 3.4700000286
 2676.3000488 10.000000000 8.7189998627 8.5000000000 0.0890000015 2.5947999954 7.8600001335 4.0999999046 3.4900000095
 2676.3999023 10.000000000 8.7500000000 8.5000000000 0.0864000022 2.5947999954 7.1599998474 3.9600000381 3.6199998856
 2676.5000000 10.000000000 8.6870002747 8.5000000000 0.0852999985 2.5947999954 6.3499999046 3.7999999523 3.7899999619
 2676.6000977 10.000000000 8.7189998627 8.5000000000 0.0854000002 2.6047999859 5.7500000000 3.7799999714 3.7599999905
 2676.6999512 10.000000000 8.7189998627 8.5000000000 0.0864000022 2.6047999859 5.5300002098 3.7300000191 3.7699999809
 2676.8000488 10.000000000 8.7189998627 8.5000000000 0.0877000019 2.6047999859 5.6900000572 3.6900000572 3.7100000381
 2676.9001465 10.000000000 8.7189998627 8.5000000000 0.0895999968 2.6047999859 6.0799999237 3.6600000858 3.5599999428
 2677.0000000 10.000000000 8.7189998627 8.5000000000 0.0939999968 2.5947999954 6.4800000191 3.6400001049 3.5299999714
 2677.1000977 10.000000000 8.7189998627 8.5000000000 0.0954999998 2.5848000050 6.7600002289 3.6300001144 3.4700000286
 2677.2001953 10.000000000 8.7500000000 8.5000000000 0.0966999978 2.5848000050 6.9299998283 3.5899999142 3.2699999809
 2677.3000488 10.000000000 8.7189998627 8.5000000000 0.0979000032 2.5748999119 6.8899998665 4.3099999428 4.0300002098
