# LAS format log file from PETREL
# Project units are specified as depth units
#==================================================================
~Version information
VERS.   2.0:
WRAP.   NO:
#==================================================================
~Well
STRT .m      1317.4000244 :
STOP .m      2886.4997559 :
STEP .m     0.00000000 :
NULL .        -999.250000 :
COMP.           : COMPANY
WELL.  16/7-8 S Beta West   : WELL
FLD.            : FIELD
LOC.            : LOCATION
SRVC.           : SERVICE COMPANY
DATE.  2018-09-11 14:48:11   : Log Export Date {yyyy-MM-dd HH:mm:ss}
PROV.           : PROVINCE
UWI.   16/7-8 S   : UNIQUE WELL ID
API.            : API NUMBER
#==================================================================
~Curve
DEPT .m                   : DEPTH
Lithology_geolink ._      : Lithology_geolink
CALI .in                  : CALI
BS .in                    : BS
NPHI .m3/m3               : NPHI
RHOB .g/cm3               : RHOB
GR .gAPI                  : GR
RDEP .ohm.m               : RDEP
RMED .ohm.m               : RMED
~Parameter
#==================================================================
~Ascii
# ...
 1630.2000732  -999.250000 8.5780000687 8.5000000000 0.5100042820 2.2255001068 72.680000305 1.0399999619 0.8500000238
 1630.3000488  -999.250000 8.5780000687 8.5000000000 0.5070000291 2.2255001068 73.300003052 1.0199999809 0.8700000048
 1630.4000244  -999.250000 8.5780000687 8.5000000000 0.5020999908 2.2056000233 72.860000610 1.0099999905 0.8899999857
 1630.5000000  -999.250000 8.5780000687 8.5000000000 0.4948999882 2.1956000328 71.809997559 1.0000000000 0.8899999857
 1630.6000977  -999.250000 8.5780000687 8.5000000000 0.4878999889 2.1856000423 71.779998779 0.9900000095 0.8999999762
 1630.7000732  -999.250000 8.5780000687 8.5000000000 0.4864999950 2.1756000519 73.212966919 0.9900000095 0.8500000238
 1630.8000488  -999.250000 8.5780000687 8.5000000000 0.4941999912 2.1756000519 75.642539978 0.9900000095 0.8399999738
 1630.8999023  -999.250000 8.5780000687 8.5000000000 0.5066695213 2.1756000519 77.720001221 0.9900000095 0.8399999738
 1631.0000000  -999.250000 8.5780000687 8.5000000000 0.5154892802 2.1756000519 78.400001526 0.9900000095 0.8399999738
 1631.0999756  -999.250000 8.5780000687 8.5000000000 0.5155000091 2.1756000519 78.360000610 0.9800000191 0.8399999738
 1631.1999512  -999.250000 8.5780000687 8.5000000000 0.5090158582 2.1756000519 78.029998779 0.9800000191 0.8399999738
 1631.3000488  -999.250000 8.5780000687 8.5000000000 0.5004104972 2.1855878830 77.819999695 0.9800000191 0.8399999738
 1631.4000244  -999.250000 8.5780000687 8.5000000000 0.4927093983 2.1955878735 77.559997559 0.9800000191 0.8299999833
 1631.5000000  -999.250000 8.5780000687 8.5000000000 0.4893999994 2.2056000233 76.860000610 0.9800000191 0.8199999928
 1631.6000977  -999.250000 8.5469999313 8.5000000000 0.4954000115 2.2056000233 75.930000305 0.9900000095 0.8199999928
 1631.7000732  -999.250000 8.5620002747 8.5000000000 0.5076000094 2.2056000233 75.250000000 0.9900000095 0.8199999928
 1631.8000488  -999.250000 8.5780000687 8.5000000000 0.5164999962 2.1956000328 75.129997253 1.0099999905 0.8100000024
 1631.9000244  -999.250000 8.5780000687 8.5000000000 0.5113999844 2.1856000423 75.259429932 1.0000000000 0.8299999833
 1632.0000000  -999.250000 8.5780000687 8.5000000000 0.4909250140 2.1756122112 74.790000916 1.0000000000 0.8499756455
 1632.0999756  -999.250000 8.5780000687 8.5000000000 0.4694262445 2.1657121181 73.830001831 0.9900000095 0.8700000048
 1632.1999512  -999.250000 8.5780000687 8.5000000000 0.4638068378 2.1755878925 73.290000916 0.9300000072 0.9200000167
 1632.2999268  -999.250000 8.5780000687 8.5000000000 0.4719800055 2.1756000519 74.010002136 0.9599999785 0.8700000048
 1632.4000244  -999.250000 8.5780000687 8.5000000000 0.4806893766 2.1756000519 75.400001526 1.0000000000 0.8299999833
 1632.5000000  -999.250000 8.5780000687 8.5000000000 0.4885903299 2.1657121181 76.290000916 0.9900000095 0.8299999833
 1632.5999756  -999.250000 8.5780000687 8.5000000000 0.4963809848 2.1656999588 76.599998474 0.9700000286 0.8399999738
 1632.7000732  -999.250000 8.5780000687 8.5000000000 0.5037999749 2.1756000519 76.750000000 0.9700000286 0.8399999738
 1632.8000488  -999.250000 8.5780000687 8.5000000000 0.5127000213 2.1756000519 76.889999390 0.9700000286 0.8399999738
 1632.9000244  -999.250000 8.5780000687 8.5000000000 0.5314000249 2.1756000519 76.989997864 0.9599999785 0.8600000143
 1633.0001221  -999.250000 8.5780000687 8.5000000000 0.5669999719 2.1756000519 76.658294678 0.9700000286 0.8600000143
 1633.1000977  -999.250000 8.5780000687 8.5000000000 0.5662999749 2.1756000519 75.959205627 0.9800000191 0.8600000143
 1633.1999512  -999.250000 8.5780000687 8.5000000000 0.5371356606 2.1756000519 75.309997559 0.9800000191 0.8500000238
 1633.2999268  -999.250000 8.5780000687 8.5000000000 0.5185453296 2.1756000519 74.720001221 0.9800000191 0.8500000238
 1633.4000244  -999.250000 8.5780000687 8.5000000000 0.5168020725 2.1756000519 74.209999084 0.9800000191 0.8500000238
 1633.5000000  -999.250000 8.5780000687 8.5000000000 0.5223931670 2.1855878830 73.849998474 0.9800000191 0.8500000238
 1633.5999756  -999.250000 8.5780000687 8.5000000000 0.5282927752 2.1856000423 73.750000000 0.9700000286 0.8399999738
 1633.7000732  -999.250000 8.5780000687 8.5000000000 0.5288993120 2.1856000423 73.860000610 0.9700000286 0.8399999738
 1633.8000488  -999.250000 8.5780000687 8.5000000000 0.5170000196 2.1856000423 74.319999695 0.9700000286 0.8399999738
 1633.9000244  -999.250000 8.5780000687 8.5000000000 0.4948000014 2.1956000328 75.440002441 0.9800000191 0.8299999833
 1634.0000000  -999.250000 8.5780000687 8.5000000000 0.4794000089 2.2056000233 76.930000305 0.9800000191 0.8299999833
 1634.1000977  -999.250000 8.5780000687 8.5000000000 0.4756999910 2.2056000233 77.819999695 0.9800000191 0.8299999833
 1634.2000732  -999.250000 8.5780000687 8.5000000000 0.4718999863 2.1956000328 77.548721313 0.9900000095 0.8199999928
 1634.3000488  -999.250000 8.5469999313 8.5000000000 0.4639999866 2.1856000423 76.499023438 1.0000000000 0.8199999928
 1634.3999023  -999.250000 8.5780000687 8.5000000000 0.4540243745 2.1756243706 75.699996948 1.0099999905 0.8299999833
 1634.5000000  -999.250000 8.5780000687 8.5000000000 0.4463093877 2.1657121181 75.470001221 0.9499999881 0.8799999952
 1634.5999756  -999.250000 8.5780000687 8.5000000000 0.4469991326 2.1557121277 75.449996948 0.9599999785 0.8700000048
 1634.6999512  -999.250000 8.5780000687 8.5000000000 0.4592700005 2.1556999683 75.279998779 0.9700000286 0.8600000143
 1634.8000488  -999.250000 8.5780000687 8.5000000000 0.4763790965 2.1556999683 74.870002747 0.9800000191 0.8500000238
 1634.9000244  -999.250000 8.6020002365 8.5000000000 0.4773987830 2.1556999683 74.589996338 0.9800000191 0.8500000238
 1635.0000000  -999.250000 8.6250000000 8.5000000000 0.4607000053 2.1556999683 74.970001221 0.9800000191 0.8399999738
 1635.1000977  -999.250000 8.6250000000 8.5000000000 0.4447000027 2.1556999683 76.220001221 0.9800000191 0.8500000238
 1635.2000732  -999.250000 8.5780000687 8.5000000000 0.4413000047 2.1556999683 77.940002441 0.9800000191 0.8500000238
 1635.3000488  -999.250000 8.5780000687 8.5000000000 0.4435000122 2.1556999683 78.760002136 0.9700000286 0.8500000238
 1635.4000244  -999.250000 8.5780000687 8.5000000000 0.4435999990 2.1656999588 77.917610168 0.9800000191 0.8500000238
 1635.5001221  -999.250000 8.5780000687 8.5000000000 0.4411000013 2.1656999588 75.958168030 0.9800000191 0.8600000143
 1635.5999756  -999.250000 8.5780000687 8.5000000000 0.4455945194 2.1656999588 74.459999084 0.9800000191 0.8600000143
 1635.6999512  -999.250000 8.5780000687 8.5000000000 0.4612808228 2.1656999588 74.339996338 0.9700000286 0.8700000048
 1635.7999268  -999.250000 8.5780000687 8.5000000000 0.4803534150 2.1656999588 75.639999390 0.9700000286 0.8700000048
 1635.9000244  -999.250000 8.5780000687 8.5000000000 0.4966800809 2.1755878925 78.000000000 0.9700000286 0.8600000143
 1636.0000000  -999.250000 8.5780000687 8.5000000000 0.5104831457 2.1756000519 80.430000305 0.9800000191 0.8600000143
 1636.0999756  -999.250000 8.5780000687 8.5000000000 0.5153880119 2.1855757236 81.610000610 0.9700000286 0.8500000238
 1636.2000732  -999.250000 8.5780000687 8.5000000000 0.5091000199 2.1956000328 81.629997253 0.9599999785 0.8500000238
 1636.3000488  -999.250000 8.5780000687 8.5000000000 0.4986000061 2.1956000328 81.400001526 0.9700000286 0.8500000238
 1636.4000244  -999.250000 8.5780000687 8.5000000000 0.4948999882 2.1956000328 81.419998169 0.9700000286 0.8500000238
 1636.5001221  -999.250000 8.5780000687 8.5000000000 0.5034000278 2.1956000328 81.580001831 0.9700000286 0.8399999738
 1636.6000977  -999.250000 8.5780000687 8.5000000000 0.5200999975 2.1956000328 81.378974915 0.9700000286 0.8399999738
 1636.6999512  -999.250000 8.5780000687 8.5000000000 0.5347820520 2.1956000328 80.540000916 0.9700000286 0.8399999738
 1636.7999268  -999.250000 8.5780000687 8.5000000000 0.5366976857 2.1856122017 79.309997559 0.9700000286 0.8399999738
 1636.9000244  -999.250000 8.5780000687 8.5000000000 0.5216184258 2.1756122112 78.269996643 0.9700000286 0.8399999738
