# LAS format log file from PETREL
# Project units are specified as depth units
#==================================================================
~Version information
VERS.   2.0:
WRAP.   NO:
#==================================================================
~Well
STRT .m      446.31985474 :
STOP .m      2908.1892090 :
STEP .m     0.00000000 :
NULL .        -999.250000 :
COMP.           : COMPANY
WELL.  16/7-5   : WELL
FLD.            : FIELD
LOC.            : LOCATION
SRVC.           : SERVICE COMPANY
DATE.  2018-09-11 14:48:11   : Log Export Date {yyyy-MM-dd HH:mm:ss}
PROV.           : PROVINCE
UWI.   16/7-5   : UNIQUE WELL ID
API.            : API NUMBER
#==================================================================
~Curve
DEPT .m                   : DEPTH
Lithology_geolink ._      : Lithology_geolink
CALI .in                  : CALI
DRHO .g/cm3               : DRHO
NPHI .m3/m3               : NPHI
RHOB .g/cm3               : RHOB
PEF .b/e                  : PEF
GR .gAPI                  : GR
DTC .us/ft                : DTC
RDEP .ohm.m               : RDEP
SP .mV                    : SP
RSHA .ohm.m               : RSHA
RMED .ohm.m               : RMED
~Parameter
#==================================================================
~Ascii
# ...
 775.50384521  -999.250000 17.604999542  -999.250000  -999.250000 1.9653626680  -999.250000 79.041000366 167.22950745 1.3389959335 38.275424957 1.1939855814 1.1939855814
 775.65625000  -999.250000 17.569999695  -999.250000  -999.250000 1.9638795853  -999.250000 77.098464966 167.72463989 1.3289923668 36.183849335 1.1899964809 1.1899964809
 775.80865479  -999.250000 17.589000702  -999.250000  -999.250000 1.9630699158  -999.250000 75.034011841 168.00216675 1.3099775314 36.974285126 1.1889207363 1.1889207363
 775.96105957  -999.250000 17.875000000  -999.250000  -999.250000 1.9632903337  -999.250000 80.571487427 167.92678833 1.2819839716 37.607185364 1.1669532061 1.1669532061
 776.11346436  -999.250000 18.274999619  -999.250000  -999.250000 1.9645372629  -999.250000 82.085121155 167.51622009 1.2619807720 37.929946899 1.1538990736 1.1538990736
 776.26580811  -999.250000 18.649000168  -999.250000  -999.250000 1.9661499262  -999.250000 81.285339355 166.97013855 1.2379915714 36.536388397 1.1259647608 1.1259647608
 776.41821289  -999.250000 18.398000717  -999.250000  -999.250000 1.9674333334  -999.250000 79.524467468 166.53503418 1.2169896364 37.591270447 1.1149840355 1.1149840355
 776.57061768  -999.250000 18.146999359  -999.250000  -999.250000 1.9686933756  -999.250000 79.671539307 166.11663818 1.1909908056 37.980033875 1.1099903584 1.1099903584
 776.72302246  -999.250000 18.069999695  -999.250000  -999.250000 1.9708132744  -999.250000 80.153976440 165.41050720 1.1679947376 36.127792358 1.1069999933 1.1069999933
 776.87542725  -999.250000 18.117000580  -999.250000  -999.250000 1.9740471840  -999.250000 81.075721741 164.36013794 1.1549971104 37.304695129 1.1069295406 1.1069295406
 777.02783203  -999.250000 18.165000916  -999.250000  -999.250000 1.9780650139  -999.250000 79.738471985 163.10974121 1.1480011940 36.278968811 1.0849936008 1.0849936008
 777.18023682  -999.250000 18.211999893  -999.250000  -999.250000 1.9822782278  -999.250000 78.010231018 161.82292175 1.1510008574 36.893852234 1.0829639435 1.0829639435
 777.33264160  -999.250000 18.240999222  -999.250000  -999.250000 1.9864215851  -999.250000 75.863044739 160.58523560 1.1530032158 37.679584503 1.0730683804 1.0730683804
 777.48504639  -999.250000 18.240999222  -999.250000  -999.250000 1.9903180599  -999.250000 75.885223389 159.46342468 1.1610040665 36.734554291 1.0920108557 1.0920108557
 777.63745117  -999.250000 18.120000839  -999.250000  -999.250000 1.9932107925  -999.250000 78.729896545 158.63890076 1.1710040569 36.337364197 1.0950541496 1.0950541496
 777.78985596  -999.250000 17.959999084  -999.250000  -999.250000 1.9949638844  -999.250000 83.944458008 158.14926147 1.1809991598 36.991142273 1.1100144386 1.1100144386
 777.94226074  -999.250000 17.912000656  -999.250000  -999.250000 1.9965674877  -999.250000 81.311302185 157.70361328 1.1799935102 37.024173737 1.1140215397 1.1140215397
 778.09466553  -999.250000 17.864000320  -999.250000  -999.250000 1.9993047714  -999.250000 82.782150269 156.96824646 1.1719944477 35.417720795 1.1199134588 1.1199134588
 778.24700928  -999.250000 17.864000320  -999.250000  -999.250000 2.0034799576  -999.250000 84.228332520 155.86262512 1.1649999619 36.442775726 1.0959166288 1.0959166288
 778.39941406  -999.250000 17.864000320  -999.250000  -999.250000 2.0080199242  -999.250000 91.172561646 154.68049622 1.1650063992 35.436241150 1.0699039698 1.0699039698
 778.55181885  -999.250000 17.878000259  -999.250000  -999.250000 2.0119600296  -999.250000 89.805702209 153.69470215 1.1810071468 34.271316528 1.0399583578 1.0399583578
 778.70422363  -999.250000 17.908000946  -999.250000  -999.250000 2.0157332420  -999.250000 94.371559143 152.77499390 1.1990123987 35.612731934 1.0269902945 1.0269902945
 778.85662842  -999.250000 17.945999146  -999.250000  -999.250000 2.0193870068  -999.250000 91.747970581 151.89758301 1.2300171852 34.906749725 1.0240705013 1.0240705013
 779.00903320  -999.250000 17.979999542  -999.250000  -999.250000 2.0217204094  -999.250000 92.043228149 151.33952332 1.2730164528 34.833427429 1.0462242365 1.0462242365
 779.16143799  -999.250000 18.011999130  -999.250000  -999.250000 2.0227470398  -999.250000 89.942153931 151.09262085 1.3139864206 36.207271576 1.1161410809 1.1161410809
 779.31384277  -999.250000 18.045000076  -999.250000  -999.250000 2.0240674019  -999.250000 92.169998169 150.78910828 1.2799767256 35.050571442 1.1600396633 1.1600396633
 779.46624756  -999.250000 18.113000870  -999.250000  -999.250000 2.0261106491  -999.250000 92.717453003 150.32635498 1.2219346762 35.761058807 1.1709387302 1.1709387302
 779.61865234  -999.250000 18.181999207  -999.250000  -999.250000 2.0274734497  -999.250000 91.459281921 150.02423096 1.0589487553 35.776889801 1.1539567709 1.1539567709
 779.77105713  -999.250000 18.250000000  -999.250000  -999.250000 2.0273096561  -999.250000 91.268547058 150.05677795 0.9309551120 35.746711731 1.1416287422 1.1416287422
 779.92346191  -999.250000 18.302000046  -999.250000  -999.250000 2.0265829563  -999.250000 93.630393982 150.21577454 0.8190360665 35.939853668 1.0383657217 1.0383657217
 780.07586670  -999.250000 18.250999451  -999.250000  -999.250000 2.0264301300  -999.250000 93.722999573 150.25386047 0.8640400767 34.798568726 0.8625999093 0.8625999093
 780.22827148  -999.250000 18.162000656  -999.250000  -999.250000 2.0265998840  -999.250000 88.739326477 150.21768188 0.9140120149 36.058956146 0.7520864606 0.7520864606
 780.38061523  -999.250000 18.094999313  -999.250000  -999.250000 2.0267300606  -999.250000 86.608032227 150.18936157 0.9289888144 35.217899323 0.7765638828 0.7765638828
 780.53302002  -999.250000 18.027000427  -999.250000  -999.250000 2.0274200439  -999.250000 83.816284180 150.03196716 0.9009867907 35.499908447 0.9528234005 0.9528234005
 780.68542480  -999.250000 17.958999634  -999.250000  -999.250000 2.0285766125  -999.250000 82.652198792 149.76702881 0.8680464029 36.092678070 1.2093652487 1.2093652487
 780.83782959  -999.250000 17.891000748  -999.250000  -999.250000 2.0294599533  -999.250000 80.224029541 149.57096863 0.9840793014 35.991733551 1.3229678869 1.3229678869
 780.99023438  -999.250000 17.857000351  -999.250000  -999.250000 2.0294532776  -999.250000 79.929901123 149.57221985 1.1820797920 35.597595215 1.3126827478 1.3126827478
 781.14263916  -999.250000 17.844999313  -999.250000  -999.250000 2.0276987553  -999.250000 82.083206177 149.96371460 1.3810472488 35.470897675 1.2137179375 1.2137179375
 781.29504395  -999.250000 17.833000183  -999.250000  -999.250000 2.0246121883  -999.250000 83.388908386 150.66908264 1.4990051985 35.131301880 1.1257693768 1.1257693768
 781.44744873  -999.250000 17.822000504  -999.250000  -999.250000 2.0228433609  -999.250000 83.081016541 151.07438660 1.5119702816 36.045696259 1.0620937347 1.0620937347
 781.59985352  -999.250000 17.812999725  -999.250000  -999.250000 2.0247216225  -999.250000 81.143585205 150.64031982 1.4379719496 36.238910675 1.0882488489 1.0882488489
 781.75225830  -999.250000 17.812999725  -999.250000  -999.250000 2.0290951729  -999.250000 78.817703247 149.65113831 1.3680032492 36.214996338 1.1573042870 1.1573042870
 781.90466309  -999.250000 17.920000076  -999.250000  -999.250000 2.0332179070  -999.250000 78.743598938 148.70494080 1.3760141134 36.213321686 1.2331041098 1.2331041098
 782.05706787  -999.250000 18.146999359  -999.250000  -999.250000 2.0363709927  -999.250000 78.639846802 147.77185059 1.4110456705 36.044368744 1.2591280937 1.2591280937
 782.20947266  -999.250000 18.374000549  -999.250000  -999.250000 2.0377697945  -999.250000 77.848670959 147.21844482 1.4680209160 36.140758514 1.2910960913 1.2910960913
 782.36187744  -999.250000 18.752000809  -999.250000  -999.250000 2.0364289284  -999.250000 76.033889771 147.72387695 1.4940255880 37.316436768 1.3150160313 1.3150160313
 782.51422119  -999.250000 18.774999619  -999.250000  -999.250000 2.0341632366  -999.250000 78.236488342 148.49009705 1.5260092020 35.437385559 1.3189458847 1.3189458847
 782.66662598  -999.250000 18.520000458  -999.250000  -999.250000 2.0335032940  -999.250000 76.152893066 148.67207336 1.5490024090 36.097286224 1.3040215969 1.3040215969
