# LAS format log file from PETREL
# Project units are specified as depth units
#==================================================================
~Version information
VERS.   2.0:
WRAP.   NO:
#==================================================================
~Well
STRT .m      367.94241333 :
STOP .m      2651.6562500 :
STEP .m     0.00000000 :
NULL .        -999.250000 :
COMP.           : COMPANY
WELL.  16/7-1   : WELL
FLD.            : FIELD
LOC.            : LOCATION
SRVC.           : SERVICE COMPANY
DATE.  2018-09-11 14:48:09   : Log Export Date {yyyy-MM-dd HH:mm:ss}
PROV.           : PROVINCE
UWI.   16/7-1   : UNIQUE WELL ID
API.            : API NUMBER
#==================================================================
~Curve
DEPT .m                   : DEPTH
Lithology_geolink ._      : Lithology_geolink
DCAL .in                  : DCAL
CALI .in                  : CALI
BS .in                    : BS
DRHO .g/cm3               : DRHO
RHOB .g/cm3               : RHOB
GR .gAPI                  : GR
DTC .us/ft                : DTC
RDEP .ohm.m               : RDEP
SP .mV                    : SP
RSHA .ohm.m               : RSHA
RMED .ohm.m               : RMED
~Parameter
#==================================================================
~Ascii
# ...
 2635.6542969  -999.250000 -1.296849132 7.2031517029 8.5000000000 0.0048996089 2.0906929970  -999.250000  -999.250000  -999.250000 -1818.520996 16.294509888  -999.250000
 2635.8066406  -999.250000 -1.317618847 7.1823816299 8.5000000000 0.0013140630 2.0895049572  -999.250000  -999.250000  -999.250000 -1860.436035 16.860729218  -999.250000
 2635.9592285  -999.250000 -1.265902877 7.2340970039 8.5000000000 -0.003481250 2.0834240913  -999.250000  -999.250000  -999.250000 -1902.387939 14.582650185  -999.250000
 2636.1115723  -999.250000 -1.240697980 7.2593016624 8.5000000000 -0.003898437 2.0795149803  -999.250000  -999.250000  -999.250000 -1944.421997 14.680069923  -999.250000
 2636.2639160  -999.250000 -1.257931948 7.2420678139 8.5000000000 -0.001409766 2.0870699883  -999.250000  -999.250000  -999.250000 -1986.389038 12.708840370  -999.250000
 2636.4162598  -999.250000 -1.234691978 7.2653079033 8.5000000000 0.0017875000 2.0998499393  -999.250000  -999.250000  -999.250000 -2028.356079 11.054570198  -999.250000
 2636.5688477  -999.250000 -1.233504057 7.2664961815 8.5000000000 0.0027960939 2.1067728996  -999.250000  -999.250000  -999.250000 -2070.270996 11.879710197  -999.250000
 2636.7211914  -999.250000 -1.294660091 7.2053403854 8.5000000000 0.0013058590 2.1011219025  -999.250000  -999.250000  -999.250000 -2112.290039 15.248450279  -999.250000
 2636.8735352  -999.250000 -1.275576115 7.2244238853 8.5000000000 -0.000991016 2.0887479782  -999.250000  -999.250000  -999.250000 -2154.257080 13.089559555  -999.250000
 2637.0258789  -999.250000 -1.261754036 7.2382454872 8.5000000000 -0.001697266 2.0885009766  -999.250000  -999.250000  -999.250000 -2196.224121 13.857979774  -999.250000
 2637.1782227  -999.250000 -1.295966029 7.2040333748 8.5000000000 -0.001201953 2.0966680050  -999.250000  -999.250000  -999.250000 -2238.138916 20.095529556  -999.250000
 2637.3308105  -999.250000 -1.288629055 7.2113714218 8.5000000000 -0.000403125 2.0987920761  -999.250000  -999.250000  -999.250000 -2280.091064 17.212270737  -999.250000
 2637.4831543  -999.250000 -1.336711049 7.1632890701 8.5000000000 0.0032855470 2.1058719158  -999.250000  -999.250000  -999.250000 -2322.125000 19.612979889  -999.250000
 2637.6354980  -999.250000 -1.325942993 7.1740574837 8.5000000000 0.0041964841 2.1088879108  -999.250000  -999.250000  -999.250000 -2364.092041 23.283660889  -999.250000
 2637.7878418  -999.250000 -1.328290105 7.1717100143 8.5000000000 0.0015105470 2.1048159599  -999.250000  -999.250000  -999.250000 -2406.007080 12.131489754  -999.250000
 2637.9404297  -999.250000 -1.305390000 7.1946101189 8.5000000000 0.0026953120 2.1023099422  -999.250000  -999.250000  -999.250000 -2447.958984 8.2080945969  -999.250000
 2638.0927734  -999.250000 -1.218739986 7.2812600136 8.5000000000 0.0035964840 2.0950291157  -999.250000  -999.250000  -999.250000 -2489.992920 6.8423547745  -999.250000
 2638.2451172  -999.250000 -1.223878026 7.2761220932 8.5000000000 0.0032015620 2.0874300003  -999.250000  -999.250000  -999.250000 -2531.959961 5.0950198174  -999.250000
 2638.3974609  -999.250000 -1.202582955 7.2974171638 8.5000000000 0.0082800779 2.0957670212  -999.250000  -999.250000  -999.250000 -2573.875000 3.7165029049  -999.250000
 2638.5500488  -999.250000 -1.149009943 7.3509902954 8.5000000000 0.0102921901 2.1058609486  -999.250000  -999.250000  -999.250000 -2615.826904 6.1371350288  -999.250000
 2638.7023926  -999.250000 -1.176491022 7.3235096931 8.5000000000 0.0032277340 2.0991270542  -999.250000  -999.250000  -999.250000 -2657.861084 8.2420415878  -999.250000
 2638.8547363  -999.250000 -1.184967041 7.3150329590 8.5000000000 -0.003075391 2.0918290615  -999.250000  -999.250000  -999.250000 -2699.827881 9.6628150940  -999.250000
 2639.0070801  -999.250000 -1.211097956 7.2889018059 8.5000000000 -0.007980860 2.0899069309  -999.250000  -999.250000  -999.250000 -2741.794922 17.920829773  -999.250000
 2639.1594238  -999.250000 -1.281623960 7.2183756828 8.5000000000 -0.009394531 2.0936849117  -999.250000  -999.250000  -999.250000 -2783.709961 36.970199585  -999.250000
 2639.3120117  -999.250000 -1.251121044 7.2488784790 8.5000000000 -0.007407812 2.0951941013  -999.250000  -999.250000  -999.250000 -2825.662109 32.758659363  -999.250000
 2639.4643555  -999.250000 -1.266638041 7.2333621979 8.5000000000 -0.008894141 2.0891239643  -999.250000  -999.250000  -999.250000 -2867.696045 25.834180832  -999.250000
 2639.6166992  -999.250000 -1.255941987 7.2440576553 8.5000000000 -0.010194920 2.0880041122  -999.250000  -999.250000  -999.250000 -2909.663086 25.619960785  -999.250000
 2639.7690430  -999.250000 -1.192747951 7.3072519302 8.5000000000 -0.008207813 2.0915861130  -999.250000  -999.250000  -999.250000 -2951.577881 16.201000214  -999.250000
 2639.9216309  -999.250000 -1.226665974 7.2733340263 8.5000000000 -0.004614063 2.0971779823  -999.250000  -999.250000  -999.250000 -2993.530029 18.058860779  -999.250000
 2640.0739746  -999.250000 -1.294335008 7.2056651115 8.5000000000 -0.002508203 2.1038739681  -999.250000  -999.250000  -999.250000 -3035.563965 20.824579239  -999.250000
 2640.2263184  -999.250000 -1.291114092 7.2088861465 8.5000000000 -0.001802734 2.1097769737  -999.250000  -999.250000  -999.250000 -3077.531006 24.234739304  -999.250000
 2640.3786621  -999.250000 -1.216194034 7.2838063240 8.5000000000 -0.001800000 2.1177690029  -999.250000  -999.250000  -999.250000 -3119.446045 20.702999115  -999.250000
 2640.5312500  -999.250000 -1.208230019 7.2917699814 8.5000000000 -0.003692578 2.1244740486  -999.250000  -999.250000  -999.250000 -3161.397949 21.344739914  -999.250000
 2640.6835938  -999.250000 -1.247246981 7.2527527809 8.5000000000 -0.006887500 2.1209139824  -999.250000  -999.250000  -999.250000 -3203.431885 25.651929855  -999.250000
 2640.8359375  -999.250000 -1.175282955 7.3247170448 8.5000000000 -0.008095313 2.1134290695  -999.250000  -999.250000  -999.250000 -3245.398926 27.647750854  -999.250000
 2640.9882813  -999.250000 -1.175598025 7.3244018555 8.5000000000 -0.007004297 2.1025431156  -999.250000  -999.250000  -999.250000 -3287.365967 16.340909958  -999.250000
 2641.1406250  -999.250000 -1.236261964 7.2637381554 8.5000000000 -0.005505859 2.0986149311  -999.250000  -999.250000  -999.250000 -3329.281006 24.692840576  -999.250000
 2641.2932129  -999.250000 -1.158306956 7.3416929245 8.5000000000 -0.006296875 2.1032819748  -999.250000  -999.250000  -999.250000 -3371.232910 18.508590698  -999.250000
 2641.4455566  -999.250000 -1.070641994 7.4293580055 8.5000000000 -0.010882030 2.1045949459  -999.250000  -999.250000  -999.250000 -3413.267090 5.7745308876  -999.250000
 2641.5979004  -999.250000 -1.072492003 7.4275083542 8.5000000000 -0.016776949 2.0988230705  -999.250000  -999.250000  -999.250000 -3455.233887 5.4476299286  -999.250000
 2641.7502441  -999.250000 -1.066524029 7.4334759712 8.5000000000 -0.021182811 2.0989990234  -999.250000  -999.250000  -999.250000 -3497.148926 12.943070412  -999.250000
 2641.9028320  -999.250000 -1.047176003 7.4528241158 8.5000000000 -0.025582811 2.1009919643  -999.250000  -999.250000  -999.250000 -3539.101074 18.396579742  -999.250000
 2642.0551758  -999.250000 -0.944701672 7.5552983284 8.5000000000 -0.032672260 2.1019959450  -999.250000  -999.250000  -999.250000 -3581.135010 24.543939590  -999.250000
 2642.2075195  -999.250000 -0.829151571 7.6708478928 8.5000000000 -0.027619921 2.1086740494  -999.250000  -999.250000  -999.250000 -3623.102051 13.939590454  -999.250000
 2642.3598633  -999.250000 -0.938369811 7.5616302490 8.5000000000 -0.014252340 2.1161708832  -999.250000  -999.250000  -999.250000 -3665.017090 18.502080917  -999.250000
 2642.5124512  -999.250000 -1.125766993 7.3742327690 8.5000000000 -0.006430469 2.1138091087  -999.250000  -999.250000  -999.250000 -3706.968994 27.336580276  -999.250000
 2642.6647949  -999.250000 -1.111160040 7.3888397217 8.5000000000 -0.006200782 2.1073250771  -999.250000  -999.250000  -999.250000 -3749.002930 16.206399918  -999.250000
 2642.8171387  -999.250000 -1.241089940 7.2589092255 8.5000000000 -0.008196086 2.1014230251  -999.250000  -999.250000  -999.250000 -3790.969971 8.0508460999  -999.250000
