# LAS format log file from PETREL
# Project units are specified as depth units
#==================================================================
~Version information
VERS.   2.0:
WRAP.   NO:
#==================================================================
~Well
STRT .m      1110.8436279 :
STOP .m      2733.1416016 :
STEP .m     0.00000000 :
NULL .        -999.250000 :
COMP.           : COMPANY
WELL.  16/7-6   : WELL
FLD.            : FIELD
LOC.            : LOCATION
SRVC.           : SERVICE COMPANY
DATE.  2018-09-11 14:48:11   : Log Export Date {yyyy-MM-dd HH:mm:ss}
PROV.           : PROVINCE
UWI.   16/7-6   : UNIQUE WELL ID
API.            : API NUMBER
#==================================================================
~Curve
DEPT .m                   : DEPTH
Lithology_geolink ._      : Lithology_geolink
DCAL .in                  : DCAL
CALI .in                  : CALI
BS .in                    : BS
ROP .m/h                  : ROP
DRHO .g/cm3               : DRHO
THOR .ppm                 : THOR
SGR .gAPI                 : SGR
NPHI .m3/m3               : NPHI
RHOB .g/cm3               : RHOB
PEF .b/e                  : PEF
GR .gAPI                  : GR
URAN .ppm                 : URAN
DTC .us/ft                : DTC
DTS .us/ft                : DTS
RDEP .ohm.m               : RDEP
SP .mV                    : SP
RSHA .ohm.m               : RSHA
RMIC .ohm.m               : RMIC
RMED .ohm.m               : RMED
~Parameter
#==================================================================
~Ascii
# ...
 2711.0437012  -999.250000 -0.531900406 11.718099594 12.250000954 180772.92188 -0.033027161  -999.250000 41.927898407  -999.250000 2.2674961090 3.4532170296  -999.250000  -999.250000 89.047042847 168.78199768 0.4576078057 -70.62513733 0.7830237150 6.1353788376 0.4626080990
 2711.1960449  -999.250000 -0.531900406 11.718099594 12.250000954 172389.09375 -0.033027161  -999.250000 41.928001404  -999.250000 2.2705988884 3.4532170296  -999.250000  -999.250000 91.105979919 171.37480164 0.4454034865 -70.43785858 0.7443112135 4.6475667953 0.4495038092
 2711.3483887  -999.250000 -0.531900406 11.718099594 12.250000954 181334.40625 -0.033027161  -999.250000  -999.250000  -999.250000 2.2706000805 3.4532170296  -999.250000  -999.250000 89.863525391 169.88571167 0.4343993962 -70.00067139 0.7105984092 4.2129330635 0.4375993907
 2711.5009766  -999.250000 -0.531900406 11.718099594 12.250000954 228005.56250  -999.250000  -999.250000  -999.250000  -999.250000  -999.250000  -999.250000  -999.250000  -999.250000 90.301986694 169.05039978 0.4268087149 -70.18728638 0.6888247728 4.0359930992 0.4291098118
 2711.6533203  -999.250000 -0.531900406 11.718099594 12.250000954 267031.18750  -999.250000  -999.250000  -999.250000  -999.250000  -999.250000  -999.250000  -999.250000  -999.250000 90.407012939 168.57928467 0.4243020117 -70.06279755 0.6828047037 3.8093430996 0.4259024858
 2711.8056641  -999.250000 -0.531900406 11.718099594 12.250000954 267903.56250  -999.250000  -999.250000  -999.250000  -999.250000  -999.250000  -999.250000  -999.250000  -999.250000 90.201774597 168.58000183 0.4262992144 -69.87538147 0.6914963126 3.4301779270 0.4282990098
 2711.9580078  -999.250000 -0.531900406 11.718099594 12.250000954 265364.18750  -999.250000  -999.250000  -999.250000  -999.250000  -999.250000  -999.250000  -999.250000  -999.250000 90.169906616 168.17819214 0.4294998050 -69.62541199 0.7077990770 3.0572490692 0.4343996942
 2712.1103516  -999.250000 -0.531900406 11.718099594 12.250000954 246674.54688  -999.250000  -999.250000  -999.250000  -999.250000  -999.250000  -999.250000  -999.250000  -999.250000 89.604103088 167.31790161 0.4325000942 -69.50016022 0.7210006118 2.9465029240 0.4402010143
 2712.2629395  -999.250000 -0.531900406 11.718099594 12.250000954 236448.65625  -999.250000  -999.250000  -999.250000  -999.250000  -999.250000  -999.250000  -999.250000  -999.250000 88.965484619 171.46270752 0.4326997995 -69.06359863 0.7227982879 3.5044360161 0.4432972074
 2712.4152832  -999.250000 -0.531900406 11.718099594 12.250000954 293492.93750  -999.250000  -999.250000  -999.250000  -999.250000  -999.250000  -999.250000  -999.250000  -999.250000 91.319313049 170.44020081 0.4306010902 -68.87539673 0.7126054764 5.5140480995 0.4432001114
 2712.5676270  -999.250000 -0.531900406 11.718099594 12.250000954 336677.37500  -999.250000  -999.250000  -999.250000  -999.250000  -999.250000  -999.250000  -999.250000  -999.250000 90.930366516 171.04962158 0.4282003939 -68.62544250 0.6988024712 9.8003711700 0.4420002103
 2712.7199707  -999.250000 -0.531900406 11.718099594 12.250000954 282046.28125  -999.250000  -999.250000  -999.250000  -999.250000  -999.250000  -999.250000  -999.250000  -999.250000 93.453781128 169.89570618 0.4287014008 -68.37535095 0.6926020980 14.870209694 0.4430013895
 2712.8725586  -999.250000 -0.531900406 11.718099594 12.250000954 214449.09375  -999.250000  -999.250000  -999.250000  -999.250000  -999.250000  -999.250000  -999.250000  -999.250000 93.393951416 170.16098022 0.4361920953 -68.12525940 0.7036883831 18.625310898 0.4501925111
 2713.0249023  -999.250000 -0.531900406 11.718099594 12.250000954 161416.89063  -999.250000  -999.250000  -999.250000  -999.250000  -999.250000  -999.250000  -999.250000  -999.250000 92.272346497 171.14680481 0.4540877044 -68.18744659 0.7395753264 16.755710602 0.4677880108
 2713.1772461  -999.250000 -0.531900406 11.718099594 12.250000954 103154.64844  -999.250000  -999.250000  -999.250000  -999.250000  -999.250000  -999.250000  -999.250000  -999.250000 89.792236328 170.63529968 0.4835908115 -67.87509155 0.8058791161 12.429050446 0.4968909025
 2713.3295898  -999.250000 -0.531900406 11.718099594 12.250000954 82376.398438  -999.250000  -999.250000  -999.250000  -999.250000  -999.250000  -999.250000  -999.250000  -999.250000 87.646118164 168.84950256 0.5214030147 -67.62497711 0.9054080248 9.5056991577 0.5336027741
 2713.4821777  -999.250000 -0.531900406 11.718099594 12.250000954 75160.687500  -999.250000  -999.250000  -999.250000  -999.250000  -999.250000  -999.250000  -999.250000  -999.250000 87.841270447 169.46749878 0.5680431724 -67.25042725 1.0342400074 7.7669281960 0.5786452889
 2713.6345215  -999.250000 -0.531900406 11.718099594 12.250000954 86119.218750  -999.250000  -999.250000  -999.250000  -999.250000  -999.250000  -999.250000  -999.250000  -999.250000 85.565322876 170.33049011 0.6130626798 -67.00019836 1.1793760061 6.7867050171 0.6219642162
 2713.7868652  -999.250000 -0.531900406 11.718099594 12.250000954 145870.39063  -999.250000  -999.250000  -999.250000  -999.250000  -999.250000  -999.250000  -999.250000  -999.250000 85.717636108 171.76519775 0.6447861195 -66.75010681 1.3100409508 6.1174869537 0.6522867084
 2713.9392090  -999.250000 -0.531900406 11.718099594 12.250000954 326121.03125  -999.250000  -999.250000  -999.250000  -999.250000  -999.250000  -999.250000  -999.250000  -999.250000 87.788887024 169.57789612 0.6533995271 -66.81250000 1.3717960119 4.6114840508 0.6607995033
 2714.0915527  -999.250000 -0.531900406 11.718099594 12.250000954 523818.06250  -999.250000  -999.250000  -999.250000  -999.250000  -999.250000  -999.250000  -999.250000  -999.250000 91.292678833 168.28129578 0.6283816099 -66.50000000 1.3116409779 2.3307399750 0.6373819709
 2714.2441406  -999.250000 -0.531900406 11.718099594 12.250000954 589960.87500  -999.250000  -999.250000  -999.250000  -999.250000  -999.250000  -999.250000  -999.250000  -999.250000 92.520271301 167.05430603 0.5715500116 -66.50000000 1.1336530447 1.2562890053 0.5819488764
 2714.3964844  -999.250000 -0.531900406 11.718099594 12.250000954 660073.37500  -999.250000  -999.250000  -999.250000  -999.250000  -999.250000  -999.250000  -999.250000  -999.250000 93.902442932 166.17089844 0.4991374016 -66.56246185 0.9163079858 0.8973826766 0.5097373724
 2714.5488281  -999.250000 -0.531900406 11.718099594 12.250000954 757138.12500  -999.250000  -999.250000  -999.250000  -999.250000  -999.250000  -999.250000  -999.250000  -999.250000 92.042449951 174.63769531 0.4313116968 -66.37503815 0.7341300249 0.7839326262 0.4418117106
 2714.7011719  -999.250000 -0.531900406 11.718099594 12.250000954 848890.81250  -999.250000  -999.250000  -999.250000  -999.250000  -999.250000  -999.250000  -999.250000  -999.250000 91.684310913 176.59950256 0.3791930974 -66.24997711 0.6091846824 0.7333449125 0.3892929852
 2714.8537598  -999.250000 -0.531900406 11.718099594 12.250000954 882706.06250  -999.250000  -999.250000  -999.250000  -999.250000  -999.250000  -999.250000  -999.250000  -999.250000 90.651374817 178.52661133 0.3434355855 -66.18756866 0.5319756269 0.7115545273 0.3532359898
 2715.0061035  -999.250000 -0.531900406 11.718099594 12.250000954 906602.56250  -999.250000  -999.250000  -999.250000  -999.250000  -999.250000  -999.250000  -999.250000  -999.250000 90.497802734 178.40820313 0.3216142952 -65.93766785 0.4896275997 0.7302045822 0.3316141963
 2715.1584473  -999.250000 -0.531900406 11.718099594 12.250000954 909217.00000  -999.250000  -999.250000  -999.250000  -999.250000  -999.250000  -999.250000  -999.250000  -999.250000 90.877090454 178.20788574 0.3123027980 -65.75006104 0.4734049141 0.8045310974 0.3227027059
 2715.3107910  -999.250000 -0.531900406 11.718099594 12.250000954 912195.50000  -999.250000  -999.250000  -999.250000  -999.250000  -999.250000  -999.250000  -999.250000  -999.250000 91.010940552 179.32450867 0.3137005866 -65.50000000 0.4774011970 0.9126722217 0.3248006105
 2715.4633789  -999.250000 -0.531900406 11.718099594 12.250000954 919952.56250  -999.250000  -999.250000  -999.250000  -999.250000  -999.250000  -999.250000  -999.250000  -999.250000 91.716674805 176.70060730 0.3235881925 -65.43757629 0.4970763922 1.1058650017 0.3355871141
