# LAS format log file from PETREL
# Project units are specified as depth units
#==================================================================
~Version information
VERS.   2.0:
WRAP.   NO:
#==================================================================
~Well
STRT .m      367.94241333 :
STOP .m      2651.6562500 :
STEP .m     0.00000000 :
NULL .        -999.250000 :
COMP.           : COMPANY
WELL.  16/7-1   : WELL
FLD.            : FIELD
LOC.            : LOCATION
SRVC.           : SERVICE COMPANY
DATE.  2018-09-11 14:48:09   : Log Export Date {yyyy-MM-dd HH:mm:ss}
PROV.           : PROVINCE
UWI.   16/7-1   : UNIQUE WELL ID
API.            : API NUMBER
#==================================================================
~Curve
DEPT .m                   : DEPTH
Lithology_geolink ._      : Lithology_geolink
DCAL .in                  : DCAL
CALI .in                  : CALI
BS .in                    : BS
DRHO .g/cm3               : DRHO
RHOB .g/cm3               : RHOB
GR .gAPI                  : GR
DTC .us/ft                : DTC
RDEP .ohm.m               : RDEP
SP .mV                    : SP
RSHA .ohm.m               : RSHA
RMED .ohm.m               : RMED
~Parameter
#==================================================================
~Ascii
# ...
 975.10400391  -999.250000 -0.116603903 12.133399963 12.250000954  -999.250000  -999.250000 85.465606689 44.436668396 1.3403029442 78.460762024 1.3147499561 1.3081519604
 975.25640869  -999.250000 -0.063851357 12.186149597 12.250000954  -999.250000  -999.250000 81.910156250 44.388084412 1.3012499809 78.506477356 1.2548630238 1.2887710333
 975.40881348  -999.250000 0.0830564573 12.333060265 12.250000954  -999.250000  -999.250000 77.631477356 44.306156158 1.2366789579 78.712806702 1.2693239450 1.2548179626
 975.56121826  -999.250000 0.1550292969 12.405030251 12.250000954  -999.250000  -999.250000 72.364227295 44.497875214 1.1665199995 78.974952698 1.1346650124 1.1986529827
 975.71362305 4.0000000000 0.0762767792 12.326279640 12.250000954  -999.250000  -999.250000 66.121093750 47.842166901 1.0856889486 79.110382080 0.8672460914 1.1357990503
 975.86602783 4.0000000000 0.1377401054 12.387740135 12.250000954  -999.250000  -999.250000 59.068378448 49.176952362 1.0000610352 78.915672302 1.0709999800 1.0649540424
 976.01843262 4.0000000000 0.3746680617 12.624670029 12.250000954  -999.250000  -999.250000 51.447731018 49.990219116 0.9173247814 78.736793518 1.0454690456 0.9983121157
 976.17083740 4.0000000000 0.7457379699 12.995739937 12.250000954  -999.250000  -999.250000 43.363391876 50.652248383 0.8452556729 79.059989929 0.7879921198 0.9395676851
 976.32324219 4.0000000000 0.9397115707 13.189709663 12.250000954  -999.250000  -999.250000 39.390968323 50.741882324 0.7887926102 79.232482910 0.8188924193 0.8892313242
 976.47564697 4.0000000000 0.9104290009 13.160429955 12.250000954  -999.250000  -999.250000 36.338970184 49.476478577 0.7390226722 79.294593811 0.8667845130 0.8409935832
 976.62805176 4.0000000000 0.9809312820 13.230931282 12.250000954  -999.250000  -999.250000 35.424289703 51.680976868 0.6985877156 79.482788086 0.9474360943 0.8104323149
 976.78045654 4.0000000000 0.9110689759 13.161068916 12.250000954  -999.250000  -999.250000 36.632408142 51.734558105 0.6781144738 79.744377136 0.9176238179 0.7929245830
 976.93286133 4.0000000000 0.7093973756 12.959400177 12.250000954  -999.250000  -999.250000 38.171989441 52.904808044 0.6624929905 79.829353333 0.9395632744 0.7785282135
 977.08520508 4.0000000000 0.5085964203 12.758600235 12.250000954  -999.250000  -999.250000 38.203258514 54.654548645 0.6526944041 79.852882385 0.9469391108 0.7666180730
 977.23760986 4.0000000000 0.3913145065 12.641309738 12.250000954  -999.250000  -999.250000 37.195781708 53.294582367 0.6495432258 79.822502136 0.9369779825 0.7576540112
 977.39001465 4.0000000000 0.3916988075 12.641698837 12.250000954  -999.250000  -999.250000 36.348720551 51.394309998 0.6515380740 79.758888245 0.9892221093 0.7539436817
 977.54241943 4.0000000000 0.4015902877 12.651590347 12.250000954  -999.250000  -999.250000 36.341701508 51.062294006 0.6546872258 79.760017395 1.0157690048 0.7513908148
 977.69482422 4.0000000000 0.4018001556 12.651800156 12.250000954  -999.250000  -999.250000 36.745998383 51.080272675 0.6569027901 79.815963745 0.9713696837 0.7470464706
 977.84722900 4.0000000000 0.3883132637 12.638310432 12.250000954  -999.250000  -999.250000 37.554199219 51.019496918 0.6576535106 79.919776917 1.0568209887 0.7419493198
 977.99963379 4.0000000000 0.3586283028 12.608630180 12.250000954  -999.250000  -999.250000 39.442150116 50.000125885 0.6569113731 80.094566345 1.2472579479 0.7346876264
 978.15203857 4.0000000000 0.4171428978 12.667140007 12.250000954  -999.250000  -999.250000 41.751541138 48.214725494 0.6556956768 80.101119995 0.9060201049 0.7293614745
 978.30438232 4.0000000000 0.5515679717 12.801569939 12.250000954  -999.250000  -999.250000 43.260318756 48.168823242 0.6545323133 79.990013123 0.9059376717 0.7258645296
 978.45678711 4.0000000000 0.5851678848 12.835170746 12.250000954  -999.250000  -999.250000 43.069679260 48.434185028 0.6538404226 80.010177612 0.9703049064 0.7216672897
 978.60919189 4.0000000000 0.6108751297 12.860879898 12.250000954  -999.250000  -999.250000 41.239078522 48.616241455 0.6553487182 80.123580933 0.8344892263 0.7229821086
 978.76153564 4.0000000000 0.8621540070 13.112150192 12.250000954  -999.250000  -999.250000 38.372890472 48.229873657 0.6575937867 80.198112488 0.8129680753 0.7264664173
 978.91394043 4.0000000000 1.1193490028 13.369350433 12.250000954  -999.250000  -999.250000 35.494800568 48.039405823 0.6606249809 80.012702942 0.8958585858 0.7273073196
 979.06634521 4.0000000000 1.1354850531 13.385479927 12.250000954  -999.250000  -999.250000 33.637210846 47.883895874 0.6641653180 79.979232788 0.9427734017 0.7262443900
 979.21875000 4.0000000000 0.8693599701 13.119359970 12.250000954  -999.250000  -999.250000 33.330589294 47.556598663 0.6656544805 80.030700684 0.9847295284 0.7242950797
 979.37115479 4.0000000000 0.4242352843 12.674240112 12.250000954  -999.250000  -999.250000 35.234329224 47.157798767 0.6653581858 79.915901184 0.9583247900 0.7226939201
 979.52355957 5.0000000000 0.2017174065 12.451719284 12.250000954  -999.250000  -999.250000 39.093620300 46.941028595 0.6657326818 79.693489075 0.9603521824 0.7193174958
 979.67596436 5.0000000000 0.2185831070 12.468580246 12.250000954  -999.250000  -999.250000 43.328460693 47.130950928 0.6669598818 79.847526550 1.0243719816 0.7181274295
 979.82836914 5.0000000000 0.3039169014 12.553919792 12.250000954  -999.250000  -999.250000 42.959159851 47.413803101 0.6688807011 79.955368042 0.9929127097 0.7178810835
 979.98077393 5.0000000000 0.4701376259 12.720139503 12.250000954  -999.250000  -999.250000 41.265949249 51.014289856 0.6728556752 79.922698975 0.9102674723 0.7181447744
 980.13317871 5.0000000000 0.7710065842 13.021010399 12.250000954  -999.250000  -999.250000 39.657470703 51.487518311 0.6789413095 79.843612671 0.9457147121 0.7211803794
 980.28558350 5.0000000000 0.8787947297 13.128789902 12.250000954  -999.250000  -999.250000 39.007030487 51.204418182 0.6807351708 79.869346619 0.7378576994 0.7290437818
 980.43798828 5.0000000000 0.4757938087 12.725790024 12.250000954  -999.250000  -999.250000 39.412601471 51.274097443 0.6805995703 79.822219849 0.7598116994 0.7352231145
 980.59039307 5.0000000000 0.0870800018 12.337080956 12.250000954  -999.250000  -999.250000 40.662570953 51.254344940 0.6807261109 79.818588257 1.0222029686 0.7329264879
 980.74279785 5.0000000000 0.0336513482 12.283650398 12.250000954  -999.250000  -999.250000 41.965820313 50.933269501 0.6816545725 79.800666809 1.0255210400 0.7328402996
 980.89514160 5.0000000000 0.0895452574 12.339549065 12.250000954  -999.250000  -999.250000 42.814369202 51.026809692 0.6841099858 79.784263611 0.9541426897 0.7353950143
 981.04754639 5.0000000000 0.1504411995 12.400440216 12.250000954  -999.250000  -999.250000 41.824859619 51.474323273 0.6869648099 79.960548401 0.9563843012 0.7391697168
 981.19995117 5.0000000000 0.2108411938 12.460840225 12.250000954  -999.250000  -999.250000 41.066730499 51.890708923 0.6877102852 80.161056519 0.9941279292 0.7389348149
 981.35235596 5.0000000000 0.2536582947 12.503659248 12.250000954  -999.250000  -999.250000 41.174789429 52.000343323 0.6865342855 80.238922119 0.9749937057 0.7352644801
 981.50476074 5.0000000000 0.2677870095 12.517789841 12.250000954  -999.250000  -999.250000 41.611568451 51.890800476 0.6840459704 80.274726868 0.9638314247 0.7284970284
 981.65716553 5.0000000000 0.2607069016 12.510709763 12.250000954  -999.250000  -999.250000 41.654449463 52.009918213 0.6809061766 79.978683472 0.9516662955 0.7238612771
 981.80957031 5.0000000000 0.2521086037 12.502109528 12.250000954  -999.250000  -999.250000 39.930278778 52.075477600 0.6783369184 79.788833618 0.9669343829 0.7251976728
 981.96197510 5.0000000000 0.2880649865 12.538060188 12.250000954  -999.250000  -999.250000 38.399288177 51.811370850 0.6748780012 79.870033264 1.0133329630 0.7293714881
 982.11437988 4.0000000000 0.3352546990 12.585249901 12.250000954  -999.250000  -999.250000 37.822059631 49.983203888 0.6733524203 80.004783630 1.0152499676 0.7288236022
 982.26678467 4.0000000000 0.3121232986 12.562120438 12.250000954  -999.250000  -999.250000 39.024620056 48.465637207 0.6740040779 80.125953674 0.9487308860 0.7272788882
