# LAS format log file from PETREL
# Project units are specified as depth units
#==================================================================
~Version information
VERS.   2.0:
WRAP.   NO:
#==================================================================
~Well
STRT .m      446.31985474 :
STOP .m      2908.1892090 :
STEP .m     0.00000000 :
NULL .        -999.250000 :
COMP.           : COMPANY
WELL.  16/7-5   : WELL
FLD.            : FIELD
LOC.            : LOCATION
SRVC.           : SERVICE COMPANY
DATE.  2018-09-11 14:48:11   : Log Export Date {yyyy-MM-dd HH:mm:ss}
PROV.           : PROVINCE
UWI.   16/7-5   : UNIQUE WELL ID
API.            : API NUMBER
#==================================================================
~Curve
DEPT .m                   : DEPTH
Lithology_geolink ._      : Lithology_geolink
CALI .in                  : CALI
DRHO .g/cm3               : DRHO
NPHI .m3/m3               : NPHI
RHOB .g/cm3               : RHOB
PEF .b/e                  : PEF
GR .gAPI                  : GR
DTC .us/ft                : DTC
RDEP .ohm.m               : RDEP
SP .mV                    : SP
RSHA .ohm.m               : RSHA
RMED .ohm.m               : RMED
~Parameter
#==================================================================
~Ascii
# ...
 1265.6221924  -999.250000 20.054000854 -0.006001602 0.5378784537 2.0416405201 2.7809822559 59.727310181 147.83003235 1.6160000563 58.136554718 1.3550000191 1.3550000191
 1265.7745361  -999.250000 20.034999847 -0.000009608 0.5420033932 2.0458176136 3.1284427643 59.825435638 146.14265442 1.6050000191 56.755451202 1.3550000191 1.3550000191
 1265.9270020  -999.250000 19.988000870 0.0039967950 0.5304293036 2.0515830517 3.7395105362 60.839206696 143.83666992 1.5959999561 57.775264740 1.3549840450 1.3549840450
 1266.0793457  -999.250000 20.015001297 0.0059983977 0.5280119181 2.0550370216 3.8369221687 61.838489532 142.46406555 1.5870000124 58.167270660 1.3499640226 1.3499640226
 1266.2318115  -999.250000 19.604999542 -0.001993595 0.5359136462 2.0558698177 3.4732913971 62.041648865 142.14868164 1.5759999752 57.450000763 1.3349519968 1.3349519968
 1266.3841553  -999.250000 20.009000778 -0.006995994 0.5286957622 2.0543129444 3.4799942970 62.242885590 142.76422119 1.5629999638 57.448432922 1.3199071884 1.3199071884
 1266.5366211  -999.250000 20.718999863 -0.006000801 0.5068774819 2.0502867699 3.7168102264 62.199577332 144.33955383 1.5499999523 56.962890625 1.2909007072 1.2909007072
 1266.6889648  -999.250000 19.978000641 -0.006999199 0.4954791367 2.0457527637 4.3624820709 59.884609222 146.14552307 1.5340000391 57.552886963 1.2599006891 1.2599006891
 1266.8414307  -999.250000 20.004999161 -0.002004003 0.4978780448 2.0432529449 4.3130402565 57.897212982 147.16636658 1.5039999485 58.138526917 1.2289134264 1.2289134264
 1266.9937744  -999.250000 19.665000916 -0.001000801 0.5284054875 2.0438404083 3.8563661575 58.275051117 146.91685486 1.4739999771 57.366741180 1.2020000219 1.2020000219
 1267.1461182  -999.250000 19.360000610 0.0029935949 0.5296080709 2.0462830067 3.9308798313 58.599605560 145.92143250 1.4450000525 56.354427338 1.2020000219 1.2020000219
 1267.2985840  -999.250000 20.298000336 -0.008990385 0.5450475812 2.0473964214 4.3346762657 57.185474396 145.46641541 1.4149999619 56.950839996 1.2020064592 1.2020064592
 1267.4509277  -999.250000 21.447999954 -0.013991994 0.5423244238 2.0450940132 5.0518503189 55.775016785 146.40405273 1.3919999599 58.145034790 1.2040215731 1.2040215731
 1267.6033936  -999.250000 20.920999527 -0.025990386 0.5610749722 2.0404758453 4.7862138748 54.957199097 148.32353210 1.3969999552 57.740997314 1.2129392624 1.2129392624
 1267.7557373  -999.250000 20.259000778 -0.021008005 0.5608503222 2.0371365547 3.7905964851 56.580059052 149.72062683 1.4010000229 56.497417450 1.1940504313 1.1940504313
 1267.9082031  -999.250000 20.583999634 -0.018002404 0.5462217331 2.0373547077 3.0775704384 58.269405365 149.61199951 1.4090000391 57.087127686 1.2151025534 1.2151025534
 1268.0605469  -999.250000 20.906999588 -0.009007211 0.5286641121 2.0401172638 2.3995432854 59.956058502 148.45007324 1.4249999523 57.439025879 1.2470600605 1.2470600605
 1268.2130127  -999.250000 19.964000702 -0.006002402 0.5113838315 2.0438792706 2.1991600990 61.642086029 146.90501404 1.4490000010 57.450000763 1.2720288038 1.2720288038
 1268.3653564  -999.250000 20.000000000 -0.003002404 0.5115898252 2.0480206013 2.0810947418 61.980453491 145.24812317 1.4789999723 57.447025299 1.2810215950 1.2810215950
 1268.5178223  -999.250000 19.388000488 -0.003000000 0.5038262010 2.0515716076 2.2748448849 62.168159485 143.83518982 1.5089999437 56.212635040 1.2900288105 1.2900288105
 1268.6701660  -999.250000 19.424999237 -0.010993590 0.4994734824 2.0527966022 2.3679254055 61.904945374 143.33517456 1.5390000343 56.415966034 1.2990256548 1.2990256548
 1268.8226318  -999.250000 19.360000610 -0.005004804 0.5197137594 2.0505774021 2.3090472221 61.259857178 144.21437073 1.5670000315 58.270294189 1.3070288897 1.3070288897
 1268.9749756  -999.250000 19.076000214 -0.003001603 0.5289326310 2.0458590984 2.1970896721 59.656238556 146.10713196 1.5789999962 57.428359985 1.3160288334 1.3160288334
 1269.1273193  -999.250000 19.520999908 -0.000004804 0.5545389056 2.0415439606 2.1760337353 58.170429230 147.85900879 1.5900000334 57.227813721 1.3250241280 1.3250241280
 1269.2797852  -999.250000 19.965000153 0.0029975963 0.5261627436 2.0406370163 2.2799165249 56.687156677 148.24522400 1.5850000381 56.737983704 1.3350288868 1.3350288868
 1269.4321289  -999.250000 19.378999710 0.0030000000 0.5144786835 2.0433759689 2.2141056061 56.427589417 147.12118530 1.5670000315 57.665519714 1.3440191746 1.3440191746
 1269.5845947  -999.250000 19.448999405 0.0059975963 0.5245819092 2.0470438004 2.1740319729 57.505924225 145.60913086 1.5499999523 57.462745667 1.3519743681 1.3519743681
 1269.7369385  -999.250000 20.063001633 -0.002985589 0.5261374712 2.0493202209 2.3007967472 58.730949402 144.69532776 1.5329999924 56.450000763 1.3439784050 1.3439784050
 1269.8894043  -999.250000 20.361999512 -0.003999199 0.4837339818 2.0500433445 2.6517186165 59.957923889 144.42269897 1.5190000534 56.451602936 1.3349744081 1.3349744081
 1270.0417480  -999.250000 21.224000931 -0.004999198 0.4409442544 2.0498399734 2.6170282364 61.182914734 144.50608826 1.5080000162 56.949840546 1.3269808292 1.3269808292
 1270.1942139  -999.250000 21.570999146 -0.005999200 0.4709759057 2.0487189293 2.4491343498 62.393508911 144.94268799 1.4980000257 56.881713867 1.3189616203 1.3189616203
 1270.3465576  -999.250000 20.669002533 -0.007998398 0.5020850897 2.0459227562 2.1362507343 62.863803864 146.07287598 1.4880000353 56.482002258 1.3069664240 1.3069664240
 1270.4990234  -999.250000 20.277999878 -0.008999199 0.5159589052 2.0419509411 2.1509881020 62.779319763 147.70225525 1.4780000448 56.484268188 1.2929551601 1.2929551601
 1270.6513672  -999.250000 19.680000305 -0.004004007 0.4931982756 2.0396699905 2.3728220463 61.631320953 148.65878296 1.4680000544 56.876644135 1.2789552212 1.2789552212
 1270.8038330  -999.250000 19.261999130 0.0009959969 0.5106759667 2.0410187244 2.6527760029 60.483318329 148.09860229 1.4620000124 56.453693390 1.2649551630 1.2649551630
 1270.9561768  -999.250000 19.715997696 0.0000008013 0.5212515593 2.0452108383 2.6360135078 59.338424683 146.37847900 1.4559999704 56.048892975 1.2510256767 1.2510256767
 1271.1086426  -999.250000 20.023000717 0.0000000000 0.5436021090 2.0495319366 2.4901168346 59.167736053 144.62792969 1.4509999752 56.639739990 1.2590736151 1.2590736151
 1271.2609863  -999.250000 20.100999832 -0.000999199 0.5017835498 2.0515732765 2.4000720978 61.894981384 143.80627441 1.4450000525 57.179714203 1.2820223570 1.2820223570
 1271.4133301  -999.250000 19.973999023 0.0019951963 0.4894896448 2.0511503220 2.4579069614 65.005729675 143.97456360 1.4390000105 56.780380249 1.2889879942 1.2889879942
 1271.5657959  -999.250000 20.010999680 0.0059967949 0.4560467899 2.0491728783 2.5589191914 66.550056458 144.75657654 1.4329999685 56.939567566 1.2839840651 1.2839840651
 1271.7181396  -999.250000 18.594999313 0.0030048038 0.5288032889 2.0466170311 2.8844778538 65.631797791 145.77746582 1.4279999733 57.427520752 1.2789664268 1.2789664268
 1271.8706055  -999.250000 19.222999573 0.0000024038 0.5430686474 2.0445497036 2.8500280380 64.713066101 146.62794495 1.4249999523 57.228179932 1.2649551630 1.2649551630
 1272.0229492  -999.250000 19.852001190 -0.002995196 0.5710052252 2.0436131954 2.4855842590 63.799625397 147.02091980 1.4220000505 57.284236908 1.2509856224 1.2509856224
 1272.1754150  -999.250000 19.528999329 0.0029951923 0.5265856385 2.0442810059 2.2262074947 64.477783203 146.74427795 1.4190000296 57.382312775 1.2450000048 1.2450000048
 1272.3277588  -999.250000 19.003999710 0.0049983975 0.5455447435 2.0464704037 2.1910281181 65.657836914 145.85723877 1.4160000086 57.480236053 1.2450120449 1.2450120449
 1272.4802246  -999.250000 18.736000061 0.0000040032 0.5225284696 2.0488679409 2.3358838558 66.840782166 144.89782715 1.4149999619 57.578311920 1.2500352859 1.2500352859
 1272.6325684  -999.250000 18.674999237 0.0000000000 0.5228996873 2.0505635738 2.3130183220 68.021781921 144.22166443 1.4140000343 57.675312042 1.2610384226 1.2610384226
 1272.7850342  -999.250000 19.028999329 0.0069943955 0.5258576274 2.0533828735 2.2610416412 69.202781677 143.12924194 1.4140000343 57.773315430 1.2730385065 1.2730385065
