# LAS format log file from PETREL
# Project units are specified as depth units
#==================================================================
~Version information
VERS.   2.0:
WRAP.   NO:
#==================================================================
~Well
STRT .m      446.31985474 :
STOP .m      2908.1892090 :
STEP .m     0.00000000 :
NULL .        -999.250000 :
COMP.           : COMPANY
WELL.  16/7-5   : WELL
FLD.            : FIELD
LOC.            : LOCATION
SRVC.           : SERVICE COMPANY
DATE.  2018-09-11 14:48:11   : Log Export Date {yyyy-MM-dd HH:mm:ss}
PROV.           : PROVINCE
UWI.   16/7-5   : UNIQUE WELL ID
API.            : API NUMBER
#==================================================================
~Curve
DEPT .m                   : DEPTH
Lithology_geolink ._      : Lithology_geolink
CALI .in                  : CALI
DRHO .g/cm3               : DRHO
NPHI .m3/m3               : NPHI
RHOB .g/cm3               : RHOB
PEF .b/e                  : PEF
GR .gAPI                  : GR
DTC .us/ft                : DTC
RDEP .ohm.m               : RDEP
SP .mV                    : SP
RSHA .ohm.m               : RSHA
RMED .ohm.m               : RMED
~Parameter
#==================================================================
~Ascii
# ...
 2575.0427246 13.000000000 10.921999931 -0.024980800 0.2255900055 2.4458796978 4.5859999657 51.905998230 90.669288635 1.8550000191 89.449996948 1.8669999838 1.8669999838
 2575.1950684 13.000000000 11.047000885 -0.020024039 0.2221699953 2.4563634396 4.4650001526 52.562999725 89.468643188 1.8099999428 89.699996948 1.9479999542 1.9479999542
 2575.3476563 13.000000000 11.000000000 -0.020996794 0.2299799919 2.4747347832 4.5590000153 56.187999725 87.971588135 1.7560000420 89.449996948 2.0120000839 2.0120000839
 2575.5000000 13.000000000 11.602000237 -0.024987180 0.2480500042 2.4815108776 5.1640000343 56.844001770 87.228820801 1.6979999542 88.949996948 1.9900000095 1.9900000095
 2575.6523438 13.000000000 11.484000206 -0.010071999 0.2846699953 2.4851272106 5.6880002022 56.062999725 86.899017334 1.7139999866 87.949996948 1.7549999952 1.7549999952
 2575.8046875 13.000000000 11.430000305 0.0059230770 0.2905299962 2.4795470238 6.5980000496 53.469001770 86.913681030 1.7309999466 88.699996948 1.7910000086 1.7910000086
 2575.9572754 13.000000000 11.444999695 0.0359038450 0.2880899906 2.4599204063 6.5040001869 53.375000000 87.967178345 1.7599999905 88.449996948 1.7999999523 1.7999999523
 2576.1096191 13.000000000 11.773000717 0.0230416674 0.2631800175 2.4392340183 6.2579998970 49.062999725 89.462341309 1.7669999599 88.449996948 2.0390000343 2.0390000343
 2576.2619629 13.000000000 11.656000137 0.0180160254 0.2519499958 2.4327182770 5.2300000191 50.625000000 90.177787781 1.8020000458 87.949996948 1.9420000315 1.9420000315
 2576.4143066 13.000000000 11.632999420 0.0179999992 0.2397499979 2.4405539036 5.1329998970 45.780998230 89.861465454 1.7779999971 87.949996948 2.0250000954 2.0250000954
 2576.5666504 13.000000000 11.616999626 0.0080480771 0.2392600030 2.4541347027 5.5040001869 50.750000000 89.217315674 1.7949999571 87.699996948 2.0390000343 2.0390000343
 2576.7192383 13.000000000 11.664000511 0.0109903850 0.2475600094 2.4756138325 5.7729997635 49.312999725 88.552627563 1.7710000277 87.949996948 2.1310000420 2.1310000420
 2576.8715820 13.000000000 11.741999626 0.0090064099 0.2612299919 2.4988923073 6.0269999504 57.844001770 87.858970642 1.7840000391 87.949996948 2.1860001087 2.1860001087
 2577.0239258 13.000000000 12.241999626 0.0229327995 0.2880899906 2.5133230686 6.0980000496 57.375000000 87.743537903 1.7920000553 87.199996948 2.0329999924 2.0329999924
 2577.1762695 13.000000000 11.843999863 0.0080721155 0.3090800047 2.5097932816 7.1560001373 63.969001770 88.400192261 1.8580000401 86.699996948 1.8819999695 1.8819999695
 2577.3288574 13.000000000 11.875000954 -0.004958333 0.2939499915 2.4921836853 6.4920001030 58.312999725 88.978225708 1.9119999409 86.949996948 1.7910000086 1.7910000086
 2577.4812012 13.000000000 12.430000305 -0.010980769 0.2695000172 2.4660642147 5.2659997940 56.437999725 88.695213318 1.8990000486 86.699996948 1.8819999695 1.8819999695
 2577.6335449 13.000000000 12.007999420 -0.016971201 0.2597700059 2.4359431267 4.7969999313 53.187999725 88.347351074 1.8739999533 86.949996948 2.1719999313 2.1719999313
 2577.7858887 13.000000000 12.062998772 -0.014014424 0.2622100115 2.4170866013 5.0079998970 57.937999725 89.600044250 1.8940000534 86.699996948 2.1410000324 2.1410000324
 2577.9384766 13.000000000 12.336000443 -0.019980770 0.2758799791 2.4171195030 5.8010001183 62.875000000 92.769691467 1.8960000277 86.449996948 2.0899999142 2.0899999142
 2578.0908203 13.000000000 12.211000443 -0.011028846 0.2724600136 2.4288692474 5.9299998283 62.530998230 96.327507019 1.9390000105 85.949996948 1.9379999638 1.9379999638
 2578.2431641 13.000000000 12.312999725 -0.021964744 0.2666000128 2.4380288124 5.3670001030 59.437999725 98.304061890 1.9320000410 85.699996948 1.8960000277 1.8960000277
 2578.3955078 13.000000000 12.750000000 -0.007072000 0.2612299919 2.4490873814 4.9609999657 55.687999725 98.185691833 1.7719999552 85.449996948 1.9960000515 1.9960000515
 2578.5478516 13.000000000 12.772999763 0.0119086541 0.2680699825 2.4625654221 4.7459998131 57.375000000 97.315689087 1.6250000000 85.199996948 2.0859999657 2.0859999657
 2578.7004395 13.000000000 12.991999626 0.0747980773 0.3281300068 2.4719886780 5.0430002213 62.875000000 97.093040466 1.5679999590 85.449996948 1.7580000162 1.7580000162
 2578.8527832 13.000000000 12.921999931 0.0799839720 0.3398400247 2.4738426208 5.3159999847 70.000000000 97.419059753 1.5030000210 85.449996948 1.5169999599 1.5169999599
 2579.0051270 13.000000000 13.836000443 0.0571103990 0.3481400013 2.4699499607 5.2420001030 74.688003540 97.686088562 1.4479999542 85.699996948 1.2669999599 1.2669999599
 2579.1574707 13.000000000 13.569999695 0.0361009613 0.3339799941 2.4663510323 4.8790001869 74.750000000 98.482315063 1.4160000086 84.949996948 1.2869999409 1.2869999409
 2579.3100586 13.000000000 13.453001022 0.0210480765 0.3452099860 2.4687137604 4.4840002060 74.000000000 100.35848236 1.2999999523 84.949996948 1.3819999695 1.3819999695
 2579.4624023 13.000000000 13.866999626 0.0170128215 0.3491199911 2.4764611721 4.6090002060 70.563003540 102.14806366 1.2139999866 85.449996948 1.4789999723 1.4789999723
 2579.6147461 13.000000000 13.593999863 0.0150095997 0.3325199783 2.4830944538 4.5700001717 67.938003540 102.58798218 1.1649999619 84.699996948 1.4889999628 1.4889999628
 2579.7670898 13.000000000 13.647999763 0.0219663456 0.3408200145 2.4858298302 4.8439998627 66.438003540 102.05249023 1.1119999886 84.949996948 1.4919999838 1.4919999838
 2579.9196777 13.000000000 13.602000237 0.0329647437 0.3383800089 2.4835679531 4.8790001869 72.063003540 101.65603638 1.0559999943 84.449996948 1.4359999895 1.4359999895
 2580.0720215 13.000000000 13.805000305 0.0399775617 0.3681600094 2.4796617031 5.2379999161 76.000000000 101.88488007 0.9919999838 84.949996948 1.3320000172 1.3320000172
 2580.2243652 13.000000000 13.538999557 0.0180705115 0.3520500064 2.4777894020 4.9959998131 78.125000000 102.44216156 0.9110000134 84.449996948 1.2389999628 1.2389999628
 2580.3767090 13.000000000 13.397999763 -0.005884800 0.3505899906 2.4762537479 5.2189998627 73.500000000 102.69204712 0.8569999933 84.699996948 1.0880000591 1.0880000591
 2580.5290527 13.000000000 13.734000206 -0.025903847 0.3291000128 2.4729008675 5.1479997635 73.000000000 102.50797272 0.8259999752 85.449996948 1.0039999485 1.0039999485
 2580.6816406 13.000000000 13.695000648 -0.035967946 0.3505899906 2.4618906975 6.1170001030 70.250000000 102.68106079 0.8450000286 85.199996948 0.8799999952 0.8799999952
 2580.8339844 13.000000000 13.383000374 -0.030019229 0.3613300025 2.4425706863 6.4730000496 74.938003540 103.65356445 0.9100000262 85.699996948 0.8830000162 0.8830000162
 2580.9863281 13.000000000 13.562999725 -0.029999999 0.3779299855 2.4179172516 7.9920001030 76.438003540 104.86399841 0.9909999967 85.699996948 0.9470000267 0.9470000267
 2581.1386719 13.000000000 13.328000069 -0.029004807 0.3764599860 2.3930375576 6.4060001373 85.438003540 105.20581055 1.0770000219 85.949996948 1.3090000153 1.3090000153
 2581.2912598 13.000000000 13.359000206 -0.024016026 0.3808599710 2.3706414700 4.9920001030 81.500000000 104.07764435 1.2339999676 85.699996948 1.9639999866 1.9639999866
 2581.4436035 13.000000000 13.359000206 -0.024996795 0.3442400098 2.3524148464 4.4879999161 79.188003540 103.05229950 1.4769999981 85.449996948 2.6289999485 2.6289999485
 2581.5959473 13.000000000 13.397999763 -0.018033599 0.3247100115 2.3462672234 4.9140000343 76.875000000 102.82347870 1.8229999542 85.949996948 2.7679998875 2.7679998875
 2581.7482910 13.000000000 13.859000206 -0.013024039 0.3320299983 2.3564000130 5.8590002060 78.063003540 101.79166412 2.0639998913 85.949996948 2.6949999332 2.6949999332
 2581.9008789 13.000000000 13.727000237 0.0029487179 0.3686500192 2.3879170418 6.4609999657 79.313003540 99.730026245 2.2249999046 86.199996948 2.5510001183 2.5510001183
 2582.0532227 13.000000000 13.741999626 -0.009958333 0.4223600030 2.4366176128 5.9920001030 79.875000000 96.159179688 2.1989998817 85.449996948 2.2679998875 2.2679998875
 2582.2055664 13.000000000 14.859000206 -0.028939102 0.4321300089 2.4852447510 6.4380002022 82.375000000 90.466819763 2.1559998989 85.449996948 1.9199999571 1.9199999571
