# LAS format log file from PETREL
# Project units are specified as depth units
#==================================================================
~Version information
VERS.   2.0:
WRAP.   NO:
#==================================================================
~Well
STRT .m      1110.8436279 :
STOP .m      2733.1416016 :
STEP .m     0.00000000 :
NULL .        -999.250000 :
COMP.           : COMPANY
WELL.  16/7-6   : WELL
FLD.            : FIELD
LOC.            : LOCATION
SRVC.           : SERVICE COMPANY
DATE.  2018-09-11 14:48:11   : Log Export Date {yyyy-MM-dd HH:mm:ss}
PROV.           : PROVINCE
UWI.   16/7-6   : UNIQUE WELL ID
API.            : API NUMBER
#==================================================================
~Curve
DEPT .m                   : DEPTH
Lithology_geolink ._      : Lithology_geolink
DCAL .in                  : DCAL
CALI .in                  : CALI
BS .in                    : BS
ROP .m/h                  : ROP
DRHO .g/cm3               : DRHO
THOR .ppm                 : THOR
SGR .gAPI                 : SGR
NPHI .m3/m3               : NPHI
RHOB .g/cm3               : RHOB
PEF .b/e                  : PEF
GR .gAPI                  : GR
URAN .ppm                 : URAN
DTC .us/ft                : DTC
DTS .us/ft                : DTS
RDEP .ohm.m               : RDEP
SP .mV                    : SP
RSHA .ohm.m               : RSHA
RMIC .ohm.m               : RMIC
RMED .ohm.m               : RMED
~Parameter
#==================================================================
~Ascii
# ...
 1750.9237061  -999.250000 0.0334816016 12.283479691 12.250000954 288855.21875 -0.059874240 9.6962947845  -999.250000 0.4447497725 2.2035019398 3.2239270210 88.359985352 3.2515869141 141.41752625 395.20413208 0.6230935454 -96.82089996 0.7610900402 0.7443670034 0.6162938476
 1751.0760498  -999.250000 0.0701875687 12.320190430 12.250000954 279450.81250 -0.062575199 9.6256618500  -999.250000 0.4477316439 2.2021999359 3.1441330910 88.846221924 3.2173960209 141.70692444 399.79974365 0.6181917787 -97.04580688 0.7536874413 0.7294610739 0.6115918756
 1751.2285156  -999.250000 0.0876865536 12.337691307 12.250000954 348407.62500 -0.066128083 10.651729584  -999.250000 0.4584122300 2.2062969208 2.9728660583 88.445892334 2.9133129120 141.98686218 395.23580933 0.6126922369 -97.00418091 0.7452880144 0.7210338712 0.6061926484
 1751.3808594  -999.250000 0.1040935963 12.354089737 12.250000954 447680.06250 -0.067952268 10.973199844  -999.250000 0.4588350058 2.2095990181 2.9973850250 88.790626526 3.0958058834 142.09172058 395.09469604 0.6080981493 -97.00000000 0.7381972075 0.7244941592 0.6017981768
 1751.5333252  -999.250000 0.1072968915 12.357300758 12.250000954 619948.25000 -0.069282159 10.126919746  -999.250000 0.4326538742 2.2054030895 3.1141619682 90.567855835 3.3075840473 141.60935974 396.11389160 0.6060066223 -97.00005341 0.7351089716 0.7380351424 0.5998052359
 1751.6856689  -999.250000 0.1101989970 12.360199928 12.250000954 633301.06250 -0.069525227 10.071100235  -999.250000 0.4323756099 2.2058000565 3.2348570824 91.967086792 3.6572449207 141.52775574 392.48818970 0.6079096198 -97.05821991 0.7376130223 0.7567090988 0.6012087464
 1751.8381348  -999.250000 0.1068029031 12.356800079 12.250000954 548951.81250 -0.069065742 10.298540115  -999.250000 0.4211966395 2.2004048824 3.1497149467 92.261215210 3.8730039597 141.35589600 389.43508911 0.6138156056 -96.94597626 0.7456221581 0.7762972713 0.6065137982
 1751.9904785  -999.250000 0.0530281141 12.303029060 12.250000954 621014.37500 -0.065143786 10.340229988  -999.250000 0.4543379843 2.2012991905 3.0925281048 93.142219543 3.8418769836 140.91661072 389.79122925 0.6219104528 -97.17077637 0.7570148706 0.7907858491 0.6137099266
 1752.1428223  -999.250000 0.0468006097 12.296799660 12.250000954 784443.25000 -0.060208939 10.204010010  -999.250000 0.4685418606 2.1949009895 3.1042749882 94.257301331 3.7209360600 140.42573547 390.18780518 0.6302103996 -97.07080841 0.7687140107 0.7938613892 0.6214106083
 1752.2952881  -999.250000 0.0579929389 12.307989120 12.250000954 630334.12500 -0.059645861 9.8166427612  -999.250000 0.4886713326 2.2004969120 3.2423260212 94.632987976 3.9064397812 139.96441650 390.77069092 0.6367024183 -97.06262207 0.7776026130 0.7870309949 0.6280025840
 1752.4476318  -999.250000 0.0710973665 12.321099281 12.250000954 280963.59375 -0.061718713 10.262000084  -999.250000 0.4690147340 2.2077980042 3.3353168964 94.573600769 4.1535520554 141.34695435 391.83206177 0.6401994824 -97.17919159 0.7819989324 0.7781593204 0.6315999031
 1752.6000977  -999.250000 0.1016797945 12.351678848 12.250000954 284443.09375 -0.063189775 10.601420403  -999.250000 0.4747432470 2.2137959003 3.4113719463 95.297889709 3.9836781025 141.67758179 393.34921265 0.6402956843 -97.18739319 0.7818933725 0.7720335126 0.6319962144
 1752.7524414  -999.250000 0.1060990989 12.356100082 12.250000954 420332.03125 -0.069177501 10.606840134  -999.250000 0.4357199669 2.2171990871 3.4030640125 97.240112305 4.0544791222 141.91381836 393.86560059 0.6378940344 -97.07080841 0.7780910134 0.7668274641 0.6299953461
 1752.9049072  -999.250000 0.0783205032 12.328319550 12.250000954 430330.15625 -0.074937843 9.8931026459  -999.250000 0.4100182652 2.2149019241 3.3666861057 97.988830566 4.5594768524 141.19677734 394.45706177 0.6341955066 -97.06250000 0.7724931240 0.7597681880 0.6270961761
 1753.0572510  -999.250000 0.0499095917 12.299910545 12.250000954 400322.84375 -0.076282822 9.9478254318  -999.250000 0.4383023977 2.2079019547 3.2837429047 97.236122131 4.4456038475 141.67433167 398.19030762 0.6301947236 -97.06250000 0.7663921714 0.7520268559 0.6237955093
 1753.2097168  -999.250000 0.0488014184 12.298800468 12.250000954 351851.81250 -0.072878636 9.9250316620  -999.250000 0.4320749640 2.1953101158 3.3670365810 97.161094666 5.0103797913 141.32727051 400.19281006 0.6264986396 -97.06250000 0.7608970404 0.7464562058 0.6206989288
 1753.3620605  -999.250000 0.0281086005 12.278109550 12.250000954 315132.15625 -0.071627177 10.511910439  -999.250000 0.4398950040 2.1949000359 3.4225957394 98.587829590 5.0289440155 140.55413818 399.99371338 0.6242007613 -97.06250000 0.7567989230 0.7463439107 0.6188006997
 1753.5145264  -999.250000 0.0269012526 12.276901245 12.250000954 483504.34375 -0.069386028 11.473830223  -999.250000 0.4412035644 2.2039918900 3.5382192135 101.45870209 4.9551258087 142.22235107 397.98074341 0.6241067648 -97.06250000 0.7553061247 0.7543803453 0.6188064218
 1753.6668701  -999.250000 0.0325975418 12.282600403 12.250000954 704605.62500 -0.067789875 11.375040054  -999.250000 0.4693388641 2.2083981037 3.4704372883 104.82839966 4.9816942215 141.81637573 394.31811523 0.6267086864 -97.06250000 0.7572087646 0.7693717480 0.6213084459
 1753.8193359  -999.250000 0.0338993110 12.283900261 12.250000954 565739.56250 -0.066107512 11.675580025  -999.250000 0.4583177269 2.2100989819 3.4458200932 107.56850433 4.9980521202 142.90299988 392.89608765 0.6323161125 -97.17907715 0.7626157403 0.7847871780 0.6267150640
 1753.9716797  -999.250000 0.0512905084 12.301289558 12.250000954 354863.37500 -0.063903093 11.963850021  -999.250000 0.4518373907 2.2104001045 3.4171483517 108.81847382 4.9498658180 142.83529663 392.41049194 0.6405130625 -97.01268768 0.7706127167 0.7940868735 0.6344117522
 1754.1241455  -999.250000 0.0602912903 12.310290337 12.250000954 412651.06250 -0.067579806 11.884269714  -999.250000 0.4344725311 2.2178928852 3.5161223412 108.28755951 5.2080068588 142.20848083 386.00057983 0.6503173709 -97.23316956 0.7801167369 0.7983558178 0.6433155537
 1754.2764893  -999.250000 0.0576019287 12.307600021 12.250000954 511527.71875 -0.066617332 11.613340378  -999.250000 0.4215272963 2.2224969864 3.5829558372 108.07313538 5.0272431374 141.88023376 383.36047363 0.6607134342 -97.30824280 0.7902142406 0.8041182756 0.6527117491
 1754.4288330  -999.250000 0.0574998893 12.307499886 12.250000954 498612.84375 -0.063544400 11.472370148  -999.250000 0.4194126129 2.2202999592 3.4944150448 108.74160767 4.7917981148 141.42408752 389.47930908 0.6717200279 -97.19593048 0.8016229272 0.8211740255 0.6625180244
 1754.5812988  -999.250000 0.0587005578 12.308699608 12.250000954 454678.43750 -0.060987867 10.764949799  -999.250000 0.4389037490 2.2213010788 3.6903879642 108.12059784 4.2882628441 140.65995789 390.41372681 0.6844132543 -97.07089996 0.8160171509 0.8570420742 0.6739128232
 1754.7336426  -999.250000 0.0645151064 12.314521790 12.250000954 375606.75000 -0.060855765 11.012200356  -999.250000 0.4506977201 2.2298040390 3.6120629311 104.99644470 4.1003699303 139.23234558 388.99719238 0.6983186603 -97.17915344 0.8340259194 0.8968452215 0.6874188781
 1754.8861084  -999.250000 0.0934076309 12.343409538 12.250000954 295109.78125 -0.058579460 11.867819786  -999.250000 0.4498298168 2.2382009029 3.6979210377 100.55686951 3.7264440060 138.54017639 388.54220581 0.7125105858 -97.07089233 0.8537150025 0.9095398188 0.7018109560
 1755.0384521  -999.250000 0.1749362946 12.424940109 12.250000954 324508.59375 -0.059165638 12.330639839  -999.250000 0.4228017628 2.2393999100 3.3488113880 99.031105042 4.1192607880 138.00224304 389.08349609 0.7245077491 -97.17915344 0.8706119061 0.8967668414 0.7141081691
 1755.1909180  -999.250000 0.2549009025 12.504899979 12.250000954 359764.71875 -0.061959043 12.171790123  -999.250000 0.4632791877 2.2392957211 3.2271919250 101.57417297 4.2699170113 137.56793213 390.19073486 0.7306992412 -97.18749237 0.8801007271 0.8790662289 0.7205997705
 1755.3432617  -999.250000 0.3024053872 12.552410126 12.250000954 349780.62500 -0.062091850 12.125249863  -999.250000 0.4400458932 2.2340030670 3.2318544388 105.66275024 4.5200881958 137.11927795 382.54821777 0.7296923399 -97.01254272 0.8809931278 0.8639088273 0.7202937007
