# LAS format log file from PETREL
# Project units are specified as depth units
#==================================================================
~Version information
VERS.   2.0:
WRAP.   NO:
#==================================================================
~Well
STRT .m      367.94241333 :
STOP .m      2651.6562500 :
STEP .m     0.00000000 :
NULL .        -999.250000 :
COMP.           : COMPANY
WELL.  16/7-1   : WELL
FLD.            : FIELD
LOC.            : LOCATION
SRVC.           : SERVICE COMPANY
DATE.  2018-09-11 14:48:09   : Log Export Date {yyyy-MM-dd HH:mm:ss}
PROV.           : PROVINCE
UWI.   16/7-1   : UNIQUE WELL ID
API.            : API NUMBER
#==================================================================
~Curve
DEPT .m                   : DEPTH
Lithology_geolink ._      : Lithology_geolink
DCAL .in                  : DCAL
CALI .in                  : CALI
BS .in                    : BS
DRHO .g/cm3               : DRHO
RHOB .g/cm3               : RHOB
GR .gAPI                  : GR
DTC .us/ft                : DTC
RDEP .ohm.m               : RDEP
SP .mV                    : SP
RSHA .ohm.m               : RSHA
RMED .ohm.m               : RMED
~Parameter
#==================================================================
~Ascii
# ...
 1882.1888428 9.0000000000 1.4284189939 9.9284200668 8.5000000000 -0.006599023 2.4015929699 6.7606811523 24.470106125 0.5072075725 84.272232056 0.7909209728  -999.250000
 1882.3413086 9.0000000000 1.3983299732 9.8983297348 8.5000000000 -0.001704785 2.3914101124 6.3234939575 24.168018341 0.5934054852 84.409019470 0.6757714748  -999.250000
 1882.4936523 9.0000000000 1.3872109652 9.8872098923 8.5000000000 0.0014968750 2.3749160767 5.8179588318 24.493848801 0.7191519141 84.528266907 0.6283677816  -999.250000
 1882.6461182 9.0000000000 1.3671200275 9.8671197891 8.5000000000 0.0006008789 2.3596150875 5.8369450569 25.050291061 0.6274502873 84.605026245 0.5633305907  -999.250000
 1882.7984619 9.0000000000 1.3477190733 9.8477182388 8.5000000000 -0.003595898 2.3549039364 6.0618438721 25.620967865 0.3425118029 84.660057068 0.5528268814  -999.250000
 1882.9508057 9.0000000000 1.3580888510 9.8580894470 8.5000000000 -0.000103418 2.3555989265 5.2091979980 26.112001419 0.4389052987 84.669662476 0.5272400975  -999.250000
 1883.1032715 9.0000000000 1.3780809641 9.8780822754 8.5000000000 0.0015983400 2.3597960472 4.7035598755 25.859598160 0.4717555046 84.560272217 0.6105449200  -999.250000
 1883.2556152 9.0000000000 1.3868910074 9.8868913651 8.5000000000 -0.002495996 2.3684909344 4.0978550911 25.371185303 0.4288075864 84.299873352 0.7104563713  -999.250000
 1883.4080811 9.0000000000 1.3496359587 9.8496360779 8.5000000000 -0.005097461 2.3801879883 4.1699938774 24.966287613 0.3422585130 84.010818481 0.6506276131  -999.250000
 1883.5604248 9.0000000000 1.3005478382 9.8005475998 8.5000000000 -0.003501563 2.3722081184 4.8884620667 24.776582718 0.4205285013 83.985206604 0.5652099252  -999.250000
 1883.7128906 9.0000000000 1.3045959473 9.8045959473 8.5000000000 -0.004898633 2.3608109951 5.0230331421 25.255334854 0.4837166965 84.084877014 0.5203031898  -999.250000
 1883.8652344 9.0000000000 1.3546509743 9.8546514511 8.5000000000 -0.005099805 2.3649959564 4.9747118950 25.733076096 0.4792289138 84.184959412 0.5657752752  -999.250000
 1884.0177002 9.0000000000 1.3877681494 9.8877677917 8.5000000000 -0.008896288 2.3893759251 4.8676681519 25.497039795 0.4635764956 84.169982910 0.7238919139  -999.250000
 1884.1700439 9.0000000000 1.3877999783 9.8878002167 8.5000000000 -0.008900000 2.4155750275 4.9908452034 24.822790146 0.4566296935 83.768157959 0.9098489881  -999.250000
 1884.3225098 9.0000000000 1.3877999783 9.8878002167 8.5000000000 -0.007801074 2.4255900383 4.8629908562 24.199748993 0.5012028217 83.256736755 0.8629170060  -999.250000
 1884.4748535 9.0000000000 1.3877999783 9.8878002167 8.5000000000 -0.005702051 2.4146111012 5.0898442268 23.892541885 0.5442070961 82.759841919 0.6659057736  -999.250000
 1884.6273193 9.0000000000 1.3877999783 9.8878002167 8.5000000000 -0.004101562 2.3856279850 4.8788719177 24.091236115 0.5665624738 82.285652161 0.5770046711  -999.250000
 1884.7796631 9.0000000000 1.3865009546 9.8865013123 8.5000000000 -0.007296875 2.3686170578 4.3126177788 24.702756882 0.5016835928 81.921417236 0.5956606269  -999.250000
 1884.9320068 9.0000000000 1.3665188551 9.8665189743 8.5000000000 -0.014393070 2.3721959591 4.1560168266 25.130302429 0.4515249133 81.831283569 0.7141044736  -999.250000
 1885.0844727 9.0000000000 1.3477181196 9.8477182388 8.5000000000 -0.020593939 2.3903820515 4.7250099182 25.077724457 0.4428654015 81.902580261 0.8171272874  -999.250000
 1885.2368164 9.0000000000 1.3476999998 9.8477001190 8.5000000000 -0.019201370 2.4167740345 5.0321660042 24.798131943 0.5322254896 82.068336487 0.8177840710  -999.250000
 1885.3892822 9.0000000000 1.3476999998 9.8477001190 8.5000000000 -0.012007030 2.4436740875 4.7953948975 24.120622635 0.6438153982 82.269767761 0.8102297187  -999.250000
 1885.5416260 9.0000000000 1.3476999998 9.8477001190 8.5000000000 -0.007304590 2.4587850571 4.2278208733 23.514986038 0.7727031112 82.427917480 0.9001700878  -999.250000
 1885.6940918 9.0000000000 1.3476999998 9.8477001190 8.5000000000 -0.006600684 2.4633951187 4.1592330933 23.195583344 0.8757259250 82.502571106 1.1367529631  -999.250000
 1885.8464355 9.0000000000 1.3475999832 9.8475999832 8.5000000000 -0.006699902 2.4659969807 4.3181080818 23.251056671 0.8932042718 82.548126221 1.2608410120  -999.250000
 1885.9989014 9.0000000000 1.3376090527 9.8376092911 8.5000000000 -0.008198535 2.4660000801 4.2266540527 23.168304443 0.9475921988 82.587249756 1.2186399698  -999.250000
 1886.1512451 9.0000000000 1.3277089596 9.8277091980 8.5000000000 -0.006901269 2.4548110962 4.1687197685 23.192445755 0.9122328758 82.608306885 0.8349652886  -999.250000
 1886.3037109 9.0000000000 1.3277000189 9.8276996613 8.5000000000 -0.004502343 2.4326219559 4.1817507744 23.365875244 0.7443873882 82.592712402 0.7372149229  -999.250000
 1886.4560547 9.0000000000 1.3277000189 9.8276996613 8.5000000000 -0.003800684 2.4161159992 4.8411221504 23.590606689 0.6267231107 82.483680725 0.6570131779  -999.250000
 1886.6085205 9.0000000000 1.3277000189 9.8276996613 8.5000000000 -0.003500293 2.4085071087 5.0686421394 24.133729935 0.5907236934 82.324317932 0.6866381168  -999.250000
 1886.7608643 9.0000000000 1.3277000189 9.8276996613 8.5000000000 -0.002001465 2.4136950970 5.1071281433 24.411767960 0.5705909729 82.162696838 0.7469655275  -999.250000
 1886.9132080 9.0000000000 1.3277000189 9.8276996613 8.5000000000 0.0004975586 2.4319820404 5.1823921204 24.181337357 0.5832468271 82.015846252 0.7604784966  -999.250000
 1887.0656738 9.0000000000 1.3392889500 9.8392887115 8.5000000000 0.0031973631 2.4468851089 5.4948577881 23.756477356 0.6009926796 81.906753540 0.6839715242  -999.250000
 1887.2180176 9.0000000000 1.3692698479 9.8692703247 8.5000000000 0.0029002931 2.4447019100 5.2989578247 23.719690323 0.6431279182 81.813911438 0.6964948773  -999.250000
 1887.3704834 9.0000000000 1.3877818584 9.8877820969 8.5000000000 -0.002694531 2.4381070137 4.6829681396 23.689939499 0.6890599132 81.715179443 0.8275696039  -999.250000
 1887.5228271 9.0000000000 1.4006869793 9.9006872177 8.5000000000 -0.009892968 2.4419960976 3.8548738956 23.580514908 0.7193425894 81.571029663 0.9509034157  -999.250000
 1887.6752930 9.0000000000 1.4407609701 9.9407606125 8.5000000000 -0.014795210 2.4514911175 4.3633651733 23.402118683 0.7311735749 81.444030762 0.8329864740  -999.250000
 1887.8276367 9.0000000000 1.4678740501 9.9678735733 8.5000000000 -0.011403320 2.4575939178 4.6711649895 22.736371994 0.7510905862 81.333023071 0.7866675258  -999.250000
 1887.9801025 9.0000000000 1.4579100609 9.9579095840 8.5000000000 -0.009002344 2.4535040855 4.7261118889 22.655147552 0.7705329061 81.264846802 0.7887272835  -999.250000
 1888.1324463 9.0000000000 1.4479089975 9.9479093552 8.5000000000 -0.013695410 2.4476060867 4.5530319214 22.641731262 0.7705050707 81.257438660 0.9055966735  -999.250000
 1888.2849121 9.0000000000 1.4479000568 9.9478998184 8.5000000000 -0.015598140 2.4427049160 4.1983108521 22.704216003 0.7358542085 81.267471313 1.1070450544  -999.250000
 1888.4372559 9.0000000000 1.4540941715 9.9540939331 8.5000000000 -0.019296389 2.4411020279 4.2888760567 22.773284912 0.7416309118 81.382583618 1.2769010067  -999.250000
 1888.5897217 9.0000000000 1.4650900364 9.9650897980 8.5000000000 -0.022896487 2.4455959797 4.7875790596 22.642036438 0.7991728783 81.585517883 1.5420010090  -999.250000
 1888.7420654 9.0000000000 1.4846811295 9.9846811295 8.5000000000 -0.025397560 2.4509949684 5.3962712288 22.503963470 0.8042134047 81.796257019 1.4843430519  -999.250000
 1888.8945313 9.0000000000 1.5037808418 10.003780365 8.5000000000 -0.025599800 2.4531979561 5.7122569084 22.387651443 0.7924538255 82.089813232 1.2134209871  -999.250000
 1889.0468750 9.0000000000 1.5070971251 10.007100105 8.5000000000 -0.020205270 2.4532001019 5.7920880318 22.448610306 0.8942221999 82.435783386 0.8567606211  -999.250000
 1889.1992188 9.0000000000 1.4871190786 9.9871187210 8.5000000000 -0.014006050 2.4567959309 5.8442149162 22.550323486 0.9802268744 82.961616516 0.9706590772  -999.250000
 1889.3516846 9.0000000000 1.4681179523 9.9681177139 8.5000000000 -0.011002930 2.4695880413 5.6328701973 22.525360107 1.0345220566 83.635726929 1.3552110195  -999.250000
