# LAS format log file from PETREL
# Project units are specified as depth units
#==================================================================
~Version information
VERS.   2.0:
WRAP.   NO:
#==================================================================
~Well
STRT .m      1317.4000244 :
STOP .m      2886.4997559 :
STEP .m     0.00000000 :
NULL .        -999.250000 :
COMP.           : COMPANY
WELL.  16/7-8 S Beta West   : WELL
FLD.            : FIELD
LOC.            : LOCATION
SRVC.           : SERVICE COMPANY
DATE.  2018-09-11 14:48:11   : Log Export Date {yyyy-MM-dd HH:mm:ss}
PROV.           : PROVINCE
UWI.   16/7-8 S   : UNIQUE WELL ID
API.            : API NUMBER
#==================================================================
~Curve
DEPT .m                   : DEPTH
Lithology_geolink ._      : Lithology_geolink
CALI .in                  : CALI
BS .in                    : BS
NPHI .m3/m3               : NPHI
RHOB .g/cm3               : RHOB
GR .gAPI                  : GR
RDEP .ohm.m               : RDEP
RMED .ohm.m               : RMED
~Parameter
#==================================================================
~Ascii
# ...
 2568.6000977 9.0000000000 8.6560001373 8.5000000000 0.0874999985 2.5848000050 3.7999999523 2.8199999332 2.9600000381
 2568.6999512 9.0000000000 8.6560001373 8.5000000000 0.0918999985 2.5748999119 3.9800000191 2.8399999142 2.8900001049
 2568.8000488 9.0000000000 8.6560001373 8.5000000000 0.0951000005 2.5648999214 4.2899999619 2.8299999237 2.7999999523
 2568.8999023 9.0000000000 8.6870002747 8.5000000000 0.0982000008 2.5648999214 4.4899997711 2.8199999332 2.7799999714
 2569.0000000 9.0000000000 8.6560001373 8.5000000000 0.1006999984 2.5548999310 4.3899998665 2.7999999523 2.7200000286
 2569.1000977 9.0000000000 8.6870002747 8.5000000000 0.1027000025 2.5548999310 4.1100001335 2.7699999809 2.6800000668
 2569.1999512 9.0000000000 8.6560001373 8.5000000000 0.1041999981 2.5548999310 3.8699998856 2.7599999905 2.6600000858
 2569.3000488 9.0000000000 8.6560001373 8.5000000000 0.1045999974 2.5548999310 3.8199999332 2.7500000000 2.6400001049
 2569.4001465 9.0000000000 8.6870002747 8.5000000000 0.1024999991 2.5548999310 3.9400000572 2.7200000286 2.6300001144
 2569.5000000 9.0000000000 8.6560001373 8.5000000000 0.0992000028 2.5548999310 4.1799998283 2.6500000954 2.6199998856
 2569.6000977 9.0000000000 8.6560001373 8.5000000000 0.0961999968 2.5648999214 4.4699997902 2.5799999237 2.6199998856
 2569.7001953 9.0000000000 8.6560001373 8.5000000000 0.0938000008 2.5648999214 4.5900001526 2.5499999523 2.6300001144
 2569.8000488 9.0000000000 8.6870002747 8.5000000000 0.0922000036 2.5648999214 4.4299998283 2.4500000477 2.6300001144
 2569.9001465 9.0000000000 8.6870002747 8.5000000000 0.0920000002 2.5648999214 4.0900001526 2.4000000954 2.6199998856
 2569.9997559 9.0000000000 8.6870002747 8.5000000000 0.0943882987 2.5648999214 3.7500000000 2.2109267712 2.5304389000
 2570.0998535 9.0000000000 8.6870002747 8.5000000000 0.0990885124 2.5648999214 3.5699999332 2.1002688408 2.4003179073
 2570.1999512 9.0000000000 8.6560001373 8.5000000000 0.1042873189 2.5549242496 3.6400001049 2.0002439022 2.2204389572
 2570.2998047 9.0000000000 8.6560001373 8.5000000000 0.1100717112 2.5449488163 3.8900001049 1.9299999475 2.0699999332
 2570.3999023 9.0000000000 8.6560001373 8.5000000000 0.1177811697 2.5349245071 4.1799998283 1.9099999666 2.0299999714
 2570.5000000 9.0000000000 8.6560001373 8.5000000000 0.1268778145 2.5250241756 4.3899998665 1.8300000429 1.7799999714
 2570.5998535 9.0000000000 8.6560001373 8.5000000000 0.1344629228 2.5250000954 4.5300002098 1.7000000477 1.5499999523
 2570.6999512 10.000000000 8.6870002747 8.5000000000 0.1402000040 2.5150001049 4.6100001335 1.5800000429 1.4500000477
 2570.8000488 10.000000000 8.6560001373 8.5000000000 0.1444000006 2.5050001144 4.5700001717 1.5599999428 1.4400000572
 2570.8999023 10.000000000 8.6560001373 8.5000000000 0.1480000019 2.4849998951 4.3699998856 1.5399999619 1.4099999666
 2571.0000000 10.000000000 8.6560001373 8.5000000000 0.1510999948 2.4749999046 4.1199998856 1.5199999809 1.3600000143
 2571.1000977 10.000000000 8.6560001373 8.5000000000 0.1536999941 2.4551000595 3.9900000095 1.4700000286 1.2799999714
 2571.1999512 10.000000000 8.6560001373 8.5000000000 0.1574999988 2.4451000690 3.9500000477 1.3999999762 1.1100000143
 2571.3000488 10.000000000 8.6560001373 8.5000000000 0.1624999940 2.4451000690 3.9900000095 1.4099999666 1.0800000429
 2571.4001465 10.000000000 8.6250000000 8.5000000000 0.1642999947 2.4551000595 4.1199998856 1.4400000572 1.1499999762
 2571.5000000 10.000000000 8.6250000000 8.5000000000 0.1591999978 2.4651000500 4.3699998856 1.4600000381 1.2500000000
 2571.6000977 10.000000000 8.6560001373 8.5000000000 0.1489000022 2.4849998951 4.6799998283 1.4500000477 1.4199999571
 2571.7001953 10.000000000 8.6250000000 8.5000000000 0.1383000016 2.4949998856 4.8699998856 1.4600000381 1.4600000381
 2571.8000488 10.000000000 8.6560001373 8.5000000000 0.1318999976 2.5150001049 4.9099998474 1.4400000572 1.5700000525
 2571.9001465 10.000000000 8.6560001373 8.5000000000 0.1308999956 2.5150001049 4.8899998665 1.4299999475 1.6200000048
 2572.0000000 10.000000000 8.6560001373 8.5000000000 0.1357000023 2.5050001144 4.8499999046 1.4400000572 1.6299999952
 2572.1000977 10.000000000 8.6250000000 8.5000000000 0.1436000019 2.5050001144 4.7500000000 1.4900000095 1.5099999905
 2572.2001953 10.000000000 8.6250000000 8.5000000000 0.1507000029 2.4949998856 4.5000000000 1.5099999905 1.3999999762
 2572.3000488 10.000000000 8.6250000000 8.5000000000 0.1554999948 2.4849998951 4.1591706276 1.5099999905 1.3200000525
 2572.3999023 10.000000000 8.6560001373 8.5000000000 0.1579939127 2.4651486874 3.8199999332 1.5000244379 1.2900731564
 2572.5000000 10.000000000 8.6560001373 8.5000000000 0.1576009691 2.4551243782 3.6400001049 1.4900244474 1.2700487375
 2572.5998535 10.000000000 8.6250000000 8.5000000000 0.1541085541 2.4551000595 3.6600000858 1.4800244570 1.2500000000
 2572.6999512 10.000000000 8.6560001373 8.5000000000 0.1484138966 2.4650757313 3.7799999714 1.4700000286 1.2300000191
 2572.7998047 10.000000000 8.6560001373 8.5000000000 0.1417326778 2.4749515057 3.8800001144 1.5000000000 1.2400000095
 2572.8999023 10.000000000 8.6405000687 8.5000000000 0.1387073249 2.4899632931 3.9300000668 1.5299999714 1.2999999523
 2573.0000000 10.000000000 8.6250000000 8.5000000000 0.1357073188 2.5049636364 4.0300002098 1.5399999619 1.4099999666
 2573.0998535 10.000000000 8.6560001373 8.5000000000 0.1333999932 2.5250000954 4.2699999809 1.4900000095 1.6599999666
 2573.1999512 10.000000000 8.6560001373 8.5000000000 0.1358000040 2.5348999500 4.4600000381 1.4600000381 1.7100000381
 2573.3000488 10.000000000 8.6560001373 8.5000000000 0.1411000043 2.5348999500 4.3899998665 1.4800000191 1.6100000143
 2573.3999023 10.000000000 8.6560001373 8.5000000000 0.1479000002 2.5250000954 4.0500001907 1.5000000000 1.5399999619
 2573.5000000 10.000000000 8.6560001373 8.5000000000 0.1552000046 2.5150001049 3.6199998856 1.4900000095 1.4400000572
 2573.6000977 10.000000000 8.6560001373 8.5000000000 0.1609999985 2.5050001144 3.3699998856 1.5000000000 1.3799999952
 2573.6999512 10.000000000 8.6560001373 8.5000000000 0.1631000042 2.4949998856 3.2999999523 1.5099999905 1.3300000429
 2573.8000488 10.000000000 8.6560001373 8.5000000000 0.1608999968 2.4849998951 3.2300000191 1.4500000477 1.2400000095
 2573.9001465 10.000000000 8.6560001373 8.5000000000 0.1567000002 2.4749999046 3.1400001049 1.4099999666 1.2000000477
 2574.0000000 10.000000000 8.6560001373 8.5000000000 0.1516000032 2.4651000500 3.1600000858 1.4500000477 1.2799999714
 2574.1000977 10.000000000 8.6560001373 8.5000000000 0.1466999948 2.4749999046 3.4200000763 1.4900000095 1.3600000143
 2574.2001953 10.000000000 8.6560001373 8.5000000000 0.1420000046 2.4849998951 3.7999999523 1.5299999714 1.4400000572
 2574.3000488 10.000000000 8.6560001373 8.5000000000 0.1384000033 2.4949998856 4.1599998474 1.5000000000 1.4600000381
 2574.4001465 10.000000000 8.6560001373 8.5000000000 0.1375000030 2.5150001049 4.4400000572 1.4700000286 1.4900000095
 2574.5002441 10.000000000 8.6560001373 8.5000000000 0.1398999989 2.5250000954 4.7300000191 1.4299999475 1.2300000191
 2574.6000977 10.000000000 8.6870002747 8.5000000000 0.1453000009 2.5150001049 5.0100002289 1.3500000238 1.5099999905
 2574.6999512 10.000000000 8.6560001373 8.5000000000 0.1526819617 2.4950487614 4.9899997711 1.3500000238 1.5199755430
 2574.7998047 10.000000000 8.6250000000 8.5000000000 0.1604619622 2.4750974178 4.3000001907 1.3101950884 1.5598047972
 2574.8999023 10.000000000 8.6250000000 8.5000000000 0.1674828827 2.4551486969 3.7400000095 1.2601222992 1.4702200890
 2575.0000000 10.000000000 8.6250000000 8.5000000000 0.1738843769 2.4351489544 3.5599999428 1.2500000000 1.3899999857
 2575.0998535 10.000000000 8.6560001373 8.5000000000 0.1806833744 2.4251246452 3.5499999523 1.2500000000 1.2899999619
 2575.1999512 10.000000000 8.6560001373 8.5000000000 0.1859870702 2.4152240753 3.5499999523 1.2300000191 1.2200000286
 2575.3000488 10.000000000 8.6560001373 8.5000000000 0.1891921908 2.4151999950 3.5399999619 1.1000000238 0.9499999881
