# LAS format log file from PETREL
# Project units are specified as depth units
#==================================================================
~Version information
VERS.   2.0:
WRAP.   NO:
#==================================================================
~Well
STRT .m      1110.8436279 :
STOP .m      2733.1416016 :
STEP .m     0.00000000 :
NULL .        -999.250000 :
COMP.           : COMPANY
WELL.  16/7-6   : WELL
FLD.            : FIELD
LOC.            : LOCATION
SRVC.           : SERVICE COMPANY
DATE.  2018-09-11 14:48:11   : Log Export Date {yyyy-MM-dd HH:mm:ss}
PROV.           : PROVINCE
UWI.   16/7-6   : UNIQUE WELL ID
API.            : API NUMBER
#==================================================================
~Curve
DEPT .m                   : DEPTH
Lithology_geolink ._      : Lithology_geolink
DCAL .in                  : DCAL
CALI .in                  : CALI
BS .in                    : BS
ROP .m/h                  : ROP
DRHO .g/cm3               : DRHO
THOR .ppm                 : THOR
SGR .gAPI                 : SGR
NPHI .m3/m3               : NPHI
RHOB .g/cm3               : RHOB
PEF .b/e                  : PEF
GR .gAPI                  : GR
URAN .ppm                 : URAN
DTC .us/ft                : DTC
DTS .us/ft                : DTS
RDEP .ohm.m               : RDEP
SP .mV                    : SP
RSHA .ohm.m               : RSHA
RMIC .ohm.m               : RMIC
RMED .ohm.m               : RMED
~Parameter
#==================================================================
~Ascii
# ...
 1856.0795898  -999.250000 0.3635978997 12.613599777 12.250000954 174921.07813 -0.054892760 12.756640434  -999.250000 0.4404726028 2.2405819893 3.7209908962 100.42089844 2.2254519463 140.51530457 400.48040771 0.6867833138 -92.56250763 0.9037724137 2.1535630226 0.6896833181
 1856.2319336  -999.250000 0.3136577904 12.563658714 12.250000954 169581.31250 -0.059168778 12.564530373  -999.250000 0.4606580138 2.2411990166 3.6181550026 98.887222290 2.0540499687 141.36309814 397.88128662 0.6755887270 -92.44595337 0.8855789900 2.0886490345 0.6784884930
 1856.3843994  -999.250000 0.2768296897 12.526829720 12.250000954 179193.15625 -0.054962918 12.345609665  -999.250000 0.4638670087 2.2310080528 3.7372989655 96.547653198 2.1760499477 141.83880615 405.33279419 0.6632863879 -92.49577332 0.8643758297 1.9558229446 0.6660860181
 1856.5367432  -999.250000 0.3510084152 12.601009369 12.250000954 178792.96875 -0.052080989 12.319569588  -999.250000 0.4527699053 2.2147200108 3.8435740471 94.036926270 2.5140728951 142.17050171 397.31991577 0.6514939070 -92.55827332 0.8436908126 1.8047280312 0.6539937854
 1856.6892090  -999.250000 0.2995452881 12.549550056 12.250000954 128954.33594 -0.052924160 13.369609833  -999.250000 0.4446851015 2.2154989243 3.7512140274 92.780433655 2.2094659805 141.20199585 393.16113281 0.6410936713 -92.50421143 0.8262885809 1.6778609753 0.6433935761
 1856.8415527  -999.250000 0.2189034969 12.468899727 12.250000954 188784.70313 -0.053731561 13.792039871  -999.250000 0.4418984056 2.2273850441 3.8162178993 93.733047485 2.4398190975 141.03289795 392.03359985 0.6333994865 -92.38347626 0.8129978180 1.5825020075 0.6354988813
 1856.9940186  -999.250000 0.2001170963 12.450118065 12.250000954 656762.06250 -0.056160241 13.804820061  -999.250000 0.4299666882 2.2424860001 3.5657958984 96.283332825 2.6806869507 140.70199585 394.55578613 0.6280959249 -92.37500000 0.8031942844 1.5061670542 0.6297957897
 1857.1463623  -999.250000 0.0861625671 12.336160660 12.250000954 1063892.7500 -0.060848981 13.580900192  -999.250000 0.4404307902 2.2534940243 3.8170731068 98.838249207 2.6695010662 143.32350159 403.76440430 0.6234943271 -92.37500000 0.7956907749 1.4503320456 0.6249943972
 1857.2988281  -999.250000 0.0346507989 12.284650803 12.250000954 752170.37500 -0.065897487 13.549110413  -999.250000 0.4434103966 2.2520020008 3.7792301178 100.30259705 2.8387849331 141.39770508 397.05230713 0.6192970872 -92.49156952 0.7888935208 1.4462360144 0.6207963228
 1857.4511719  -999.250000 0.0350999795 12.285099983 12.250000954 398568.78125 -0.062320430 13.923810005  -999.250000 0.4364351034 2.2443048954 3.7704141140 100.71080017 2.6620209217 140.89999390 392.62500000 0.6156960726 -92.55827332 0.7821921110 1.4851150513 0.6167957783
 1857.6036377  -999.250000 0.0353002511 12.285300255 12.250000954 339048.65625 -0.063764840 15.053509712  -999.250000 0.4338687062 2.2317130566 3.6123759747 100.98320007 2.5283091068 141.32949829 393.47460938 0.6125993133 -92.44593811 0.7760962248 1.4380500317 0.6133990884
 1857.7559814  -999.250000 0.0336008109 12.283600807 12.250000954 276188.53125 -0.063674331 15.361511230  -999.250000 0.4492137134 2.2341980934 3.5713169575 102.10459900 2.4666979313 141.74220276 395.17379761 0.6105989814 -92.43750763 0.7708963156 1.1484470367 0.6110981703
 1857.9084473  -999.250000 0.0346994400 12.284701347 12.250000954 221803.82813 -0.062727377 15.409041405  -999.250000 0.4410207868 2.2288060188 3.6201078892 103.55269623 2.6143150330 142.09820557 392.30108643 0.6094005108 -92.49578857 0.7671992183 0.8551117182 0.6093994975
 1858.0607910  -999.250000 0.0352001190 12.285201073 12.250000954 182119.25000 -0.057458580 15.037810326  -999.250000 0.4078455865 2.2271010876 3.5800960064 104.16280365 2.3487949371 142.96960449 396.42031860 0.6090012789 -92.38350677 0.7646986842 0.7623447180 0.6082003117
 1858.2131348  -999.250000 0.0246124305 12.274609566 12.250000954 224076.62500 -0.057193600 15.057640076  -999.250000 0.3844709098 2.2274990082 3.5294289589 103.64119720 2.1372361183 143.23869324 397.60549927 0.6095020175 -92.37500000 0.7631005049 0.7593166828 0.6079012156
 1858.3656006  -999.250000 0.0383882485 12.288390160 12.250000954 248724.45313 -0.060200121 13.856389999  -999.250000 0.3688333035 2.2338950634 3.5580348969 102.08350372 2.2134270668 141.76139832 405.52929688 0.6108034849 -92.20025635 0.7624017000 0.7632098794 0.6083024740
 1858.5179443  -999.250000 0.0790491030 12.329051018 12.250000954 199275.59375 -0.058518559 14.130610466  -999.250000 0.3665179014 2.2372961044 3.6142001152 100.14689636 2.1132009029 142.57749939 403.63031006 0.6131042242 -92.42057037 0.7630035281 0.7677087784 0.6098030210
 1858.6704102  -999.250000 0.1027794033 12.352779388 12.250000954 152197.68750 -0.058874741 14.351849556  -999.250000 0.3851399124 2.2341029644 3.7477059364 98.949897766 1.8463720083 142.94869995 409.98220825 0.6167042255 -92.37924957 0.7652040124 0.7729625106 0.6123037934
 1858.8227539  -999.250000 0.1038990095 12.353899956 12.250000954 149381.10938 -0.063918971 14.824359894  -999.250000 0.4339340031 2.2360970974 3.8294060230 99.745498657 1.5746870041 142.67649841 402.60198975 0.6205012798 -92.43298340 0.7682017088 0.7762402892 0.6154019833
 1858.9752197  -999.250000 0.0779237673 12.327920914 12.250000954 329219.06250 -0.065491550 14.622369766  -999.250000 0.4762854874 2.2401959896 4.0070719719 101.40080261 1.6642169952 141.96780396 392.19720459 0.6237015128 -92.14613342 0.7711017728 0.7779898047 0.6185014248
 1859.1275635  -999.250000 0.0573110618 12.307310104 12.250000954 943351.93750 -0.061644819 14.277939796  -999.250000 0.4889787138 2.2351028919 4.1235752106 102.20999908 1.6862189770 141.01350403 425.40710449 0.6259999871 -92.29976654 0.7734016180 0.7789360881 0.6207008958
 1859.2800293  -999.250000 0.0543031693 12.304300308 12.250000954 1430430.7500 -0.061123811 13.749759674  -999.250000 0.4953921139 2.2286059856 4.1333718300 101.68170166 1.7551989555 141.23010254 397.84570313 0.6266977787 -92.19597626 0.7749009132 0.7787023783 0.6217991114
 1859.4323730  -999.250000 0.0747871399 12.324789047 12.250000954 1343414.2500 -0.060391970 13.078390121  -999.250000 0.4994167089 2.2234029770 4.0609378815 101.16179657 1.7252759933 142.05039978 406.19931030 0.6258962750 -92.30393219 0.7761034966 0.7807962894 0.6218987703
 1859.5848389  -999.250000 0.0974760130 12.347479820 12.250000954 1212119.2500 -0.056577511 13.023830414  -999.250000 0.5055608153 2.2144100666 3.9711380005 100.76570129 1.7873649597 143.86749268 392.99661255 0.6237965226 -92.13764191 0.7783058286 0.7876185775 0.6212987900
 1859.7371826  -999.250000 0.1285790950 12.378580093 12.250000954 956003.68750 -0.052893989 12.139499664  -999.250000 0.4512219131 2.2107028961 3.9089820385 99.731109619 1.9481551647 144.10679626 383.12350464 0.6208946705 -92.18319702 0.7825087905 0.7955514789 0.6203981042
 1859.8896484  -999.250000 0.1337938011 12.383790970 12.250000954 618543.43750 -0.052287798 12.259209633  -999.250000 0.4429214895 2.2097010612 3.9044499397 98.760032654 2.0770690441 142.47309875 380.38470459 0.6171965003 -92.07100677 0.7885069251 0.9063190222 0.6190984845
 1860.0419922  -999.250000 0.1267060935 12.376709938 12.250000954 486832.21875 -0.050005902 12.162400246  -999.250000 0.4217425883 2.2139968872 4.1049489975 97.705223083 1.9791041613 140.94149780 395.65139771 0.6132937074 -92.29567719 0.7955061793 0.9748435020 0.6175981760
 1860.1944580  -999.250000 0.0887451246 12.338748932 12.250000954 414002.21875 -0.047576230 12.261320114  -999.250000 0.4607569873 2.2203919888 4.1064381599 97.049728394 2.1363921165 140.13040161 397.69119263 0.6085932255 -92.31244659 0.8013951778 0.9600440264 0.6160969138
 1860.3468018  -999.250000 0.0538282432 12.303829193 12.250000954 392917.68750 -0.049769521 12.027230263  -999.250000 0.4640834033 2.2285931110 4.1048789024 96.773620605 2.3339769840 141.03640747 377.55340576 0.6022918224 -92.19605255 0.8024914861 1.0350979567 0.6135954261
 1860.4991455  -999.250000 0.0550985299 12.305100441 12.250000954 385198.12500 -0.051587161 12.191690445  -999.250000 0.4561510980 2.2368900776 4.0065917969 96.978507996 2.4705688953 140.53460693 383.13308716 0.5954967141 -92.36216736 0.7985950708 0.9938650131 0.6101980805
