# LAS format log file from PETREL
# Project units are specified as depth units
#==================================================================
~Version information
VERS.   2.0:
WRAP.   NO:
#==================================================================
~Well
STRT .m      446.31985474 :
STOP .m      2908.1892090 :
STEP .m     0.00000000 :
NULL .        -999.250000 :
COMP.           : COMPANY
WELL.  16/7-5   : WELL
FLD.            : FIELD
LOC.            : LOCATION
SRVC.           : SERVICE COMPANY
DATE.  2018-09-11 14:48:11   : Log Export Date {yyyy-MM-dd HH:mm:ss}
PROV.           : PROVINCE
UWI.   16/7-5   : UNIQUE WELL ID
API.            : API NUMBER
#==================================================================
~Curve
DEPT .m                   : DEPTH
Lithology_geolink ._      : Lithology_geolink
CALI .in                  : CALI
DRHO .g/cm3               : DRHO
NPHI .m3/m3               : NPHI
RHOB .g/cm3               : RHOB
PEF .b/e                  : PEF
GR .gAPI                  : GR
DTC .us/ft                : DTC
RDEP .ohm.m               : RDEP
SP .mV                    : SP
RSHA .ohm.m               : RSHA
RMED .ohm.m               : RMED
~Parameter
#==================================================================
~Ascii
# ...
 1755.7404785  -999.250000 11.737999916 0.0109951962 0.5200265646 1.9928290844 3.0129423141 77.553245544 145.16648865 0.6460000277 68.371520996 0.7410079837 0.7410079837
 1755.8929443  -999.250000 11.625000000 0.0080048079 0.4936611056 2.0079998970 3.0659575462 75.209732056 144.36871338 0.6489999890 68.688819885 0.7459903955 0.7459903955
 1756.0452881  -999.250000 11.388999939 0.0050072055 0.4932202995 2.0235023499 3.0520112514 73.850669861 143.55528259 0.6560000181 66.952987671 0.7419903874 0.7419903874
 1756.1977539  -999.250000 11.152998924 0.0040016025 0.4735557735 2.0372941494 2.8541586399 71.149482727 143.13290405 0.6650000215 67.567695618 0.7359783649 0.7359783649
 1756.3500977  -999.250000 11.229999542 0.0010072058 0.4827825725 2.0480580330 2.6841361523 71.346565247 143.56323242 0.6650000215 68.271263123 0.7269871831 0.7269871831
 1756.5025635  -999.250000 11.338999748 -0.007985577 0.5039730072 2.0555303097 2.7029848099 69.830482483 144.80642700 0.6660000086 68.434005737 0.7189927697 0.7189927697
 1756.6549072  -999.250000 11.559000015 -0.008998397 0.5071774125 2.0595238209 2.7909293175 70.030548096 146.20677185 0.6660000086 68.022621155 0.7160176635 0.7160176635
 1756.8073730  -999.250000 11.972000122 -0.004008007 0.4740265608 2.0609471798 2.9448766708 70.383110046 146.99928284 0.6629999876 68.407211304 0.7270023823 0.7270023823
 1756.9597168  -999.250000 12.325000763 0.0099775642 0.4408166111 2.0609664917 3.1408429146 74.167030334 146.62240601 0.6560000181 68.079872131 0.7279935479 0.7279935479
 1757.1120605  -999.250000 12.251000404 0.0289543625 0.4422376752 2.0584509373 3.4075725079 74.809494019 145.28814697 0.6510000229 68.000000000 0.7240192294 0.7240192294
 1757.2645264  -999.250000 11.965999603 0.0569551289 0.4553195238 2.0510883331 3.3030841351 76.355232239 143.96755981 0.6449999809 67.998443604 0.7359687686 0.7359687686
 1757.4168701  -999.250000 11.731999397 0.0520120114 0.4692476690 2.0408117771 3.2990064621 73.541084290 143.22256470 0.6380000114 67.352478027 0.7229855657 0.7229855657
 1757.5693359  -999.250000 11.618000031 0.0400192291 0.4622456133 2.0275285244 3.4618692398 72.338638306 143.06863403 0.6340000033 68.272346497 0.7139615417 0.7139615417
 1757.7216797  -999.250000 11.503998756 0.0399999991 0.4675215185 2.0058157444 3.7385566235 69.279075623 143.59545898 0.6299999952 67.586662292 0.6979791522 0.6979791522
 1757.8741455  -999.250000 11.388999939 0.0499839745 0.4931794405 1.9788324833 3.8069453239 68.713386536 144.62701416 0.6250000000 68.623809814 0.6850264072 0.6850264072
 1758.0264893  -999.250000 11.401000023 0.0450120121 0.4834478199 1.9570646286 3.4402940273 72.611679077 145.69653320 0.6209999919 68.131713867 0.6960095763 0.6960095763
 1758.1789551  -999.250000 11.480000496 0.0340176299 0.4806722105 1.9529546499 3.2351639271 72.411239624 146.58105469 0.6190000176 68.579025269 0.7020192146 0.7020192146
 1758.3312988  -999.250000 11.484000206 0.0250216182 0.4745449126 1.9646993876 2.9572227001 72.920303345 147.31715393 0.6159999967 69.418304443 0.7099967599 0.7099967599
 1758.4837646  -999.250000 11.473999977 0.0170128215 0.4802254140 1.9830486774 2.7441704273 69.998229980 148.23706055 0.6169999838 68.362426758 0.7079471350 0.7079471350
 1758.6361084  -999.250000 11.447999954 0.0160024036 0.4817587733 2.0004856586 2.7300112247 73.008018494 149.57785034 0.6200000048 68.540252686 0.6860064268 0.6860064268
 1758.7885742  -999.250000 11.395000458 0.0140032051 0.4805409908 2.0148620605 2.8259232044 76.758712769 150.83351135 0.6200000048 68.697532654 0.6899999976 0.6899999976
 1758.9409180  -999.250000 11.342000008 0.0219871793 0.4827082753 2.0270617008 3.1837131977 77.883277893 151.45599365 0.6190000176 69.749038696 0.6900128126 0.6900128126
 1759.0932617  -999.250000 11.289000511 0.0279855896 0.4846968353 2.0362250805 3.3367547989 74.939086914 151.51057434 0.6150000095 69.149406433 0.6980064511 0.6980064511
 1759.2457275  -999.250000 11.307999611 0.0230080131 0.4646461010 2.0439176559 3.4609005451 73.125656128 151.15252686 0.6159999967 67.536949158 0.7020096183 0.7020096183
 1759.3980713  -999.250000 11.366000175 0.0150192147 0.4827309847 2.0457375050 3.2882771492 73.813049316 150.39469910 0.6190000176 68.341697693 0.7060031891 0.7060031891
 1759.5505371  -999.250000 11.536000252 0.0229871795 0.4668327868 2.0388350487 3.1720929146 73.838134766 149.24858093 0.6200000048 66.909477234 0.7080191970 0.7080191970
 1759.7028809  -999.250000 11.711999893 0.0299831852 0.4499570727 2.0340404510 2.9743170738 72.644561768 147.72431946 0.6209999919 68.768043518 0.7160160542 0.7160160542
 1759.8553467  -999.250000 11.887000084 0.0200160258 0.4497601688 2.0421261787 2.9130489826 71.743774414 146.07192993 0.6230000257 67.556953430 0.7260023952 0.7260023952
 1760.0076904  -999.250000 12.034000397 0.0100240186 0.4459230602 2.0561451912 2.8220729828 70.823379517 144.79421997 0.6259999871 69.194786072 0.7269855738 0.7269855738
 1760.1601563  -999.250000 11.907999992 0.0099999998 0.4700406492 2.0670790672 2.8769559860 74.180656433 144.09700012 0.6250000000 67.193542480 0.7179687619 0.7179687619
 1760.3125000  -999.250000 11.767999649 0.0209735781 0.5039128661 2.0759546757 2.9469439983 76.527999878 143.99197388 0.6269999743 67.419517517 0.7049967647 0.7049967647
 1760.4649658  -999.250000 11.628999710 0.0249935910 0.5066178441 2.0834641457 2.9270160198 76.520950317 144.43424988 0.6280000210 67.742530823 0.7030000091 0.7030000091
 1760.6173096  -999.250000 11.490000725 0.0180168133 0.4737563431 2.0868964195 2.8630511761 73.178756714 145.15499878 0.6280000210 66.719169617 0.7030016184 0.7030016184
 1760.7697754  -999.250000 11.555999756 0.0080160256 0.4550549686 2.0827245712 3.1217925549 73.029647827 145.75080872 0.6290000081 68.690322876 0.7040288448 0.7040288448
 1760.9221191  -999.250000 11.751000404 0.0129919872 0.4696582854 2.0699970722 3.2379069328 74.130950928 145.83430481 0.6240000129 67.993995667 0.7160064578 0.7160064578
 1761.0744629  -999.250000 11.944000244 0.0429279432 0.5007102489 2.0523931980 3.6583256721 74.723846436 145.32008362 0.6209999919 67.987709045 0.7200144529 0.7200144529
 1761.2269287  -999.250000 11.848000526 0.0739503205 0.5258698463 2.0375847816 3.7569215298 72.769111633 144.72227478 0.6190000176 67.808441162 0.7289807200 0.7289807200
 1761.3792725  -999.250000 11.751999855 0.0660192147 0.5307322741 2.0283443928 4.2262477875 78.440650940 144.96952820 0.6179999709 68.704322815 0.7169920206 0.7169920206
 1761.5317383  -999.250000 11.840999603 0.0610080138 0.5006241798 2.0107381344 4.2319960594 77.596122742 146.40742493 0.6169999838 68.283386230 0.7119495869 0.7119495869
 1761.6840820  -999.250000 11.942000389 0.0210960768 0.4921399951 1.9718124866 3.8459999561 76.391601563 148.50552368 0.6129999757 68.443252563 0.6910032034 0.6910032034
 1761.8365479  -999.250000 12.142999649 0.0020304488 0.4795700014 1.9258592129 3.1300001144 69.299331665 150.60311890 0.6110000014 67.975845337 0.6930000186 0.6930000186
 1761.9888916  -999.250000 12.496000290 -0.006978383 0.4803400040 1.9001965523 2.9560000896 72.347229004 152.08134460 0.6050000191 67.085052490 0.6929951906 0.6929951906
 1762.1413574  -999.250000 12.730999947 -0.005003205 0.4979900122 1.9164634943 3.1640000343 74.982070923 152.41944885 0.6029999852 68.361015320 0.6899831891 0.6899831891
 1762.2937012  -999.250000 12.496000290 0.0049759806 0.4815700054 1.9526786804 3.4719998837 76.260086060 151.61375427 0.6039999723 67.950737000 0.6830240488 0.6830240488
 1762.4461670  -999.250000 12.258000374 0.0129871797 0.5035200119 1.9757225513 3.4059998989 76.314010620 150.38049316 0.6100000143 67.791503906 0.6980000138 0.6980000138
 1762.5985107  -999.250000 12.001001358 0.0169903934 0.5250599980 1.9806231260 3.0000000000 77.986351013 149.61503601 0.6190000176 68.000000000 0.6980000138 0.6980000138
 1762.7509766  -999.250000 11.897999763 0.0110096149 0.5354300141 1.9878110886 2.8010001183 80.693382263 149.49006653 0.6409999728 68.005683899 0.6980072260 0.6980072260
 1762.9033203  -999.250000 12.017999649 0.0050096153 0.5190399885 2.0123486519 2.8680000305 79.601860046 149.48175049 0.6639999747 70.360260010 0.7010448575 0.7010448575
