# LAS format log file from PETREL
# Project units are specified as depth units
#==================================================================
~Version information
VERS.   2.0:
WRAP.   NO:
#==================================================================
~Well
STRT .m      446.31985474 :
STOP .m      2908.1892090 :
STEP .m     0.00000000 :
NULL .        -999.250000 :
COMP.           : COMPANY
WELL.  16/7-5   : WELL
FLD.            : FIELD
LOC.            : LOCATION
SRVC.           : SERVICE COMPANY
DATE.  2018-09-11 14:48:11   : Log Export Date {yyyy-MM-dd HH:mm:ss}
PROV.           : PROVINCE
UWI.   16/7-5   : UNIQUE WELL ID
API.            : API NUMBER
#==================================================================
~Curve
DEPT .m                   : DEPTH
Lithology_geolink ._      : Lithology_geolink
CALI .in                  : CALI
DRHO .g/cm3               : DRHO
NPHI .m3/m3               : NPHI
RHOB .g/cm3               : RHOB
PEF .b/e                  : PEF
GR .gAPI                  : GR
DTC .us/ft                : DTC
RDEP .ohm.m               : RDEP
SP .mV                    : SP
RSHA .ohm.m               : RSHA
RMED .ohm.m               : RMED
~Parameter
#==================================================================
~Ascii
# ...
 2245.8588867 5.0000000000 12.017000198 0.0180479996 0.5300800204 2.0372834206 4.8790001869 65.572677612 137.78215027 0.4620000124 81.746604919 0.5140224099 0.5140224099
 2246.0112305 5.0000000000 12.045000076 0.0170032065 0.5499500036 2.0311832428 4.6960000992 67.859626770 136.37889099 0.4629999995 81.503959656 0.5279887915 0.5279887915
 2246.1635742 5.0000000000 12.072999001 0.0090256408 0.5086299777 2.0361788273 4.5440001488 66.376998901 134.93138123 0.4699999988 83.974998474 0.5210000277 0.5210000277
 2246.3161621 5.0000000000 12.057000160 0.0070032054 0.4800100029 2.0506134033 4.5500001907 68.818946838 134.16065979 0.4810000062 82.555274963 0.5170449018 0.5170449018
 2246.4685059 5.0000000000 12.135999680 0.0149743995 0.4590599835 2.0666539669 4.5619997978 69.407287598 134.30924988 0.4939999878 81.483459473 0.5450176597 0.5450176597
 2246.6208496 5.0000000000 12.390999794 0.0130064106 0.4631299973 2.0799598694 4.9879999161 68.339103699 134.05036926 0.4970000088 82.390533447 0.5560703874 0.5560703874
 2246.7731934 5.0000000000 12.645999908 0.0319391042 0.4738900065 2.0884740353 5.3229999542 66.529998779 131.67086792 0.4950000048 80.853996277 0.6000000238 0.6000000238
 2246.9255371 5.0000000000 12.900999069 0.0399743579 0.4677900076 2.0903673172 5.4619998932 65.890998840 127.25699615 0.4909999967 79.191001892 0.6110000014 0.6110000014
 2247.0781250 5.0000000000 12.784000397 0.0569455996 0.5256600380 2.0893223286 5.3810000420 70.611083984 123.34634399 0.4920000136 83.037979126 0.6049262881 0.6049262881
 2247.2304688 6.0000000000 12.020000458 0.0589935891 0.5240600109 2.0883526802 5.4520001411 72.535736084 123.28905487 0.4920000136 82.403991699 0.5589439869 0.5589439869
 2247.3828125 6.0000000000 11.632999420 0.0480352566 0.5278599858 2.0863823891 5.5050001144 74.242996216 128.08758545 0.4920000136 83.021003723 0.5239999890 0.5239999890
 2247.5351563 6.0000000000 11.498000145 0.0300576910 0.4834800065 2.0807220936 5.3969998360 74.593002319 134.84603882 0.4930000007 80.771003723 0.4959999919 0.4959999919
 2247.6877441 6.0000000000 11.363999367 0.0140256416 0.4741100073 2.0755527020 4.8540000916 73.974487305 139.32441711 0.4889999926 82.064262390 0.4940272272 0.4940272272
 2247.8400879 6.0000000000 11.229000092 0.0269584004 0.4685100317 2.0793559551 4.4720001221 71.785987854 140.28622437 0.4850000143 82.225425720 0.5110512376 0.5110512376
 2247.9924316 6.0000000000 11.145998955 0.0289935898 0.4923700094 2.0924880505 4.1389999390 70.533851624 139.61746216 0.4839999974 81.247200012 0.5430335999 0.5430335999
 2248.1447754 5.0000000000 11.097999573 0.0160416681 0.5394899845 2.1090202332 3.8680000305 71.689002991 139.09089661 0.4850000143 81.992996216 0.5640000105 0.5640000105
 2248.2973633 5.0000000000 11.062000275 -0.006963141 0.5552099943 2.1203925610 3.7829999924 71.673179626 139.16923523 0.4889999926 81.364906311 0.5760048032 0.5760048032
 2248.4497070 5.0000000000 11.137999535 -0.009990400 0.5372800231 2.1244211197 3.5639998913 69.289077759 139.30456543 0.4909999967 80.689346313 0.5789951682 0.5789951682
 2248.6020508 5.0000000000 11.284000397 -0.009003204 0.4788499773 2.1239726543 3.7360000610 66.848129272 138.66665649 0.4920000136 82.150550842 0.5759663582 0.5759663582
 2248.7543945 5.0000000000 11.361000061 0.0009679488 0.4684500098 2.1191682816 3.9939999580 68.800003052 137.31071472 0.4920000136 80.622001648 0.5550000072 0.5550000072
 2248.9067383 5.0000000000 11.375000000 0.0079775648 0.4600199759 2.1107327938 4.2090001106 69.681999207 136.45346069 0.4930000007 80.861999512 0.5360000134 0.5360000134
 2249.0593262 5.0000000000 11.385999680 0.0219551995 0.4776999950 2.1024467945 4.1630001068 70.882362366 137.06007385 0.5009999871 81.421096802 0.5149631500 0.5149631500
 2249.2116699 5.0000000000 11.522999763 0.0309711527 0.4637700021 2.0966486931 4.3010001183 66.749557495 137.96377563 0.5040000081 79.609077454 0.4920704067 0.4920704067
 2249.3640137 5.0000000000 11.680000305 0.0509358980 0.4758200049 2.0953981876 3.7999999523 67.721000671 136.58859253 0.5009999871 80.279998779 0.5360000134 0.5360000134
 2249.5163574 5.0000000000 11.649000168 0.0659519210 0.4616899788 2.1041963100 3.6960000992 70.185997009 132.49751282 0.5019999743 80.442001343 0.6409999728 0.6409999728
 2249.6689453 5.0000000000 11.631999969 0.0490272418 0.4671799839 2.1207094193 3.8120000362 76.142372131 128.37496948 0.5080000162 79.235725403 0.6788814068 0.6788814068
 2249.8212891 6.0000000000 11.562999725 0.0290639997 0.4496900141 2.1275811195 4.1350002289 78.868812561 126.55233765 0.5170000196 79.067840576 0.6049166918 0.6049166918
 2249.9736328 6.0000000000 11.475999832 0.0080673080 0.4493899941 2.1151509285 4.0440001488 79.376342773 127.40169525 0.5289999843 80.211677551 0.5529983640 0.5529983640
 2250.1259766 6.0000000000 11.388999939 0.0030160258 0.4490499794 2.0948057175 3.6800000668 78.969001770 130.26652527 0.5270000100 80.637001038 0.5519999862 0.5519999862
 2250.2785645 6.0000000000 11.302000046 -0.002990385 0.4451299906 2.0793702602 3.7300000191 77.226631165 133.25979614 0.5109999776 80.137306213 0.5449888110 0.5449888110
 2250.4309082 6.0000000000 11.215000153 0.0009872001 0.4343999922 2.0706467628 3.6819999218 75.750503540 134.96211243 0.4930000007 79.710838318 0.5379695296 0.5379695296
 2250.5832520 6.0000000000 11.168999672 0.0049871793 0.4455199838 2.0619437695 3.9409999847 73.574577332 136.13803101 0.4799999893 82.721618652 0.5189808011 0.5189808011
 2250.7355957 6.0000000000 11.203000069 0.0040032053 0.4597700238 2.0492393970 4.2109999657 73.938003540 137.48110962 0.4709999859 79.987998962 0.5070000291 0.5070000291
 2250.8879395 6.0000000000 11.319998741 0.0249326918 0.4857000113 2.0328950882 5.1119999886 72.544998169 138.61738586 0.4629999995 80.828002930 0.5120000243 0.5120000243
 2251.0405273 6.0000000000 11.437000275 0.0598879978 0.5743299723 2.0136270523 5.6009998322 74.299903870 139.28898621 0.4639999866 81.860923767 0.5210032463 0.5210032463
 2251.1928711 6.0000000000 11.555000305 0.0639871806 0.7329300046 1.9906227589 5.8969998360 75.491477966 139.40400696 0.4699999988 80.572105408 0.5229936242 0.5229936242
 2251.3452148 6.0000000000 11.671999931 0.0350929499 0.8241100311 1.9614374638 5.5269999504 76.415000916 138.98275757 0.4740000069 82.511001587 0.5189999938 0.5189999938
 2251.4975586 6.0000000000 11.721999168 0.0090833325 0.7427499890 1.9379374981 4.8759999275 70.189002991 138.19129944 0.4769999981 80.636001587 0.5220000148 0.5220000148
 2251.6501465 6.0000000000 11.696000099 0.0000144231 0.5936500430 1.9448499680 4.1859998703 67.207923889 136.93577576 0.4799999893 80.154853821 0.5450512767 0.5450512767
 2251.8024902 5.0000000000 11.576999664 0.0000000000 0.5120399594 1.9856045246 4.1669998169 68.415275574 135.25152588 0.4720000029 81.308959961 0.5769920349 0.5769920349
 2251.9548340 5.0000000000 11.418000221 0.0029903846 0.5199999809 2.0272772312 4.0650000572 72.956001282 133.83264160 0.4740000069 80.660003662 0.5720000267 0.5720000267
 2252.1071777 5.0000000000 11.258999825 -0.002980769 0.5311500430 2.0353469849 3.7339999676 78.095001221 133.55166626 0.4799999893 82.128997803 0.5189999938 0.5189999938
 2252.2597656 5.0000000000 11.204000473 -0.008990385 0.4956399798 2.0161545277 3.5009999275 78.976325989 134.81115723 0.4819999933 81.045547485 0.4940096140 0.4940096140
 2252.4121094 6.0000000000 11.185000420 0.0029616000 0.4804600179 2.0051977634 3.6840000153 80.428245544 137.01464844 0.4729999900 82.009338379 0.5000352859 0.5000352859
 2252.5644531 6.0000000000 11.201000214 0.0319070518 0.4826800227 2.0230627060 3.7599999905 81.204078674 138.62237549 0.4620000124 80.974494934 0.5220208168 0.5220208168
 2252.7167969 6.0000000000 11.356999397 0.0459551290 0.4755600095 2.0609998703 3.6210000515 82.500000000 138.58764648 0.4519999921 81.283996582 0.5350000262 0.5350000262
 2252.8693848 6.0000000000 11.529000282 0.0240352564 0.4999099970 2.0929384232 3.3090000153 81.077919006 137.85768127 0.4539999962 81.445877075 0.5209743977 0.5209743977
 2253.0217285 6.0000000000 11.724999428 0.0110416003 0.5077099800 2.1030616760 3.3389999866 75.414062500 138.85676575 0.4670000076 82.614372253 0.5050079823 0.5050079823
