# LAS format log file from PETREL
# Project units are specified as depth units
#==================================================================
~Version information
VERS.   2.0:
WRAP.   NO:
#==================================================================
~Well
STRT .m      446.31985474 :
STOP .m      2908.1892090 :
STEP .m     0.00000000 :
NULL .        -999.250000 :
COMP.           : COMPANY
WELL.  16/7-5   : WELL
FLD.            : FIELD
LOC.            : LOCATION
SRVC.           : SERVICE COMPANY
DATE.  2018-09-11 14:48:11   : Log Export Date {yyyy-MM-dd HH:mm:ss}
PROV.           : PROVINCE
UWI.   16/7-5   : UNIQUE WELL ID
API.            : API NUMBER
#==================================================================
~Curve
DEPT .m                   : DEPTH
Lithology_geolink ._      : Lithology_geolink
CALI .in                  : CALI
DRHO .g/cm3               : DRHO
NPHI .m3/m3               : NPHI
RHOB .g/cm3               : RHOB
PEF .b/e                  : PEF
GR .gAPI                  : GR
DTC .us/ft                : DTC
RDEP .ohm.m               : RDEP
SP .mV                    : SP
RSHA .ohm.m               : RSHA
RMED .ohm.m               : RMED
~Parameter
#==================================================================
~Ascii
# ...
 2743.2924805 2.0000000000 8.2889995575 -0.017993590 0.1992200017 2.3784453869 3.6329998970 39.844001770 86.653305054 0.5830000043 75.199996948 1.2999999523 1.2999999523
 2743.4448242 2.0000000000 8.2969999313 -0.021987179 0.1865200102 2.3646969795 3.8199999332 38.905998230 89.859931946 0.6740000248 76.449996948 1.4190000296 1.4190000296
 2743.5971680 2.0000000000 8.4060001373 -0.026976001 0.1709000021 2.3630433083 3.2679998875 42.530998230 91.932571411 0.7749999762 79.949996948 1.7699999809 1.7699999809
 2743.7495117 4.0000000000 8.5159997940 -0.032971155 0.1743199974 2.3600277901 2.7439999580 46.187999725 92.389701843 0.8650000095 82.199996948 1.9119999409 1.9119999409
 2743.9020996 4.0000000000 9.1949996948 -0.036987182 0.2177700102 2.3532204628 2.3299999237 49.812999725 91.787727356 0.9449999928 84.699996948 1.5670000315 1.5670000315
 2744.0544434 4.0000000000 9.4060001373 -0.035006411 0.2412099987 2.3475153446 2.3499999046 48.344001770 91.078285217 1.0119999647 85.949996948 1.1790000200 1.1790000200
 2744.2067871 4.0000000000 8.7500000000 -0.031019200 0.2670899928 2.3508269787 2.4709999561 47.062999725 90.078086853 1.0399999619 86.449996948 1.1030000448 1.1030000448
 2744.3591309 4.0000000000 9.1719999313 -0.031995192 0.2548800111 2.3743634224 2.6250000000 48.155998230 87.735916138 1.0379999876 87.199996948 1.1330000162 1.1330000162
 2744.5117188 4.0000000000 9.0699996948 -0.034990385 0.2529299855 2.4170491695 2.7249999046 53.219001770 83.551536560 1.0169999599 86.949996948 1.1790000200 1.1790000200
 2744.6640625 5.0000000000 8.7580003738 -0.031012820 0.2500000000 2.4696123600 3.0000000000 53.155998230 78.284553528 1.0140000582 87.199996948 1.1460000277 1.1460000277
 2744.8164063 5.0000000000 8.8129997253 -0.025019230 0.2480500042 2.5109930038 3.4159998894 53.562999725 73.542762756 1.0540000200 85.949996948 1.1210000515 1.1210000515
 2744.9687500 4.0000000000 9.0550003052 -0.016043201 0.2573200166 2.5244836807 3.8929998875 50.219001770 71.027000427 1.1469999552 85.199996948 1.1560000181 1.1560000181
 2745.1210938 4.0000000000 9.1949996948 -0.012019231 0.2514599860 2.5137288570 4.2659997940 47.655998230 71.088539124 1.2829999924 82.949996948 1.2239999771 1.2239999771
 2745.2736816 4.0000000000 8.9840002060 -0.018977564 0.2148399949 2.4893162251 4.4569997787 42.530998230 72.667770386 1.4409999847 81.449996948 1.4029999971 1.4029999971
 2745.4260254 2.0000000000 8.7189998627 -0.008035257 0.1557600051 2.4621105194 4.5199999809 40.780998230 75.156417847 1.5870000124 80.699996948 1.8910000324 1.8910000324
 2745.5783691 2.0000000000 8.3909997940 -0.006009600 0.1269499958 2.4297540188 4.5980000496 39.875000000 78.579338074 1.6979999542 78.449996948 3.1679999828 3.1679999828
 2745.7307129 2.0000000000 8.3199996948 0.0089278845 0.1372099966 2.3949990273 4.3090000153 41.812999725 82.562042236 1.7619999647 76.449996948 4.5630002022 4.5630002022
 2745.8833008 2.0000000000 8.2810001373 -0.001964744 0.1533199996 2.3639953136 4.2540001869 40.000000000 86.454879761 1.7799999714 73.449996948 4.1129999161 4.1129999161
 2746.0356445 2.0000000000 8.2810001373 -0.005987179 0.1547899991 2.3403232098 3.9449999332 38.844001770 89.708068848 1.6729999781 71.699996948 3.1129999161 3.1129999161
 2746.1879883 2.0000000000 8.2729997635 -0.014956799 0.1430699974 2.3180937767 4.0980000496 39.125000000 92.005256653 1.4680000544 72.449996948 2.5269999504 2.5269999504
 2746.3403320 2.0000000000 8.2810001373 -0.015995193 0.1464799941 2.2992212772 4.2189998627 44.969001770 93.222351074 1.2339999676 71.699996948 2.0000000000 2.0000000000
 2746.4929199 4.0000000000 8.2810001373 -0.015003204 0.1738299876 2.2926473618 4.5549998283 50.187999725 93.538681030 1.0140000582 71.449996948 1.5000000000 1.5000000000
 2746.6452637 4.0000000000 8.5469999313 -0.012009615 0.2094700038 2.2937080860 4.3200001717 50.000000000 93.585136414 0.8169999719 69.949996948 1.1690000296 1.1690000296
 2746.7976074 4.0000000000 8.2580003738 -0.005022436 0.2436500043 2.2869553566 3.8959999084 46.437999725 93.801376343 0.6779999733 70.949996948 1.0119999647 1.0119999647
 2746.9499512 4.0000000000 8.2580003738 -0.008980799 0.2397499979 2.2645518780 3.4570000172 44.280998230 94.047935486 0.5849999785 69.449996948 0.9210000038 0.9210000038
 2747.1022949 4.0000000000 8.2659997940 -0.011985577 0.2231399864 2.2417826653 3.4119999409 44.219001770 94.062591553 0.5239999890 69.199996948 0.7960000038 0.7960000038
 2747.2548828 4.0000000000 8.2729997635 -0.018977564 0.2119099945 2.2409698963 3.5820000172 42.655998230 93.618705750 0.4850000143 68.199996948 0.7440000176 0.7440000176
 2747.4072266 4.0000000000 8.2810001373 -0.015012820 0.2236300111 2.2687377930 3.7539999485 44.937999725 92.827079773 0.4539999962 68.449996948 0.7620000243 0.7620000243
 2747.5595703 4.0000000000 8.3129997253 -0.019975999 0.2377899885 2.3071413040 3.6860001087 45.905998230 91.786972046 0.4320000112 69.199996948 0.8730000257 0.8730000257
 2747.7119141 4.0000000000 8.3199996948 -0.025971154 0.2456100136 2.3355567455 3.7230000496 46.469001770 90.006660461 0.4269999862 69.949996948 0.9169999957 0.9169999957
 2747.8645020 4.0000000000 8.3520002365 -0.031980772 0.2304700017 2.3575060368 3.7579998970 44.875000000 87.338806152 0.4429999888 71.199996948 0.8709999919 0.8709999919
 2748.0168457 4.0000000000 8.3590002060 -0.028012821 0.2280299962 2.3833510876 4.2540001869 44.844001770 84.617118835 0.4799999893 71.949996948 0.8220000267 0.8220000267
 2748.1691895 4.0000000000 8.4840002060 -0.018048000 0.2183099985 2.4074614048 4.6989998817 49.405998230 82.466194153 0.5239999890 73.199996948 0.8539999723 0.8539999723
 2748.3215332 5.0000000000 8.5310001373 -0.013024039 0.2343799919 2.4182057381 5.1370000839 53.812999725 81.157127380 0.5780000091 75.199996948 0.9369999766 0.9369999766
 2748.4741211 5.0000000000 8.9530000687 -0.013996796 0.2529299855 2.4166982174 4.8239998817 54.405998230 80.943420410 0.6560000181 76.199996948 1.0180000067 1.0180000067
 2748.6264648 5.0000000000 9.6560001373 -0.015993591 0.2597700059 2.4129183292 4.6599998474 51.250000000 80.697029114 0.7559999824 77.199996948 1.0579999685 1.0579999685
 2748.7788086 4.0000000000 8.7189998627 -0.013009615 0.2342399955 2.4131574631 4.4770002365 47.219001770 78.842590332 0.8709999919 76.699996948 1.1690000296 1.1690000296
 2748.9311523 4.0000000000 8.2889995575 -0.011009600 0.1928700060 2.4228482246 4.3049998283 47.280998230 75.971206665 1.0049999952 76.699996948 1.4479999542 1.4479999542
 2749.0834961 4.0000000000 8.2889995575 -0.011000000 0.1918899864 2.4335298538 4.0040001869 49.625000000 74.140228271 1.1529999971 76.449996948 1.7209999561 1.7209999561
 2749.2360840 4.0000000000 8.2889995575 -0.015983975 0.1909199953 2.4231901169 3.6800000668 45.844001770 74.632476807 1.3179999590 76.199996948 1.7690000534 1.7690000534
 2749.3884277 3.0000000000 8.2889995575 -0.018990384 0.1870100051 2.3933699131 3.6989998817 40.437999725 77.209861755 1.4930000305 74.949996948 1.7539999485 1.7539999485
 2749.5407715 3.0000000000 8.3199996948 -0.020990400 0.1581999958 2.3591892719 3.9769999981 34.719001770 80.713874817 1.5740000010 74.449996948 1.9069999456 1.9069999456
 2749.6931152 3.0000000000 8.3750000000 -0.007067308 0.1518599987 2.3389711380 4.6719999313 35.155998230 83.888603210 1.5260000229 75.449996948 2.1500000954 2.1500000954
 2749.8457031 3.0000000000 8.4219999313 -0.011983975 0.1391600072 2.3420355320 5.0430002213 37.280998230 85.693946838 1.4199999571 76.699996948 2.4219999313 2.4219999313
 2749.9980469 3.0000000000 8.5229997635 -0.007016026 0.1499000043 2.3706564903 5.2459998131 39.719001770 85.694366455 1.3150000572 78.449996948 2.3399999142 2.3399999142
 2750.1503906 2.0000000000 8.7189998627 -0.006004800 0.1747999936 2.4117395878 4.9180002213 43.625000000 84.764472961 1.2400000095 79.699996948 1.8300000429 1.8300000429
 2750.3027344 2.0000000000 8.9840002060 0.0029567308 0.2182600051 2.4342472553 4.5310001373 45.062999725 84.150009155 1.1849999428 81.199996948 1.3070000410 1.3070000410
 2750.4553223 4.0000000000 9.2810001373 0.0000096154 0.2372999936 2.4271585941 3.7599999905 46.375000000 84.301307678 1.1399999857 83.449996948 1.1349999905 1.1349999905
