# LAS format log file from PETREL
# Project units are specified as depth units
#==================================================================
~Version information
VERS.   2.0:
WRAP.   NO:
#==================================================================
~Well
STRT .m      446.31985474 :
STOP .m      2908.1892090 :
STEP .m     0.00000000 :
NULL .        -999.250000 :
COMP.           : COMPANY
WELL.  16/7-5   : WELL
FLD.            : FIELD
LOC.            : LOCATION
SRVC.           : SERVICE COMPANY
DATE.  2018-09-11 14:48:11   : Log Export Date {yyyy-MM-dd HH:mm:ss}
PROV.           : PROVINCE
UWI.   16/7-5   : UNIQUE WELL ID
API.            : API NUMBER
#==================================================================
~Curve
DEPT .m                   : DEPTH
Lithology_geolink ._      : Lithology_geolink
CALI .in                  : CALI
DRHO .g/cm3               : DRHO
NPHI .m3/m3               : NPHI
RHOB .g/cm3               : RHOB
PEF .b/e                  : PEF
GR .gAPI                  : GR
DTC .us/ft                : DTC
RDEP .ohm.m               : RDEP
SP .mV                    : SP
RSHA .ohm.m               : RSHA
RMED .ohm.m               : RMED
~Parameter
#==================================================================
~Ascii
# ...
 2414.1083984 10.000000000 10.211000443 -0.032971155 0.1860399991 2.4700067043 4.4530000687 13.015999794 72.112640381 1.8439999819 82.699996948 1.9299999475 1.9299999475
 2414.2609863 10.000000000 10.227000237 -0.029006409 0.2006800026 2.4754621983 4.9650001526 14.244390488 71.513595581 1.8339999914 82.448791504 1.7598541975 1.7598541975
 2414.4133301 10.000000000 10.203000069 -0.026009601 0.1953099966 2.4829258919 4.7769999504 15.735053062 71.775825500 1.8380000591 81.700401306 1.6690577269 1.6690577269
 2414.5656738 10.000000000 10.147999763 -0.024006410 0.1962900013 2.4947173595 4.9800000191 16.389038086 72.375099182 1.8339999914 81.948394775 1.7052688599 1.7052688599
 2414.7180176 10.000000000 10.140999794 -0.027987180 0.1806599945 2.5071239471 4.7420001030 15.163999557 72.738769531 1.8530000448 80.949996948 1.8730000257 1.8730000257
 2414.8706055 10.000000000 10.133000374 -0.029996794 0.1777300090 2.5139198303 4.8130002022 13.646472931 72.724220276 1.8880000114 81.199592590 2.2213525772 2.2213525772
 2415.0229492 10.000000000 10.093999863 -0.028006401 0.1601600051 2.5160303116 4.9489998817 12.697416306 72.654510498 1.9650000334 80.951202393 2.4408941269 2.4408941269
 2415.1752930 10.000000000 10.078000069 -0.028000001 0.1581999958 2.5159833431 4.8090000153 14.202238083 72.690208435 2.1070001125 81.700798035 2.3748257160 2.3748257160
 2415.3276367 10.000000000 10.078000069 -0.024012821 0.1543000042 2.5122818947 4.7620000839 13.727000237 72.691848755 2.2909998894 82.199996948 2.2660000324 2.2660000324
 2415.4799805 9.0000000000 10.008000374 -0.026990386 0.1469699889 2.4987134933 4.7189998627 12.500000000 72.799209595 2.4609999657 82.449996948 2.3929998875 2.3929998875
 2415.6325684 9.0000000000 9.9840002060 -0.021019200 0.1337900013 2.4755518436 4.8520002365 12.022950172 73.201850891 2.5940001011 82.950798035 2.6884374619 2.6884374619
 2415.7849121 9.0000000000 9.9840002060 -0.021000000 0.1259799898 2.4502162933 5.0700001717 11.993186951 73.929626465 2.6600000858 83.449996948 2.9608464241 2.9608464241
 2415.9372559 9.0000000000 9.9769992828 -0.021996794 0.1250000000 2.4344356060 4.8790001869 12.734000206 74.772666931 2.6949999332 83.449996948 2.8650000095 2.8650000095
 2416.0895996 9.0000000000 9.9769992828 -0.023993591 0.1245100051 2.4404373169 4.9019999504 13.203000069 74.929656982 2.6930000782 82.949996948 2.9609999657 2.9609999657
 2416.2421875 9.0000000000 9.9840002060 -0.033983976 0.1191399992 2.4681768417 5.1050000191 13.988383293 73.859375000 2.6310000420 83.700401306 3.1019423008 3.1019423008
 2416.3945313 9.0000000000 10.015999794 -0.030012799 0.1298799962 2.5069243908 5.6090002060 16.716583252 72.112541199 2.5230000019 83.949592590 3.0654118061 3.0654118061
 2416.5468750 9.0000000000 10.133000374 -0.035980769 0.1479499936 2.5379021168 5.6479997635 15.211800575 70.690444946 2.4570000172 83.700393677 2.6982941628 2.6982941628
 2416.6992188 9.0000000000 10.038999557 -0.036996797 0.1689500064 2.5508711338 5.7230000496 15.711000443 70.167968750 2.4649999142 83.949996948 2.2579998970 2.2579998970
 2416.8518066 9.0000000000 10.031000137 -0.032008015 0.1689500064 2.5464591980 5.3049998283 13.995568275 70.507385254 2.4820001125 83.451599121 2.1391057968 2.1391057968
 2417.0041504 9.0000000000 10.031000137 -0.026019201 0.1577100009 2.5309038162 5.0900001526 16.219425201 71.327873230 2.5120000839 84.449592590 2.2053251266 2.2053251266
 2417.1564941 9.0000000000 10.038999557 -0.009054487 0.1367200017 2.5150694847 5.0980000496 16.483974457 72.164718628 2.5590000153 84.200393677 2.4085407257 2.4085407257
 2417.3088379 9.0000000000 10.008000374 -0.016974360 0.1186499968 2.5030355453 4.9800000191 16.468999863 72.769790649 2.5999999046 84.449996948 2.7460000515 2.7460000515
 2417.4611816 9.0000000000 10.008000374 -0.013012821 0.0961900055 2.4937732220 5.4299998283 14.977000237 73.196289063 2.6480000019 84.699996948 3.3870000839 3.3870000839
 2417.6137695 9.0000000000 10.008000374 -0.018980799 0.0947299972 2.4818027020 4.9489998817 14.467784882 73.541366577 2.7599999905 83.950401306 3.8925800323 3.8925800323
 2417.7661133 9.0000000000 10.015999794 -0.015012820 0.1059599966 2.4673895836 4.8790001869 13.712974548 73.698417664 2.8729999065 84.199195862 3.6300463676 3.6300463676
 2417.9184570 9.0000000000 10.008000374 -0.020980770 0.1274400055 2.4583461285 4.8629999161 14.944999695 73.310241699 2.9279999733 83.699996948 3.0350000858 3.0350000858
 2418.0708008 9.0000000000 10.022999763 -0.019006409 0.1352600008 2.4622056484 4.9140000343 16.187999725 72.270378113 2.8829998970 83.449996948 2.7750000954 2.7750000954
 2418.2233887 9.0000000000 10.022999763 -0.012011218 0.1381800026 2.4746761322 5.3130002022 16.936069489 70.982078552 2.7300000191 82.449195862 2.7439005375 2.7439005375
 2418.3757324 9.0000000000 10.038999557 -0.012000000 0.1435499936 2.4847621918 5.1479997635 15.733599663 69.868064880 2.5039999485 81.949195862 2.6817209721 2.6817209721
 2418.5280762 9.0000000000 10.031000137 -0.017980769 0.1518599987 2.4881868362 5.3130002022 15.482038498 69.196311951 2.3980000019 81.449195862 2.5077342987 2.5077342987
 2418.6804199 9.0000000000 10.031000137 -0.030958332 0.1616200060 2.4895982742 5.3400001526 14.258000374 69.097183228 2.3870000839 80.949996948 2.3420000076 2.3420000076
 2418.8330078 9.0000000000 10.031000137 -0.029003205 0.1596699953 2.4943401814 4.9219999313 14.013996124 69.277381897 2.3810000420 80.697990417 2.1822273731 2.1822273731
 2418.9853516 9.0000000000 10.031000137 -0.032987200 0.1533199996 2.5010795593 5.0199999809 12.764798164 69.364021301 2.4260001183 79.451202393 2.3245704174 2.3245704174
 2419.1376953 9.0000000000 10.038999557 -0.033996798 0.1333000064 2.5026619434 4.8909997940 12.015974045 69.806541443 2.4470000267 80.200798035 2.6804497242 2.6804497242
 2419.2900391 9.0000000000 10.038999557 -0.032006413 0.1250000000 2.4916923046 5.3629999161 12.000000000 71.448661804 2.4820001125 80.699996948 2.9609999657 2.9609999657
 2419.4423828 9.0000000000 10.046999931 -0.029009614 0.1235399991 2.4733142853 5.2890000343 13.227000237 74.067039490 2.5659999847 81.449996948 3.0799999237 3.0799999237
 2419.5949707 9.0000000000 10.093999863 -0.021025600 0.1264600009 2.4596347809 5.3319997787 15.947317123 76.720184326 2.7149999142 82.949592590 2.8848173618 2.8848173618
 2419.7473145 9.0000000000 10.272999763 -0.015019231 0.1215799972 2.4521284103 5.5269999504 17.391876221 78.846206665 2.7790000439 82.702400208 2.7708063126 2.7708063126
 2419.8996582 9.0000000000 10.375000000 -0.000048077 0.1098600030 2.4428422451 5.2270002365 17.937999725 80.249008179 2.7639999390 84.199996948 2.6500000954 2.6500000954
 2420.0520020 9.0000000000 10.180000305 -0.002990385 0.1269499958 2.4299240112 4.9530000687 17.468999863 81.103340149 2.6659998894 83.699996948 2.6559998989 2.6559998989
 2420.2045898 9.0000000000 10.187999725 -0.012983975 0.1474599987 2.4251806736 4.7849998474 18.247596741 81.709838867 2.5230000019 83.700401306 2.3475480080 2.3475480080
 2420.3569336 9.0000000000 10.218998909 -0.024961600 0.1801799983 2.4342315197 4.8979997635 16.751176834 81.983695984 2.3789999485 83.949996948 2.0657308102 2.0657308102
 2420.5092773 9.0000000000 10.265999794 -0.025996795 0.1845700145 2.4502844810 5.1170001030 17.481611252 81.654838562 2.2170000076 83.949996948 1.8979392052 1.8979392052
 2420.6616211 9.0000000000 10.281000137 -0.023009615 0.1811500043 2.4655115604 4.8159999847 15.991999626 80.727516174 2.0350000858 83.949996948 1.8600000143 1.8600000143
 2420.8142090 10.000000000 10.288999557 -0.027991988 0.1801799983 2.4769954681 4.6449999809 16.733173370 79.640785217 1.9049999714 83.450798035 1.8337644339 1.8337644339
 2420.9665527 10.000000000 10.297000885 -0.026006401 0.1894499958 2.4839806557 4.6250000000 16.220928192 78.810867310 1.8329999447 83.948791504 1.6869407892 1.6869407892
 2421.1188965 10.000000000 10.319999695 -0.031980772 0.1928700060 2.4861264229 4.9569997787 17.420351028 78.318977356 1.7860000134 83.201194763 1.6500431299 1.6500431299
 2421.2712402 10.000000000 10.319999695 -0.028012821 0.1992200017 2.4862892628 5.3010001183 16.391000748 78.216583252 1.7829999924 83.949996948 1.6770000458 1.6770000458
