# LAS format log file from PETREL
# Project units are specified as depth units
#==================================================================
~Version information
VERS.   2.0:
WRAP.   NO:
#==================================================================
~Well
STRT .m      446.31985474 :
STOP .m      2908.1892090 :
STEP .m     0.00000000 :
NULL .        -999.250000 :
COMP.           : COMPANY
WELL.  16/7-5   : WELL
FLD.            : FIELD
LOC.            : LOCATION
SRVC.           : SERVICE COMPANY
DATE.  2018-09-11 14:48:11   : Log Export Date {yyyy-MM-dd HH:mm:ss}
PROV.           : PROVINCE
UWI.   16/7-5   : UNIQUE WELL ID
API.            : API NUMBER
#==================================================================
~Curve
DEPT .m                   : DEPTH
Lithology_geolink ._      : Lithology_geolink
CALI .in                  : CALI
DRHO .g/cm3               : DRHO
NPHI .m3/m3               : NPHI
RHOB .g/cm3               : RHOB
PEF .b/e                  : PEF
GR .gAPI                  : GR
DTC .us/ft                : DTC
RDEP .ohm.m               : RDEP
SP .mV                    : SP
RSHA .ohm.m               : RSHA
RMED .ohm.m               : RMED
~Parameter
#==================================================================
~Ascii
# ...
 936.43817139  -999.250000 18.117000580  -999.250000  -999.250000 2.0110270977  -999.250000 44.059059143 161.69947815 0.8050007820 37.531173706 0.7569944263 0.7569944263
 936.59057617  -999.250000 17.964000702  -999.250000  -999.250000 2.0154926777  -999.250000 43.010601044 159.53556824 0.8069971800 36.885150909 0.7549495101 0.7549495101
 936.74298096  -999.250000 17.833999634  -999.250000  -999.250000 2.0233035088  -999.250000 42.163265228 155.88125610 0.8000000119 38.359107971 0.7370280027 0.7370280027
 936.89538574  -999.250000 17.753999710  -999.250000  -999.250000 2.0308287144  -999.250000 44.393650055 152.46804810 0.8000020385 37.327892303 0.7470420003 0.7470420003
 937.04779053  -999.250000 17.673999786  -999.250000  -999.250000 2.0342602730  -999.250000 45.337791443 150.95425415 0.8050007820 36.577838898 0.7620252371 0.7620252371
 937.20019531  -999.250000 17.649000168  -999.250000  -999.250000 2.0344264507  -999.250000 45.617523193 150.87687683 0.8070015907 36.879653931 0.7709860206 0.7709860206
 937.35260010  -999.250000 17.638999939  -999.250000  -999.250000 2.0356745720  -999.250000 45.090644836 150.34736633 0.8109999895 37.823467255 0.7659839392 0.7659839392
 937.50500488  -999.250000 17.638999939  -999.250000  -999.250000 2.0411999226  -999.250000 44.356349945 148.05551147 0.8109992146 37.659122467 0.7609679103 0.7609679103
 937.65740967  -999.250000 17.791999817  -999.250000  -999.250000 2.0501506329  -999.250000 43.844463348 144.43908691 0.8099967837 38.316253662 0.7509999871 0.7509999871
 937.80981445  -999.250000 17.961999893  -999.250000  -999.250000 2.0587794781  -999.250000 44.613819122 141.07781982 0.8059967756 37.463005066 0.7509615421 0.7509615421
 937.96215820  -999.250000 18.131999969  -999.250000  -999.250000 2.0639264584  -999.250000 45.492233276 139.15139771 0.8019983768 37.774688721 0.7390000224 0.7390000224
 938.11456299  -999.250000 18.184000015  -999.250000  -999.250000 2.0640132427  -999.250000 45.930461884 139.12406921 0.7979983687 37.663837433 0.7390224338 0.7390224338
 938.26696777  -999.250000 18.295000076  -999.250000  -999.250000 2.0579535961  -999.250000 45.734378815 141.41258240 0.7939988375 37.606231689 0.7469915748 0.7469915748
 938.41937256  -999.250000 18.431999207  -999.250000  -999.250000 2.0457270145  -999.250000 44.086566925 146.29780579 0.7910012007 37.687957764 0.7439944148 0.7439944148
 938.57177734  -999.250000 18.569000244  -999.250000  -999.250000 2.0299773216  -999.250000 42.512420654 153.01600647 0.7940016389 37.319114685 0.7419831753 0.7419831753
 938.72418213  -999.250000 18.648000717  -999.250000  -999.250000 2.0160291195  -999.250000 43.380710602 159.38494873 0.7980039716 38.070682526 0.7360196114 0.7360196114
 938.87658691  -999.250000 18.403999329  -999.250000  -999.250000 2.0087590218  -999.250000 45.776210785 162.86903381 0.8080032468 37.956516266 0.7430251837 0.7430251837
 939.02899170  -999.250000 17.965999603  -999.250000  -999.250000 2.0104794502  -999.250000 48.692832947 162.02197266 0.8160007596 37.429393768 0.7520111799 0.7520111799
 939.18139648  -999.250000 17.482999802  -999.250000  -999.250000 2.0200514793  -999.250000 47.566604614 157.47225952 0.8179979920 37.568347931 0.7560420632 0.7560420632
 939.33380127  -999.250000 17.499000549  -999.250000  -999.250000 2.0319840908  -999.250000 47.778911591 152.02848816 0.8129988313 37.336311340 0.7708430290 0.7708430290
 939.48620605  -999.250000 18.308000565  -999.250000  -999.250000 2.0400950909  -999.250000 47.126628876 148.49023438 0.8099955916 37.121921539 0.7220672965 0.7220672965
 939.63861084  -999.250000 18.944999695  -999.250000  -999.250000 2.0423097610  -999.250000 46.075042725 147.55268860 0.7989904284 37.095638275 0.7430223823 0.7430223823
 939.79101563  -999.250000 19.582000732  -999.250000  -999.250000 2.0403254032  -999.250000 45.464225769 148.38600159 0.7869983912 36.672466278 0.7501441836 0.7501441836
 939.94342041  -999.250000 20.225000381  -999.250000  -999.250000 2.0371422768  -999.250000 44.913337708 149.73010254 0.7850056291 36.818920135 0.7948974967 0.7948974967
 940.09576416  -999.250000 20.868999481  -999.250000  -999.250000 2.0343735218  -999.250000 45.331127167 150.89735413 0.7920016050 37.415920258 0.7629916072 0.7629916072
 940.24816895  -999.250000 21.347000122  -999.250000  -999.250000 2.0314700603  -999.250000 45.734001160 152.14973450 0.7960084081 37.387233734 0.7599663734 0.7599663734
 940.40057373  -999.250000 21.087999344  -999.250000  -999.250000 2.0283434391  -999.250000 46.452621460 153.54191589 0.8170064092 37.116676331 0.7479776144 0.7479776144
 940.55297852  -999.250000 20.479999542  -999.250000  -999.250000 2.0261797905  -999.250000 48.810993195 154.51963806 0.8330064416 37.712497711 0.7400168180 0.7400168180
 940.70538330  -999.250000 19.086000443  -999.250000  -999.250000 2.0253264904  -999.250000 49.877246857 154.91719055 0.8490043879 37.532997131 0.7460812926 0.7460812926
 940.85778809  -999.250000 17.951000214  -999.250000  -999.250000 2.0244927406  -999.250000 50.323829651 155.30685425 0.8600023985 37.533752441 0.7750896811 0.7750896811
 941.01019287  -999.250000 17.822999954  -999.250000  -999.250000 2.0226590633  -999.250000 51.331626892 156.13879395 0.8660007715 38.155529022 0.8070644736 0.8070644736
 941.16259766  -999.250000 17.850000381  -999.250000  -999.250000 2.0204758644  -999.250000 51.911952972 157.13887024 0.8679999709 37.988079071 0.8300448656 0.8300448656
 941.31500244  -999.250000 18.031000137  -999.250000  -999.250000 2.0187492371  -999.250000 52.599567413 157.95307922 0.8679983616 37.659942627 0.8458990455 0.8458990455
 941.46740723  -999.250000 18.246000290  -999.250000  -999.250000 2.0170760155  -999.250000 49.947063446 158.75494385 0.8639928102 37.283237457 0.8098878860 0.8098878860
 941.61981201  -999.250000 18.972999573  -999.250000  -999.250000 2.0153927803  -999.250000 46.853569031 159.57464600 0.8459872007 37.046688080 0.7749166489 0.7749166489
 941.77221680  -999.250000 19.334999084  -999.250000  -999.250000 2.0142097473  -999.250000 46.409648895 160.14514160 0.8299783468 37.262248993 0.7489391565 0.7489391565
 941.92462158  -999.250000 19.590999603  -999.250000  -999.250000 2.0132229328  -999.250000 46.609043121 160.61145020 0.8029871583 37.963088989 0.7300000191 0.7300000191
 942.07696533  -999.250000 19.686000824  -999.250000  -999.250000 2.0120368004  -999.250000 45.996147156 161.19235229 0.7869943976 38.300678253 0.7299748063 0.7299748063
 942.22937012  -999.250000 19.608999252  -999.250000  -999.250000 2.0111699104  -999.250000 44.621978760 161.62239075 0.7729967833 38.188335419 0.7210813165 0.7210813165
 942.38177490  -999.250000 19.403999329  -999.250000  -999.250000 2.0119099617  -999.250000 43.186004639 161.27046204 0.7649987936 38.663059235 0.7500644922 0.7500644922
 942.53417969  -999.250000 19.326000214  -999.250000  -999.250000 2.0153098106  -999.250000 41.047126770 159.62565613 0.7619996071 38.684009552 0.7731177211 0.7731177211
 942.68658447  -999.250000 19.285999298  -999.250000  -999.250000 2.0208876133  -999.250000 38.954872131 156.98437500 0.7610023618 38.330413818 0.8150392771 0.8150392771
 942.83898926  -999.250000 19.256999969  -999.250000  -999.250000 2.0272192955  -999.250000 37.848255157 154.07952881 0.7670104504 38.122802734 0.8289551139 0.8289551139
 942.99139404  -999.250000 19.266000748  -999.250000  -999.250000 2.0338492393  -999.250000 39.802280426 151.15788269 0.7930123806 38.684741974 0.8149327040 0.8149327040
 943.14379883  -999.250000 19.611999512  -999.250000  -999.250000 2.0399987698  -999.250000 42.078273773 148.52914429 0.8240216374 38.917072296 0.7939387560 0.7939387560
 943.29620361  -999.250000 19.695997238  -999.250000  -999.250000 2.0439541340  -999.250000 45.218032837 146.87304688 0.8780336380 39.216564178 0.7770144343 0.7770144343
 943.44860840  -999.250000 19.350999832  -999.250000  -999.250000 2.0448529720  -999.250000 51.883296967 146.49073792 0.9620236158 40.203681946 0.7811405659 0.7811405659
 943.60101318  -999.250000 18.898000717  -999.250000  -999.250000 2.0432288647  -999.250000 57.791618347 147.15606689 1.0210448503 40.947620392 0.8204289079 0.8204289079
