# LAS format log file from PETREL
# Project units are specified as depth units
#==================================================================
~Version information
VERS.   2.0:
WRAP.   NO:
#==================================================================
~Well
STRT .m      367.94241333 :
STOP .m      2651.6562500 :
STEP .m     0.00000000 :
NULL .        -999.250000 :
COMP.           : COMPANY
WELL.  16/7-1   : WELL
FLD.            : FIELD
LOC.            : LOCATION
SRVC.           : SERVICE COMPANY
DATE.  2018-09-11 14:48:09   : Log Export Date {yyyy-MM-dd HH:mm:ss}
PROV.           : PROVINCE
UWI.   16/7-1   : UNIQUE WELL ID
API.            : API NUMBER
#==================================================================
~Curve
DEPT .m                   : DEPTH
Lithology_geolink ._      : Lithology_geolink
DCAL .in                  : DCAL
CALI .in                  : CALI
BS .in                    : BS
DRHO .g/cm3               : DRHO
RHOB .g/cm3               : RHOB
GR .gAPI                  : GR
DTC .us/ft                : DTC
RDEP .ohm.m               : RDEP
SP .mV                    : SP
RSHA .ohm.m               : RSHA
RMED .ohm.m               : RMED
~Parameter
#==================================================================
~Ascii
# ...
 2482.0351563 21.000000000 -0.523999691 7.9759998322 8.5000000000 -0.002901758 2.0565869808 4.9303278923 20.906837463 3787.1320801 87.534721375 22.003150940  -999.250000
 2482.1877441 21.000000000 -0.514617920 7.9853820801 8.5000000000 -0.001702344 2.0607919693 5.2068247795 20.893869400 3794.1459961 87.545722961 22.372510910  -999.250000
 2482.3400879 21.000000000 -0.547735214 7.9522647858 8.5000000000 -0.001101172 2.0610001087 5.0177350044 20.943796158 3801.1589355 87.552932739 29.334400177  -999.250000
 2482.4924316 21.000000000 -0.591314793 7.9086852074 8.5000000000 -0.001000195 2.0591039658 4.3616490364 20.914524078 3808.2019043 87.579643250 34.826889038  -999.250000
 2482.6447754 21.000000000 -0.597487926 7.9025120735 8.5000000000 -0.001499023 2.0548079014 4.2239298820 20.908069611 3815.4450684 87.596961975 32.596130371  -999.250000
 2482.7973633 21.000000000 -0.546899319 7.9531011581 8.5000000000 -0.002697656 2.0496098995 4.6387519836 20.914974213 3822.9409180 87.633033752 28.713850021  -999.250000
 2482.9497070 21.000000000 -0.488613069 8.0113868713 8.5000000000 -0.005793945 2.0445098877 4.5778851509 20.884988785 3830.4790039 87.690696716 19.664939880  -999.250000
 2483.1020508 21.000000000 -0.488101006 8.0118989944 8.5000000000 -0.009492774 2.0402081013 4.0307350159 20.891016006 3837.9990234 87.772712708 17.917589188  -999.250000
 2483.2543945 21.000000000 -0.514947414 7.9850530624 8.5000000000 -0.010098830 2.0397009850 3.5802459717 20.824884415 3845.5200195 87.894416809 23.683559418  -999.250000
 2483.4069824 21.000000000 -0.540849686 7.9591498375 8.5000000000 -0.007704687 2.0430929661 3.4593999386 20.836694717 3852.3759766 88.023246765 25.709049225  -999.250000
 2483.5593262 21.000000000 -0.537107527 7.9628930092 8.5000000000 -0.004007227 2.0482900143 3.2838099003 20.825624466 3856.4060059 88.089057922 28.906450272  -999.250000
 2483.7116699 21.000000000 -0.510950983 7.9890489578 8.5000000000 -0.000407031 2.0526909828 3.5664100647 20.856426239 3857.3620605 88.035247803 19.329690933  -999.250000
 2483.8640137 21.000000000 -0.532657623 7.9673418999 8.5000000000 0.0025941411 2.0567920208 3.4794349670 20.881608963 3858.1669922 87.844329834 25.838649750  -999.250000
 2484.0163574 21.000000000 -0.552761078 7.9472384453 8.5000000000 0.0005041016 2.0598940849 3.3292579651 20.903984070 3858.9680176 87.628677368 25.348930359  -999.250000
 2484.1689453 21.000000000 -0.528248310 7.9717516899 8.5000000000 -0.004789649 2.0555090904 3.2163848877 20.888116837 3859.7690430 87.573089600 22.820619583  -999.250000
 2484.3212891 21.000000000 -0.499754876 8.0002450943 8.5000000000 -0.005798047 2.0536038876 3.7701799870 20.873601913 3860.5720215 87.515548706 24.758310318  -999.250000
 2484.4736328 21.000000000 -0.538623810 7.9613761902 8.5000000000 -0.001009375 2.0574920177 4.9181208611 20.873649597 3844.1398926 87.479057312 34.809638977  -999.250000
 2484.6259766 21.000000000 -0.543191373 7.9568090439 8.5000000000 0.0026927730 2.0629889965 6.4141430855 20.960401535 3731.5439453 87.541473389 36.520320892  -999.250000
 2484.7785645 21.000000000 -0.571444511 7.9285554886 8.5000000000 0.0042968751 2.0707850456 8.3936958313 20.955829620 3431.7958984 87.621856689 33.430850983  -999.250000
 2484.9309082 21.000000000 -0.581380427 7.9186201096 8.5000000000 0.0133822300 2.0840740204 11.201780319 20.944923401 2983.6789551 87.730796814 31.082729340  -999.250000
 2485.0830078 21.000000000 -0.560541213 7.9394593239 8.5000000000 0.0235800799 2.1084520817 16.112659454 20.934892654 2567.4760742 87.847221375 27.627929688  -999.250000
 2485.2355957 21.000000000 -0.611899376 7.8881011009 8.5000000000 0.0204062499 2.1439309120 22.212350845 20.703491211 2450.3500977 87.985366821 39.648368835  -999.250000
 2485.3879395 21.000000000 -0.566788673 7.9332108498 8.5000000000 0.0067267581 2.1743409634 30.502069473 20.429031372 2718.8950195 88.175636292 26.777189255  -999.250000
 2485.5402832 21.000000000 -0.517296791 7.9827032089 8.5000000000 0.0050033201 2.1647191048 37.590129852 20.228096008 3130.4870605 88.374511719 21.551860809  -999.250000
 2485.6926270 21.000000000 -0.560514927 7.9394855499 8.5000000000 0.0058982419 2.1124019623 38.096401215 20.096506119 3496.4699707 88.539169312 27.253040314  -999.250000
 2485.8452148 21.000000000 -0.569083214 7.9309167862 8.5000000000 0.0023070311 2.0692839622 31.879430771 20.202253342 3743.3259277 88.697303772 27.417900085  -999.250000
 2485.9975586 21.000000000 -0.496841431 8.0031585693 8.5000000000 -0.001392773 2.0575230122 23.395050049 20.477720261 3825.2980957 88.858413696 11.821599960  -999.250000
 2486.1499023 21.000000000 -0.476738900 8.0232610703 8.5000000000 -0.001400000 2.0578989983 16.628170013 20.624877930 3795.6708984 89.021110535 9.1072330475  -999.250000
 2486.3022461 21.000000000 -0.544666827 7.9553332329 8.5000000000 0.0005960938 2.0605950356 11.205650330 20.782148361 3742.2080078 89.194381714 22.269269943  -999.250000
 2486.4548340 21.000000000 -0.591508389 7.9084920883 8.5000000000 -0.000697461 2.0571069717 8.2724838257 20.790857315 3699.7819824 89.323379517 30.971450806  -999.250000
 2486.6071777 21.000000000 -0.547586381 7.9524140358 8.5000000000 -0.005191211 2.0459220409 7.3661270142 20.774787903 3696.7080078 89.357566833 21.372480392  -999.250000
 2486.7595215 21.000000000 -0.516460419 7.9835400581 8.5000000000 -0.010190230 2.0394129753 7.5259480476 20.824041367 3733.1159668 89.328483582 21.193309784  -999.250000
 2486.9118652 21.000000000 -0.534963608 7.9650354385 8.5000000000 -0.010599220 2.0420949459 8.0702018738 20.875303268 3794.7280273 89.241249084 29.762779236  -999.250000
 2487.0642090 21.000000000 -0.533503115 7.9664974213 8.5000000000 -0.007007031 2.0482881069 7.8516960144 20.932601929 3867.7849121 89.116432190 29.458450317  -999.250000
 2487.2167969 21.000000000 -0.508848190 7.9911518097 8.5000000000 -0.003606641 2.0541880131 7.2356681824 20.954065323 3987.1220703 89.026161194 15.975000381  -999.250000
 2487.3691406 21.000000000 -0.514288902 7.9857110977 8.5000000000 -0.001603906 2.0601880550 6.9505200386 20.896503448 4242.4990234 88.924308777 18.798030853  -999.250000
 2487.5214844 21.000000000 -0.544440687 7.9555587769 8.5000000000 0.0012943360 2.0671861172 7.5832247734 20.957654953 4277.5288086 88.780502319 27.145000458  -999.250000
 2487.6738281 21.000000000 -0.551985323 7.9480161667 8.5000000000 0.0050925780 2.0786778927 8.9022865295 20.990934372 3350.0319824 88.684333801 25.450759888  -999.250000
 2487.8264160 21.000000000 -0.515571594 7.9844284058 8.5000000000 0.0066968752 2.1005570889 11.340700150 20.962129593 1870.4329834 88.589828491 15.299420357  -999.250000
 2487.9787598 21.000000000 -0.487355202 8.0126447678 8.5000000000 0.0049035158 2.1399230957 14.873559952 20.874830246 900.61267090 88.444061279 14.878310204  -999.250000
 2488.1311035 21.000000000 -0.516742229 7.9832577705 8.5000000000 -0.006477735 2.2045741081 20.285989761 20.719694138 538.44378662 88.313972473 19.123390198  -999.250000
 2488.2834473 21.000000000 -0.528776586 7.9712228775 8.5000000000 -0.025363090 2.2889349461 29.199239731 20.414186478 439.22640991 88.172897339 20.223590851  -999.250000
 2488.4360352 21.000000000 -0.521215022 7.9787845612 8.5000000000 -0.025599610 2.3593618870 41.391639709 19.967458725 459.01049805 88.059059143 21.358819962  -999.250000
 2488.5883789 21.000000000 -0.518405378 7.9815950394 8.5000000000 -0.011128320 2.3445289135 52.808570862 19.753568649 637.90881348 87.976669312 20.330360413  -999.250000
 2488.7407227 21.000000000 -0.536863804 7.9631357193 8.5000000000 -0.000121484 2.2322199345 55.910839081 19.743370056 1144.3339844 87.897590637 19.207370758  -999.250000
 2488.8930664 21.000000000 -0.520332277 7.9796676636 8.5000000000 -0.002894531 2.1153280735 49.762310028 19.894847870 1796.9539795 87.800521851 7.2486538887  -999.250000
 2489.0456543 21.000000000 -0.511516988 7.9884829521 8.5000000000 -0.005594726 2.0631020069 35.228881836 20.088844299 2441.0720215 87.720123291 5.6644978523  -999.250000
 2489.1979980 21.000000000 -0.549425602 7.9505739212 8.5000000000 -0.004402344 2.0563130379 26.746210098 20.506078720 3318.0190430 87.668472290 12.946410179  -999.250000
