# LAS format log file from PETREL
# Project units are specified as depth units
#==================================================================
~Version information
VERS.   2.0:
WRAP.   NO:
#==================================================================
~Well
STRT .m      367.94241333 :
STOP .m      2651.6562500 :
STEP .m     0.00000000 :
NULL .        -999.250000 :
COMP.           : COMPANY
WELL.  16/7-1   : WELL
FLD.            : FIELD
LOC.            : LOCATION
SRVC.           : SERVICE COMPANY
DATE.  2018-09-11 14:48:09   : Log Export Date {yyyy-MM-dd HH:mm:ss}
PROV.           : PROVINCE
UWI.   16/7-1   : UNIQUE WELL ID
API.            : API NUMBER
#==================================================================
~Curve
DEPT .m                   : DEPTH
Lithology_geolink ._      : Lithology_geolink
DCAL .in                  : DCAL
CALI .in                  : CALI
BS .in                    : BS
DRHO .g/cm3               : DRHO
RHOB .g/cm3               : RHOB
GR .gAPI                  : GR
DTC .us/ft                : DTC
RDEP .ohm.m               : RDEP
SP .mV                    : SP
RSHA .ohm.m               : RSHA
RMED .ohm.m               : RMED
~Parameter
#==================================================================
~Ascii
# ...
 2028.4927979 12.000000000 3.1812589169 11.681259155 8.5000000000 0.0203066394 2.2028980255 55.175331116 46.074268341 0.4053596854 77.483146667 0.2388675064  -999.250000
 2028.6452637 12.000000000 3.4734139442 11.973409653 8.5000000000 0.0094106440 2.2041990757 51.205940247 46.800910950 0.4783569872 77.459571838 0.2082020938  -999.250000
 2028.7976074 12.000000000 3.7299489975 12.229948997 8.5000000000 0.0013079100 2.1995050907 48.981929779 41.940483093 0.5914608836 77.448936462 0.2746632993  -999.250000
 2028.9500732 12.000000000 3.5589680672 12.058970451 8.5000000000 -0.006092773 2.1676309109 50.545139313 45.343666077 0.6739667058 77.421020508 0.3287873864  -999.250000
 2029.1024170 12.000000000 3.2615911961 11.761590004 8.5000000000 -0.012993260 2.0851809978 52.230419159 54.620159149 0.6713743806 77.381446838 0.2740485966  -999.250000
 2029.2548828 12.000000000 3.0162391663 11.516242027 8.5000000000 -0.017795309 1.9640179873 52.389011383 49.955497742 0.6029409170 77.306503296 0.3034592867  -999.250000
 2029.4072266 12.000000000 2.8516602516 11.351659775 8.5000000000 -0.016401369 1.8934689760 50.504711151 44.484104156 0.5239974856 77.241622925 0.3850344121  -999.250000
 2029.5596924 12.000000000 3.4239408970 11.923939705 8.5000000000 -0.016400000 1.8876060247 49.559391022 46.155071259 0.4121262133 77.170280457 0.3044301867  -999.250000
 2029.7120361 12.000000000 4.5453038216 13.045298576 8.5000000000 -0.021395121 1.9367519617 50.728820801 46.557373047 0.3546651006 77.082176208 0.2465540022  -999.250000
 2029.8645020 12.000000000 4.8013520241 13.301348686 8.5000000000 -0.024397070 1.9876500368 52.016109467 52.475528717 0.3833102882 76.992530823 0.2466689050  -999.250000
 2030.0168457 12.000000000 3.9353470802 12.435349464 8.5000000000 -0.014609570 1.9997880459 52.927780151 53.460792542 0.4041258097 76.928939819 0.2663592100  -999.250000
 2030.1693115 12.000000000 3.3228976727 11.822898865 8.5000000000 0.0051806639 2.1290743351 52.352531433 53.249168396 0.4390606880 76.891403198 0.2540174127  -999.250000
 2030.3216553 12.000000000 3.2446770668 11.744679451 8.5000000000 0.0053998050 2.2705619335 51.920291901 54.515247345 0.4510701895 76.878639221 0.2558506131  -999.250000
 2030.4739990 12.000000000 3.2040412426 11.704038620 8.5000000000 -0.006688183 2.2157540321 52.990119934 46.546253204 0.4574559927 76.856208801 0.2486815006  -999.250000
 2030.6264648 12.000000000 3.3640429974 11.864040375 8.5000000000 -0.006300391 2.1439700127 53.172389984 47.156124115 0.4937055111 76.815353394 0.3004696071  -999.250000
 2030.7788086 12.000000000 4.2515330315 12.751530647 8.5000000000 -0.009097266 2.0306110382 52.280139923 48.653759003 0.4872859120 76.778846741 0.3409811854  -999.250000
 2030.9312744 12.000000000 5.6225605011 14.122559547 8.5000000000 -0.011098050 1.9312969446 49.197780609 54.010559082 0.4602989852 76.755622864 0.2792587876  -999.250000
 2031.0836182 12.000000000 6.0112209320 14.511219978 8.5000000000 -0.012898240 1.9511799812 47.015998840 51.242004395 0.4230281115 76.715591431 0.5119376779  -999.250000
 2031.2360840 12.000000000 5.8744335175 14.374429703 8.5000000000 -0.012300590 1.9583929777 46.897480011 47.304958344 0.4221614003 76.690391541 0.4378866851  -999.250000
 2031.3884277 12.000000000 6.1911897659 14.691189766 8.5000000000 -0.006905274 1.9513070583 48.527568817 52.791358948 0.4665867984 76.689872742 0.2458478957  -999.250000
 2031.5408936 12.000000000 6.3619332314 14.861929893 8.5000000000 0.0045887702 1.9576940536 52.266410828 50.253318787 0.5266057849 76.799713135 0.2521331012  -999.250000
 2031.6932373 12.000000000 5.4398007393 13.939800262 8.5000000000 0.0209839791 1.9976609945 53.906471252 49.405364990 0.5536649823 76.965148926 0.2423613071  -999.250000
 2031.8457031 12.000000000 4.5326862335 13.032690048 8.5000000000 0.0433781296 2.0769219398 54.695098877 42.279445648 0.5324543715 77.176612854 0.2573440969  -999.250000
 2031.9980469 12.000000000 4.7484879494 13.248489380 8.5000000000 0.0561874993 2.2070729733 54.486171722 41.301254272 0.5789185762 77.400382996 0.2638283968  -999.250000
 2032.1505127 12.000000000 5.2672929764 13.767289162 8.5000000000 0.0503057614 2.2109959126 53.865970612 47.562759399 0.6234412789 77.554237366 0.2517668009  -999.250000
 2032.3028564 12.000000000 5.6914854050 14.191489220 8.5000000000 0.0211285092 2.1642460823 52.307289124 47.881641388 0.5516496897 77.487052917 0.2574256063  -999.250000
 2032.4553223 12.000000000 5.5116772652 14.011679649 8.5000000000 0.0077130860 2.1369268894 50.683650970 46.683685303 0.5110952258 77.287902832 0.2637127042  -999.250000
 2032.6076660 12.000000000 5.0022969246 13.502300262 8.5000000000 0.0018057619 2.1189179420 49.181930542 45.360183716 0.5438843966 77.076950073 0.2979078889  -999.250000
 2032.7600098 12.000000000 4.9532480240 13.453248978 8.5000000000 0.0027990229 2.1216969490 47.619789124 48.209152222 0.6499639153 76.957550049 0.3128778040  -999.250000
 2032.9124756 12.000000000 5.2678918839 13.767889977 8.5000000000 0.0162868202 2.1859369278 47.302768707 42.317581177 0.7682049274 76.794326782 0.3659132123  -999.250000
 2033.0648193 12.000000000 5.5532221794 14.053219795 8.5000000000 0.0392775387 2.2772109509 47.757419586 42.937236786 0.8463644981 76.664352417 0.4623923898  -999.250000
 2033.2172852 12.000000000 5.6472082138 14.147210121 8.5000000000 0.0422970690 2.3441350460 48.808738708 40.369358063 0.8706986904 76.594917297 0.4002270103  -999.250000
 2033.3696289 12.000000000 5.6291179657 14.129119873 8.5000000000 0.0276143607 2.3479959965 51.114810944 46.270072937 0.8345307112 76.568176270 0.3906792998  -999.250000
 2033.5220947 12.000000000 5.6200079918 14.120010376 8.5000000000 0.0271004904 2.3201270103 54.313739777 44.054664612 0.7002074718 76.636489868 0.3704049885  -999.250000
 2033.6744385 12.000000000 5.5160021782 14.016000748 8.5000000000 0.0190079100 2.2708480358 56.332199097 47.631767273 0.5614264011 76.645576477 0.3270016015  -999.250000
 2033.8269043 12.000000000 5.4117021561 13.911700249 8.5000000000 0.0128060495 2.2368330956 58.115520477 56.205116272 0.4720878005 76.709007263 0.2558391094  -999.250000
 2033.9792480 12.000000000 5.4148964882 13.914899826 8.5000000000 0.0168959908 2.2370998859 59.076320648 44.930416107 0.4224821925 76.809036255 0.2324007004  -999.250000
 2034.1317139 12.000000000 5.4700455666 13.970049858 8.5000000000 0.0167002007 2.2325050831 59.354888916 44.665054321 0.4152632058 76.926879883 0.2389544994  -999.250000
 2034.2840576 12.000000000 5.5854868889 14.085490227 8.5000000000 0.0124041997 2.2077240944 59.048069000 48.889919281 0.4772982001 76.945648193 0.2657051086  -999.250000
 2034.4365234 12.000000000 5.5206642151 14.020661354 8.5000000000 0.0093030278 2.1893179417 57.671211243 47.159446716 0.5034455061 76.976898193 0.2851308882  -999.250000
 2034.5888672 12.000000000 5.2552595139 13.755260468 8.5000000000 0.0138955098 2.1987910271 54.454311371 44.908561707 0.5076494813 76.964622498 0.2380203009  -999.250000
 2034.7412109 12.000000000 5.0598912239 13.559889793 8.5000000000 0.0212927703 2.2194800377 51.339309692 44.521892548 0.5066537857 76.895637512 0.1979971975  -999.250000
 2034.8936768 12.000000000 4.7322211266 13.232219696 8.5000000000 0.0217995103 2.2231969833 49.567790985 44.140464783 0.4928874969 76.782310486 0.2047825009  -999.250000
 2035.0460205 12.000000000 4.1310868263 12.631090164 8.5000000000 0.0205012709 2.2151079178 50.328521729 44.068077087 0.4547902942 76.655532837 0.2475460023  -999.250000
 2035.1984863 12.000000000 3.6619579792 12.161960602 8.5000000000 0.0174030308 2.2117030621 52.292350769 44.247150421 0.4286114872 76.499656677 0.2870964110  -999.250000
 2035.3508301 12.000000000 3.9209458828 12.420949936 8.5000000000 0.0211962909 2.2287828922 52.167289734 42.924617767 0.4323273003 76.339653015 0.2913829982  -999.250000
 2035.5032959 12.000000000 4.9542899132 13.454290390 8.5000000000 0.0324889608 2.2612679005 49.275890350 39.714134216 0.4845972955 76.192886353 0.2593541145  -999.250000
 2035.6556396 12.000000000 6.2929930687 14.792989731 8.5000000000 0.0401924811 2.2907710075 47.070819855 38.987121582 0.5577570200 76.051498413 0.2852725089  -999.250000
