# LAS format log file from PETREL
# Project units are specified as depth units
#==================================================================
~Version information
VERS.   2.0:
WRAP.   NO:
#==================================================================
~Well
STRT .m      446.31985474 :
STOP .m      2908.1892090 :
STEP .m     0.00000000 :
NULL .        -999.250000 :
COMP.           : COMPANY
WELL.  16/7-5   : WELL
FLD.            : FIELD
LOC.            : LOCATION
SRVC.           : SERVICE COMPANY
DATE.  2018-09-11 14:48:11   : Log Export Date {yyyy-MM-dd HH:mm:ss}
PROV.           : PROVINCE
UWI.   16/7-5   : UNIQUE WELL ID
API.            : API NUMBER
#==================================================================
~Curve
DEPT .m                   : DEPTH
Lithology_geolink ._      : Lithology_geolink
CALI .in                  : CALI
DRHO .g/cm3               : DRHO
NPHI .m3/m3               : NPHI
RHOB .g/cm3               : RHOB
PEF .b/e                  : PEF
GR .gAPI                  : GR
DTC .us/ft                : DTC
RDEP .ohm.m               : RDEP
SP .mV                    : SP
RSHA .ohm.m               : RSHA
RMED .ohm.m               : RMED
~Parameter
#==================================================================
~Ascii
# ...
 1923.9901123  -999.250000 11.750000000 -0.008000000 0.5027099848 2.0557935238 2.4679999352 62.907833099 149.26988220 0.4790000021 75.029350281 0.5409904122 0.5409904122
 1924.1425781  -999.250000 11.762000084 -0.011993590 0.4990700185 2.0580017567 2.4430000782 63.428821564 148.68089294 0.4740000069 75.247444153 0.5349760056 0.5349760056
 1924.2949219  -999.250000 11.892001152 -0.018983185 0.4999400079 2.0605237484 2.5360000134 64.599197388 146.90841675 0.4699999988 74.186729431 0.5250031948 0.5250031948
 1924.4473877  -999.250000 12.138999939 -0.018001601 0.4683900177 2.0617301464 2.5590000153 63.472270966 144.96180725 0.4710063934 74.019981384 0.5269687772 0.5269687772
 1924.5997314  -999.250000 12.385999680 -0.014009608 0.4977599978 2.0618565083 2.6219999790 61.922462463 144.49241638 0.4750032127 74.844497681 0.5139951706 0.5139951706
 1924.7521973  -999.250000 12.424000740 -0.009008013 0.5037500262 2.0600643158 2.8250000477 61.592353821 145.10876465 0.4790095985 75.156394958 0.5110384226 0.5110384226
 1924.9045410  -999.250000 12.191999435 -0.004012010 0.5124700069 2.0549390316 3.0529999733 63.821533203 145.37973022 0.4850032330 75.733566284 0.5270528793 0.5270528793
 1925.0570068  -999.250000 11.961000443 -0.001004808 0.4790900052 2.0486397743 3.1370000839 67.270462036 145.12544250 0.4890144169 74.836616516 0.5600360036 0.5600360036
 1925.2093506  -999.250000 11.729999542 0.0059887823 0.4977000058 2.0436961651 2.9300000668 68.703483582 144.86935425 0.4980112016 74.264038086 0.5749903917 0.5749903917
 1925.3616943  -999.250000 12.260001183 0.0040048040 0.4949499965 2.0429427624 2.5510001183 65.265579224 145.19702148 0.5120120049 74.291427612 0.5690048337 0.5690048337
 1925.5141602  -999.250000 12.946999550 0.0020032052 0.5147799850 2.0476911068 2.4900000095 63.136898041 146.48669434 0.5270136595 75.178207397 0.5720240474 0.5720240474
 1925.6665039  -999.250000 13.593000412 0.0029975981 0.5159699917 2.0552818775 2.5009999275 62.684947968 148.45318604 0.5440064073 74.433464050 0.5820224285 0.5820224285
 1925.8189697  -999.250000 12.595000267 0.0020016027 0.5036900043 2.0646083355 2.7030000687 66.397987366 150.55979919 0.5520039797 74.102920532 0.5960384607 0.5960384607
 1925.9713135  -999.250000 11.597999573 0.0089831864 0.4658200145 2.0722339153 2.9270000458 69.718444824 152.33363342 0.5569959879 74.074600220 0.6119999886 0.6119999886
 1926.1237793  -999.250000 11.313000679 0.0119951926 0.4658200145 2.0702908039 3.2430000305 71.868461609 153.34379578 0.5519951582 75.691055298 0.6119927764 0.6119927764
 1926.2761230  -999.250000 11.171999931 0.0439231396 0.4845100045 2.0580809116 3.2339999676 73.310760498 153.28120422 0.5460007787 74.465866089 0.6089663506 0.6089663506
 1926.4285889  -999.250000 11.163999557 0.0430016033 0.5108399987 2.0471737385 3.0399999619 75.023826599 151.85374451 0.5470063686 73.137107849 0.5880095959 0.5880095959
 1926.5809326  -999.250000 11.189000130 0.0140696559 0.4803499877 2.0447034836 2.8540000916 71.622734070 149.06842041 0.5510095954 73.596588135 0.5919695497 0.5919695497
 1926.7333984  -999.250000 11.359999657 -0.002972757 0.4723099768 2.0417585373 2.8329999447 67.714607239 145.86572266 0.5630416274 74.589530945 0.5729063153 0.5729063153
 1926.8857422  -999.250000 11.530999184 -0.003000000 0.4519100189 2.0336287022 2.9849998951 64.636611938 143.14788818 0.5890151858 75.642463684 0.5339951515 0.5339951515
 1927.0382080  -999.250000 11.589000702 0.0049871793 0.5036100149 2.0298717022 3.4839999676 59.399829865 139.54704285 0.6079807878 75.309379578 0.5314083695 0.5314083695
 1927.1905518  -999.250000 11.500000954 0.0459342934 0.5100200176 2.0436677933 5.4130001068 53.509757996 132.14149475 0.5959895849 75.051948547 0.7014374733 0.7014374733
 1927.3428955  -999.250000 11.395000458 0.1437646002 0.4719499946 2.0931823254 5.6609997749 50.875331879 120.22813416 0.5829911828 74.393463135 0.9740752578 0.9740752578
 1927.4953613  -999.250000 11.392000198 0.1739519238 0.4249800146 2.1850311756 4.7059998512 56.702270508 108.27503967 0.5720024109 74.062507629 1.0205577612 1.0205577612
 1927.6477051  -999.250000 11.550999641 0.1420768648 0.4430199862 2.2704968452 3.2809998989 63.110752106 103.66451263 0.5750088096 74.383277893 0.7447147369 0.7447147369
 1927.8001709  -999.250000 11.593999863 0.0481506400 0.5226800442 2.2728898525 2.8740000725 69.821838379 109.26496887 0.5859928131 75.176429749 0.5668390393 0.5668390393
 1927.9525146  -999.250000 11.314000130 0.0170744602 0.5455400348 2.1846606731 2.6749999523 74.745071411 121.19428253 0.5769872069 74.109504700 0.5000368357 0.5000368357
 1928.1049805  -999.250000 11.034000397 0.0020240385 0.5649899840 2.0798087120 2.8440001011 77.278465271 134.11802673 0.5609783530 74.427528381 0.5230504274 0.5230504274
 1928.2573242  -999.250000 10.892000198 0.0049927942 0.5593699813 2.0245802402 2.8849999905 75.805206299 144.36419678 0.5339919925 75.474731445 0.5440080166 0.5440080166
 1928.4097900  -999.250000 11.003000259 0.0020048078 0.5666800141 2.0190470219 2.8610000610 72.195434570 150.21128845 0.5239999890 75.308258057 0.5490216613 0.5490216613
 1928.5621338  -999.250000 11.170999527 0.0039951964 0.5293500423 2.0305719376 2.8789999485 71.131980896 152.26893616 0.5240104198 74.998939514 0.5580368638 0.5580368638
 1928.7145996  -999.250000 11.432999611 0.0040000002 0.5297399759 2.0406715870 3.3250000477 71.123558044 151.96780396 0.5370160341 73.714881897 0.5810359716 0.5810359716
 1928.8669434  -999.250000 11.777000427 0.0199615695 0.5022900105 2.0440728664 3.8970000744 73.012397766 150.13380432 0.5470072031 73.251541138 0.5960032344 0.5960032344
 1929.0194092  -999.250000 11.935999870 0.0529471152 0.5243600011 2.0370454788 4.5939998627 70.768478394 147.63938904 0.5560063720 74.210617065 0.5979999900 0.5979999900
 1929.1717529  -999.250000 11.732999802 0.0909390971 0.5092300177 2.0249447823 4.3889999390 70.965087891 145.59658813 0.5600032210 74.052467346 0.5979855657 0.5979855657
 1929.3242188  -999.250000 11.529000282 0.0919983983 0.5194699764 2.0173416138 3.8229999542 69.146339417 144.60923767 0.5639967918 74.344268799 0.5890167952 0.5890167952
 1929.4765625  -999.250000 11.326000214 0.0550592951 0.5190700293 2.0169138908 3.6840000153 67.631210327 144.24851990 0.5619992018 74.869453430 0.5960240364 0.5960240364
 1929.6289063  -999.250000 11.208999634 0.0310576465 0.5298699737 2.0147750378 3.9530000687 70.880271912 143.59263611 0.5609959960 74.529319763 0.6109983921 0.6109983921
 1929.7813721  -999.250000 11.270000458 0.0240112189 0.5435200334 1.9993227720 4.2309999466 72.919372559 142.48559570 0.5560007691 75.350410461 0.6099904180 0.6099904180
 1929.9337158  -999.250000 11.331000328 0.0269927941 0.5428500175 1.9716392756 3.9730000496 73.482261658 141.68496704 0.5570032001 74.688880920 0.6059855819 0.6059855819
 1930.0861816  -999.250000 11.373999596 0.0050352565 0.5322899818 1.9433562756 3.5469999313 68.659599304 141.80148315 0.5610095859 73.368835449 0.5969855785 0.5969855785
 1930.2385254  -999.250000 11.369000435 0.0000120096 0.4697600305 1.9265019894 3.9230000973 67.250495911 142.90049744 0.5730080009 74.547073364 0.5910128355 0.5910128355
 1930.3909912  -999.250000 11.253000259 0.0029951923 0.4663600028 1.9223641157 4.0440001488 70.054092407 144.36334229 0.5830112100 73.967857361 0.5990288258 0.5990288258
 1930.5433350  -999.250000 11.137000084 0.0030000000 0.4667599797 1.9238803387 4.5029997826 70.922836304 144.45404053 0.5970039964 73.079605103 0.6110256314 0.6110256314
 1930.6958008  -999.250000 11.020999908 -0.001991987 0.4870500267 1.9178700447 4.2210001945 70.818267822 142.17419434 0.6020048261 75.328208923 0.6270792484 0.6270792484
 1930.8481445  -999.250000 11.020000458 -0.007985589 0.4745299816 1.8977324963 4.0949997902 69.271324158 139.10827637 0.6050016284 74.584503174 0.6600224376 0.6600224376
 1931.0006104  -999.250000 11.055999756 -0.006003205 0.4827399850 1.8787132502 3.1649999619 71.343544006 137.12940979 0.6070016026 74.895713806 0.6739640236 0.6739640236
 1931.1529541  -999.250000 11.168999672 -0.006000000 0.4765999913 1.8826136589 2.9579999447 71.569709778 136.60043335 0.6079919934 73.943176270 0.6589326859 0.6589326859
