# LAS format log file from PETREL
# Project units are specified as depth units
#==================================================================
~Version information
VERS.   2.0:
WRAP.   NO:
#==================================================================
~Well
STRT .m      367.94241333 :
STOP .m      2651.6562500 :
STEP .m     0.00000000 :
NULL .        -999.250000 :
COMP.           : COMPANY
WELL.  16/7-1   : WELL
FLD.            : FIELD
LOC.            : LOCATION
SRVC.           : SERVICE COMPANY
DATE.  2018-09-11 14:48:09   : Log Export Date {yyyy-MM-dd HH:mm:ss}
PROV.           : PROVINCE
UWI.   16/7-1   : UNIQUE WELL ID
API.            : API NUMBER
#==================================================================
~Curve
DEPT .m                   : DEPTH
Lithology_geolink ._      : Lithology_geolink
DCAL .in                  : DCAL
CALI .in                  : CALI
BS .in                    : BS
DRHO .g/cm3               : DRHO
RHOB .g/cm3               : RHOB
GR .gAPI                  : GR
DTC .us/ft                : DTC
RDEP .ohm.m               : RDEP
SP .mV                    : SP
RSHA .ohm.m               : RSHA
RMED .ohm.m               : RMED
~Parameter
#==================================================================
~Ascii
# ...
 521.56164551  -999.250000 -0.225299805 12.024701118 12.250000954  -999.250000  -999.250000 83.054969788  -999.250000 1.3786760569 76.503753662 1.5446729660 1.4870879650
 521.71398926  -999.250000 -0.224499702 12.025500298 12.250000954  -999.250000  -999.250000 83.470291138  -999.250000 1.3802330494 76.553436279 1.4306859970 1.4808850288
 521.86639404  -999.250000 -0.223699600 12.026298523 12.250000954  -999.250000  -999.250000 85.434211731  -999.250000 1.3801189661 76.649597168 1.2929960489 1.4827890396
 522.01879883  -999.250000 -0.222800300 12.027199745 12.250000954  -999.250000  -999.250000 86.849349976  -999.250000 1.3775899410 76.726593018 1.2166559696 1.4875700474
 522.17120361  -999.250000 -0.222000092 12.027999878 12.250000954  -999.250000  -999.250000 86.366111755  -999.250000 1.3755370378 76.747581482 1.2397819757 1.4919140339
 522.32360840  -999.250000 -0.221200004 12.028800011 12.250000954  -999.250000  -999.250000 84.380378723  -999.250000 1.3785519600 76.810379028 1.2048979998 1.4962719679
 522.47595215  -999.250000 -0.220299691 12.029700279 12.250000954  -999.250000  -999.250000 83.371841431  -999.250000 1.3809800148 77.009742737 1.2922569513 1.4982450008
 522.62835693  -999.250000 -0.219499603 12.030500412 12.250000954  -999.250000  -999.250000 83.725509644  -999.250000 1.3870790005 77.122848511 1.3655350208 1.5012110472
 522.78076172  -999.250000 -0.218600303 12.031399727 12.250000954  -999.250000  -999.250000 84.901206970  -999.250000 1.3940000534 77.018356323 1.3398000002 1.5002239943
 522.93316650  -999.250000 -0.216999993 12.033000946 12.250000954  -999.250000  -999.250000 85.429962158  -999.250000 1.3963780403 76.876197815 1.2893509865 1.4944349527
 523.08557129  -999.250000 -0.214599580 12.035399437 12.250000954  -999.250000  -999.250000 85.557060242  -999.250000 1.4016530514 76.472427368 1.2654470205 1.4929640293
 523.23797607  -999.250000 -0.212100014 12.037899971 12.250000954  -999.250000  -999.250000 86.003593445  -999.250000 1.4095920324 76.256690979 1.3386880159 1.5010919571
 523.39038086  -999.250000 -0.209500298 12.040500641 12.250000954  -999.250000  -999.250000 86.757507324  -999.250000 1.4178199768 76.341278076 1.4306119680 1.5110599995
 523.54278564  -999.250000 -0.206899598 12.043101311 12.250000954  -999.250000  -999.250000 86.845970154  -999.250000 1.4261430502 76.394493103 1.4384479523 1.5171810389
 523.69519043  -999.250000 -0.204299882 12.045700073 12.250000954  -999.250000  -999.250000 84.064270020  -999.250000 1.4333950281 76.406173706 1.4999320507 1.5186519623
 523.84759521  -999.250000 -0.201700196 12.048299789 12.250000954  -999.250000  -999.250000 81.034332275  -999.250000 1.4346990585 76.411872864 1.4555300474 1.5231330395
 524.00000000  -999.250000 -0.199199706 12.050800323 12.250000954  -999.250000  -999.250000 80.073333740  -999.250000 1.4279880524 76.418441772 1.4753659964 1.5225340128
 524.15240479  -999.250000 -0.196600020 12.053400040 12.250000954  -999.250000  -999.250000 81.501640320  -999.250000 1.4191069603 76.437797546 1.5028779507 1.5200619698
 524.30480957  -999.250000 -0.194000199 12.055998802 12.250000954  -999.250000  -999.250000 83.752853394  -999.250000 1.4103449583 76.716453552 1.4138300419 1.5139440298
 524.45721436  -999.250000 -0.191399604 12.058600426 12.250000954  -999.250000  -999.250000 83.848869324  -999.250000 1.4073979855 76.917182922 1.4082150459 1.5080280304
 524.60955811  -999.250000 -0.188799888 12.061200142 12.250000954  -999.250000  -999.250000 83.061187744  -999.250000 1.4068479538 76.892906189 1.3755489588 1.5090290308
 524.76196289  -999.250000 -0.186400399 12.063599586 12.250000954  -999.250000  -999.250000 81.830589294  -999.250000 1.4076900482 76.852691650 1.3762500286 1.5106229782
 524.91436768  -999.250000 -0.171099693 12.078900337 12.250000954  -999.250000  -999.250000 80.052330017  -999.250000 1.4098889828 76.850616455 1.4477709532 1.5057959557
 525.06677246  -999.250000 -0.136500403 12.113499641 12.250000954  -999.250000  -999.250000 79.324371338  -999.250000 1.4111130238 76.856628418 1.2723259926 1.4985580444
 525.21917725  -999.250000 -0.119500197 12.130499840 12.250000954  -999.250000  -999.250000 79.574226379  -999.250000 1.4112149477 76.862617493 1.1287980080 1.5030479431
 525.37158203  -999.250000 -0.131999999 12.118000031 12.250000954  -999.250000  -999.250000 79.051116943  -999.250000 1.4113199711 76.864723206 1.1800340414 1.5047609806
 525.52398682  -999.250000 -0.157699600 12.092300415 12.250000954  -999.250000  -999.250000 77.653343201  -999.250000 1.4114220142 76.846611023 1.1784299612 1.5014350414
 525.67639160  -999.250000 -0.181099907 12.068898201 12.250000954  -999.250000  -999.250000 76.473182678  -999.250000 1.4101959467 76.867958069 1.1328510046 1.4935450554
 525.82879639  -999.250000 -0.187899604 12.062100410 12.250000954  -999.250000  -999.250000 76.821510315  -999.250000 1.4062030315 76.884391785 1.1860359907 1.4885669947
 525.98120117  -999.250000 -0.184699997 12.065299988 12.250000954  -999.250000  -999.250000 78.802513123  -999.250000 1.4020639658 76.862823486 1.1982870102 1.4936579466
 526.13360596  -999.250000 -0.175200507 12.074800491 12.250000954  -999.250000  -999.250000 80.897979736  -999.250000 1.3974130154 76.747413635 1.1798379421 1.4967720509
 526.28601074  -999.250000 -0.169400185 12.080599785 12.250000954  -999.250000  -999.250000 82.757537842  -999.250000 1.3929480314 76.707336426 1.1986700296 1.4941940308
 526.43841553  -999.250000 -0.175299600 12.074700356 12.250000954  -999.250000  -999.250000 84.460281372  -999.250000 1.3889230490 76.717483521 1.2178169489 1.4862270355
 526.59082031  -999.250000 -0.188699707 12.061300278 12.250000954  -999.250000  -999.250000 85.738876343  -999.250000 1.3839219809 76.775146484 1.1410239935 1.4781910181
 526.74316406  -999.250000 -0.203300506 12.046699524 12.250000954  -999.250000  -999.250000 85.736686707  -999.250000 1.3759919405 76.875717163 1.1332210302 1.4743510485
 526.89556885  -999.250000 -0.210399568 12.039601326 12.250000954  -999.250000  -999.250000 84.565483093  -999.250000 1.3678480387 76.920997620 1.1485489607 1.4701180458
 527.04797363  -999.250000 -0.204099715 12.045901299 12.250000954  -999.250000  -999.250000 83.183029175  -999.250000 1.3639990091 76.923767090 1.1414209604 1.4655610323
 527.20037842  -999.250000 -0.195099801 12.054900169 12.250000954  -999.250000  -999.250000 82.701011658  -999.250000 1.3677129745 76.871246338 1.0692369938 1.4635920525
 527.35278320  -999.250000 -0.182299599 12.067700386 12.250000954  -999.250000  -999.250000 83.409317017  -999.250000 1.3756350279 76.789001465 1.0234659910 1.4637390375
 527.50518799  -999.250000 -0.158805802 12.091190338 12.250000954  -999.250000  -999.250000 85.231101990  -999.250000 1.3835599422 76.755172729 1.0940489769 1.4639630318
 527.65759277  -999.250000 -0.136105493 12.113889694 12.250000954  -999.250000  -999.250000 87.045707703  -999.250000 1.3857029676 76.754852295 1.1599179506 1.4641879797
 527.80999756  -999.250000 -0.120404199 12.129599571 12.250000954  -999.250000  -999.250000 88.963958740  -999.250000 1.3858009577 76.760719299 1.2036529779 1.4645750523
 527.96240234  -999.250000 -0.114701301 12.135298729 12.250000954  -999.250000  -999.250000 90.063659668  -999.250000 1.3858989477 76.798522949 1.2707970142 1.4664510489
 528.11480713  -999.250000 -0.117098793 12.132899284 12.250000954  -999.250000  -999.250000 89.918373108  -999.250000 1.3860379457 76.935653687 1.3356059790 1.4698280096
 528.26721191  -999.250000 -0.129197106 12.120800018 12.250000954  -999.250000  -999.250000 88.973060608  -999.250000 1.3873670101 77.126167297 1.4035689831 1.4696069956
 528.41961670  -999.250000 -0.146196395 12.103799820 12.250000954  -999.250000  -999.250000 87.225646973  -999.250000 1.3899379969 77.181236267 1.3765549660 1.4685889482
 528.57202148  -999.250000 -0.155298203 12.094699860 12.250000954  -999.250000  -999.250000 84.143699646  -999.250000 1.3901369572 77.187858582 1.2551120520 1.4722980261
 528.72436523  -999.250000 -0.157599390 12.092398643 12.250000954  -999.250000  -999.250000 82.225028992  -999.250000 1.3900740147 77.193603516 1.1875749826 1.4735599756
