# LAS format log file from PETREL
# Project units are specified as depth units
#==================================================================
~Version information
VERS.   2.0:
WRAP.   NO:
#==================================================================
~Well
STRT .m      1110.8436279 :
STOP .m      2733.1416016 :
STEP .m     0.00000000 :
NULL .        -999.250000 :
COMP.           : COMPANY
WELL.  16/7-6   : WELL
FLD.            : FIELD
LOC.            : LOCATION
SRVC.           : SERVICE COMPANY
DATE.  2018-09-11 14:48:11   : Log Export Date {yyyy-MM-dd HH:mm:ss}
PROV.           : PROVINCE
UWI.   16/7-6   : UNIQUE WELL ID
API.            : API NUMBER
#==================================================================
~Curve
DEPT .m                   : DEPTH
Lithology_geolink ._      : Lithology_geolink
DCAL .in                  : DCAL
CALI .in                  : CALI
BS .in                    : BS
ROP .m/h                  : ROP
DRHO .g/cm3               : DRHO
THOR .ppm                 : THOR
SGR .gAPI                 : SGR
NPHI .m3/m3               : NPHI
RHOB .g/cm3               : RHOB
PEF .b/e                  : PEF
GR .gAPI                  : GR
URAN .ppm                 : URAN
DTC .us/ft                : DTC
DTS .us/ft                : DTS
RDEP .ohm.m               : RDEP
SP .mV                    : SP
RSHA .ohm.m               : RSHA
RMIC .ohm.m               : RMIC
RMED .ohm.m               : RMED
~Parameter
#==================================================================
~Ascii
# ...
 1430.8836670  -999.250000 0.2087564021 12.458760262 12.250000954 234490.65625 -0.065977223 12.250189781  -999.250000 0.4595113993 2.2203021049 3.5755031109 110.01920319 3.9808752537 140.15499878 406.11099243 0.9463992715 -106.5040970 0.9708830714 0.8646110296 0.9112961888
 1431.0360107  -999.250000 0.1455049962 12.395500183 12.250000954 235078.93750 -0.067747168 12.366900444  -999.250000 0.4717476070 2.2084009647 3.4650290012 112.70400238 3.9625861645 140.92680359 399.71646118 0.9435026050 -106.5000000 0.9421833754 0.8651301861 0.9044995904
 1431.1884766  -999.250000 0.1374035031 12.387399673 12.250000954 247329.79688 -0.067486733 11.481699944  -999.250000 0.4643788040 2.2038021088 3.5042951107 112.96060181 3.8098049164 141.47889709 401.08300781 0.9460049272 -106.5000000 0.9234120846 0.9136111140 0.9036074281
 1431.3408203  -999.250000 0.1401997060 12.390199661 12.250000954 273641.84375 -0.061291371 11.901169777  -999.250000 0.4396758974 2.1997010708 3.7812149525 111.60030365 3.4302039146 136.10339355 400.59863281 0.9524080753 -106.5584030 0.9262239933 1.0365259647 0.9107102156
 1431.4932861  -999.250000 0.2133588940 12.463359833 12.250000954 331487.03125 -0.056923281 11.933970451  -999.250000 0.3929536045 2.2178900242 3.6722860336 108.96890259 3.1848680973 136.64430237 403.02661133 0.9616062045 -106.6209030 0.9515181184 1.1608580351 0.9222053289
 1431.6456299  -999.250000 0.1795063019 12.429510117 12.250000954 355319.40625 -0.058674570 12.139559746  -999.250000 0.3850421906 2.2591919899 3.4454689026 106.81400299 3.1976320744 134.93080139 407.36318970 0.9733989239 -106.5665970 0.9854152799 1.0683079958 0.9344012737
 1431.7980957  -999.250000 0.1389255971 12.388929367 12.250000954 316757.37500 -0.067283347 12.215330124  -999.250000 0.3710721135 2.2921791077 3.1647069454 106.63970184 3.1904580593 136.42810059 413.92218018 0.9745863080 -106.6792984 1.0081809759 0.9477527738 0.9380878806
 1431.9504395  -999.250000 0.1174058989 12.367409706 12.250000954 289554.46875 -0.072610117 11.975859642  -999.250000 0.4181728065 2.2798030376 3.1275560856 107.25769806 3.2600440979 142.55479431 417.78210449 0.9613838196 -106.7459030 1.0034799576 0.9200652838 0.9281845093
 1432.1027832  -999.250000 0.1298999935 12.379899979 12.250000954 280193.62500 -0.073544912 11.835189819  -999.250000 0.4437943995 2.2330949306 3.0407240391 106.72440338 3.0216960907 143.28320313 420.43508911 0.9415763021 -106.8667984 0.9819744825 0.9071550965 0.9098777771
 1432.2552490  -999.250000 0.1265010983 12.376500130 12.250000954 278170.75000 -0.072915129 11.828689575  -999.250000 0.4847871959 2.1930129528 3.0845670700 105.22509766 3.2074279785 143.67030334 422.22891235 0.9199905992 -106.8750000 0.9587892890 0.9129152298 0.8896917105
 1432.4075928  -999.250000 0.1334019005 12.383399963 12.250000954 288334.00000 -0.071235031 12.015939713  -999.250000 0.5022689104 2.1714999676 3.0969309807 104.35780334 3.5604169369 143.13780212 417.08151245 0.9034932256 -106.9917984 0.9405041933 0.9399194717 0.8746954203
 1432.5600586  -999.250000 0.1792830974 12.429279327 12.250000954 295181.71875 -0.066585079 11.925069809  -999.250000 0.4861452878 2.1661019325 3.3532121181 105.35780334 3.5890150070 144.67739868 412.01129150 0.8969016075 -107.1751022 0.9446163774 0.9863200784 0.8702028990
 1432.7124023  -999.250000 0.2470988929 12.497098923 12.250000954 298100.43750 -0.060956769 11.993160248  -999.250000 0.4744482934 2.1610000134 3.3278870583 106.60220337 3.9377927780 141.70919800 411.07690430 0.8960021734 -107.0122986 0.9633138180 1.0229190588 0.8714038134
 1432.8648682  -999.250000 0.3096723855 12.559670448 12.250000954 299387.96875 -0.060082238 11.678810120  -999.250000 0.4444583058 2.1778922081 3.2892079353 106.69480133 3.9581842422 140.42300415 404.93438721 0.8982051015 -107.2332993 0.9779121876 1.0152120590 0.8753057122
 1433.0172119  -999.250000 0.3762951195 12.626299858 12.250000954 298342.90625 -0.064787552 11.432840347  -999.250000 0.4339987934 2.1904990673 3.2114620209 106.59539795 4.4657602310 140.49850464 400.51251221 0.9045084715 -107.3082962 0.9973154068 1.0097689629 0.8829076886
 1433.1696777  -999.250000 0.4281731248 12.678171158 12.250000954 297484.46875 -0.069116883 10.831219673  -999.250000 0.4152359068 2.2020940781 3.2119820118 106.66239929 4.4195327759 141.08219910 393.38378906 0.9137039781 -107.2540970 1.0147980452 1.0161370039 0.8914036751
 1433.3220215  -999.250000 0.4713945091 12.721389771 12.250000954 297106.78125 -0.069965176 10.980649948  -999.250000 0.4633226991 2.1917009354 3.2390890121 106.60688782 4.2818827629 142.36810303 383.32220459 0.9227089286 -107.3082962 1.0221060514 1.0321910381 0.8997082114
 1433.4744873  -999.250000 0.5029820800 12.752980232 12.250000954 303531.37500 -0.073846817 10.991589546  -999.250000 0.4325630963 2.1874020100 3.4890689850 105.09353638 4.2384362221 141.13330078 378.05538940 0.9332045913 -107.3125000 1.0292049646 1.0603280067 0.9094032049
 1433.6268311  -999.250000 0.5066986084 12.756699562 12.250000954 325158.28125 -0.070649907 11.253520012  -999.250000 0.3882139921 2.1981980801 3.8788959980 103.49407196 4.3935241699 139.87359619 377.43243408 0.9441068769 -107.3707962 1.0389080048 1.0864490271 0.9185066819
 1433.7792969  -999.250000 0.5004034042 12.750399590 12.250000954 337650.59375 -0.068674073 11.187749863  -999.250000 0.3554280996 2.2285809517 3.8375649452 103.33791351 4.4121031761 138.95579529 382.74224854 0.9535015225 -107.6668015 1.0492999554 1.0783280134 0.9273018837
 1433.9316406  -999.250000 0.4633092880 12.713310242 12.250000954 314500.75000 -0.071585000 11.854700089  -999.250000 0.3700524867 2.2571918964 3.6735279560 103.97322845 4.4489760399 138.86579895 391.49526978 0.9612959027 -107.4540024 1.0566979647 1.0552639961 0.9350966811
 1434.0839844  -999.250000 0.4417008758 12.691699982 12.250000954 299429.31250 -0.074419588 11.978059769  -999.250000 0.4091368914 2.2581970692 3.4508059025 105.25699615 4.3018460274 139.08949280 395.57269287 0.9591851234 -107.6126022 1.0568920374 1.0731279850 0.9338886142
 1434.2364502  -999.250000 0.4538964927 12.703900337 12.250000954 352201.56250 -0.069193050 10.910590172  -999.250000 0.4280034006 2.2322080135 3.5099298954 106.62586975 4.5857968330 140.04559326 403.12609863 0.9454895258 -107.8584976 1.0491869450 1.0740499496 0.9233896136
 1434.3887939  -999.250000 0.4931010902 12.743100166 12.250000954 422194.93750 -0.068647400 11.256190300  -999.250000 0.4066612124 2.2039999962 3.4162309170 106.95311737 4.0706849098 139.19920349 408.32119751 0.9302887917 -107.9916992 1.0332720280 0.9985160828 0.9092863798
 1434.5412598  -999.250000 0.5205898285 12.770589828 12.250000954 375150.46875 -0.070489272 12.012399673  -999.250000 0.4149993062 2.1974027157 3.6157519817 105.72742462 3.8965849876 140.33430481 413.78140259 0.9192938805 -108.0000000 1.0059759617 0.9014346004 0.8959916234
 1434.6936035  -999.250000 0.3073044121 12.557299614 12.250000954 309742.31250 -0.069596328 11.952919960  -999.250000 0.3870112896 2.1875998974 3.6337718964 104.63629913 4.0681109428 140.67010498 413.44281006 0.9086909890 -108.1166992 0.9707685709 0.8405194879 0.8821880221
 1434.8460693  -999.250000 0.2106437832 12.460639954 12.250000954 303972.15625 -0.067186363 12.312439919  -999.250000 0.4509398937 2.1813030243 3.6538290977 105.13610840 3.8651702404 140.97210693 411.99478149 0.8992984295 -108.3001022 0.9383925200 0.8640019298 0.8696985841
 1434.9984131  -999.250000 0.1289062947 12.378910065 12.250000954 312364.50000 -0.065967210 11.914329529  -999.250000 0.4712603986 2.1784000397 3.4509658813 106.14855194 4.1394591331 143.13999939 409.80178833 0.8933975101 -108.3707962 0.9161999822 0.9389272928 0.8624985814
 1435.1508789  -999.250000 0.1433925927 12.393388748 12.250000954 311462.84375 -0.069322214 11.950360298  -999.250000 0.4825673997 2.1842970848 3.4205939770 106.83097076 3.9829311371 142.94410706 409.73089600 0.8903009892 -108.3750000 0.9143185019 0.9958410859 0.8605027199
 1435.3032227  -999.250000 0.2318868935 12.481889725 12.250000954 307915.53125 -0.066003881 12.102490425  -999.250000 0.4670917988 2.1907989979 3.4011120796 107.31279755 3.5245819092 142.83770752 404.82150269 0.8897007704 -108.3750000 0.9324203134 1.0038290024 0.8623027802
