# LAS format log file from PETREL
# Project units are specified as depth units
#==================================================================
~Version information
VERS.   2.0:
WRAP.   NO:
#==================================================================
~Well
STRT .m      1110.8436279 :
STOP .m      2733.1416016 :
STEP .m     0.00000000 :
NULL .        -999.250000 :
COMP.           : COMPANY
WELL.  16/7-6   : WELL
FLD.            : FIELD
LOC.            : LOCATION
SRVC.           : SERVICE COMPANY
DATE.  2018-09-11 14:48:11   : Log Export Date {yyyy-MM-dd HH:mm:ss}
PROV.           : PROVINCE
UWI.   16/7-6   : UNIQUE WELL ID
API.            : API NUMBER
#==================================================================
~Curve
DEPT .m                   : DEPTH
Lithology_geolink ._      : Lithology_geolink
DCAL .in                  : DCAL
CALI .in                  : CALI
BS .in                    : BS
ROP .m/h                  : ROP
DRHO .g/cm3               : DRHO
THOR .ppm                 : THOR
SGR .gAPI                 : SGR
NPHI .m3/m3               : NPHI
RHOB .g/cm3               : RHOB
PEF .b/e                  : PEF
GR .gAPI                  : GR
URAN .ppm                 : URAN
DTC .us/ft                : DTC
DTS .us/ft                : DTS
RDEP .ohm.m               : RDEP
SP .mV                    : SP
RSHA .ohm.m               : RSHA
RMIC .ohm.m               : RMIC
RMED .ohm.m               : RMED
~Parameter
#==================================================================
~Ascii
# ...
 1325.7275391  -999.250000 -0.174107596 12.075889587 12.250000954 1637550.1250 -0.060601730 14.501529694  -999.250000 0.5063611865 2.1368019581 3.0206279755 108.99120331 3.3463370800 138.50109863 356.19491577 1.4034980536 -112.5083008 1.2594980001 1.2296030521 1.3399980068
 1325.8800049  -999.250000 -0.192798585 12.057200432 12.250000954 1641285.8750 -0.058684461 13.214429855  -999.250000 0.4856252074 2.1415998936 3.0291779041 110.85849762 3.6086590290 138.62460327 354.29370117 1.3989000320 -112.4415970 1.2541999817 1.2062150240 1.3358999491
 1326.0323486  -999.250000 -0.196100205 12.053901672 12.250000954 1630386.6250 -0.059295241 13.440340042  -999.250000 0.5167536736 2.1476049423 3.0197710991 110.28859711 3.6048729420 138.75909424 352.13058472 1.3940980434 -112.4375000 1.2469990253 1.2349120378 1.3315980434
 1326.1848145  -999.250000 -0.197199807 12.052801132 12.250000954 1607528.6250 -0.062394921 13.248129845  -999.250000 0.5228648186 2.1619989872 3.0895280838 108.96520233 3.4072339535 138.56059265 351.57595825 1.3883999586 -112.2622986 1.2432999611 1.2715760469 1.3269000053
 1326.3371582  -999.250000 -0.192199692 12.057800293 12.250000954 1600509.3750 -0.060841955 13.399800301  -999.250000 0.5790609121 2.1750028133 3.2269349098 108.25959778 3.2859230042 138.67469788 352.12213135 1.3808989525 -112.3667984 1.2452009916 1.2872649431 1.3210990429
 1326.4896240  -999.250000 -0.193599701 12.056400299 12.250000954 1610728.2500 -0.061991561 12.589909554  -999.250000 0.5114697218 2.1849980354 3.1939580441 107.74310303 3.2201380730 138.71099854 353.16561890 1.3763010502 -112.4334030 1.2484999895 1.2523859739 1.3174010515
 1326.6419678  -999.250000 -0.198400497 12.051600456 12.250000954 1620773.5000 -0.065976657 11.735739708  -999.250000 0.4987024963 2.1891989708 3.1868529320 106.37239838 3.1858620644 138.40080261 354.21130371 1.3724999428 -112.1454010 1.2498999834 1.2043590546 1.3142999411
 1326.7944336  -999.250000 -0.204499200 12.045500755 12.250000954 1630162.2500 -0.067754261 11.162500381  -999.250000 0.4927023053 2.1835010052 3.1336719990 103.87699890 3.3958160877 138.31660461 351.53039551 1.3704999685 -112.1250000 1.2481009960 1.2150980234 1.3126000166
 1326.9467773  -999.250000 -0.207699805 12.042300224 12.250000954 1628048.0000 -0.065998793 11.317390442  -999.250000 0.4760433137 2.1758990288 3.3244218826 101.88349915 3.1797869205 138.02400208 350.99911499 1.3693000078 -112.1834030 1.2402000427 1.2524820566 1.3112000227
 1327.0991211  -999.250000 -0.208201393 12.041798592 12.250000954 1606156.3750 -0.066751897 11.756580353  -999.250000 0.4977690876 2.1711020470 3.5798420906 101.48760223 3.5172290802 137.91430664 349.52481079 1.3725060225 -111.9537964 1.2397049665 1.2792500257 1.3140059710
 1327.2515869  -999.250000 -0.210900307 12.039099693 12.250000954 1594865.0000 -0.067152373 11.131119728  -999.250000 0.4880591035 2.1749000549 3.7425520420 102.76670074 3.8699617386 137.34030151 347.69848633 1.3850020170 -111.8790970 1.2497010231 1.2887979746 1.3251010180
 1327.4039307  -999.250000 -0.211199820 12.038800240 12.250000954 1594748.0000 -0.066076256 11.085080147  -999.250000 0.4709329009 2.1740009785 3.6399528980 105.15720367 3.7552490234 136.43980408 345.96688843 1.4036099911 -111.8750000 1.2651100159 1.2989920378 1.3417090178
 1327.5563965  -999.250000 -0.212200195 12.037798882 12.250000954 1653512.7500 -0.065326989 10.811420441  -999.250000 0.3718911111 2.1751000881 3.4380629063 106.31130219 3.6680529118 136.31309509 346.00201416 1.4250999689 -111.9334030 1.2869999409 1.3285700083 1.3608000278
 1327.7087402  -999.250000 -0.206800506 12.043199539 12.250000954 1812205.5000 -0.065756828 10.187190056  -999.250000 0.3506580889 2.1708989143 3.2875370979 105.38760376 3.9947917461 135.83779907 347.48831177 1.4427050352 -111.9375000 1.3042049408 1.3519990444 1.3781059980
 1327.8612061  -999.250000 -0.207599595 12.042401314 12.250000954 1768028.7500 -0.070968419 9.9489879608  -999.250000 0.3813011050 2.1673998833 3.2774538994 104.16960144 4.3707728386 136.02830505 349.11358643 1.4560990334 -111.7622986 1.3158990145 1.3490890265 1.3925989866
 1328.0135498  -999.250000 -0.208200514 12.041798592 12.250000954 1508014.8750 -0.070069537 9.6991386414  -999.250000 0.4260750115 2.1592969894 3.2093269825 104.36589813 4.4932742119 137.15530396 351.39880371 1.4626990557 -111.7500000 1.3237990141 1.3239899874 1.4008990526
 1328.1660156  -999.250000 -0.207500502 12.042498589 12.250000954 1471065.3750 -0.069960333 10.028289795  -999.250000 0.4416348040 2.1490008831 3.1425700188 105.05290222 4.5133900642 137.46890259 355.41500854 1.4599000216 -111.7500000 1.3205000162 1.2857179642 1.3991999626
 1328.3183594  -999.250000 -0.209999979 12.039999962 12.250000954 1576670.0000 -0.071116447 9.8919210434  -999.250000 0.4430803061 2.1412990093 3.1911270618 105.28659821 4.6750078201 137.98309326 357.40640259 1.4441959858 -111.5747986 1.3051940203 1.2255560160 1.3846960068
 1328.4708252  -999.250000 -0.211199820 12.038800240 12.250000954 1578966.1250 -0.071473241 10.241100311  -999.250000 0.4836143851 2.1382009983 3.3121740818 106.11470032 4.8815231323 137.96499634 357.47158813 1.4280029535 -111.7377014 1.2842030525 1.1882139444 1.3699020147
 1328.6231689  -999.250000 -0.255104095 11.994898796 12.250000954 1517174.5000 -0.069716543 10.296520233  -999.250000 0.4789091945 2.1280989647 3.5046799183 108.00469971 5.0858058929 138.68150330 357.10299683 1.4108959436 -111.5164032 1.2646989822 1.2315310240 1.3551969528
 1328.7756348  -999.250000 -0.275795013 11.974209785 12.250000954 1438994.8750 -0.070674866 10.379910469  -999.250000 0.4325613081 2.1230008602 3.5608758926 109.99099731 4.7806220055 138.63940430 356.97543335 1.3897049427 -111.4415970 1.2573020458 1.3290109634 1.3389040232
 1328.9279785  -999.250000 -0.265296906 11.984700203 12.250000954 1316535.8750 -0.068422481 10.810669899  -999.250000 0.4265002906 2.1296010017 3.5288228989 110.50980377 4.6923627853 139.05650330 356.74777222 1.3807009459 -111.4375000 1.2675030231 1.3785849810 1.3308010101
 1329.0803223  -999.250000 -0.242588982 12.007410049 12.250000954 1305067.3750 -0.066756614 10.869239807  -999.250000 0.4151036143 2.1389040947 3.6148378849 110.21779633 4.6681427956 139.15939331 356.38931274 1.3882050514 -111.4375000 1.2863090038 1.3309769630 1.3371050358
 1329.2327881  -999.250000 -0.219501495 12.030500412 12.250000954 1341904.7500 -0.066697821 11.039589882  -999.250000 0.4452042878 2.1459989548 3.6767280102 110.01190186 5.0772562027 139.92770386 356.24340820 1.3984010220 -111.3789978 1.3049010038 1.2659239769 1.3465009928
 1329.3851318  -999.250000 -0.239199594 12.010800362 12.250000954 1452075.6250 -0.061597101 12.185999870  -999.250000 0.4523817003 2.1398930550 3.7502648830 110.28869629 4.7612390518 139.44729614 356.63708496 1.4051029682 -111.1412964 1.3122969866 1.2719719410 1.3517019749
 1329.5375977  -999.250000 -0.239899606 12.010100365 12.250000954 1593465.5000 -0.056087740 12.364339828  -999.250000 0.4682936966 2.1249001026 3.4482889175 111.71140289 4.7356982231 140.42630005 357.66949463 1.4117000103 -111.1250000 1.3054000139 1.3180389404 1.3573999405
 1329.6899414  -999.250000 -0.234394997 12.015600204 12.250000954 1490069.2500 -0.056371439 12.053609848  -999.250000 0.4674217105 2.1210010052 3.2464380264 113.47029877 4.3106369972 141.34019470 361.03518677 1.4169019461 -111.1250000 1.2976000309 1.3286590576 1.3627020121
 1329.8424072  -999.250000 -0.221200883 12.028800011 12.250000954 1344347.3750 -0.057782371 11.825469971  -999.250000 0.4504368007 2.1243000031 3.1223878860 113.69290161 4.3777070045 141.15519714 358.74649048 1.4220000505 -111.1835022 1.2977999449 1.3113789558 1.3669999838
 1329.9947510  -999.250000 -0.189995825 12.060000420 12.250000954 1450899.2500 -0.063332647 12.258350372  -999.250000 0.4879469872 2.1326000690 3.1753699780 111.79029846 4.5743899345 141.50729370 364.03869629 1.4299019575 -111.1289978 1.2984989882 1.2618370056 1.3733010292
 1330.1472168  -999.250000 -0.178200707 12.071800232 12.250000954 1599950.7500 -0.068424493 13.068799973  -999.250000 0.4836299121 2.1310000420 3.3017950058 111.03079987 4.3650507927 141.27450562 365.84631348 1.4347989559 -111.0081024 1.2946000099 1.2335720062 1.3770999908
