# LAS format log file from PETREL
# Project units are specified as depth units
#==================================================================
~Version information
VERS.   2.0:
WRAP.   NO:
#==================================================================
~Well
STRT .m      1317.4000244 :
STOP .m      2886.4997559 :
STEP .m     0.00000000 :
NULL .        -999.250000 :
COMP.           : COMPANY
WELL.  16/7-8 S Beta West   : WELL
FLD.            : FIELD
LOC.            : LOCATION
SRVC.           : SERVICE COMPANY
DATE.  2018-09-11 14:48:11   : Log Export Date {yyyy-MM-dd HH:mm:ss}
PROV.           : PROVINCE
UWI.   16/7-8 S   : UNIQUE WELL ID
API.            : API NUMBER
#==================================================================
~Curve
DEPT .m                   : DEPTH
Lithology_geolink ._      : Lithology_geolink
CALI .in                  : CALI
BS .in                    : BS
NPHI .m3/m3               : NPHI
RHOB .g/cm3               : RHOB
GR .gAPI                  : GR
RDEP .ohm.m               : RDEP
RMED .ohm.m               : RMED
~Parameter
#==================================================================
~Ascii
# ...
 2153.8000488  -999.250000 8.6250000000 8.5000000000 0.4426999986 2.4151999950 67.290000916 0.6700000167 0.5299999714
 2153.8999023  -999.250000 8.6250000000 8.5000000000 0.4660429358 2.4848296642 65.459999084 0.6100000143 0.6200000048
 2154.0000000  -999.250000 8.6250000000 8.5000000000 0.4944307506 2.5249025822 62.880001068 0.5500000119 0.6999999881
 2154.1000977  -999.250000 8.6250000000 8.5000000000 0.5156999826 2.5348999500 60.169998169 0.6200000048 0.6200000048
 2154.1999512  -999.250000 8.6250000000 8.5000000000 0.5264999866 2.5348999500 57.909999847 0.6899999976 0.5400000215
 2154.3000488  -999.250000 8.6250000000 8.5000000000 0.5227000117 2.5250000954 55.979999542 0.7099999785 0.5799999833
 2154.4001465  -999.250000 8.6250000000 8.5000000000 0.5087000132 2.5150001049 54.580001831 0.5899999738 0.8700000048
 2154.5000000  -999.250000 8.6250000000 8.5000000000 0.4963999987 2.4949998856 54.220001221 0.4699999988 1.1499999762
 2154.5998535  -999.250000 8.6250000000 8.5000000000 0.4854268134 2.4252705574 55.509998322 0.5897073150 0.9305365682
 2154.6999512  -999.250000 8.6250000000 8.5000000000 0.4805119634 2.3852972984 58.939998627 0.6997317076 0.7005609870
 2154.8000488  -999.250000 8.6250000000 8.5000000000 0.4792000055 2.3752000332 62.360000610 0.7099999785 0.5099999905
 2154.8999023  -999.250000 8.6020002365 8.5000000000 0.4827912152 2.3752000332 64.839996338 0.6800000072 0.5000000000
 2155.0000000  -999.250000 8.5780000687 8.5000000000 0.4888851345 2.3653240204 66.819999695 0.6399999857 0.5000000000
 2155.1000977  -999.250000 8.6250000000 8.5000000000 0.4907999933 2.3552999496 68.459999084 0.6299999952 0.5000000000
 2155.1999512  -999.250000 8.6250000000 8.5000000000 0.4908997715 2.3353488445 70.230003357 0.6200000048 0.5000000000
 2155.3000488  -999.250000 8.6250000000 8.5000000000 0.4900000095 2.3053998947 71.680000305 0.6100000143 0.5199999809
 2155.4001465  -999.250000 8.6250000000 8.5000000000 0.4893000126 2.2953999043 72.620002747 0.6399999857 0.5099999905
 2155.5000000  -999.250000 8.6250000000 8.5000000000 0.4939999878 2.2853999138 73.110000610 0.6200000048 0.5199999809
 2155.6000977  -999.250000 8.6250000000 8.5000000000 0.4955999851 2.2853999138 73.150001526 0.7799999714 0.5600000024
 2155.7001953  -999.250000 8.6250000000 8.5000000000 0.4846000075 2.2853999138 72.557998657 0.6999999881 0.5400000215
 2155.8000488  -999.250000 8.6250000000 8.5000000000 0.4684000015 2.2753999233 71.739997864 0.6200000048 0.5199999809
 2155.8999023  -999.250000 8.6250000000 8.5000000000 0.4584243894 2.2753999233 71.209999084 0.6200000048 0.5199999809
 2156.0000000  -999.250000 8.6250000000 8.5000000000 0.4575000107 2.2753999233 71.050003052 0.6200000048 0.5199999809
 2156.1000977  -999.250000 8.6250000000 8.5000000000 0.4638000131 2.2753999233 71.230003357 0.6200000048 0.5199999809
 2156.1999512  -999.250000 8.6250000000 8.5000000000 0.4744738936 2.2753999233 72.029998779 0.6200000048 0.5000000000
 2156.3000488  -999.250000 8.6250000000 8.5000000000 0.4853000045 2.2753999233 73.250000000 0.6399999857 0.5000000000
 2156.3999023  -999.250000 8.6250000000 8.5000000000 0.4902878106 2.2853755951 73.599998474 0.6499999762 0.4900000095
 2156.5000000  -999.250000 8.6250000000 8.5000000000 0.4862000048 2.2853999138 72.889999390 0.6600000262 0.4799999893
 2156.6000977  -999.250000 8.6250000000 8.5000000000 0.4762000144 2.2853999138 71.760002136 0.6299999952 0.5099999905
 2156.6999512  -999.250000 8.6250000000 8.5000000000 0.4711000025 2.2753999233 70.650001526 0.6000000238 0.5400000215
 2156.8000488  -999.250000 8.6250000000 8.5000000000 0.4765000045 2.2753999233 69.760002136 0.6299999952 0.5400000215
 2156.9001465  -999.250000 8.6250000000 8.5000000000 0.4966000021 2.2753999233 69.250564575 0.6299999952 0.5400000215
 2157.0000000  -999.250000 8.6250000000 8.5000000000 0.5214999914 2.2753999233 69.480003357 0.6299999952 0.5299999714
 2157.0998535  -999.250000 8.6250000000 8.5000000000 0.5369622111 2.2853755951 70.279998779 0.6399756074 0.5199999809
 2157.1999512  -999.250000 8.6250000000 8.5000000000 0.5357031822 2.2853999138 70.599998474 0.6299999952 0.5199999809
 2157.3000488  -999.250000 8.6250000000 8.5000000000 0.5164999962 2.2753999233 70.339996338 0.6200000048 0.5299999714
 2157.3999023  -999.250000 8.6250000000 8.5000000000 0.4894661009 2.2753999233 69.519996643 0.6000000238 0.5400000215
 2157.5000000  -999.250000 8.6250000000 8.5000000000 0.4614683092 2.2853755951 68.160003662 0.6000000238 0.5299999714
 2157.6000977  -999.250000 8.6250000000 8.5000000000 0.4406000078 2.2853999138 66.849998474 0.6000000238 0.5199999809
 2157.6999512  -999.250000 8.5860004425 8.5000000000 0.4316999912 2.2853999138 66.650001526 0.6299999952 0.5000000000
 2157.8000488  -999.250000 8.5469999313 8.5000000000 0.4327999949 2.2853999138 67.870002747 0.6499999762 0.4900000095
 2157.9001465  -999.250000 8.5860004425 8.5000000000 0.4397999942 2.2753999233 69.400001526 0.6399999857 0.5000000000
 2158.0000000  -999.250000 8.6250000000 8.5000000000 0.4503000081 2.2753999233 70.360000610 0.6299999952 0.5099999905
 2158.0998535  -999.250000 8.6560001373 8.5000000000 0.4637670815 2.2655241489 70.260002136 0.6100487709 0.5499024391
 2158.1999512  -999.250000 8.5780000687 8.5000000000 0.4745736420 2.2753758430 69.110000610 0.5102438927 0.5400243998
 2158.3000488  -999.250000 8.5780000687 8.5000000000 0.4769999981 2.2853999138 68.019996643 0.6399999857 0.4399999976
 2158.3999023  -999.250000 8.5780000687 8.5000000000 0.4668248892 2.2953755856 67.690002441 0.7699999809 0.3400000036
 2158.5000000  -999.250000 8.5780000687 8.5000000000 0.4561260939 2.2953999043 68.139999390 0.5099999905 0.5000000000
 2158.6000977  -999.250000 8.5780000687 8.5000000000 0.4621999860 2.2953999043 69.160003662 0.5600000024 0.5099999905
 2158.6999512  -999.250000 8.5780000687 8.5000000000 0.4913287759 2.2953999043 70.410003662 0.6100000143 0.5199999809
 2158.8000488  -999.250000 8.5780000687 8.5000000000 0.5275999904 2.2853999138 70.959999084 0.6600000262 0.5199999809
 2158.9001465  -999.250000 8.5780000687 8.5000000000 0.5407000184 2.2853999138 70.379997253 0.6600000262 0.5500000119
 2159.0000000  -999.250000 8.5900001526 8.5000000000 0.5310000181 2.2853999138 69.260002136 0.6499999762 0.5699999928
 2159.1000977  -999.250000 8.6020002365 8.5000000000 0.5187000036 2.2953999043 68.470001221 0.6100000143 0.5500000119
 2159.2001953  -999.250000 8.6129999161 8.5000000000 0.5108000040 2.2953999043 68.109855652 0.6399999857 0.5199999809
 2159.3000488  -999.250000 8.6250000000 8.5000000000 0.5062000155 2.2953999043 68.050003052 0.6800000072 0.5000000000
 2159.3999023  -999.250000 8.5780000687 8.5000000000 0.4976209700 2.2953999043 68.069999695 0.6301219463 0.5399024487
 2159.5000000  -999.250000 8.6020002365 8.5000000000 0.4763000011 2.2953999043 68.209999084 0.6399999857 0.5400000215
 2159.6000977  -999.250000 8.6250000000 8.5000000000 0.4429999888 2.2953999043 68.260002136 0.6499999762 0.5400000215
 2159.6999512  -999.250000 8.6560001373 8.5000000000 0.4178614616 2.2953999043 68.089996338 0.6499999762 0.5699999928
 2159.8000488  -999.250000 8.6560001373 8.5000000000 0.4124999940 2.3153998852 67.839996338 0.6600000262 0.6000000238
 2159.8999023  -999.250000 8.6560001373 8.5000000000 0.4269646108 2.3552026749 68.349998474 0.6200000048 0.6700000167
 2160.0000000  -999.250000 8.6459999084 8.5000000000 0.4524999857 2.3852000237 69.919998169 0.7200000286 0.6000000238
 2160.1000977  -999.250000 8.6350002289 8.5000000000 0.4720999897 2.3952000141 71.980003357 0.8199999928 0.5199999809
 2160.1999512  -999.250000 8.6250000000 8.5000000000 0.4717999995 2.3852000237 73.430000305 0.7099999785 0.5199999809
 2160.3000488  -999.250000 8.6250000000 8.5000000000 0.4557000101 2.3652999401 73.720001221 0.6899999976 0.5299999714
 2160.4001465  -999.250000 8.6250000000 8.5000000000 0.4436999857 2.3352999687 73.490951538 0.6600000262 0.5400000215
 2160.5000000  -999.250000 8.6250000000 8.5000000000 0.4451999962 2.3153998852 73.879997253 0.6600000262 0.5400000215
