# LAS format log file from PETREL
# Project units are specified as depth units
#==================================================================
~Version information
VERS.   2.0:
WRAP.   NO:
#==================================================================
~Well
STRT .m      289.55999756 :
STOP .m      3317.9003906 :
STEP .m     0.00000000 :
NULL .        -999.250000 :
COMP.           : COMPANY
WELL.  16/9-1   : WELL
FLD.            : FIELD
LOC.            : LOCATION
SRVC.           : SERVICE COMPANY
DATE.  2018-09-11 14:48:12   : Log Export Date {yyyy-MM-dd HH:mm:ss}
PROV.           : PROVINCE
UWI.   16/9-1   : UNIQUE WELL ID
API.            : API NUMBER
#==================================================================
~Curve
DEPT .m                   : DEPTH
Lithology_geolink ._      : Lithology_geolink
CALI .in                  : CALI
DRHO .g/cm3               : DRHO
RHOB .g/cm3               : RHOB
GR .gAPI                  : GR
DTC .us/ft                : DTC
RDEP .ohm.m               : RDEP
SP .mV                    : SP
RSHA .ohm.m               : RSHA
RMED .ohm.m               : RMED
~Parameter
#==================================================================
~Ascii
# ...
 2713.3295898 3.0000000000 11.744000435 0.0669599399 2.3369998932 48.326999664 85.106002808 0.8801025748 18.757095337 1.4579999447 1.0830897093
 2713.4821777 3.0000000000 11.866999626 0.0419519991 2.2960000038 51.230998993 85.842002869 0.9441056252 20.068637848 1.4910000563 1.1391921043
 2713.6345215 5.0000000000 12.026000023 0.0269775651 2.3020000458 55.360000610 87.476997375 0.9770288467 21.827894211 1.6030000448 1.1990768909
 2713.7868652 5.0000000000 12.121000290 0.0129807694 2.3320000172 59.835998535 89.691001892 0.9949920177 23.633262634 1.6410000324 1.2470320463
 2713.9392090 5.0000000000 12.100999832 0.0010080129 2.3699998856 64.882003784 88.981002808 0.9898910522 25.042089462 2.2420001030 1.2669790983
 2714.0915527 5.0000000000 11.982000351 0.0060160258 2.4000000954 67.731002808 86.924003601 0.9218605757 25.097108841 2.6080000401 1.2539614439
 2714.2441406 6.0000000000 11.878000259 0.0160544012 2.4019999504 69.036003113 84.717002869 0.8347375989 24.539743423 2.0629999638 1.2298656702
 2714.3964844 6.0000000000 11.822999954 0.0330080129 2.3819999695 66.566001892 83.027000427 0.7528830171 23.835802078 1.5650000572 1.1879037619
 2714.5488281 6.0000000000 11.822999954 0.0380192287 2.3589999676 63.514999390 83.917999268 0.6799182892 23.089082718 2.0959999561 1.1278654337
 2714.7011719 6.0000000000 11.822999954 0.0500032045 2.3489999771 59.618999481 84.844009399 0.6289343238 22.515689850 1.7180000544 1.0439231396
 2714.8537598 5.0000000000 11.763999939 0.0520416014 2.3489999771 57.234001160 86.466003418 0.5879583955 21.693870544 1.7619999647 0.9959039688
 2715.0061035 5.0000000000 11.723999977 0.0649999976 2.3529999256 55.555000305 87.468002319 0.5750223994 20.094230652 1.0729999542 0.9659807682
 2715.1584473 5.0000000000 11.704000473 0.0650015995 2.3359999657 51.981998444 88.394996643 0.5890416503 18.990303040 1.2999999523 0.9539983869
 2715.3107910 5.0000000000 11.704000473 0.0659839734 2.2939999104 48.423000336 89.960990906 0.6150384545 18.557205200 1.3750000000 0.9530192614
 2715.4633789 5.0000000000 11.704000473 0.0560832024 2.2579998970 44.886001587 90.853996277 0.6393072009 18.686510086 1.1679999828 0.9650799632
 2715.6157227 3.0000000000 11.704000473 0.0820144266 2.2839999199 44.390998840 91.712997437 0.7351073623 18.845258713 1.1469999552 0.9900849462
 2715.7680664 3.0000000000 11.704000473 0.0909887776 2.2920000553 45.092998505 92.126998901 0.8021778464 19.008178711 1.2020000219 1.0430833101
 2715.9204102 3.0000000000 11.732999802 0.0839967951 2.2780001163 47.080001831 93.310997009 0.9131794572 19.744050980 1.6299999952 1.0951281786
 2716.0727539 3.0000000000 11.793001175 0.0819536000 2.2799999714 49.793998718 92.466003418 1.0251935720 21.023714066 2.7560000420 1.1752127409
 2716.2253418 3.0000000000 11.852999687 0.0529615395 2.2929999828 53.354000092 90.370002747 1.1461699009 22.718774796 2.4030001163 1.3081250191
 2716.3776855 3.0000000000 11.961999893 0.0289935898 2.3259999752 56.680999756 88.209999084 1.2520047426 23.826007843 2.0659999847 1.3860529661
 2716.5300293 5.0000000000 12.161001205 0.0250048079 2.3599998951 59.805999756 86.110000610 1.2548990250 24.453889847 2.6150000095 1.4190080166
 2716.6823730 5.0000000000 12.119000435 0.0279791672 2.3759999275 62.247001648 84.109001160 1.1918493509 25.008749008 2.3750000000 1.4239759445
 2716.8349609 5.0000000000 11.810999870 0.0151023995 2.3629999161 63.083000183 83.095001221 1.0976960659 24.848369598 2.6679999828 1.4088784456
 2716.9873047 5.0000000000 11.685000420 0.0470272414 2.3959999084 62.561000824 81.141998291 1.0028477907 23.715703964 2.8670001030 1.3709055185
 2717.1396484 5.0000000000 11.664999962 0.0640000030 2.3870000839 59.660999298 79.672996521 0.9078573585 22.282485962 2.6210000515 1.3118958473
 2717.2919922 5.0000000000 11.652999878 0.0639967993 2.3789999485 56.001998901 79.010002136 0.8188926578 20.714061737 2.0380001068 1.2468942404
 2717.4445801 3.0000000000 11.645000458 0.0619871989 2.3699998856 50.918998718 78.600997925 0.7517823577 19.504030228 1.7690000534 1.1808016300
 2717.5969238 3.0000000000 11.625000000 0.0580272414 2.3540000916 46.408000946 79.002006531 0.6839070916 18.578008652 1.5110000372 1.1189086437
 2717.7492676 3.0000000000 11.604999542 0.0750464797 2.3469998837 42.257999420 80.871002197 0.6259583235 17.959722519 1.6480000019 1.0619294643
 2717.9016113 3.0000000000 11.604999542 0.1039919928 2.3510000706 43.499000549 82.280998230 0.5999599695 17.786935806 1.5329999924 1.0179438591
 2718.0541992 3.0000000000 11.625000000 0.0989136025 2.3299999237 45.144001007 83.667999268 0.5749328136 17.746358871 1.0989999771 0.9828975797
 2718.2065430 3.0000000000 11.625000000 0.0719647408 2.3020000458 47.373001099 86.055999756 0.5540449023 17.547004700 1.2480000257 0.9509759545
 2718.3588867 3.0000000000 11.625000000 0.0499839745 2.2980000973 49.537998199 86.542991638 0.5820448995 17.549184799 1.8930000067 0.9360064268
 2718.5112305 3.0000000000 11.625000000 0.0400048085 2.2850000858 51.601001740 87.511001587 0.6100432873 17.664716721 1.0440000296 0.9400256276
 2718.6635742 4.0000000000 11.604999542 0.0430240408 2.2839999199 52.469001770 89.581001282 0.6370449066 17.487771988 1.1790000200 0.9560432434
 2718.8161621 4.0000000000 11.604999542 0.0579999983 2.2860000134 53.430000305 89.861000061 0.6650512218 17.345661163 1.2740000486 0.9831215739
 2718.9685059 4.0000000000 11.645000458 0.0580080114 2.2960000038 54.520000458 89.760002136 0.6810192466 17.552335739 1.6130000353 1.0210577250
 2719.1208496 4.0000000000 11.664999962 0.0629759654 2.3210000992 54.772998810 89.725997925 0.6930208802 17.762153625 2.0639998913 1.0570241213
 2719.2731934 4.0000000000 11.664999962 0.0479743592 2.3210000992 54.736999512 87.148002625 0.7060143948 17.858678818 2.0130000114 1.0720000267
 2719.4257813 4.0000000000 11.664999962 0.0319680013 2.3269999027 54.386001587 85.244003296 0.7150223851 17.657371521 1.5509999990 1.0719456673
 2719.5781250 3.0000000000 11.682000160 0.0219887812 2.3329999447 52.903999329 83.912002563 0.7220112085 17.149045944 1.4680000544 1.0549743176
 2719.7304688 3.0000000000 11.704000473 0.0150112174 2.3220000267 50.284999847 83.387001038 0.7289743423 16.554412842 1.6629999876 1.0389808416
 2719.8828125 3.0000000000 11.704000473 0.0220320504 2.3069999218 48.060001373 83.508003235 0.7129935622 16.187675476 1.5199999809 1.0269887447
 2720.0354004 3.0000000000 11.723999977 0.0420159996 2.3190000057 46.048000336 84.039001465 0.7089999914 15.985727310 1.6449999809 1.0199999809
 2720.1877441 3.0000000000 11.744000435 0.0469935872 2.3180000782 44.569999695 84.888999939 0.7089999914 15.900813103 1.5140000582 1.0200064182
 2720.3400879 3.0000000000 11.744000435 0.0430336557 2.3340001106 43.917999268 83.797996521 0.7089855671 15.784934998 1.4559999704 1.0239968300
 2720.4924316 3.0000000000 11.744000435 0.0639759675 2.3629999161 43.869998932 83.263999939 0.6999711394 15.744997025 1.5590000153 1.0219870806
 2720.6447754 3.0000000000 11.744000435 0.0490096137 2.3450000286 44.937000275 82.106002808 0.6819646955 15.744599342 1.6790000200 1.0139664412
 2720.7973633 3.0000000000 11.744000435 0.0549583994 2.3559999466 46.137001038 80.356994629 0.6599135995 16.119482040 1.3930000067 0.9929007888
 2720.9497070 3.0000000000 11.823999405 0.0419727564 2.3420000076 47.476001740 80.876998901 0.6329776049 16.582132339 1.7710000277 0.9619455338
 2721.1020508 3.0000000000 11.862999916 0.0249775648 2.3380000591 48.678001404 81.755989075 0.6189823747 17.288761139 1.6360000372 0.9279615283
 2721.2543945 3.0000000000 11.781000137 0.0110128205 2.3280000687 49.803001404 82.476997375 0.6079518199 17.762578964 1.0169999599 0.9039711356
 2721.4069824 3.0000000000 11.704000473 0.0190960001 2.3289999962 50.456001282 85.240997314 0.5778509974 17.497869492 1.1870000362 0.8859615922
 2721.5593262 3.0000000000 11.685000420 0.0490512811 2.3380000591 50.458000183 86.648002625 0.5469999909 17.056015015 1.1160000563 0.8739871979
 2721.7116699 3.0000000000 11.664999962 0.0809583366 2.3150000572 49.374000549 87.503997803 0.5469999909 16.851736069 1.3680000305 0.8659887910
