# LAS format log file from PETREL
# Project units are specified as depth units
#==================================================================
~Version information
VERS.   2.0:
WRAP.   NO:
#==================================================================
~Well
STRT .m      289.55999756 :
STOP .m      3317.9003906 :
STEP .m     0.00000000 :
NULL .        -999.250000 :
COMP.           : COMPANY
WELL.  16/9-1   : WELL
FLD.            : FIELD
LOC.            : LOCATION
SRVC.           : SERVICE COMPANY
DATE.  2018-09-11 14:48:12   : Log Export Date {yyyy-MM-dd HH:mm:ss}
PROV.           : PROVINCE
UWI.   16/9-1   : UNIQUE WELL ID
API.            : API NUMBER
#==================================================================
~Curve
DEPT .m                   : DEPTH
Lithology_geolink ._      : Lithology_geolink
CALI .in                  : CALI
DRHO .g/cm3               : DRHO
RHOB .g/cm3               : RHOB
GR .gAPI                  : GR
DTC .us/ft                : DTC
RDEP .ohm.m               : RDEP
SP .mV                    : SP
RSHA .ohm.m               : RSHA
RMED .ohm.m               : RMED
~Parameter
#==================================================================
~Ascii
# ...
 528.52319336 6.0000000000 12.331998825  -999.250000  -999.250000 75.030509949 153.26493835 1.6440000534 6.8880000114 2.1651597023 1.9789658785
 528.67559814 6.0000000000 12.352001190  -999.250000  -999.250000 75.784164429 154.73222351 1.6160000563 6.8860001564 2.2974956036 1.9619399309
 528.82800293 6.0000000000 12.357000351  -999.250000  -999.250000 76.367156982 155.84509277 1.5429999828 6.8829998970 1.8773534298 1.9318739176
 528.98040771 6.0000000000 12.289999962  -999.250000  -999.250000 76.445190430 155.89393616 1.4550000429 6.7639999390 1.3412414789 1.8689118624
 529.13275146 6.0000000000 12.258000374  -999.250000  -999.250000 76.045120239 155.86163330 1.4179999828 6.8390002251 2.1149771214 1.8249840736
 529.28515625 6.0000000000 12.263998985  -999.250000  -999.250000 76.747688293 156.25692749 1.4199999571 6.9800000191 2.0958437920 1.8150657415
 529.43756104 6.0000000000 12.307000160  -999.250000  -999.250000 77.801338196 156.21405029 1.4500000477 7.0289998055 1.9660108089 1.8561136723
 529.58996582 6.0000000000 12.352999687  -999.250000  -999.250000 79.469436646 156.23889160 1.5410000086 6.9889998436 1.9750264883 1.9270721674
 529.74237061 6.0000000000 12.380000114  -999.250000  -999.250000 80.184104919 156.78308105 1.6670000553 6.8829998970 1.9970624447 1.9720256329
 529.89477539 6.0000000000 12.369999886  -999.250000  -999.250000 80.236183167 156.82693481 1.7239999771 6.8000001907 2.0488979816 1.9880080223
 530.04718018 6.0000000000 12.331998825  -999.250000  -999.250000 79.329734802 156.78047180 1.7250000238 6.8579998016 1.9640059471 1.9930000305
 530.19958496 6.0000000000 12.336999893  -999.250000  -999.250000 78.700187683 157.08152771 1.7300000191 6.8550000191 1.9691321850 1.9929935932
 530.35198975 6.0000000000 12.343000412  -999.250000  -999.250000 78.794807434 158.03866577 1.7059999704 6.8520002365 2.0788533688 1.9889855385
 530.50439453 6.0000000000 12.340999603  -999.250000  -999.250000 78.198089600 159.70713806 1.6339999437 6.8489999771 1.9570000172 1.9799823761
 530.65679932 6.0000000000 12.345001221  -999.250000  -999.250000 77.246215820 160.40640259 1.6000000238 6.9250001907 1.9572138786 1.9689799547
 530.80920410 6.0000000000 12.352001190  -999.250000  -999.250000 75.856262207 160.60356140 1.5980000496 7.0009999275 2.1349806786 1.9589859247
 530.96160889 6.0000000000 12.365999222  -999.250000  -999.250000 74.487319946 159.87467957 1.6019999981 6.9970002174 2.1189122200 1.9519900084
 531.11401367 5.0000000000 12.366999626  -999.250000  -999.250000 73.146636963 154.73225403 1.6310000420 6.9910001755 2.0458991528 1.9470059872
 531.26635742 5.0000000000 12.342000961  -999.250000  -999.250000 69.968803406 152.86653137 1.6540000439 6.8260002136 1.9831405878 1.9500032663
 531.41876221 5.0000000000 12.373000145  -999.250000  -999.250000 66.102165222 153.20864868 1.6599999666 6.6700000763 2.1012001038 1.9520112276
 531.57116699 5.0000000000 12.437001228  -999.250000  -999.250000 61.693515778 159.23593140 1.6330000162 6.6550002098 3.0984077454 1.9589952230
 531.72357178 4.0000000000 12.651000023  -999.250000  -999.250000 58.458198547 171.05326843 1.5559999943 6.2449998856 2.6060204506 1.9559855461
 531.87597656 4.0000000000 13.052000046  -999.250000  -999.250000 56.560787201 177.46139526 1.4780000448 5.7540001869 2.6217949390 1.9469856024
 532.02838135 4.0000000000 13.699000359  -999.250000  -999.250000 55.955669403 181.47164917 1.4410043955 4.8357234001 1.6198065281 1.9379631281
 532.18078613 4.0000000000 13.453001022  -999.250000  -999.250000 55.791145325 199.31358337 1.4520128965 4.1448431015 1.4597052336 1.9149791002
 532.33319092 4.0000000000 13.013999939  -999.250000  -999.250000 56.362140656 182.22059631 1.4839907885 3.7529718876 2.0473923683 1.9019758701
 532.48559570 4.0000000000 12.814000130  -999.250000  -999.250000 56.431304932 179.48593140 1.4609651566 3.6830730438 3.2047355175 1.8869374990
 532.63800049 4.0000000000 12.718000412  -999.250000  -999.250000 56.080410004 190.62908936 1.3739631176 3.8649911880 2.9850754738 1.8478978872
 532.79040527 4.0000000000 12.722000122  -999.250000  -999.250000 53.791061401 178.72326660 1.2819690704 3.8430292606 3.0475530624 1.7970060110
 532.94281006 4.0000000000 12.546999931  -999.250000  -999.250000 52.329761505 183.34925842 1.2049956322 3.9160077572 2.6746947765 1.7999699116
 533.09521484 4.0000000000 12.382999420  -999.250000  -999.250000 53.716506958 187.97526550 1.1940120459 3.9350059032 1.5898302794 1.7849239111
 533.24755859 5.0000000000 12.347000122  -999.250000  -999.250000 58.965126038 192.59574890 1.2239999771 3.9500002861 1.4845105410 1.7469342947
 533.39996338 5.0000000000 12.355998993  -999.250000  -999.250000 66.531127930 194.90684509 1.2400000095 3.6349999905 1.9095082283 1.7059583664
 533.55236816 5.0000000000 12.397000313  -999.250000  -999.250000 71.598716736 177.33361816 1.2239999771 2.7720000744 2.3316216469 1.6799519062
 533.70477295 5.0000000000 12.416000366  -999.250000  -999.250000 74.946319580 162.78636169 1.1699999571 2.5950000286 2.0167968273 1.6499758959
 533.85717773 5.0000000000 12.432000160  -999.250000  -999.250000 75.106857300 173.58915710 1.1829999685 3.0299999714 1.8479447365 1.6350032091
 534.00958252 5.0000000000 12.440999031  -999.250000  -999.250000 75.032936096 161.83569336 1.2040168047 5.0235857964 1.8020108938 1.6370320320
 534.16198730 6.0000000000 12.517000198  -999.250000  -999.250000 75.007255554 156.65885925 1.2460216284 6.4864358902 1.8110300303 1.6570096016
 534.31439209 6.0000000000 12.623999596  -999.250000  -999.250000 77.134017944 155.94184875 1.3000143766 7.5742106438 1.8360371590 1.6630208492
 534.46679688 6.0000000000 12.676000595  -999.250000  -999.250000 79.142700195 155.22630310 1.3360055685 8.1001024246 1.8669735193 1.6760256290
 534.61920166 6.0000000000 12.748000145  -999.250000  -999.250000 80.991737366 154.78808594 1.3500052691 8.3550300598 1.8449339867 1.6920176744
 534.77160645 6.0000000000 12.848999977  -999.250000  -999.250000 82.859985352 156.08961487 1.3629964590 8.4309988022 1.7900936604 1.7030099630
 534.92401123 6.0000000000 12.875000000  -999.250000  -999.250000 84.851402283 157.89372253 1.3539903164 8.4289674759 1.8679867983 1.7079979181
 535.07641602 6.0000000000 12.873000145  -999.250000  -999.250000 87.547080994 160.24496460 1.3299908638 8.3469991684 1.8567920923 1.7069900036
 535.22882080 6.0000000000 12.854999542  -999.250000  -999.250000 89.082763672 162.72151184 1.3069971800 8.3439989090 1.6839134693 1.7019740343
 535.38116455 6.0000000000 12.855999947  -999.250000  -999.250000 89.462966919 165.46853638 1.2999999523 8.3420000076 1.6299711466 1.6889775991
 535.53356934 6.0000000000 12.880998611  -999.250000  -999.250000 88.821525574 168.30007935 1.2929999828 8.1470003128 1.6059783697 1.6749758720
 535.68597412 6.0000000000 12.976000786  -999.250000  -999.250000 88.088050842 170.22404480 1.2860000134 7.9070005417 1.5879868269 1.6599658728
 535.83837891 6.0000000000 13.095999718  -999.250000  -999.250000 87.617515564 172.12554932 1.2699999809 7.3979997635 1.5770215988 1.6429659128
 535.99078369 7.0000000000 13.262999535  -999.250000  -999.250000 88.878036499 173.09062195 1.2519999743 7.0320000648 1.5949279070 1.6259700060
 536.14318848 7.0000000000 13.260999680  -999.250000  -999.250000 91.392395020 172.84690857 1.2369952202 6.7708659172 1.5350384712 1.6110039949
 536.29559326 7.0000000000 13.116999626  -999.250000  -999.250000 94.583869934 171.53961182 1.2249964476 6.4359331131 1.5670071840 1.6130020618
 536.44799805 7.0000000000 12.765000343  -999.250000  -999.250000 96.509742737 171.29785156 1.2159967422 6.2689738274 1.5728954077 1.6139940023
 536.60040283 7.0000000000 12.470999718  -999.250000  -999.250000 95.380325317 171.20561218 1.2079995871 6.2039747238 1.4860359430 1.6109879017
 536.75280762 7.0000000000 12.397000313  -999.250000  -999.250000 93.042121887 170.96876526 1.2070056200 6.1410131454 1.5160565376 1.6049959660
 536.90521240 7.0000000000 12.364999771  -999.250000  -999.250000 90.111351013 169.58380127 1.2210067511 6.1740136147 1.5630096197 1.6030200720
