# LAS format log file from PETREL
# Project units are specified as depth units
#==================================================================
~Version information
VERS.   2.0:
WRAP.   NO:
#==================================================================
~Well
STRT .m      289.55999756 :
STOP .m      3317.9003906 :
STEP .m     0.00000000 :
NULL .        -999.250000 :
COMP.           : COMPANY
WELL.  16/9-1   : WELL
FLD.            : FIELD
LOC.            : LOCATION
SRVC.           : SERVICE COMPANY
DATE.  2018-09-11 14:48:12   : Log Export Date {yyyy-MM-dd HH:mm:ss}
PROV.           : PROVINCE
UWI.   16/9-1   : UNIQUE WELL ID
API.            : API NUMBER
#==================================================================
~Curve
DEPT .m                   : DEPTH
Lithology_geolink ._      : Lithology_geolink
CALI .in                  : CALI
DRHO .g/cm3               : DRHO
RHOB .g/cm3               : RHOB
GR .gAPI                  : GR
DTC .us/ft                : DTC
RDEP .ohm.m               : RDEP
SP .mV                    : SP
RSHA .ohm.m               : RSHA
RMED .ohm.m               : RMED
~Parameter
#==================================================================
~Ascii
# ...
 3114.4462891 4.0000000000 15.114999771 -0.219999999 2.3010001183 44.396999359 83.500000000  -999.250000  -999.250000 0.2479999959 3.4860000610
 3114.5988770 4.0000000000 15.079000473 -0.219999999 2.3190000057 47.838001251 80.066001892  -999.250000  -999.250000 0.2669999897 3.5309998989
 3114.7512207 4.0000000000 14.878999710 -0.206000000 2.3280000687 51.189998627 82.682998657  -999.250000  -999.250000 0.3070000112 3.5680000782
 3114.9035645 5.0000000000 14.687000275 -0.233999997 2.3190000057 53.327999115 84.032997131  -999.250000  -999.250000 0.3560000062 3.5099999905
 3115.0559082 5.0000000000 14.522000313 -0.244000003 2.3159999847 52.858001709 82.841003418  -999.250000  -999.250000 0.3499999940 3.4979999065
 3115.2084961 5.0000000000 14.471999168 -0.232999995 2.3429999352 53.498001099 82.676002502  -999.250000  -999.250000 0.3039999902 3.4590001106
 3115.3608398 5.0000000000 14.305999756 -0.231999993 2.3540000916 55.584999084 80.927001953  -999.250000  -999.250000 0.3050000072 3.3670001030
 3115.5131836 5.0000000000 14.050000191 -0.257999986 2.3259999752 58.889999390 84.223999023  -999.250000  -999.250000 0.3019999862 3.4949998856
 3115.6655273 5.0000000000 13.779999733 -0.229000002 2.3380000591 59.511001587 80.009002686  -999.250000  -999.250000 0.3170000017 3.7279999256
 3115.8178711 5.0000000000 13.593000412 -0.216000006 2.3480000496 59.972000122 81.013000488  -999.250000  -999.250000 0.3610000014 4.0929999352
 3115.9704590 5.0000000000 13.581999779 -0.234999999 2.3420000076 60.229999542 85.241996765  -999.250000  -999.250000 0.3350000083 4.2810001373
 3116.1228027 5.0000000000 13.807998657 -0.252999991 2.3269999027 60.006999969 83.473999023  -999.250000  -999.250000 0.2860000134 4.3140001297
 3116.2751465 5.0000000000 14.087000847 -0.238999993 2.3190000057 60.470001221 82.620002747  -999.250000  -999.250000 0.2870000005 4.3619999886
 3116.4274902 5.0000000000 13.817998886 -0.248999998 2.3159999847 59.759998322 84.316001892  -999.250000  -999.250000 0.2840000093 4.2620000839
 3116.5800781 5.0000000000 13.538999557 -0.248999998 2.3139998913 59.763000488 81.788002014  -999.250000  -999.250000 0.2980000079 4.0819997787
 3116.7324219 5.0000000000 13.246999741 -0.232999995 2.3110001087 57.076000214 80.057998657  -999.250000  -999.250000 0.3170000017 3.7760000229
 3116.8847656 5.0000000000 13.232999802 -0.195999995 2.3199999332 56.918998718 78.671997070  -999.250000  -999.250000 0.3289999962 3.4210000038
 3117.0371094 5.0000000000 13.376000404 -0.184000000 2.2990000248 57.158000946 81.836997986  -999.250000  -999.250000 0.3589999974 3.3810000420
 3117.1896973 5.0000000000 13.887999535 -0.174999997 2.2569999695 57.160999298 81.835998535  -999.250000  -999.250000 0.3899999857 3.5069999695
 3117.3420410 5.0000000000 14.496999741 -0.182999998 2.2309999466 56.546001434 82.072998047  -999.250000  -999.250000 0.3610000014 3.6530001163
 3117.4943848 5.0000000000 15.171999931 -0.144999996 2.2679998875 56.215999603 84.698997498  -999.250000  -999.250000 0.2890000045 3.7390000820
 3117.6467285 5.0000000000 15.027999878 -0.159999996 2.2990000248 56.861999512 80.462005615  -999.250000  -999.250000 0.2709999979 3.5499999523
 3117.7990723 5.0000000000 14.807999611 -0.197999999 2.2909998894 59.729000092 84.207000732  -999.250000  -999.250000 0.2809999883 3.5280001163
 3117.9516602 6.0000000000 14.479999542 -0.187000006 2.3129999638 60.495998383 80.856002808  -999.250000  -999.250000 0.2960000038 3.6989998817
 3118.1040039 6.0000000000 14.423999786 -0.209999993 2.3129999638 60.499000549 79.458000183  -999.250000  -999.250000 0.2939999998 3.9440000057
 3118.2563477 6.0000000000 14.456999779 -0.240999997 2.2939999104 59.789001465 79.938003540  -999.250000  -999.250000 0.2669999897 4.1430001259
 3118.4086914 6.0000000000 14.445000648 -0.228000000 2.2880001068 58.119998932 79.140998840  -999.250000  -999.250000 0.2630000114 4.1669998169
 3118.5612793 6.0000000000 14.435000420 -0.188999996 2.3059999943 56.917999268 81.180999756  -999.250000  -999.250000 0.2649999857 4.4920001030
 3118.7136230 5.0000000000 14.425999641 -0.204999998 2.3059999943 55.433998108 81.772994995  -999.250000  -999.250000 0.2610000074 4.8899998665
 3118.8659668 5.0000000000 14.338000298 -0.208000004 2.3069999218 53.025001526 80.686996460  -999.250000  -999.250000 0.2549999952 5.4349999428
 3119.0183105 5.0000000000 14.237000465 -0.226999998 2.3139998913 50.765998840 78.464996338  -999.250000  -999.250000 0.2549999952 5.3990001678
 3119.1708984 5.0000000000 14.133000374 -0.247999996 2.3259999752 47.455001831 79.648994446  -999.250000  -999.250000 0.2709999979 4.7470002174
 3119.3232422 4.0000000000 13.968000412 -0.228000000 2.3469998837 46.743999481 78.248001099  -999.250000  -999.250000 0.3059999943 4.4720001221
 3119.4755859 4.0000000000 13.779000282 -0.247999996 2.3340001106 47.826000214 79.217002869  -999.250000  -999.250000 0.3409999907 4.3689999580
 3119.6279297 4.0000000000 14.107999802 -0.250000000 2.3199999332 47.698001862 75.343002319  -999.250000  -999.250000 0.3379999995 4.1630001068
 3119.7802734 4.0000000000 14.538999557 -0.223000005 2.3310000896 47.463001251 76.041999817  -999.250000  -999.250000 0.3379999995 4.2080001831
 3119.9328613 4.0000000000 15.121999741 -0.224999994 2.3210000992 47.465000153 76.188003540  -999.250000  -999.250000 0.3289999962 4.1430001259
 3120.0852051 4.0000000000 15.078000069 -0.224000007 2.3150000572 47.705001831 75.127998352  -999.250000  -999.250000 0.3089999855 3.9990000725
 3120.2375488 4.0000000000 14.833999634 -0.218999997 2.3169999123 46.069999695 75.763999939  -999.250000  -999.250000 0.3269999921 3.6500000954
 3120.3898926 4.0000000000 14.461998940 -0.180999994 2.3440001011 45.110000610 78.896003723  -999.250000  -999.250000 0.3560000062 3.8129999638
 3120.5424805 4.0000000000 14.597000122 -0.172999993 2.3280000687 42.463001251 77.047004700  -999.250000  -999.250000 0.3529999852 3.8680000305
 3120.6948242 3.0000000000 15.159999847 -0.170000002 2.3080000877 41.270000458 78.758003235  -999.250000  -999.250000 0.3100000024 3.5230000019
 3120.8471680 3.0000000000 15.137000084 -0.186000004 2.2850000858 40.590000153 77.542999268  -999.250000  -999.250000 0.3070000112 3.3120000362
 3120.9995117 3.0000000000 15.088000298 -0.175999999 2.2899999619 42.908000946 75.082000732  -999.250000  -999.250000 0.3009999990 3.3670001030
 3121.1520996 3.0000000000 15.097999573 -0.173999995 2.2920000553 44.303001404 78.606002808  -999.250000  -999.250000 0.2800000012 3.3599998951
 3121.3044434 3.0000000000 15.062999725 -0.158000007 2.3210000992 43.501998901 77.124000549  -999.250000  -999.250000 0.2860000134 3.4639999866
 3121.4567871 3.0000000000 15.010000229 -0.173999995 2.2969999313 42.840999603 82.650009155  -999.250000  -999.250000 0.2939999998 3.5989999771
 3121.6091309 3.0000000000 14.980999947 -0.182999998 2.3020000458 45.224998474 81.110000610  -999.250000  -999.250000 0.3009999990 4.2239999771
 3121.7614746 3.0000000000 15.060000420 -0.202000007 2.2920000553 48.095001221 88.791000366  -999.250000  -999.250000 0.2800000012 4.4349999428
 3121.9140625 4.0000000000 15.273000717 -0.222000003 2.2769999504 48.680999756 79.142997742  -999.250000  -999.250000 0.2720000148 4.2550001144
 3122.0664063 4.0000000000 15.288999557 -0.218999997 2.2579998970 48.682998657 76.513999939  -999.250000  -999.250000 0.2879999876 3.9960000515
 3122.2187500 4.0000000000 15.227000237 -0.224999994 2.2430000305 49.873001099 77.132003784  -999.250000  -999.250000 0.3120000064 3.8440001011
 3122.3710938 4.0000000000 15.024001122 -0.209999993 2.2869999409 50.111999512 75.935997009  -999.250000  -999.250000 0.3470000029 3.6640000343
 3122.5236816 4.0000000000 15.109999657 -0.175999999 2.3120000362 48.957000732 80.268997192  -999.250000  -999.250000 0.3310000002 3.6870000362
 3122.6760254 4.0000000000 15.404000282 -0.153999999 2.2969999313 48.453998566 92.130996704  -999.250000  -999.250000 0.3129999936 3.9230000973
 3122.8283691 4.0000000000 15.819999695 -0.160999998 2.2720000744 47.980998993 82.702003479  -999.250000  -999.250000 0.3120000064 4.1360001564
