# LAS format log file from PETREL
# Project units are specified as depth units
#==================================================================
~Version information
VERS.   2.0:
WRAP.   NO:
#==================================================================
~Well
STRT .m      289.55999756 :
STOP .m      3317.9003906 :
STEP .m     0.00000000 :
NULL .        -999.250000 :
COMP.           : COMPANY
WELL.  16/9-1   : WELL
FLD.            : FIELD
LOC.            : LOCATION
SRVC.           : SERVICE COMPANY
DATE.  2018-09-11 14:48:12   : Log Export Date {yyyy-MM-dd HH:mm:ss}
PROV.           : PROVINCE
UWI.   16/9-1   : UNIQUE WELL ID
API.            : API NUMBER
#==================================================================
~Curve
DEPT .m                   : DEPTH
Lithology_geolink ._      : Lithology_geolink
CALI .in                  : CALI
DRHO .g/cm3               : DRHO
RHOB .g/cm3               : RHOB
GR .gAPI                  : GR
DTC .us/ft                : DTC
RDEP .ohm.m               : RDEP
SP .mV                    : SP
RSHA .ohm.m               : RSHA
RMED .ohm.m               : RMED
~Parameter
#==================================================================
~Ascii
# ...
 1125.9312744 6.0000000000 12.251000404  -999.250000  -999.250000 80.801513672 171.26051331 0.8979951739 18.366130829 1.3998174667 1.3319840431
 1126.0836182 6.0000000000 12.246998787  -999.250000  -999.250000 80.498703003 169.69526672 0.8949967623 18.448003769 1.2860288620 1.3219840527
 1126.2359619 6.0000000000 12.243000984  -999.250000  -999.250000 80.934837341 161.75802612 0.8909975886 18.452066422 1.3218927383 1.3119944334
 1126.3884277 6.0000000000 12.241999626  -999.250000  -999.250000 81.977806091 161.79997253 0.8879976273 18.535099030 1.1878854036 1.3049999475
 1126.5407715 6.0000000000 12.241999626  -999.250000  -999.250000 81.235519409 162.40927124 0.8849967718 18.657941818 1.0452522039 1.3049967289
 1126.6932373 6.0000000000 12.241000175  -999.250000  -999.250000 80.640480042 162.75624084 0.8809975982 18.583971024 1.3599920273 1.3009872437
 1126.8455811 6.0000000000 12.239998817  -999.250000  -999.250000 80.938438416 162.91137695 0.8779976368 18.547847748 1.3499504328 1.2929943800
 1126.9980469 6.0000000000 12.234999657  -999.250000  -999.250000 80.231918335 162.12144470 0.8749976158 18.356876373 1.2880167961 1.2859871387
 1127.1503906 6.0000000000 12.203000069  -999.250000  -999.250000 78.932456970 161.14860535 0.8720007539 18.202844620 1.3089327812 1.2780127525
 1127.3028564 6.0000000000 12.152000427  -999.250000  -999.250000 78.595207214 160.28411865 0.8730008006 18.009782791 1.2250232697 1.2860128880
 1127.4552002 6.0000000000 12.141000748  -999.250000  -999.250000 79.348449707 159.73149109 0.8740007877 17.737962723 1.2540729046 1.2940224409
 1127.6076660 6.0000000000 12.152000427  -999.250000  -999.250000 82.120674133 159.41369629 0.8750224113 17.690013885 1.3449776173 1.3080208302
 1127.7600098 6.0000000000 12.206999779  -999.250000  -999.250000 82.538246155 159.21971130 0.8890128136 17.698255539 1.3309919834 1.3210320473
 1127.9124756 6.0000000000 12.239000320  -999.250000  -999.250000 82.070243835 159.03514099 0.9050256014 18.016134262 1.3209551573 1.3410031796
 1128.0648193 6.0000000000 12.260001183  -999.250000  -999.250000 82.844772339 159.12315369 0.9210007787 18.099006653 1.2930064201 1.3430000544
 1128.2171631 6.0000000000 12.284999847  -999.250000  -999.250000 82.699882507 159.21125793 0.9219999909 18.104940414 1.3010239601 1.3429903984
 1128.3696289 6.0000000000 12.319999695  -999.250000  -999.250000 81.313026428 159.54821777 0.9219999909 18.032125473 1.3309879303 1.3309807777
 1128.5219727 6.0000000000 12.369999886  -999.250000  -999.250000 80.704711914 159.67594910 0.9219807982 18.190038681 1.3159935474 1.3189935684
 1128.6744385 6.0000000000 12.411000252  -999.250000  -999.250000 80.338714600 159.61088562 0.8979943991 18.238105774 1.3080312014 1.3109935522
 1128.8267822 6.0000000000 12.442000389  -999.250000  -999.250000 80.163200378 159.54602051 0.8909935951 18.368164063 1.3469310999 1.3069936037
 1128.9792480 6.0000000000 12.430000305  -999.250000  -999.250000 80.409049988 159.55735779 0.8829944134 18.573020935 1.2610152960 1.2989935875
 1129.1315918 6.0000000000 12.411000252  -999.250000  -999.250000 81.066474915 159.77835083 0.8759936094 18.599058151 1.2800464630 1.2949872017
 1129.2840576 6.0000000000 12.381999969  -999.250000  -999.250000 80.735015869 159.99948120 0.8679959774 18.670948029 1.3379920721 1.2869870663
 1129.4364014 6.0000000000 12.376999855  -999.250000  -999.250000 80.118293762 160.30256653 0.8630007505 18.606002808 1.3279334307 1.2789903879
 1129.5888672 6.0000000000 12.385000229  -999.250000  -999.250000 79.054046631 160.65866089 0.8640016317 18.608749390 1.2449551821 1.2730064392
 1129.7412109 6.0000000000 12.430000305  -999.250000  -999.250000 78.458580017 161.06436157 0.8650000095 18.453001022 1.2169935703 1.2770063877
 1129.8936768 6.0000000000 12.454001427  -999.250000  -999.250000 78.200859070 161.30244446 0.8650016189 18.456005096 1.2091809511 1.2810096741
 1130.0460205 6.0000000000 12.461999893  -999.250000  -999.250000 79.985710144 160.96870422 0.8659999967 18.458938599 1.3219968081 1.2870095968
 1130.1984863 6.0000000000 12.541999817  -999.250000  -999.250000 81.676910400 161.40351868 0.8660048246 18.382844925 1.3180191517 1.2930128574
 1130.3508301 6.0000000000 12.608000755  -999.250000  -999.250000 82.867851257 161.09472656 0.8690064549 18.286954880 1.3299888372 1.3010015488
 1130.5031738 6.0000000000 12.614000320  -999.250000  -999.250000 84.024879456 160.92250061 0.8770071864 18.229888916 1.3161225319 1.3019888401
 1130.6556396 6.0000000000 12.576999664  -999.250000  -999.250000 85.118492126 161.55758667 0.8859935403 18.091905594 1.4688268900 1.2949663401
 1130.8079834 6.0000000000 12.515000343  -999.250000  -999.250000 84.178199768 161.29855347 0.8779880404 17.975105286 1.2529735565 1.2809759378
 1130.9604492 6.0000000000 12.513999939  -999.250000  -999.250000 83.182266235 160.75170898 0.8629895449 18.106037140 1.2199888229 1.2659735680
 1131.1127930 6.0000000000 12.513999939  -999.250000  -999.250000 82.099929810 161.18548584 0.8499992490 18.151121140 1.2060831785 1.2549920082
 1131.2652588 6.0000000000 12.513999939  -999.250000  -999.250000 80.810867310 160.86947632 0.8489959836 18.303020477 1.3099822998 1.2500000000
 1131.4176025 6.0000000000 12.500000000  -999.250000  -999.250000 79.479293823 161.16116333 0.8439951539 18.329053879 1.2879534960 1.2500064373
 1131.5700684 6.0000000000 12.479999542  -999.250000  -999.250000 78.411407471 161.26303101 0.8379920125 18.394926071 1.2302994728 1.2539951801
 1131.7224121 6.0000000000 12.450999260  -999.250000  -999.250000 78.043724060 161.27940369 0.8330064416 18.347986221 1.4167916775 1.2519984245
 1131.8748779 6.0000000000 12.425000191  -999.250000  -999.250000 78.496627808 161.54138184 0.8410128355 18.332199097 1.1571936607 1.2510000467
 1132.0272217 6.0000000000 12.404000282  -999.250000  -999.250000 78.884735107 161.78254700 0.8490087986 18.456035614 1.2779703140 1.2510192394
 1132.1796875 6.0000000000 12.352999687  -999.250000  -999.250000 79.341346741 162.12052917 0.8600272536 18.501388550 1.2411825657 1.2630096674
 1132.3320313 6.0000000000 12.300999641  -999.250000  -999.250000 80.180625916 161.83023071 0.8770127892 18.744033813 1.3550080061 1.2670128345
 1132.4843750 6.0000000000 12.295999527  -999.250000  -999.250000 79.947151184 161.97514343 0.8930104375 18.788034439 1.3650360107 1.2750015259
 1132.6367188 6.0000000000 12.288000107  -999.250000  -999.250000 78.794044495 162.14617920 0.9060000181 18.829999924 1.4099999666 1.2760064602
 1132.7891846 6.0000000000 12.274999619  -999.250000  -999.250000 77.574150085 162.36827087 0.9169999957 18.746879578 1.3899855614 1.2800064087
 1132.9415283 6.0000000000 12.272999763  -999.250000  -999.250000 76.421501160 162.70590210 0.9169999957 18.597999573 1.3719999790 1.2840000391
 1133.0939941 6.0000000000 12.270999908  -999.250000  -999.250000 75.489517212 162.59802246 0.9180007577 18.435945511 1.2340087891 1.2840144634
 1133.2463379 6.0000000000 12.258999825  -999.250000  -999.250000 75.813758850 161.99110413 0.9190000296 18.365999222 1.2450000048 1.2930047512
 1133.3988037 6.0000000000 12.277999878  -999.250000  -999.250000 76.914024353 162.13255310 0.9190008044 18.264829636 1.2680047750 1.2960064411
 1133.5511475 6.0000000000 12.319999695  -999.250000  -999.250000 76.928939819 161.85911560 0.9200000167 18.053972244 1.2739808559 1.2999999523
 1133.7036133 6.0000000000 12.308000565  -999.250000  -999.250000 76.892860413 162.01371765 0.9199944139 18.018033981 1.2501218319 1.3000015020
 1133.8559570 6.0000000000 12.298999786  -999.250000  -999.250000 76.806953430 162.45924377 0.9129943848 18.060194016 1.4018958807 1.3009887934
 1134.0083008 6.0000000000 12.303999901  -999.250000  -999.250000 76.779083252 162.75534058 0.9060000181 18.302000046 1.2719999552 1.2939952612
 1134.1607666 6.0000000000 12.315999985  -999.250000  -999.250000 76.886085510 163.17826843 0.8989943862 18.330045700 1.3249520063 1.2879872322
 1134.3131104 6.0000000000 12.333999634  -999.250000  -999.250000 78.808708191 163.52978516 0.8920000196 18.388000488 1.2649999857 1.2799896002
