# LAS format log file from PETREL
# Project units are specified as depth units
#==================================================================
~Version information
VERS.   2.0:
WRAP.   NO:
#==================================================================
~Well
STRT .m      289.55999756 :
STOP .m      3317.9003906 :
STEP .m     0.00000000 :
NULL .        -999.250000 :
COMP.           : COMPANY
WELL.  16/9-1   : WELL
FLD.            : FIELD
LOC.            : LOCATION
SRVC.           : SERVICE COMPANY
DATE.  2018-09-11 14:48:12   : Log Export Date {yyyy-MM-dd HH:mm:ss}
PROV.           : PROVINCE
UWI.   16/9-1   : UNIQUE WELL ID
API.            : API NUMBER
#==================================================================
~Curve
DEPT .m                   : DEPTH
Lithology_geolink ._      : Lithology_geolink
CALI .in                  : CALI
DRHO .g/cm3               : DRHO
RHOB .g/cm3               : RHOB
GR .gAPI                  : GR
DTC .us/ft                : DTC
RDEP .ohm.m               : RDEP
SP .mV                    : SP
RSHA .ohm.m               : RSHA
RMED .ohm.m               : RMED
~Parameter
#==================================================================
~Ascii
# ...
 1527.0479736 9.0000000000 18.292999268 0.2380264252 2.5460071564 20.211790085 84.278457642 1.0770689249 14.233226776 1.6160000563 1.2080096006
 1527.2003174 9.0000000000 18.292999268 0.2490016073 2.5609881878 19.457635880 83.942451477 1.1200424433 14.375065804 1.6549999714 1.2140120268
 1527.3527832 9.0000000000 18.291999817 0.2500000000 2.6229503155 19.003530502 82.023834229 1.1731249094 14.456950188 1.9939999580 1.2290271521
 1527.5051270 9.0000000000 18.291999817 0.2500000000 2.6549742222 18.711059570 81.297538757 1.2510648966 14.426029205 2.1359999180 1.2460176945
 1527.6574707 9.0000000000 18.291000366 0.2500000000 2.6709744930 18.784084320 80.725181580 1.3320704699 14.463045120 2.4260001183 1.2680215836
 1527.8099365 9.0000000000 18.270999908 0.2500000000 2.6719992161 18.889123917 79.706947327 1.4200656414 14.519029617 2.4820001125 1.2950152159
 1527.9622803 9.0000000000 18.270000458 0.2500000000 2.6440448761 19.044549942 79.643005371 1.5020264387 14.556015968 2.5989999771 1.3140047789
 1528.1147461 9.0000000000 18.270000458 0.2500000000 2.6270136833 19.730611801 79.652931213 1.5349751711 14.576018333 3.0039999485 1.3199952841
 1528.2670898 9.0000000000 18.268999100 0.2500000000 2.6190128326 20.492811203 79.572128296 1.5039191246 14.599091530 3.2060000896 1.3139872551
 1528.4195557 9.0000000000 18.268999100 0.2500000000 2.6299912930 20.258056641 79.731285095 1.4028998613 14.713108063 2.8480000496 1.2979758978
 1528.5718994 9.0000000000 18.288000107 0.2500000000 2.6150119305 20.330347061 80.080177307 1.2779142857 14.848048210 2.4800000191 1.2679719925
 1528.7243652 9.0000000000 18.287000656 0.2500000000 2.5760312080 20.762598038 80.288200378 1.1709446907 14.908987045 2.4409999847 1.2329735756
 1528.8767090 9.0000000000 18.287000656 0.2499983907 2.5570151806 20.259387970 81.794998169 1.1019575596 14.891995430 2.1989998817 1.1999752522
 1529.0291748 9.0000000000 18.285999298 0.2489999980 2.5769839287 19.494373322 83.039237976 1.0489119291 14.886046410 1.8220000267 1.1689567566
 1529.1815186 10.000000000 18.285999298 0.2489999980 2.5769999027 18.479547501 84.432281494 0.9939206839 14.915037155 1.6430000067 1.1419839859
 1529.3339844 10.000000000 18.284999847 0.2489999980 2.5710048676 17.915719986 84.786903381 0.8949487209 14.961234093 1.5240000486 1.1219663620
 1529.4863281 10.000000000 18.284999847 0.2489999980 2.5640056133 17.740886688 84.726745605 0.8629695177 15.107106209 1.4980000257 1.1009831429
 1529.6387939 10.000000000 18.284000397 0.2489999980 2.5350232124 17.600011826 84.410018921 0.8249455690 15.239320755 1.6569999456 1.0799776316
 1529.7911377 10.000000000 18.284000397 0.2489999980 2.5250082016 17.607339859 84.423049927 0.7909807563 15.439085007 1.6840000153 1.0659879446
 1529.9434814 10.000000000 18.283000946 0.2489903867 2.5170128345 18.030208588 85.748130798 0.7669872046 15.544951439 1.5349999666 1.0509872437
 1530.0959473 10.000000000 18.281999588 0.2429519594 2.5000135899 18.289123535 87.161582947 0.7509927750 15.483870506 1.4520000219 1.0349943638
 1530.2482910 10.000000000 18.281999588 0.2230048180 2.4990017414 18.444881439 89.132469177 0.7419975996 15.321900368 1.2840000391 1.0279991627
 1530.4007568 10.000000000 18.281000137 0.2260408252 2.5069935322 19.544214249 89.711639404 0.7390080094 15.197908401 1.2680000067 1.0270047188
 1530.5531006 10.000000000 18.281000137 0.2429951876 2.5269680023 19.809852600 89.265235901 0.7490200400 15.083931923 1.2220000029 1.0330088139
 1530.7055664 10.000000000 18.280000687 0.2400023937 2.5349936485 18.376171112 88.313240051 0.7740336657 14.998895645 1.2220000029 1.0440120697
 1530.8579102 10.000000000 18.280000687 0.2410128117 2.5429935455 17.341384888 87.362747192 0.8160376549 14.868915558 1.2369999886 1.0590096712
 1531.0103760 10.000000000 18.278999329 0.2490047961 2.5699782372 16.576372147 85.796943665 0.8630784154 14.763124466 1.4069999456 1.0710159540
 1531.1627197 10.000000000 18.278999329 0.2509999871 2.5839889050 17.432407379 85.138610840 0.9120280743 14.841081619 1.4459999800 1.0810071230
 1531.3151855 10.000000000 18.297000885 0.2509999871 2.5899951458 17.942028046 84.650169373 0.9470320344 14.943020821 1.5479999781 1.0900127888
 1531.4675293 10.000000000 18.297000885 0.2509999871 2.5840048790 17.960269928 84.132881165 0.9670072198 14.955967903 1.5770000219 1.0980064869
 1531.6199951 10.000000000 18.297000885 0.2509999871 2.5859982967 18.297725677 83.969070435 0.9760016203 14.914927483 1.6510000229 1.1060127020
 1531.7723389 10.000000000 18.295999527 0.2509999871 2.5959918499 18.750480652 83.383750916 0.9770023823 14.869988441 1.7589999437 1.1140064001
 1531.9246826 9.0000000000 18.295999527 0.2509999871 2.5999934673 19.350660324 83.071929932 0.9800063968 14.855998993 1.7350000143 1.1220055819
 1532.0771484 9.0000000000 18.295000076 0.2509999871 2.5920064449 18.925813675 82.983009338 0.9880127907 14.854998589 1.6710000038 1.1290079355
 1532.2294922 9.0000000000 18.295000076 0.2509999871 2.5810177326 17.447216034 82.993087769 1.0040264130 14.854023933 1.5800000429 1.1390104294
 1532.3819580 9.0000000000 18.294000626 0.2509999871 2.5849969387 17.716362000 83.106086731 1.0370343924 14.884032249 1.5190000534 1.1520152092
 1532.5343018 9.0000000000 18.294000626 0.2509983778 2.6059663296 18.169004440 83.210830688 1.0800465345 14.924066544 1.5319999456 1.1710168123
 1532.6867676 9.0000000000 18.292999268 0.2500024140 2.6279823780 18.174497604 83.003509521 1.1380529404 15.006999969 1.5319999456 1.1920120716
 1532.8391113 9.0000000000 18.292999268 0.2509999871 2.6379919052 18.796869278 82.398246765 1.2040392160 15.006993294 1.6000000238 1.2070280313
 1532.9915771 9.0000000000 18.291999817 0.2509951890 2.6270089149 19.881519318 81.456626892 1.2530848980 14.998888969 1.6480000019 1.2420352697
 1533.1439209 9.0000000000 18.291000366 0.2489967942 2.6160087585 20.205419540 81.223014832 1.3060384989 14.930063248 1.8480000496 1.2640192509
 1533.2963867 9.0000000000 18.284999847 0.2470312119 2.6050088406 20.730854034 79.996261597 1.3540271521 15.009096146 2.1280000210 1.2880191803
 1533.4487305 9.0000000000 18.250999451 0.2600096166 2.6159911156 21.887096405 78.909919739 1.3710008860 15.069072723 2.2490000725 1.3000128269
 1533.6011963 9.0000000000 18.229999542 0.2660000026 2.6379823685 22.008279800 78.803558350 1.3719791174 15.158821106 2.3689999580 1.3160079718
 1533.7535400 9.0000000000 18.201999664 0.2659935951 2.6300065517 21.557518005 78.533119202 1.3589855433 15.046876907 2.3729999065 1.3210015297
 1533.9058838 9.0000000000 18.188999176 0.2619775832 2.6250081062 19.708816528 78.673225403 1.3409816027 14.893871307 2.1459999084 1.3230007887
 1534.0583496 9.0000000000 18.188999176 0.2479695529 2.5960230827 18.233327866 78.949165344 1.3179743290 14.732927322 2.1080000401 1.3239959478
 1534.2106934 9.0000000000 18.187999725 0.2289695591 2.5840194225 17.396816254 79.158164978 1.2859679461 14.642906189 2.0869998932 1.3189928532
 1534.3631592 9.0000000000 18.187999725 0.2100240141 2.5550231934 17.167995453 79.366004944 1.2459647655 14.525905609 2.0480000973 1.3099902868
 1534.5155029 9.0000000000 18.187000275 0.2200288475 2.5569968224 17.162975311 79.376007080 1.2019728422 14.407962799 1.9739999771 1.2979879379
 1534.6679688 9.0000000000 18.187000275 0.2379783839 2.5759847164 17.132099152 79.386169434 1.1679743528 14.362072945 1.9960000515 1.2829864025
 1534.8203125 9.0000000000 18.186000824 0.2289743572 2.5640094280 17.256252289 79.594085693 1.1359696388 14.453062057 2.1830000877 1.2659864426
 1534.9727783 9.0000000000 18.166000366 0.2130144089 2.5480129719 17.571685791 79.701515198 1.0979696512 14.530043602 2.1400001049 1.2489895821
 1535.1251221 9.0000000000 18.111999512 0.2190096080 2.5549943447 18.427623749 80.352447510 1.0599887371 14.585048676 1.8980000019 1.2359895706
 1535.2775879 9.0000000000 18.104999542 0.2250096053 2.5420105457 19.204599380 80.912017822 1.0460144281 14.646179199 1.7430000305 1.2229856253
 1535.4299316 9.0000000000 18.104999542 0.2290128171 2.5360047817 18.954853058 80.922241211 1.0550167561 14.758020401 1.7029999495 1.2139959335
