# LAS format log file from PETREL
# Project units are specified as depth units
#==================================================================
~Version information
VERS.   2.0:
WRAP.   NO:
#==================================================================
~Well
STRT .m      289.55999756 :
STOP .m      3317.9003906 :
STEP .m     0.00000000 :
NULL .        -999.250000 :
COMP.           : COMPANY
WELL.  16/9-1   : WELL
FLD.            : FIELD
LOC.            : LOCATION
SRVC.           : SERVICE COMPANY
DATE.  2018-09-11 14:48:12   : Log Export Date {yyyy-MM-dd HH:mm:ss}
PROV.           : PROVINCE
UWI.   16/9-1   : UNIQUE WELL ID
API.            : API NUMBER
#==================================================================
~Curve
DEPT .m                   : DEPTH
Lithology_geolink ._      : Lithology_geolink
CALI .in                  : CALI
DRHO .g/cm3               : DRHO
RHOB .g/cm3               : RHOB
GR .gAPI                  : GR
DTC .us/ft                : DTC
RDEP .ohm.m               : RDEP
SP .mV                    : SP
RSHA .ohm.m               : RSHA
RMED .ohm.m               : RMED
~Parameter
#==================================================================
~Ascii
# ...
 2909.6206055 3.0000000000 11.963000298 -0.178000003 2.1669807434 35.100818634 86.596153259  -999.250000  -999.250000 0.3340464532 0.5519999862
 2909.7729492 3.0000000000 11.972999573 -0.187000006 2.1660029888 36.075870514 85.801551819  -999.250000  -999.250000 0.3828431964 0.5540000200
 2909.9255371 3.0000000000 11.963998795 -0.200000003 2.1949534416 35.650688171 84.335350037  -999.250000  -999.250000 0.4728557467 0.6060000062
 2910.0778809 3.0000000000 11.954999924 -0.194999993 2.2309422493 35.898597717 84.231163025  -999.250000  -999.250000 0.4101009667 0.6230000257
 2910.2302246 3.0000000000 11.947000504 -0.174999997 2.2290031910 37.098072052 85.014747620  -999.250000  -999.250000 0.3610785306 0.6219999790
 2910.3825684 3.0000000000 11.951999664 -0.175999999 2.2080671787 39.032794952 85.014999390  -999.250000  -999.250000 0.4028655887 0.6650000215
 2910.5351563 3.0000000000 11.961000443 -0.192000002 2.1960194111 40.971897125 83.322715759  -999.250000  -999.250000 0.5118253231 0.6880000234
 2910.6875000 3.0000000000 11.972999573 -0.203999996 2.2169663906 41.654907227 82.920639038  -999.250000  -999.250000 0.6338045001 0.6679999828
 2910.8398438 3.0000000000 11.984999657 -0.215000004 2.2309775352 40.588714600 82.819168091  -999.250000  -999.250000 0.5920673013 0.6819999814
 2910.9921875 3.0000000000 11.996999741 -0.211999997 2.2389745712 36.778224945 85.063789368  -999.250000  -999.250000 0.4853424132 0.6790000200
 2911.1447754 3.0000000000 11.994999886 -0.206000000 2.2010607719 32.313148499 87.790634155  -999.250000  -999.250000 0.3991377950 0.7049999833
 2911.2971191 3.0000000000 11.990999222 -0.197999999 2.1820304394 28.609931946 86.312370300  -999.250000  -999.250000 0.4219631255 0.6669999957
 2911.4494629 3.0000000000 11.980998993 -0.187000006 2.1829984188 27.165309906 85.117912292  -999.250000  -999.250000 0.4020320475 0.5939999819
 2911.6018066 3.0000000000 11.970998764 -0.193000004 2.1740143299 26.958328247 83.390769958  -999.250000  -999.250000 0.4010016024 0.5360000134
 2911.7541504 3.0000000000 11.961000443 -0.209000006 2.1769905090 27.680681229 81.994468689  -999.250000  -999.250000 0.4139584005 0.5339999795
 2911.9067383 3.0000000000 11.942000389 -0.210999995 2.1760017872 28.705360413 81.413925171  -999.250000  -999.250000 0.4489439130 0.5690000057
 2912.0590820 3.0000000000 11.923999786 -0.204999998 2.1909759045 29.567619324 81.412002563  -999.250000  -999.250000 0.4350224435 0.6269999743
 2912.2114258 3.0000000000 11.904999733 -0.204999998 2.1909999847 28.907062531 81.792388916  -999.250000  -999.250000 0.4889134467 0.6990000010
 2912.3637695 3.0000000000 11.925000191 -0.217999995 2.1840224266 28.632877350 83.260002136  -999.250000  -999.250000 0.5059455633 0.7170000076
 2912.5163574 3.0000000000 11.958000183 -0.213000000 2.1640319824 27.976053238 84.559997559  -999.250000  -999.250000 0.4530849457 0.7189999819
 2912.6687012 3.0000000000 11.989000320 -0.199000001 2.1500225067 27.507749557 85.872001648  -999.250000  -999.250000 0.3950929642 0.7049999833
 2912.8210449 3.0000000000 12.001999855 -0.187000006 2.1350240707 26.697298050 87.403999329  -999.250000  -999.250000 0.3510705233 0.6539999843
 2912.9733887 3.0000000000 11.994001389 -0.184000000 2.1250319481 27.053852081 88.170997620  -999.250000  -999.250000 0.3400352001 0.6010000110
 2913.1259766 3.0000000000 11.984001160 -0.188999996 2.1150159836 27.778839111 88.940994263  -999.250000  -999.250000 0.3320128024 0.5559999943
 2913.2783203 3.0000000000 11.977001190 -0.187999994 2.1150000095 27.172975540 89.957992554  -999.250000  -999.250000 0.3210176528 0.5469999909
 2913.4306641 3.0000000000 11.984001160 -0.194999993 2.0980272293 26.136661530 90.851997375  -999.250000  -999.250000 0.3219983876 0.5400000215
 2913.5830078 3.0000000000 11.986000061 -0.187000006 2.1019935608 27.736429214 90.286003113  -999.250000  -999.250000 0.3190048039 0.5310000181
 2913.7355957 3.0000000000 11.984001160 -0.182999998 2.1010017395 29.673898697 89.171997070  -999.250000  -999.250000 0.3140079975 0.5320000052
 2913.8879395 3.0000000000 11.963998795 -0.194000006 2.1000015736 32.544395447 86.473007202  -999.250000  -999.250000 0.3309727609 0.5339999795
 2914.0402832 3.0000000000 11.942000389 -0.175999999 2.1299519539 33.792003632 83.139999390  -999.250000  -999.250000 0.3749294877 0.5619999766
 2914.1926270 3.0000000000 11.920000076 -0.180000007 2.1629471779 35.724903107 81.261001587  -999.250000  -999.250000 0.4369006455 0.6330000162
 2914.3449707 3.0000000000 11.923000336 -0.187000006 2.1749615669 37.660793304 79.737998962  -999.250000  -999.250000 0.5765520334 0.7400000095
 2914.4975586 3.0000000000 11.939000130 -0.182999998 2.2109422684 38.350902557 77.911003113  -999.250000  -999.250000 0.8136202097 0.8669999838
 2914.6499023 3.0000000000 11.965999603 -0.177000001 2.2419505119 37.824848175 77.008003235  -999.250000  -999.250000 0.8319711685 0.9580000043
 2914.8022461 3.0000000000 11.982999802 -0.169000000 2.2559776306 36.287467957 78.300003052  -999.250000  -999.250000 0.7002115250 1.0570000410
 2914.9545898 3.0000000000 11.984001160 -0.174999997 2.2460319996 33.156044006 78.407989502  -999.250000  -999.250000 0.5494832397 1.0659999847
 2915.1071777 3.0000000000 11.980998993 -0.184000000 2.2230370045 31.492652893 78.694999695  -999.250000  -999.250000 0.4182099402 0.9219999909
 2915.2595215 3.0000000000 11.977999687 -0.187999994 2.2170095444 32.997581482 78.792999268  -999.250000  -999.250000 0.4818974435 0.8529999852
 2915.4118652 3.0000000000 12.000000000 -0.204999998 2.2170000076 35.271354675 77.165000916  -999.250000  -999.250000 0.6457372308 0.8119999766
 2915.5642090 3.0000000000 12.045000076 -0.191000000 2.2399263382 38.304275513 76.728996277  -999.250000  -999.250000 0.6958400011 0.8109999895
 2915.7167969 3.0000000000 12.116000175 -0.180999994 2.2669568062 43.287014008 79.347000122  -999.250000  -999.250000 0.8906874657 0.9819999933
 2915.8691406 4.0000000000 12.206999779 -0.187000006 2.2929582596 47.661987305 79.175003052  -999.250000  -999.250000 1.1560000181 1.2400000095
 2916.0214844 4.0000000000 12.274999619 -0.180999994 2.3149647713 49.639839172 78.885002136  -999.250000  -999.250000 0.8370000124 1.4110000134
 2916.1738281 4.0000000000 12.197999954 -0.200000003 2.3140015602 49.185733795 78.078002930  -999.250000  -999.250000 0.8629999757 1.5219999552
 2916.3261719 4.0000000000 12.089999199 -0.211999997 2.3000447750 44.537918091 75.723999023  -999.250000  -999.250000 0.9760000110 1.4809999466
 2916.4787598 4.0000000000 11.954000473 -0.194999993 2.2900159359 41.116466522 76.075996399  -999.250000  -999.250000 0.7870000005 1.1339999437
 2916.6311035 4.0000000000 11.890999794 -0.193000004 2.2680351734 42.297096252 77.366996765  -999.250000  -999.250000 0.6769999862 0.9319999814
 2916.7834473 4.0000000000 11.873000145 -0.201000005 2.2480318546 43.273437500 77.983001709  -999.250000  -999.250000 0.5960000157 0.8180000186
 2916.9357910 4.0000000000 11.961999893 -0.184000000 2.2559745312 44.988498688 78.608001709  -999.250000  -999.250000 0.5289999843 0.8249999881
 2917.0883789 4.0000000000 12.118000031 -0.166999996 2.2679805756 47.917308807 79.472000122  -999.250000  -999.250000 0.5139999986 0.9200000167
 2917.2407227 4.0000000000 12.317000389 -0.156000003 2.2799806595 49.188968658 79.072998047  -999.250000  -999.250000 0.4609999955 1.0449999571
 2917.3930664 4.0000000000 12.303999901 -0.147000000 2.2999680042 47.367927551 79.654991150  -999.250000  -999.250000 0.4410000145 1.1660000086
 2917.5454102 4.0000000000 12.243000984 -0.182999998 2.2720897198 42.039096832 81.156997681  -999.250000  -999.250000 0.6729999781 1.2150000334
 2917.6979980 3.0000000000 12.097000122 -0.174999997 2.2650113106 37.093910217 82.194999695  -999.250000  -999.250000 0.6079999804 1.0119999647
 2917.8503418 3.0000000000 12.032999992 -0.178000003 2.2490258217 31.050687790 86.888999939  -999.250000  -999.250000 0.4539999962 0.7239999771
 2918.0026855 3.0000000000 12.003000259 -0.169000000 2.2040719986 28.365295410 88.843002319  -999.250000  -999.250000 0.3260000050 0.5879999995
