# LAS format log file from PETREL
# Project units are specified as depth units
#==================================================================
~Version information
VERS.   2.0:
WRAP.   NO:
#==================================================================
~Well
STRT .m      289.55999756 :
STOP .m      3317.9003906 :
STEP .m     0.00000000 :
NULL .        -999.250000 :
COMP.           : COMPANY
WELL.  16/9-1   : WELL
FLD.            : FIELD
LOC.            : LOCATION
SRVC.           : SERVICE COMPANY
DATE.  2018-09-11 14:48:12   : Log Export Date {yyyy-MM-dd HH:mm:ss}
PROV.           : PROVINCE
UWI.   16/9-1   : UNIQUE WELL ID
API.            : API NUMBER
#==================================================================
~Curve
DEPT .m                   : DEPTH
Lithology_geolink ._      : Lithology_geolink
CALI .in                  : CALI
DRHO .g/cm3               : DRHO
RHOB .g/cm3               : RHOB
GR .gAPI                  : GR
DTC .us/ft                : DTC
RDEP .ohm.m               : RDEP
SP .mV                    : SP
RSHA .ohm.m               : RSHA
RMED .ohm.m               : RMED
~Parameter
#==================================================================
~Ascii
# ...
 332.23199463  -999.250000 14.980000496  -999.250000  -999.250000 40.198848724 75.206069946 6.6609997749 11.003999710 3.1469271183  -999.250000
 332.38439941  -999.250000 15.078000069  -999.250000  -999.250000 38.769744873 89.254302979 6.6040000916 10.753000259 3.0948905945 0.1589719653
 332.53680420  -999.250000 15.142000198  -999.250000  -999.250000 38.200523376 118.83333588 6.3779997826 10.472999573 3.0170817375 0.1449699551
 332.68920898  -999.250000 15.182000160  -999.250000  -999.250000 37.986175537 130.44070435 6.4520001411 10.387000084 3.0678894520 0.1299939901
 332.84158325  -999.250000 15.182999611  -999.250000  -999.250000 38.518505096 119.82170105 6.7150001526 10.500000000 2.9989595413 0.1269982010
 332.99398804  -999.250000 15.182999611  -999.250000  -999.250000 38.292392731 117.46543121 6.6430001259 10.784999847 2.9700112343 0.1259981990
 333.14639282  -999.250000 15.184000015  -999.250000  -999.250000 37.562637329 131.02212524 6.5419998169 11.401000023 2.9780364037 0.1249959916
 333.29879761  -999.250000 15.189000130  -999.250000  -999.250000 36.490516663 145.06381226 5.8379998207 12.128999710 3.0039901733 0.1229979992
 333.45120239  -999.250000 15.204000473  -999.250000  -999.250000 35.363319397 157.44984436 5.3709998131 12.975000381 2.9969031811 0.1219959930
 333.60360718  -999.250000 15.221999168  -999.250000  -999.250000 34.149185181 168.80227661 5.2649998665 13.861000061 2.9284772873 0.1199979931
 333.75601196  -999.250000 15.206000328  -999.250000  -999.250000 34.235538483 158.00830078 5.4939999580 14.953000069 3.2262611389 0.1189979985
 333.90838623  -999.250000 15.171000481  -999.250000  -999.250000 34.933597565 176.12776184 5.5159997940 16.218000412 3.3891513348 0.1180000007
 334.06079102  -999.250000 15.118000031  -999.250000  -999.250000 35.659549713 193.14823914 5.5100002289 17.659999847 3.4968948364 0.1180000007
 334.21319580  -999.250000 14.994000435  -999.250000  -999.250000 36.363471985 187.33526611 5.9299998283 18.653999329 3.4215822220 0.1180040091
 334.36560059  -999.250000 14.821000099  -999.250000  -999.250000 37.033184052 210.92742920 6.1620001793 19.170999527 3.1232037544 0.1200140119
 334.51800537  -999.250000 14.602999687  -999.250000  -999.250000 38.026264191 223.12736511 6.3130002022 19.636999130 2.5553159714 0.1269959956
 334.67041016  -999.250000 14.776000023  -999.250000  -999.250000 39.053123474 235.25242615 6.6840000153 19.865999222 2.1322710514 0.1249979958
 334.82281494  -999.250000 15.003000259  -999.250000  -999.250000 39.565093994 225.96212769 6.5450000763 20.686000824 4.1961455345 0.1239919886
 334.97518921  -999.250000 15.362999916  -999.250000  -999.250000 40.516151428 209.54498291 5.2150001526 21.229999542 19.890119553 0.1199927852
 335.12759399  -999.250000 15.708000183  -999.250000  -999.250000 41.948871613 191.23434448 4.9130001068 21.625000000 35.627647400 0.1160100102
 335.27999878  -999.250000 16.044000626  -999.250000  -999.250000 44.160156250 172.94363403 5.1319999695 21.895999908 20.390150070 0.1210240275
 335.43240356  -999.250000 16.388000488  -999.250000  -999.250000 46.501976013 162.80902100 2.8440001011 21.378000259 1.9742789268 0.1330821067
 335.58480835  -999.250000 16.667999268  -999.250000  -999.250000 48.756332397 171.25881958 2.3870000839 20.722999573 2.1719603539 0.1742883474
 335.73721313  -999.250000 16.666000366  -999.250000  -999.250000 49.358432770 157.19804382 3.9609999657 19.378999710 1.5242899656 0.3185105920
 335.88958740  -999.250000 16.641000748  -999.250000  -999.250000 48.646404266 151.26966858 4.0440001488 17.392999649 1.7052215338 0.5737857819
 336.04199219  -999.250000 16.593000412  -999.250000  -999.250000 47.352901459 171.57804871 1.4609999657 14.861000061 1.8627295494 1.0094667673
 336.19439697  -999.250000 16.594999313  -999.250000  -999.250000 46.859832764 165.53430176 1.0360000134 12.067000389 1.6697041988 1.2683705091
 336.34680176  -999.250000 16.610000610  -999.250000  -999.250000 48.599803925 177.65303040 1.0470000505 10.072999954 1.4585192204 1.4532603025
 336.49920654  -999.250000 16.586999893  -999.250000  -999.250000 50.326793671 182.70993042 1.1629999876 8.2170000076 1.1159915924 1.5832022429
 336.65161133  -999.250000 16.458999634  -999.250000  -999.250000 52.041629791 210.12527466 1.3719999790 6.7969999313 1.1108666658 1.6840921640
 336.80401611  -999.250000 16.152000427  -999.250000  -999.250000 50.966735840 226.71186829 1.6369999647 6.0370001793 1.6515158415 1.7300721407
 336.95639038  -999.250000 15.994000435  -999.250000  -999.250000 49.937969208 227.50749207 1.6579999924 5.7859997749 1.9733911753 1.7660162449
 337.10879517  -999.250000 15.911000252  -999.250000  -999.250000 49.019630432 159.66284180 1.4199999571 5.9380002022 2.2517309189 1.7750215530
 337.26119995  -999.250000 16.354999542  -999.250000  -999.250000 49.760040283 165.70285034 1.2819999456 6.4380002022 2.0592486858 1.7870459557
 337.41360474  -999.250000 16.718000412  -999.250000  -999.250000 51.021839142 183.04031372 1.3309999704 7.0650000572 1.5235234499 1.8100500107
 337.56600952  -999.250000 16.792999268  -999.250000  -999.250000 50.537918091 168.27839661 1.3739999533 7.6209998131 1.1838289499 1.8350480795
 337.71841431  -999.250000 16.666999817  -999.250000  -999.250000 49.669708252 188.43107605 1.4179999828 7.8039999008 1.0620144606 1.8590300083
 337.87081909  -999.250000 16.378000259  -999.250000  -999.250000 48.301319122 200.43714905 1.4559999704 7.9569993019 1.0713988543 1.8740279675
 338.02319336  -999.250000 15.852001190  -999.250000  -999.250000 47.655815125 202.47158813 1.4850000143 8.0380001068 1.3204261065 1.8880252838
 338.17559814  -999.250000 15.326000214  -999.250000  -999.250000 47.161296844 185.05058289 1.5279999971 8.2919998169 1.6242340803 1.9020270109
 338.32800293  -999.250000 15.037999153  -999.250000  -999.250000 46.453113556 171.51454163 1.5709999800 8.7580003738 1.7910182476 1.9171422720
 338.48040771  -999.250000 14.899000168  -999.250000  -999.250000 45.666934967 163.81057739 1.6030000448 9.1450004578 1.8039481640 1.9880200624
 338.63281250  -999.250000 14.944000244  -999.250000  -999.250000 44.809593201 160.61079407 1.6160000563 9.4610004425 1.7668597698 1.9980000257
 338.78521729  -999.250000 15.015000343  -999.250000  -999.250000 44.639553070 161.03480530 1.6299999952 9.2959995270 1.6668878794 1.9980000257
 338.93762207  -999.250000 15.095998764  -999.250000  -999.250000 44.466648102 173.40066528 1.6460000277 9.2889995575 1.5970064402 1.9980000257
 339.08999634  -999.250000 15.189999580  -999.250000  -999.250000 43.948944092 172.73333740 1.6619999409 9.7239999771 1.6009985209 1.9980000257
 339.24240112  -999.250000 15.267000198  -999.250000  -999.250000 43.925765991 171.24067688 1.6809999943 10.468999863 1.5999383926 1.9980000257
 339.39480591  -999.250000 15.310999870  -999.250000  -999.250000 44.243381500 160.10337830 1.7009999752 11.029000282 1.5559004545 1.9980000257
 339.54721069  -999.250000 15.343000412  -999.250000  -999.250000 43.987159729 155.79104614 1.6690000296 11.255999565 1.4850000143 1.9980000257
 339.69961548  -999.250000 15.366000175  -999.250000  -999.250000 44.056060791 149.83789063 1.6160000563 11.329000473 1.4851297140 1.9980000257
 339.85202026  -999.250000 15.380000114  -999.250000  -999.250000 44.912078857 149.75296021 1.5870000124 11.314000130 1.5660512447 1.9980000257
 340.00442505  -999.250000 15.394000053  -999.250000  -999.250000 45.325508118 135.76611328 1.5950000286 11.145999908 1.5980385542 1.9980000257
 340.15679932  -999.250000 15.407999992  -999.250000  -999.250000 45.520450592 136.82820129 1.6030000448 10.776000023 1.6220196486 1.9980000257
 340.30920410  -999.250000 15.413999557  -999.250000  -999.250000 45.709018707 142.51820374 1.6109999418 10.347000122 1.6360365152 1.9980000257
 340.46160889  -999.250000 15.411999702  -999.250000  -999.250000 46.133907318 160.09370422 1.5809999704 10.102000237 1.6621148586 1.9980000257
 340.61401367  -999.250000 15.406999588  -999.250000  -999.250000 46.931079865 173.92720032 1.5789999962 9.9079999924 1.7440994978 1.9979978800
