# LAS format log file from PETREL
# Project units are specified as depth units
#==================================================================
~Version information
VERS.   2.0:
WRAP.   NO:
#==================================================================
~Well
STRT .m      289.55999756 :
STOP .m      3317.9003906 :
STEP .m     0.00000000 :
NULL .        -999.250000 :
COMP.           : COMPANY
WELL.  16/9-1   : WELL
FLD.            : FIELD
LOC.            : LOCATION
SRVC.           : SERVICE COMPANY
DATE.  2018-09-11 14:48:12   : Log Export Date {yyyy-MM-dd HH:mm:ss}
PROV.           : PROVINCE
UWI.   16/9-1   : UNIQUE WELL ID
API.            : API NUMBER
#==================================================================
~Curve
DEPT .m                   : DEPTH
Lithology_geolink ._      : Lithology_geolink
CALI .in                  : CALI
DRHO .g/cm3               : DRHO
RHOB .g/cm3               : RHOB
GR .gAPI                  : GR
DTC .us/ft                : DTC
RDEP .ohm.m               : RDEP
SP .mV                    : SP
RSHA .ohm.m               : RSHA
RMED .ohm.m               : RMED
~Parameter
#==================================================================
~Ascii
# ...
 929.64001465 6.0000000000 12.178001404  -999.250000  -999.250000 79.270790100 155.26745605 1.2070068121 15.516035080 1.6649987698 1.6409952641
 929.79241943 6.0000000000 12.159000397  -999.250000  -999.250000 77.889839172 154.92875671 1.2240064144 15.603051186 1.6639087200 1.6380047798
 929.94482422 6.0000000000 12.163999557  -999.250000  -999.250000 75.913375854 154.78005981 1.2320055962 15.666999817 1.5879712105 1.6409984827
 930.09722900 6.0000000000 12.182999611  -999.250000  -999.250000 72.402832031 154.17384338 1.2389863729 15.668031693 1.5639615059 1.6399967670
 930.24957275 6.0000000000 12.232000351  -999.250000  -999.250000 69.805496216 150.95927429 1.2219896317 15.706003189 1.5319702625 1.6379940510
 930.40197754 16.000000000 12.248000145  -999.250000  -999.250000 67.726135254 148.69064331 1.1959891319 15.710015297 1.4949831963 1.6329915524
 930.55438232 16.000000000 12.243000984  -999.250000  -999.250000 66.177619934 149.23077393 1.1689947844 15.748999596 1.4740384817 1.6259928942
 930.70678711 16.000000000 12.174999237  -999.250000  -999.250000 65.864295959 151.52960205 1.1559967995 15.750000000 1.5219687223 1.6200000048
 930.85919189 16.000000000 12.124000549  -999.250000  -999.250000 67.775588989 150.36186218 1.1479943991 15.751000404 1.4828839302 1.6200176477
 931.01159668 16.000000000 12.114999771  -999.250000  -999.250000 70.639366150 152.16311646 1.1339911222 15.750913620 1.3379591703 1.6309952736
 931.16400146 16.000000000 12.140000343  -999.250000  -999.250000 73.816947937 152.87326050 1.1119999886 15.534867287 1.2871041298 1.6279935837
 931.31640625 6.0000000000 12.180000305  -999.250000  -999.250000 76.287048340 162.40374756 1.1120052338 15.204891205 1.4170348644 1.6239951849
 931.46881104 6.0000000000 12.161999702  -999.250000  -999.250000 78.307884216 172.87565613 1.1250052452 14.934081078 1.4460432529 1.6209840775
 931.62121582 6.0000000000 12.138999939  -999.250000  -999.250000 79.744514465 183.84706116 1.1380056143 15.137236595 1.4821646214 1.6109951735
 931.77362061 6.0000000000 12.105999947  -999.250000  -999.250000 80.000228882 162.05854797 1.1520103216 15.727054596 1.6189758778 1.6080064774
 931.92602539 6.0000000000 12.121999741  -999.250000  -999.250000 80.117019653 154.91984558 1.1650128365 15.794990540 1.5990420580 1.6120256186
 932.07843018 6.0000000000 12.154000282  -999.250000  -999.250000 81.122627258 154.81918335 1.1810120344 15.782988548 1.6340107918 1.6280192137
 932.23077393 6.0000000000 12.185001373  -999.250000  -999.250000 80.935905457 154.30900574 1.1960059404 15.766972542 1.6429640055 1.6400047541
 932.38317871 6.0000000000 12.213000298  -999.250000  -999.250000 79.623588562 153.49736023 1.2110064030 15.697984695 1.5980120897 1.6439952850
 932.53558350 6.0000000000 12.237000465  -999.250000  -999.250000 77.495765686 152.96513367 1.2269971371 15.657983780 1.6130112410 1.6399999857
 932.68798828 6.0000000000 12.293000221  -999.250000  -999.250000 75.882911682 153.07864380 1.2199971676 15.614042282 1.6269879341 1.6399903297
 932.84039307 6.0000000000 12.340000153  -999.250000  -999.250000 76.334770203 153.61506653 1.2129948139 15.719132423 1.6119823456 1.6319952011
 932.99279785 6.0000000000 12.333000183  -999.250000  -999.250000 76.218994141 154.50976563 1.1999852657 16.049058914 1.5899767876 1.6279840469
 933.14520264 6.0000000000 12.329000473  -999.250000  -999.250000 75.720214844 154.98939514 1.1629863977 16.198060989 1.5609728098 1.6179759502
 933.29760742 6.0000000000 12.328000069  -999.250000  -999.250000 77.823585510 155.23222351 1.1290019751 16.352077484 1.5269902945 1.6029776335
 933.45001221 6.0000000000 12.295000076  -999.250000  -999.250000 79.613639832 155.37280273 1.1340023279 16.549049377 1.5149579048 1.5889775753
 933.60241699 6.0000000000 12.265999794  -999.250000  -999.250000 80.429092407 155.24642944 1.1400023699 16.674047470 1.4800071716 1.5749952793
 933.75482178 6.0000000000 12.253001213  -999.250000  -999.250000 79.973800659 154.89642334 1.1460015774 16.792003632 1.4861140251 1.5720032454
 933.90722656 6.0000000000 12.222000122  -999.250000  -999.250000 78.874473572 155.15753174 1.1499903202 16.802932739 1.5809903145 1.5740208626
 934.05963135 6.0000000000 12.180000305  -999.250000  -999.250000 77.113525391 154.86163330 1.1379920244 16.719064713 1.5729663372 1.5870159864
 934.21203613 6.0000000000 12.217000008  -999.250000  -999.250000 75.882186890 154.63473511 1.1279959679 16.798776627 1.5449999571 1.5970079899
 934.36437988 6.0000000000 12.243000984  -999.250000  -999.250000 75.477439880 154.47569275 1.1229984760 16.520925522 1.5450223684 1.6019988060
 934.51678467 6.0000000000 12.246998787  -999.250000  -999.250000 76.380126953 154.22201538 1.1189979315 16.335964203 1.5729174614 1.6009927988
 934.66918945 6.0000000000 12.248000145  -999.250000  -999.250000 77.709526062 154.21658325 1.1139984131 16.243999481 1.4699976444 1.5949808359
 934.82159424 6.0000000000 12.246998787  -999.250000  -999.250000 78.970817566 154.68156433 1.1099979877 16.245000839 1.4670128822 1.5789819956
 934.97399902 6.0000000000 12.246998787  -999.250000  -999.250000 79.374877930 155.14648438 1.1049984694 16.245067596 1.4830040932 1.5639832020
 935.12640381 6.0000000000 12.253999710  -999.250000  -999.250000 78.814895630 155.55149841 1.1009979248 16.413045883 1.4880104065 1.5499855280
 935.27880859 6.0000000000 12.270999908  -999.250000  -999.250000 78.264671326 155.85432434 1.0960003138 16.524999619 1.5010112524 1.5410000086
 935.43121338 6.0000000000 12.279999733  -999.250000  -999.250000 78.105979919 156.06182861 1.0970035791 16.526037216 1.5149831772 1.5410000086
 935.58361816 6.0000000000 12.286000252  -999.250000  -999.250000 79.593681335 155.95932007 1.1060039997 16.619020462 1.4939819574 1.5410059690
 935.73602295 6.0000000000 12.284999847  -999.250000  -999.250000 80.429595947 155.53492737 1.1160041094 16.671976089 1.4790167809 1.5440100431
 935.88842773 6.0000000000 12.291999817  -999.250000  -999.250000 80.728485107 155.48510742 1.1260036230 16.607965469 1.4930084944 1.5490220785
 936.04083252 6.0000000000 12.305000305  -999.250000  -999.250000 80.972831726 155.55131531 1.1350079775 16.519975662 1.4999831915 1.5600159168
 936.19323730 6.0000000000 12.347000122  -999.250000  -999.250000 81.390808105 155.73855591 1.1450079679 16.488914490 1.4860683680 1.5680240393
 936.34564209 6.0000000000 12.395999908  -999.250000  -999.250000 82.292526245 156.08346558 1.1550071239 16.381000519 1.5429772139 1.5800100565
 936.49798584 6.0000000000 12.456999779  -999.250000  -999.250000 82.555809021 156.38279724 1.1640040874 16.382022858 1.5239688158 1.5849936008
 936.65039063 6.0000000000 12.506999969  -999.250000  -999.250000 82.434906006 156.21557617 1.1740012169 16.440006256 1.4849647284 1.5809919834
 936.80279541 6.0000000000 12.548999786  -999.250000  -999.250000 80.388603210 155.86248779 1.1770000458 16.452070236 1.4410023689 1.5769920349
 936.95520020 6.0000000000 12.557000160  -999.250000  -999.250000 78.694030762 155.42628479 1.1770000458 16.626073837 1.4440665245 1.5729999542
 937.10760498 6.0000000000 12.557999611  -999.250000  -999.250000 77.710296631 154.83198547 1.1770004034 16.812032700 1.5270215273 1.5730079412
 937.26000977 6.0000000000 12.545000076  -999.250000  -999.250000 76.861564636 154.82783508 1.1779999733 16.892019272 1.5540128946 1.5770159960
 937.41241455 6.0000000000 12.496999741  -999.250000  -999.250000 76.146751404 155.34765625 1.1779999733 16.940967560 1.5699431896 1.5850200653
 937.56481934 6.0000000000 12.430998802  -999.250000  -999.250000 76.521797180 155.76928711 1.1779987812 16.859989166 1.4989651442 1.5950080156
 937.71722412 6.0000000000 12.352001190  -999.250000  -999.250000 77.422218323 155.94952393 1.1749951839 16.831981659 1.4700000286 1.5990059376
 937.86962891 6.0000000000 12.293000221  -999.250000  -999.250000 79.028709412 156.27528381 1.1629947424 16.785978317 1.4701166153 1.6019940376
 938.02203369 6.0000000000 12.267999649  -999.250000  -999.250000 79.381401062 156.45352173 1.1499887705 16.735889435 1.5670168400 1.5989779234
