# LAS format log file from PETREL
# Project units are specified as depth units
#==================================================================
~Version information
VERS.   2.0:
WRAP.   NO:
#==================================================================
~Well
STRT .m      289.55999756 :
STOP .m      3317.9003906 :
STEP .m     0.00000000 :
NULL .        -999.250000 :
COMP.           : COMPANY
WELL.  16/9-1   : WELL
FLD.            : FIELD
LOC.            : LOCATION
SRVC.           : SERVICE COMPANY
DATE.  2018-09-11 14:48:12   : Log Export Date {yyyy-MM-dd HH:mm:ss}
PROV.           : PROVINCE
UWI.   16/9-1   : UNIQUE WELL ID
API.            : API NUMBER
#==================================================================
~Curve
DEPT .m                   : DEPTH
Lithology_geolink ._      : Lithology_geolink
CALI .in                  : CALI
DRHO .g/cm3               : DRHO
RHOB .g/cm3               : RHOB
GR .gAPI                  : GR
DTC .us/ft                : DTC
RDEP .ohm.m               : RDEP
SP .mV                    : SP
RSHA .ohm.m               : RSHA
RMED .ohm.m               : RMED
~Parameter
#==================================================================
~Ascii
# ...
 2517.0383301 3.0000000000 11.701999664 0.1140705124 2.3980000019 44.085998535 86.720001221 0.9501201510 17.306266785 1.4279999733 1.1579999924
 2517.1906738 3.0000000000 11.772000313 0.1579935998 2.4319999218 47.174999237 87.299003601 1.0250705481 18.721483231 1.4579999447 1.2039999962
 2517.3432617 3.0000000000 11.958000183 0.1537760049 2.4119999409 49.701999664 88.199996948 1.0690543652 20.896591187 1.7120000124 1.2460000515
 2517.4956055 3.0000000000 12.194000244 0.0839679465 2.3670001030 51.854999542 89.848999023 1.0859310627 22.639156342 1.8509999514 1.2690000534
 2517.6479492 4.0000000000 12.338000298 0.0640673116 2.3570001125 51.832000732 92.194999695 1.0427659750 23.359001160 1.1809999943 1.2630000114
 2517.8002930 4.0000000000 12.319999695 0.1060801297 2.4210000038 52.040000916 92.696990967 0.8968397379 23.359504700 1.0190000534 1.2400000095
 2517.9528809 4.0000000000 12.295999527 0.1559327990 2.4590001106 52.955001831 90.091003418 0.7967696190 23.048463821 1.2220000029 1.1959999800
 2518.1052246 4.0000000000 12.302000046 0.1350112259 2.4319999218 52.825000763 88.412002563 0.7249663472 22.254856110 1.6289999485 1.1299999952
 2518.2575684 3.0000000000 12.223999977 0.1419807673 2.3910000324 52.113998413 86.682991028 0.7039631605 20.293741226 1.6829999685 1.0779999495
 2518.4099121 3.0000000000 11.947000504 0.1299551278 2.3619999886 49.236999512 87.031997681 0.6809807420 18.259817123 1.9429999590 1.0340000391
 2518.5622559 3.0000000000 11.750000000 0.1020447984 2.3369998932 47.291999817 88.416999817 0.6690480113 16.274152756 1.5670000315 1.0219999552
 2518.7148438 3.0000000000 11.711001396 0.1300384551 2.3659999371 46.783000946 89.783996582 0.6990464926 15.121740341 1.2410000563 1.0369999409
 2518.8671875 3.0000000000 11.708999634 0.1539246738 2.4079999924 46.750999451 89.684005737 0.7280480862 14.960435867 1.2230000496 1.0770000219
 2519.0195313 3.0000000000 11.697999001 0.1069695503 2.3980000019 46.794998169 88.428009033 0.7580400705 15.233006477 1.2039999962 1.1339999437
 2519.1718750 3.0000000000 11.684000015 0.0880144238 2.4079999924 46.234001160 88.019996643 0.7830208540 15.860530853 1.3190000057 1.1900000572
 2519.3244629 3.0000000000 11.692000389 0.0969648063 2.4289999008 45.360000610 86.207000732 0.7960671782 16.192005157 1.6280000210 1.2280000448
 2519.4768066 3.0000000000 11.736000061 0.0860016048 2.4330000877 44.139999390 84.837997437 0.8169855475 16.193552017 1.9500000477 1.2359999418
 2519.6291504 3.0000000000 11.706000328 0.0870400593 2.4270000458 43.548999786 83.861000061 0.8079760075 15.913798332 2.1359999180 1.2339999676
 2519.7814941 3.0000000000 11.666000366 0.1120352596 2.4409999847 43.013000488 83.180999756 0.7929727435 15.788423538 2.1250000000 1.2239999771
 2519.9340820 3.0000000000 11.663000107 0.1340032071 2.4260001183 42.182998657 83.600997925 0.7759424448 15.429002762 2.4700000286 1.2180000544
 2520.0864258 3.0000000000 11.670000076 0.1349567324 2.4040000439 41.513000488 83.783996582 0.7579679489 15.430150986 2.0439999104 1.2150000334
 2520.2387695 3.0000000000 11.677000046 0.1079583392 2.3770000935 40.972999573 85.297996521 0.7380239964 15.524405479 1.7079999447 1.2150000334
 2520.3911133 3.0000000000 11.685000420 0.0820512846 2.3610000610 41.849998474 86.047996521 0.7530224323 15.776740074 1.7549999952 1.2170000076
 2520.5437012 3.0000000000 11.692000389 0.1140863970 2.3980000019 42.673000336 86.887001038 0.7670480013 15.613414764 1.8839999437 1.2189999819
 2520.6960449 3.0000000000 11.699000359 0.1409455091 2.4089999199 42.979000092 86.897003174 0.7820144296 15.430565834 1.8990000486 1.2170000076
 2520.8483887 3.0000000000 11.706000328 0.1070080101 2.3949999809 42.953998566 86.835998535 0.7909711599 15.159886360 1.9149999619 1.2209999561
 2521.0007324 3.0000000000 11.711999893 0.1119984016 2.3989999294 42.736999512 86.146003723 0.7729695439 15.088950157 1.9060000181 1.2269999981
 2521.1530762 3.0000000000 11.725999832 0.1110000014 2.3949999809 40.868999481 85.474998474 0.7539711595 15.058190346 1.9129999876 1.2339999676
 2521.3056641 3.0000000000 11.746000290 0.1110128015 2.3889999390 39.455001831 85.000999451 0.7359424233 15.177537918 1.8279999495 1.2280000448
 2521.4580078 3.0000000000 11.767999649 0.1150000021 2.3919999599 38.903999329 85.149002075 0.7179695368 15.345266342 1.8730000257 1.2159999609
 2521.6103516 3.0000000000 11.760000229 0.1150384620 2.3659999371 38.362998962 85.327003479 0.6990032196 15.510931015 2.0130000114 1.1959999800
 2521.7626953 3.0000000000 11.737000465 0.1390160173 2.3849999905 37.979999542 85.754997253 0.7010336518 15.468103409 2.0889999866 1.1720000505
 2521.9152832 3.0000000000 11.711999893 0.1488720030 2.3619999886 39.653999329 86.500000000 0.7220640182 15.533535957 1.9140000343 1.1619999409
 2522.0676270 3.0000000000 11.699999809 0.1090144217 2.3340001106 41.528999329 87.626991272 0.7420320511 16.013368607 1.7039999962 1.1660000086
 2522.2199707 3.0000000000 11.697999001 0.1180160269 2.3570001125 43.669998169 89.388000488 0.7620320916 16.867658615 1.4730000496 1.1809999943
 2522.3723145 3.0000000000 11.704998970 0.1279599369 2.3859999180 45.842998505 93.518997192 0.7820560932 17.903690338 1.5160000324 1.2050000429
 2522.5249023 3.0000000000 11.776000023 0.1030192003 2.3880000114 47.839000702 94.839996338 0.8172207475 18.959110260 1.5729999542 1.2369999886
 2522.6772461 3.0000000000 11.902999878 0.1090432703 2.4179999828 48.752998352 93.252998352 0.8861281872 19.929784775 1.5069999695 1.2610000372
 2522.8295898 3.0000000000 11.918000221 0.1360737234 2.4370000362 49.493000031 92.882003784 0.9661266208 21.042873383 1.7580000162 1.2879999876
 2522.9819336 4.0000000000 11.911000252 0.1820897460 2.4690001011 50.062999725 90.729995728 1.0451554060 21.586914063 1.8459999561 1.3170000315
 2523.1342773 4.0000000000 11.935000420 0.2379903942 2.5050001144 50.476001740 88.690002441 1.1421650648 21.533561707 1.7829999924 1.3589999676
 2523.2868652 4.0000000000 11.994999886 0.2318623960 2.5469999313 50.890998840 87.799003601 1.2453263998 21.887092590 1.4110000134 1.4440000057
 2523.4392090 4.0000000000 12.380000114 0.1890208274 2.5220000744 51.400001526 87.811996460 1.3471827507 23.165616989 1.1740000248 1.5449999571
 2523.5915527 4.0000000000 12.899000168 0.2020000070 2.5629999638 53.306999207 86.266006470 1.4612307549 25.421735764 0.9490000010 1.6130000353
 2523.7438965 4.0000000000 13.019999504 0.2019711584 2.5869998932 56.203998566 84.348991394 1.6051154137 27.127189636 1.8839999437 1.6519999504
 2523.8964844 5.0000000000 13.128999710 0.1838784069 2.5539999008 58.863998413 84.763000488 1.6769008636 27.870681763 1.7250000238 1.6820000410
 2524.0488281 5.0000000000 13.192999840 0.1459615380 2.5139999390 60.723999023 82.475997925 1.6459696293 28.395809174 1.1599999666 1.6809999943
 2524.2011719 5.0000000000 13.218000412 0.1220192313 2.4979999065 60.800998688 83.227996826 1.6269855499 28.900821686 1.2500000000 1.6599999666
 2524.3535156 5.0000000000 13.170001030 0.1340480745 2.4869999886 60.834999084 84.734001160 1.6180096865 29.413791656 1.3200000525 1.6369999647
 2524.5061035 5.0000000000 13.062999725 0.1638912112 2.4760000706 60.841999054 84.920005798 1.6239680052 29.907472610 1.5959999561 1.6410000324
 2524.6584473 5.0000000000 12.999999046 0.1299342960 2.4260001183 60.640998840 86.156997681 1.6139407158 30.054994583 1.2410000563 1.6499999762
 2524.8107910 4.0000000000 12.961999893 0.0890032053 2.4100000858 58.948001862 88.737007141 1.5769151449 30.051923752 1.3009999990 1.6519999504
 2524.9631348 4.0000000000 12.930999756 0.0909823701 2.4530000687 54.868000031 90.367996216 1.5239552259 30.004188538 1.0599999428 1.6480000019
 2525.1154785 4.0000000000 12.916999817 0.0800272450 2.4700000286 53.271999359 90.871002197 1.4959903955 30.122196198 1.1000000238 1.6510000229
 2525.2680664 4.0000000000 12.937999725 0.0970640033 2.4739999771 52.597999573 88.627998352 1.4899232388 30.245119095 1.4670000076 1.6579999924
 2525.4204102 4.0000000000 13.013999939 0.1170416623 2.4779999256 52.465999603 86.333999634 1.4659278393 30.281501770 1.6089999676 1.6469999552
