# LAS format log file from PETREL
# Project units are specified as depth units
#==================================================================
~Version information
VERS.   2.0:
WRAP.   NO:
#==================================================================
~Well
STRT .m      289.55999756 :
STOP .m      3317.9003906 :
STEP .m     0.00000000 :
NULL .        -999.250000 :
COMP.           : COMPANY
WELL.  16/9-1   : WELL
FLD.            : FIELD
LOC.            : LOCATION
SRVC.           : SERVICE COMPANY
DATE.  2018-09-11 14:48:12   : Log Export Date {yyyy-MM-dd HH:mm:ss}
PROV.           : PROVINCE
UWI.   16/9-1   : UNIQUE WELL ID
API.            : API NUMBER
#==================================================================
~Curve
DEPT .m                   : DEPTH
Lithology_geolink ._      : Lithology_geolink
CALI .in                  : CALI
DRHO .g/cm3               : DRHO
RHOB .g/cm3               : RHOB
GR .gAPI                  : GR
DTC .us/ft                : DTC
RDEP .ohm.m               : RDEP
SP .mV                    : SP
RSHA .ohm.m               : RSHA
RMED .ohm.m               : RMED
~Parameter
#==================================================================
~Ascii
# ...
 2320.7473145 7.0000000000 14.399999619 0.2500000000 2.3420000076 102.75473022 124.46164703 0.9500544071 30.000993729 0.8069999814 1.3830064535
 2320.8996582 7.0000000000 14.361000061 0.2500000000 2.3210000992 103.83618164 125.48494720 0.9670272470 29.998870850 1.0340000391 1.3869984150
 2321.0520020 7.0000000000 14.399999619 0.2500016093 2.3259999752 104.57187653 124.20813751 0.9840032458 29.917934418 0.8870000243 1.3860064745
 2321.2043457 7.0000000000 14.439999580 0.2509999871 2.3180000782 104.49600220 124.29199982 0.9860000014 29.876935959 0.7310000062 1.3899999857
 2321.3569336 7.0000000000 14.303999901 0.2509999871 2.3420000076 104.29153442 125.59521484 0.9860287905 29.835935593 0.8289999962 1.3900015354
 2321.5092773 7.0000000000 14.281001091 0.2509999871 2.3610000610 103.99955750 126.35140228 0.9950192571 29.815776825 0.8880000114 1.3910112381
 2321.6616211 7.0000000000 14.241999626 0.2509999871 2.3280000687 103.09656525 127.22293854 1.0070191622 29.676614761 0.8610000014 1.3980191946
 2321.8139648 7.0000000000 14.104999542 0.2509999871 2.3469998837 101.57700348 126.56301117 1.0190144777 29.436643600 1.0839999914 1.4099999666
 2321.9663086 7.0000000000 14.102999687 0.2509999871 2.3680000305 99.148002625 125.66599274 1.0279920101 29.214963913 1.0479999781 1.4259999990
 2322.1188965 7.0000000000 14.142999649 0.2509999871 2.3570001125 97.229408264 126.30068207 1.0229840279 29.192115784 0.9739999771 1.4249870777
 2322.2712402 7.0000000000 14.201999664 0.2509999871 2.3480000496 95.612930298 126.09657288 1.0129967928 29.265159607 0.8289999962 1.4170064926
 2322.4235840 7.0000000000 14.262000084 0.2509999871 2.3810000420 94.947998047 127.07800293 1.0110129118 29.365074158 0.7960000038 1.4210000038
 2322.5759277 7.0000000000 14.182001114 0.2509999871 2.3940000534 94.658996582 129.48399353 1.0190048218 29.411365509 1.0110000372 1.4290000200
 2322.7285156 7.0000000000 14.102999687 0.2509999871 2.3580000401 94.774955750 130.09555054 1.0220063925 29.640201569 0.8050000072 1.4450129271
 2322.8808594 7.0000000000 14.140999794 0.2509999871 2.3220000267 97.868980408 127.94673157 1.0239903927 29.702974319 1.0349999666 1.4529999495
 2323.0332031 7.0000000000 14.302000046 0.2509999871 2.3139998913 101.60299683 127.15499115 1.0179920197 29.686807632 0.8740000129 1.4529999495
 2323.1855469 7.0000000000 14.241999626 0.2509999871 2.3410000801 105.73000336 126.83000183 1.0130015612 29.566741943 0.9350000024 1.4490000010
 2323.3381348 7.0000000000 14.144000053 0.2509999871 2.3469998837 107.13587189 126.68333435 1.0140384436 29.405570984 1.0859999657 1.4409984350
 2323.4904785 7.0000000000 14.142999649 0.2509999871 2.3340001106 106.43206024 128.13528442 1.0260241032 29.271976471 1.0099999905 1.4400177002
 2323.6428223 7.0000000000 14.112000465 0.2509999871 2.3329999447 107.09612274 127.06645966 1.0410144329 29.257888794 0.9419999719 1.4510127306
 2323.7951660 7.0000000000 14.102999687 0.2509999871 2.3440001011 108.41799927 126.10700226 1.0499919653 29.189041138 1.0920000076 1.4589999914
 2323.9477539 7.0000000000 14.102999687 0.2509999871 2.3289999962 111.13813782 127.17044067 1.0449327230 29.215253830 1.0770000219 1.4599871635
 2324.1000977 7.0000000000 14.119999886 0.2509999871 2.3340001106 113.09545135 127.44689941 1.0239871740 29.294061661 0.9010000229 1.4519808292
 2324.2524414 7.0000000000 14.155000687 0.2509999871 2.3840000629 114.61528015 128.63058472 1.0160048008 29.331949234 0.7919999957 1.4399985075
 2324.4047852 7.0000000000 14.166000366 0.2509999871 2.3910000324 111.66899872 128.37500000 1.0190112591 29.299646378 0.8330000043 1.4390000105
 2324.5571289 7.0000000000 14.100998878 0.2509999871 2.3670001030 109.75900269 126.33000946 1.0259984732 29.079824448 0.9110000134 1.4500000477
 2324.7097168 7.0000000000 14.083998680 0.2509999871 2.3670001030 109.69229889 123.25545502 1.0249551535 28.969993591 1.0449999571 1.4479743242
 2324.8620605 7.0000000000 14.098999977 0.2510128021 2.3770000935 110.50057983 124.16620636 1.0109632015 28.967948914 1.1430000067 1.4319760799
 2325.0144043 7.0000000000 14.102999687 0.2589871883 2.3559999466 111.48400116 125.54299927 0.9879679084 28.936035156 1.0909999609 1.4170000553
 2325.1667480 7.0000000000 14.192998886 0.2509999871 2.3659999371 110.61599731 129.04699707 0.9679823518 28.956886292 0.9240000248 1.4119999409
 2325.3193359 7.0000000000 14.253000259 0.2509999871 2.3949999809 108.80519867 128.32614136 0.9569680095 28.885272980 0.8460000157 1.4109776020
 2325.4716797 7.0000000000 14.279000282 0.2509999871 2.3680000305 105.81605530 127.16950226 0.9469839931 28.970083237 0.8930000067 1.3969807625
 2325.6240234 7.0000000000 14.326000214 0.2509999871 2.3759999275 105.22947693 128.10731506 0.9369903803 29.022293091 0.9290000200 1.3849872351
 2325.7763672 7.0000000000 14.392999649 0.2509999871 2.3810000420 105.52899933 128.30999756 0.9309967756 29.204996109 0.8519999981 1.3769999743
 2325.9289551 7.0000000000 14.423999786 0.2509967983 2.3859999180 107.34072113 128.99507141 0.9290032387 29.203485489 0.7710000277 1.3729840517
 2326.0812988 7.0000000000 14.218000412 0.2500000000 2.3459999561 107.78969574 128.41766357 0.9299983978 29.355138779 0.7179999948 1.3629903793
 2326.2336426 7.0000000000 14.102999687 0.2500000000 2.3280000687 106.97495270 127.57799530 0.9289951921 29.442371368 0.8519999981 1.3570064306
 2326.3859863 7.0000000000 14.027000427 0.2500000000 2.3350000381 105.69799805 128.19000244 0.9260128140 29.673995972 0.9449999928 1.3609999418
 2326.5383301 7.0000000000 13.993000031 0.2500000000 2.3610000610 104.64499664 128.19200134 0.9340128303 29.672185898 0.9139999747 1.3669999838
 2326.6909180 7.0000000000 13.935000420 0.2500000000 2.3750000000 104.52054596 128.53816223 0.9420159459 29.787124634 0.8629999757 1.3720159531
 2326.8432617 7.0000000000 13.871000290 0.2500000000 2.3650000095 104.23436737 129.26167297 0.9470080137 29.825935364 0.8659999967 1.3820159435
 2326.9956055 7.0000000000 13.873000145 0.2500224411 2.3640000820 103.84100342 129.05700684 0.9520064592 29.786123276 0.9049999714 1.3919999599
 2327.1479492 7.0000000000 13.946000099 0.2639952004 2.3599998951 104.95899963 129.42399597 0.9559855461 29.862936020 0.9399999976 1.3860000372
 2327.3005371 7.0000000000 13.965000153 0.2609904110 2.3629999161 105.82728577 128.30061340 0.9469744563 29.821741104 0.9739999771 1.3809984922
 2327.4528809 7.0000000000 13.965000153 0.2579903603 2.3489999771 106.00325012 127.43852234 0.9390016198 29.740808487 0.8730000257 1.3799952269
 2327.6052246 7.0000000000 13.982000351 0.2520000041 2.3459999561 105.53784180 127.13750458 0.9400095940 29.621675491 0.7929999828 1.3770096302
 2327.7575684 7.0000000000 13.987000465 0.2519983947 2.3280000687 104.81400299 126.82900238 0.9460127950 29.419614792 0.8769999743 1.3830000162
 2327.9101563 7.0000000000 13.890000343 0.2509999871 2.3199999332 105.34958649 125.98968506 0.9540255666 29.178979874 0.9210000038 1.3980096579
 2328.0625000 7.0000000000 13.826000214 0.2509999871 2.3399999142 105.71717834 125.17487335 0.9620016217 28.860740662 0.9980000257 1.4039824009
 2328.2148438 7.0000000000 13.862999916 0.2509999871 2.3289999962 105.82514954 126.34722900 0.9629775882 28.698934555 1.0559999943 1.3929743767
 2328.3671875 7.0000000000 13.934000015 0.2509999871 2.3529999256 104.66799927 128.36000061 0.9489791393 28.658063889 1.0299999714 1.3769999743
 2328.5195313 7.0000000000 13.973999977 0.2509999871 2.3689999580 102.81900024 128.65299988 0.9360015988 28.697114944 1.0000000000 1.3639999628
 2328.6721191 7.0000000000 14.024999619 0.2509999871 2.3859999180 98.802856445 129.56224060 0.9370319843 28.769639969 0.7990000248 1.3500128984
 2328.8244629 7.0000000000 14.024999619 0.2509999871 2.3970000744 96.220382690 129.70930481 0.9470224380 28.969125748 0.8169999719 1.3580207825
 2328.9768066 7.0000000000 13.869000435 0.2509999871 2.4030001163 95.210998535 126.77700043 0.9610176682 29.047187805 0.8479999900 1.3710000515
 2329.1291504 7.0000000000 13.718000412 0.2509999871 2.3789999485 95.480003357 126.35800171 0.9720000029 29.164125443 0.8650000095 1.3739999533
