# LAS format log file from PETREL
# Project units are specified as depth units
#==================================================================
~Version information
VERS.   2.0:
WRAP.   NO:
#==================================================================
~Well
STRT .m      289.55999756 :
STOP .m      3317.9003906 :
STEP .m     0.00000000 :
NULL .        -999.250000 :
COMP.           : COMPANY
WELL.  16/9-1   : WELL
FLD.            : FIELD
LOC.            : LOCATION
SRVC.           : SERVICE COMPANY
DATE.  2018-09-11 14:48:12   : Log Export Date {yyyy-MM-dd HH:mm:ss}
PROV.           : PROVINCE
UWI.   16/9-1   : UNIQUE WELL ID
API.            : API NUMBER
#==================================================================
~Curve
DEPT .m                   : DEPTH
Lithology_geolink ._      : Lithology_geolink
CALI .in                  : CALI
DRHO .g/cm3               : DRHO
RHOB .g/cm3               : RHOB
GR .gAPI                  : GR
DTC .us/ft                : DTC
RDEP .ohm.m               : RDEP
SP .mV                    : SP
RSHA .ohm.m               : RSHA
RMED .ohm.m               : RMED
~Parameter
#==================================================================
~Ascii
# ...
 1322.2224121 19.000000000 12.628001213  -999.250000  -999.250000 41.526699066 154.76974487 0.6080384254 24.907869339 0.7521024346 0.8050224185
 1322.3747559 19.000000000 12.559000015  -999.250000  -999.250000 41.336505890 150.88130188 0.6320096254 24.825958252 0.8158589602 0.8190216422
 1322.5272217 19.000000000 12.449000359  -999.250000  -999.250000 39.467903137 148.75772095 0.6440032125 24.774070740 0.6401520967 0.8460544348
 1322.6795654 19.000000000 12.463999748  -999.250000  -999.250000 37.536556244 149.20335388 0.6460160613 24.818000793 0.7350769639 0.8800280690
 1322.8319092 19.000000000 12.517999649  -999.250000  -999.250000 36.984786987 149.63525391 0.6660144329 24.819004059 0.8311336637 0.9150032401
 1322.9843750 19.000000000 12.597000122  -999.250000  -999.250000 36.716976166 132.48115540 0.6840168238 24.823986053 0.9980384707 0.9189872146
 1323.1367188 19.000000000 12.592000008  -999.250000  -999.250000 36.689277649 143.90917969 0.7050167918 24.807561874 1.0465956926 0.9030048251
 1323.2891846 19.000000000 12.503999710  -999.250000  -999.250000 35.787136078 161.59191895 0.7259791493 24.259700775 1.7897243500 0.9089959860
 1323.4415283 19.000000000 12.522000313  -999.250000  -999.250000 34.709964752 161.49162292 0.6999895573 23.885339737 1.4455451965 0.9039719701
 1323.5939941 19.000000000 12.616000175  -999.250000  -999.250000 33.418701172 164.75608826 0.6869863272 23.061828613 0.8780016303 0.8689879775
 1323.7463379 19.000000000 12.916999817  -999.250000  -999.250000 31.797538757 174.85331726 0.6699727774 22.847566605 0.8799431324 0.8539999723
 1323.8988037 19.000000000 13.154999733  -999.250000  -999.250000 29.977777481 180.20535278 0.6359727383 23.554594040 0.8089839816 0.8540143967
 1324.0511475 19.000000000 13.350000381  -999.250000  -999.250000 31.086868286 160.46839905 0.6190320849 24.549219131 0.7989992499 0.8630064130
 1324.2036133 19.000000000 13.140999794  -999.250000  -999.250000 32.171436310 149.73905945 0.6590352058 24.823110580 0.7981536984 0.8710160255
 1324.3559570 19.000000000 12.996001244  -999.250000  -999.250000 33.068954468 149.77302551 0.6810151935 24.892015457 0.8939399123 0.8810144067
 1324.5084229 19.000000000 13.058000565  -999.250000  -999.250000 33.012111664 149.80706787 0.7000384331 24.911001205 0.8189023137 0.8990352154
 1324.6607666 19.000000000 13.203999519  -999.250000  -999.250000 32.456462860 149.84103394 0.7240248322 24.912147522 0.7579967976 0.9210192561
 1324.8131104 19.000000000 13.392000198  -999.250000  -999.250000 30.538833618 149.86488342 0.7550200224 25.095180511 0.7540079951 0.9450303912
 1324.9655762 19.000000000 13.567999840  -999.250000  -999.250000 29.081350327 137.26025391 0.7800151706 25.322227478 0.7639439106 0.9830272198
 1325.1179199 19.000000000 13.758999825  -999.250000  -999.250000 28.270198822 138.81562805 0.7990184426 25.606164932 0.6939191222 1.0170159340
 1325.2703857 19.000000000 13.975000381  -999.250000  -999.250000 27.270202637 138.35942078 0.8220248818 25.810104370 0.5930849314 1.0370039940
 1325.4227295 19.000000000 14.027999878  -999.250000  -999.250000 26.274509430 136.39837646 0.8530167937 25.942005157 0.6992898583 1.0420080423
 1325.5751953 19.000000000 14.063000679  -999.250000  -999.250000 25.662891388 134.37496948 0.8740000129 25.950065613 1.0607796907 1.0520304441
 1325.7275391 19.000000000 14.455000877  -999.250000  -999.250000 25.527282715 135.58651733 0.8739864230 26.031175613 0.7859976292 1.0900008678
 1325.8800049 19.000000000 14.439999580  -999.250000  -999.250000 25.880315781 138.73078918 0.8570480943 26.251300812 0.7829294801 1.0909790993
 1326.0323486 19.000000000 13.944000244  -999.250000  -999.250000 27.522098541 140.95066833 0.9170536995 26.627845764 0.6952900290 1.0649888515
 1326.1848145 19.000000000 13.366000175  -999.250000  -999.250000 28.891294479 138.02453613 0.9839839935 26.434440613 1.0569151640 1.0510191917
 1326.3371582 19.000000000 12.868000031  -999.250000  -999.250000 28.450498581 129.00154114 0.9739767313 26.085784912 1.0039077997 1.0630272627
 1326.4896240 19.000000000 12.821999550  -999.250000  -999.250000 27.823778152 120.95810699 0.9449118972 25.817852020 0.8892689943 1.0970624685
 1326.6419678 19.000000000 12.786999702  -999.250000  -999.250000 27.060762405 120.40562439 0.8899727464 25.725065231 1.0572140217 1.1360015869
 1326.7944336 19.000000000 12.762000084  -999.250000  -999.250000 26.764167786 124.94171143 0.8560272455 25.805774689 1.3244643211 1.1379280090
 1326.9467773 19.000000000 12.616000175  -999.250000  -999.250000 26.869798660 133.49996948 0.8730128407 25.664640427 1.6140096188 1.0929727554
 1327.0991211 19.000000000 12.510000229  -999.250000  -999.250000 27.867649078 143.43542480 0.8889815807 25.214126587 1.6254556179 1.0589784384
 1327.2515869 19.000000000 12.559999466  -999.250000  -999.250000 28.676561356 138.98110962 0.8659543395 24.124488831 0.9459070563 1.0319646597
 1327.4039307 19.000000000 12.569000244  -999.250000  -999.250000 29.377147675 139.10618591 0.8089463711 23.487140656 0.8301784992 0.9879751801
 1327.5563965 19.000000000 12.553999901  -999.250000  -999.250000 29.560152054 140.58593750 0.7419534922 23.664205551 1.0531883240 0.9569799900
 1327.7087402 19.000000000 12.574000359  -999.250000  -999.250000 29.750162125 141.74298096 0.6839888096 23.921072006 1.2882425785 0.9320079684
 1327.8612061 19.000000000 12.640000343  -999.250000  -999.250000 29.951303482 141.72529602 0.6700160503 24.011837006 1.5903428793 0.9420111775
 1328.0135498 19.000000000 12.795999527  -999.250000  -999.250000 29.081941605 140.84030151 0.6900072098 23.808643341 0.7709928155 0.9559903741
 1328.1660156 19.000000000 12.708999634  -999.250000  -999.250000 27.759988785 139.95457458 0.6989823580 23.363908768 0.7625236511 0.9439503551
 1328.3183594 19.000000000 12.534000397  -999.250000  -999.250000 25.880990982 139.07029724 0.6879848242 23.307079315 1.0891097784 0.9130055904
 1328.4708252 19.000000000 12.706000328  -999.250000  -999.250000 24.622211456 138.18458557 0.6690256596 23.405977249 1.2253594398 0.9200288653
 1328.6231689 19.000000000 12.782999992  -999.250000  -999.250000 24.131021500 137.30094910 0.6850376725 23.391551971 0.8259927630 0.9380064607
 1328.7756348 19.000000000 12.727001190  -999.250000  -999.250000 24.158288956 135.98971558 0.7320400476 22.831615448 0.8176565170 0.9460160136
 1328.9279785 19.000000000 12.591000557  -999.250000  -999.250000 24.338256836 133.94285583 0.7570152283 22.590896606 1.2273020744 0.9560248256
 1329.0803223 19.000000000 12.453000069  -999.250000  -999.250000 24.659250259 131.26066589 0.7760160565 22.462968826 1.6037309170 0.9870352149
 1329.2327881 19.000000000 12.458999634  -999.250000  -999.250000 24.971244812 125.86199951 0.7960160375 22.425937653 1.2679070234 1.0310176611
 1329.3851318 19.000000000 12.465000153  -999.250000  -999.250000 25.274780273 128.35972595 0.8160223961 22.348249435 1.1518838406 1.0529807806
 1329.5375977 19.000000000 12.472000122  -999.250000  -999.250000 25.000846863 129.27871704 0.8440127969 22.660039902 1.0072371960 1.0289752483
 1329.6899414 19.000000000 12.694000244  -999.250000  -999.250000 24.811235428 135.15454102 0.8599992394 23.957786560 1.3027901649 0.9980048537
 1329.8424072 19.000000000 12.954000473  -999.250000  -999.250000 25.103025436 135.82447815 0.8589863777 24.939252853 1.0408813953 1.0039999485
 1329.9947510 19.000000000 13.215999603  -999.250000  -999.250000 25.134889603 136.40589905 0.8419735432 25.255084991 0.8930144310 1.0039855242
 1330.1472168 19.000000000 13.288000107  -999.250000  -999.250000 24.997169495 136.28262329 0.8089023232 25.361684799 0.9110704660 0.9859808087
 1330.2995605 19.000000000 13.218999863  -999.250000  -999.250000 24.480167389 141.04647827 0.7479767799 25.789331436 0.9551209807 0.9740071893
 1330.4520264 19.000000000 13.397000313  -999.250000  -999.250000 24.692790985 147.87545776 0.7189615369 26.202522278 1.1059150696 0.9830079675
 1330.6043701 19.000000000 13.557999611  -999.250000  -999.250000 26.434217453 145.03472900 0.6949799657 26.528009415 1.0530648232 0.9879967570
