# LAS format log file from PETREL
# Project units are specified as depth units
#==================================================================
~Version information
VERS.   2.0:
WRAP.   NO:
#==================================================================
~Well
STRT .m      289.55999756 :
STOP .m      3317.9003906 :
STEP .m     0.00000000 :
NULL .        -999.250000 :
COMP.           : COMPANY
WELL.  16/9-1   : WELL
FLD.            : FIELD
LOC.            : LOCATION
SRVC.           : SERVICE COMPANY
DATE.  2018-09-11 14:48:12   : Log Export Date {yyyy-MM-dd HH:mm:ss}
PROV.           : PROVINCE
UWI.   16/9-1   : UNIQUE WELL ID
API.            : API NUMBER
#==================================================================
~Curve
DEPT .m                   : DEPTH
Lithology_geolink ._      : Lithology_geolink
CALI .in                  : CALI
DRHO .g/cm3               : DRHO
RHOB .g/cm3               : RHOB
GR .gAPI                  : GR
DTC .us/ft                : DTC
RDEP .ohm.m               : RDEP
SP .mV                    : SP
RSHA .ohm.m               : RSHA
RMED .ohm.m               : RMED
~Parameter
#==================================================================
~Ascii
# ...
 3310.7377930  -999.250000 17.257999420 -0.148000002 1.8719999790 15.935999870 69.486999512  -999.250000  -999.250000 13.208999634 194.83200073
 3310.8901367  -999.250000 17.339000702 -0.148009613 1.8839999437 15.656999588 69.452003479  -999.250000  -999.250000 2.7999999523 312.72100830
 3311.0424805  -999.250000 17.357000351 -0.154003203 1.8799999952 15.420000076 68.986999512  -999.250000  -999.250000 4.5799999237 408.99499512
 3311.1948242  -999.250000 17.388999939 -0.156003207 1.8710000515 15.427000046 69.011001587  -999.250000  -999.250000 6.2140002251 408.80398560
 3311.3471680  -999.250000 17.569999695 -0.157988787 1.8609999418 16.093999863 70.487998962  -999.250000  -999.250000 5.8400001526 360.14999390
 3311.4997559  -999.250000 17.906000137 -0.150983989 1.8439999819 16.075000763 69.730003357  -999.250000  -999.250000 4.1789999008 328.69100952
 3311.6520996  -999.250000 18.364000320 -0.145988777 1.8200000525 16.294000626 68.938003540  -999.250000  -999.250000 3.6080000401 420.24099731
 3311.8044434  -999.250000 18.291000366 -0.139014423 1.7840000391 17.702999115 68.669998169  -999.250000  -999.250000 2.6970000267 667.35797119
 3311.9567871  -999.250000 17.979000092 -0.148011222 1.7339999676 18.398000717 70.442001343  -999.250000  -999.250000 1.3350000381 665.71997070
 3312.1093750  -999.250000 17.243999481 -0.155035198 1.7730000019 17.665000916 80.314002991  -999.250000  -999.250000 0.6909999847 405.00601196
 3312.2617188  -999.250000 16.718000412 -0.165979162 1.8329999447 18.375999451 80.107002258  -999.250000  -999.250000 0.9769999981 368.58999634
 3312.4140625  -999.250000 16.323999405 -0.152974352 1.8839999437 18.104000092 74.083000183  -999.250000  -999.250000 1.6440000534 348.69601440
 3312.5664063  -999.250000 16.344999313 -0.136995181 1.9019999504 18.086000443 70.900001526  -999.250000  -999.250000 2.9990000725 298.22100830
 3312.7189941  -999.250000 16.431999207 -0.133964807 1.8849999905 17.312000275 68.150001526  -999.250000  -999.250000 4.5949997902 201.36900330
 3312.8713379  -999.250000 16.587999344 -0.122974366 1.8730000257 15.373999596 69.334999084  -999.250000  -999.250000 6.8740000725 93.144996643
 3313.0236816  -999.250000 16.809000015 -0.107020833 1.8609999418 13.133000374 68.740997314  -999.250000  -999.250000 20.926000595 68.442001343
 3313.1760254  -999.250000 17.065999985 -0.120036855 1.8229999542 12.295999527 69.537002563  -999.250000  -999.250000 24.718000412 68.396003723
 3313.3283691  -999.250000 17.399000168 -0.143003210 1.8090000153 12.277999878 71.185997009  -999.250000  -999.250000 16.253000259 122.20700073
 3313.4809570  -999.250000 17.819999695 -0.145025596 1.7960000038 13.928000450 87.858001709  -999.250000  -999.250000 6.8289999962 151.14999390
 3313.6333008  -999.250000 18.247999191 -0.153032050 1.7580000162 14.147999763 69.043998718  -999.250000  -999.250000 2.4400000572 199.45599365
 3313.7856445  -999.250000 17.711000443 -0.172961533 1.7029999495 14.130000114 75.721000671  -999.250000  -999.250000 3.2060000896 236.73199463
 3313.9379883  -999.250000 16.882999420 -0.148767635 1.7489999533 14.897000313 67.981002808  -999.250000  -999.250000 7.7210001945 220.31599426
 3314.0905762  -999.250000 15.663999557 -0.004000000 1.9099999666 16.305000305 73.927001953  -999.250000  -999.250000 11.607000351 182.96099854
 3314.2429199  -999.250000 15.129999161 -0.004000000 2.0060000420 16.461999893 97.420005798  -999.250000  -999.250000 32.477001190 135.96699524
 3314.3952637  -999.250000 14.897000313 -0.004000000 2.6140000820 16.205999374 80.244003296  -999.250000  -999.250000 13.522000313 118.66600037
 3314.5476074  -999.250000 15.237000465 -0.004000000 2.5850000381 15.951000214 74.078002930  -999.250000  -999.250000 9.5030002594 114.17400360
 3314.7001953  -999.250000 15.677000046 -0.004000000 2.4839999676 16.410999298 60.541000366  -999.250000  -999.250000 189.14300537 110.74400330
 3314.8525391  -999.250000 16.188999176 -0.004000000 2.2809998989 16.797000885 64.846000671  -999.250000  -999.250000 250.78900146 191.88499451
 3315.0048828  -999.250000 16.863000870 -0.004001603 2.0829999447 16.377000809 81.473999023  -999.250000  -999.250000 200.43200684 268.99798584
 3315.1572266  -999.250000 17.347000122 -0.005011218 1.9980000257 16.044000626 73.575996399  -999.250000  -999.250000 178.37699890 263.65399170
 3315.3095703  -999.250000 17.489000320 -0.012052884 1.9980000257 13.720999718 77.550994873  -999.250000  -999.250000 169.78999329 181.10600281
 3315.4621582  -999.250000 17.670999527 -0.046273600 1.9980000257 13.227000237 65.035003662  -999.250000  -999.250000 161.18099976 134.43400574
 3315.6145020  -999.250000 17.849000931 -0.443097740 1.9969999790 13.741999626 66.793998718  -999.250000  -999.250000 108.04000092 95.166999817
 3315.7668457  -999.250000 17.909999847 -0.504001617 1.9969999790 15.192999840 68.552001953  -999.250000  -999.250000 50.367000580 82.254997253
 3315.9191895  -999.250000 17.860000610 -0.504999995 1.9969999790 15.890000343 68.683998108  -999.250000  -999.250000 38.159000397 74.157997131
 3316.0717773  -999.250000 17.707000732 -0.504999995 1.9969999790 15.784999847 69.083000183  -999.250000  -999.250000 7.7439999580 69.327003479
 3316.2241211  -999.250000 17.656000137 -0.504998386 1.9969999790 15.531000137 69.926002502  -999.250000  -999.250000 3.7239999771 66.708000183
 3316.3764648  -999.250000 17.631000519 -0.503998399 1.9969999790 15.753000259 70.736000061  -999.250000  -999.250000 9.3570003510 65.407997131
 3316.5288086  -999.250000 17.642999649 -0.503000021 1.9969999790 13.722000122 71.025001526  -999.250000  -999.250000 15.739999771 65.706001282
 3316.6813965  -999.250000 17.579999924 -0.503000021 1.9969999790 11.064999580 71.260002136  -999.250000  -999.250000 7.2690000534 70.836997986
 3316.8337402  -999.250000 17.486999512 -0.502996802 1.9969999790 3.7500000000 70.963996887  -999.250000  -999.250000 12.114999771 76.297996521
 3316.9860840  -999.250000 17.461999893 -0.500551283 1.9989999533 2.3259999752 70.052001953  -999.250000  -999.250000 32.291000366 76.361999512
 3317.1384277  -999.250000 17.440999985 -0.220650643  -999.250000 2.3099999428 69.648002625  -999.250000  -999.250000 32.895000458 74.768997192
 3317.2907715  -999.250000 17.424999237 -0.002998397  -999.250000 2.2939999104 69.435997009  -999.250000  -999.250000 64.139999390 73.907997131
 3317.4433594  -999.250000 17.416999817  -999.250000  -999.250000 2.2769999504 69.682998657  -999.250000  -999.250000 51.074001312 69.578002930
 3317.5957031  -999.250000 17.246999741  -999.250000  -999.250000 2.2609999180 69.928001404  -999.250000  -999.250000 12.998000145 64.197998047
 3317.7480469  -999.250000 16.524000168  -999.250000  -999.250000  -999.250000 69.915000916  -999.250000  -999.250000 25.618999481 60.384998322
 3317.9003906  -999.250000 16.208000183  -999.250000  -999.250000  -999.250000 70.896003723  -999.250000  -999.250000 290.33300781 57.516998291
