# LAS format log file from PETREL
# Project units are specified as depth units
#==================================================================
~Version information
VERS.   2.0:
WRAP.   NO:
#==================================================================
~Well
STRT .m      289.55999756 :
STOP .m      3317.9003906 :
STEP .m     0.00000000 :
NULL .        -999.250000 :
COMP.           : COMPANY
WELL.  16/9-1   : WELL
FLD.            : FIELD
LOC.            : LOCATION
SRVC.           : SERVICE COMPANY
DATE.  2018-09-11 14:48:12   : Log Export Date {yyyy-MM-dd HH:mm:ss}
PROV.           : PROVINCE
UWI.   16/9-1   : UNIQUE WELL ID
API.            : API NUMBER
#==================================================================
~Curve
DEPT .m                   : DEPTH
Lithology_geolink ._      : Lithology_geolink
CALI .in                  : CALI
DRHO .g/cm3               : DRHO
RHOB .g/cm3               : RHOB
GR .gAPI                  : GR
DTC .us/ft                : DTC
RDEP .ohm.m               : RDEP
SP .mV                    : SP
RSHA .ohm.m               : RSHA
RMED .ohm.m               : RMED
~Parameter
#==================================================================
~Ascii
# ...
 733.34875488 6.0000000000 11.970998764  -999.250000  -999.250000 76.909843445 157.89398193 1.3039952517 14.120012283 1.7520015240 1.8109891415
 733.50115967 6.0000000000 11.970998764  -999.250000  -999.250000 76.184753418 159.54985046 1.2919971943 14.151009560 1.7540247440 1.8019940853
 733.65356445 6.0000000000 11.972000122  -999.250000  -999.250000 75.564514160 160.27969360 1.2849984169 14.175963402 1.7851136923 1.7969964743
 733.80596924 6.0000000000 11.972000122  -999.250000  -999.250000 74.823448181 160.85258484 1.2809988260 14.085003853 1.9268559217 1.7940000296
 733.95837402 6.0000000000 11.963998795  -999.250000  -999.250000 74.552070618 161.33535767 1.2779964209 14.095020294 1.7469310760 1.7940000296
 734.11077881 6.0000000000 11.958000183  -999.250000  -999.250000 75.082992554 160.93287659 1.2689944506 14.145008087 1.6610112190 1.7939984798
 734.26318359 6.0000000000 11.954000473  -999.250000  -999.250000 75.079574585 161.47946167 1.2549967766 14.163014412 1.6750303507 1.7929919958
 734.41558838 5.0000000000 11.953000069  -999.250000  -999.250000 74.866401672 161.76856995 1.2469964027 14.199021339 1.7130216360 1.7879807949
 734.56799316 5.0000000000 11.953000069  -999.250000  -999.250000 74.569107056 162.12617493 1.2379964590 14.252070427 1.7308449745 1.7759808302
 734.72039795 5.0000000000 11.953000069  -999.250000  -999.250000 74.124740601 162.85719299 1.2290132046 14.428008080 1.6020252705 1.7639856339
 734.87280273 5.0000000000 11.954000473  -999.250000  -999.250000 73.497215271 163.59976196 1.2619999647 14.448041916 1.6230733395 1.7549935579
 735.02520752 5.0000000000 11.954000473  -999.250000  -999.250000 72.604148865 164.08297729 1.2619991302 14.499999046 1.6840012074 1.7510129213
 735.17761230 5.0000000000 11.954000473  -999.250000  -999.250000 71.678474426 164.08180237 1.2610000372 14.499043465 1.6850647926 1.7590128183
 735.32995605 5.0000000000 11.953000069  -999.250000  -999.250000 70.918197632 163.94441223 1.2610008717 14.553990364 1.7389078140 1.7670023441
 735.48236084 5.0000000000 11.947999954  -999.250000  -999.250000 71.043853760 163.44839478 1.2630088329 14.529927254 1.6239831448 1.7690036297
 735.63476563 5.0000000000 11.942000389  -999.250000  -999.250000 71.971672058 162.93426514 1.2850099802 14.348966599 1.6030056477 1.7720059156
 735.78717041 5.0000000000 11.935999870  -999.250000  -999.250000 73.805465698 162.32824707 1.3100099564 14.264959335 1.6099984646 1.7770179510
 735.93957520 5.0000000000 11.935000420  -999.250000  -999.250000 75.533073425 161.70199585 1.3350100517 14.162975311 1.6079552174 1.7920480967
 736.09197998 6.0000000000 11.939000130  -999.250000  -999.250000 76.567695618 161.07598877 1.3600100279 14.100953102 1.5520288944 1.8220512867
 736.24438477 6.0000000000 11.957000732  -999.250000  -999.250000 76.912788391 160.44999695 1.3850091696 13.983960152 1.5879944563 1.8540352583
 736.39678955 5.0000000000 11.975999832  -999.250000  -999.250000 76.803665161 159.82473755 1.4080052376 13.884977341 1.5810191631 1.8760144711
 736.54919434 5.0000000000 11.996000290  -999.250000  -999.250000 75.637664795 159.66583252 1.4210028648 13.826990128 1.5970156193 1.8849999905
 736.70159912 5.0000000000 12.007999420  -999.250000  -999.250000 74.470825195 159.56208801 1.4280023575 13.801999092 1.6100000143 1.8849920034
 736.85400391 5.0000000000 12.015999794  -999.250000  -999.250000 73.387557983 158.99105835 1.4340056181 13.800008774 1.6101009846 1.8800015450
 737.00640869 5.0000000000 12.015999794  -999.250000  -999.250000 73.668884277 158.40011597 1.4410055876 13.811056137 1.6940792799 1.8810176849
 737.15881348 5.0000000000 12.015999794  -999.250000  -999.250000 74.612121582 157.84913635 1.4480015039 13.881092072 1.7599747181 1.8920191526
 737.31115723 5.0000000000 12.017000198  -999.250000  -999.250000 76.168930054 157.30334473 1.4499984980 13.996052742 1.7389302254 1.9040060043
 737.46356201 6.0000000000 12.017000198  -999.250000  -999.250000 77.374099731 156.76327515 1.4459971189 14.127067566 1.6520119905 1.9089976549
 737.61596680 6.0000000000 12.017999649  -999.250000  -999.250000 78.058799744 156.15936279 1.4389932156 14.295007706 1.6670633554 1.9069890976
 737.76837158 6.0000000000 12.022000313  -999.250000  -999.250000 77.960655212 156.46154785 1.4219903946 14.313000679 1.7460088730 1.8979903460
 737.92077637 6.0000000000 12.029000282  -999.250000  -999.250000 77.790138245 156.91706848 1.3979908228 14.314971924 1.7569943666 1.8899843693
 738.07318115 6.0000000000 12.036999702  -999.250000  -999.250000 78.852561951 157.80648804 1.3749911785 14.244953156 1.7499703169 1.8769663572
 738.22558594 5.0000000000 12.038000107  -999.250000  -999.250000 78.631782532 158.74372864 1.3529947996 14.127971649 1.7129920721 1.8559614420
 738.37799072 5.0000000000 12.038000107  -999.250000  -999.250000 77.025726318 159.81484985 1.3399959803 14.055982590 1.7030119896 1.8319615126
 738.53039551 5.0000000000 12.038000107  -999.250000  -999.250000 75.393531799 160.34428406 1.3299959898 14.011984825 1.7180132866 1.8079791069
 738.68280029 5.0000000000 12.038000107  -999.250000  -999.250000 74.160758972 159.90095520 1.3199964762 13.974967957 1.7289807796 1.7950031757
 738.83520508 5.0000000000 12.039000511  -999.250000  -999.250000 74.536033630 159.24893188 1.3109967709 13.894024849 1.7129015923 1.7970209122
 738.98760986 5.0000000000 12.039000511  -999.250000  -999.250000 74.050666809 158.58288574 1.3029952049 13.955982208 1.6310060024 1.8100191355
 739.14001465 5.0000000000 12.057999611  -999.250000  -999.250000 72.887657166 157.89210510 1.2970032692 13.932940483 1.6359628439 1.8220064640
 739.29241943 5.0000000000 12.093001366  -999.250000  -999.250000 72.719085693 157.95654297 1.3010056019 13.858961105 1.6049735546 1.8259903193
 739.44476318 6.0000000000 12.109000206  -999.250000  -999.250000 73.261451721 158.29930115 1.3080019951 13.809972763 1.5830583572 1.8199903965
 739.59716797 6.0000000000 12.119000435  -999.250000  -999.250000 75.413833618 158.55117798 1.3130007982 13.739968300 1.6560504436 1.8119891882
 739.74957275 6.0000000000 12.119000435  -999.250000  -999.250000 76.325416565 158.70895386 1.3149980307 13.661989212 1.7189687490 1.8029975891
 739.90197754 6.0000000000 12.112000465  -999.250000  -999.250000 76.534049988 158.66696167 1.3099970818 13.636027336 1.6800063848 1.8010096550
 740.05438232 6.0000000000 12.099999428  -999.250000  -999.250000 76.561714172 158.62477112 1.3029984236 13.706008911 1.6880128384 1.8090096712
 740.20678711 6.0000000000 12.107999802  -999.250000  -999.250000 76.419097900 159.10789490 1.2989996672 13.726984978 1.7039567232 1.8150064945
 740.35919189 6.0000000000 12.116000175  -999.250000  -999.250000 75.970596313 159.67269897 1.2980011702 13.687998772 1.6499935389 1.8189959526
 740.51159668 6.0000000000 12.124000549  -999.250000  -999.250000 75.269531250 160.11256409 1.3010028601 13.685000420 1.6420288086 1.8169859648
 740.66400146 6.0000000000 12.131999969  -999.250000  -999.250000 74.534095764 160.46519470 1.3080028296 13.684997559 1.6660264730 1.8099899292
 740.81640625 6.0000000000 12.140000343  -999.250000  -999.250000 74.584182739 160.59300232 1.3150029182 13.679012299 1.6879795790 1.8050059080
 740.96881104 6.0000000000 12.133000374  -999.250000  -999.250000 75.177589417 160.59072876 1.3220032454 13.711039543 1.6710312366 1.8080240488
 741.12121582 6.0000000000 12.126000404  -999.250000  -999.250000 76.467109680 160.41967773 1.3260031939 13.760054588 1.6970096827 1.8200321198
 741.27362061 6.0000000000 12.118000031  -999.250000  -999.250000 76.019500732 160.21609497 1.3300096989 13.828021049 1.7049267292 1.8360300064
 741.42596436 6.0000000000 12.109999657  -999.250000  -999.250000 75.270050049 160.27011108 1.3420044184 13.854010582 1.6440000534 1.8510191441
 741.57836914 6.0000000000 12.102999687  -999.250000  -999.250000 75.301780701 160.36213684 1.3530040979 13.881028175 1.6440553665 1.8630176783
 741.73077393 6.0000000000 12.116000175  -999.250000  -999.250000 75.787826538 160.47412109 1.3630036116 13.951987267 1.7130064964 1.8739979267
