# LAS format log file from PETREL
# Project units are specified as depth units
#==================================================================
~Version information
VERS.   2.0:
WRAP.   NO:
#==================================================================
~Well
STRT .m      289.55999756 :
STOP .m      3317.9003906 :
STEP .m     0.00000000 :
NULL .        -999.250000 :
COMP.           : COMPANY
WELL.  16/9-1   : WELL
FLD.            : FIELD
LOC.            : LOCATION
SRVC.           : SERVICE COMPANY
DATE.  2018-09-11 14:48:12   : Log Export Date {yyyy-MM-dd HH:mm:ss}
PROV.           : PROVINCE
UWI.   16/9-1   : UNIQUE WELL ID
API.            : API NUMBER
#==================================================================
~Curve
DEPT .m                   : DEPTH
Lithology_geolink ._      : Lithology_geolink
CALI .in                  : CALI
DRHO .g/cm3               : DRHO
RHOB .g/cm3               : RHOB
GR .gAPI                  : GR
DTC .us/ft                : DTC
RDEP .ohm.m               : RDEP
SP .mV                    : SP
RSHA .ohm.m               : RSHA
RMED .ohm.m               : RMED
~Parameter
#==================================================================
~Ascii
# ...
 2115.9216309 13.000000000 13.166998863 0.2500000000 2.4560000896 59.313999176 122.75000000 1.1190800667 24.556074142 0.7580000162 1.3799999952
 2116.0739746 13.000000000 12.641999245 0.2500000000 2.4609999657 60.300998688 114.17800140 1.1690096855 24.603183746 0.7789999843 1.3830000162
 2116.2265625 13.000000000 12.329000473 0.2500000000 2.5109999180 62.261531830 111.87354279 1.1747759581 24.717102051 1.0457836390 1.3919855356
 2116.3789063 13.000000000 12.446000099 0.2500000000 2.5369999409 63.842174530 116.56120300 1.1049391031 24.748935699 0.9107500315 1.3829808235
 2116.5312500 13.000000000 12.630000114 0.2500000000 2.4930000305 65.197189331 109.83409882 1.0669664145 24.708898544 0.7551344037 1.3709696531
 2116.6835938 13.000000000 12.656000137 0.2500000000 2.4549999237 65.940002441 111.76699829 1.0459696054 24.645778656 0.8389999866 1.3519999981
 2116.8361816 13.000000000 12.506999969 0.2500031888 2.4530000687 67.203704834 113.64465332 1.0269072056 24.507743835 0.9942981005 1.3409631252
 2116.9885254 13.000000000 12.357000351 0.2509999871 2.4849998951 68.891670227 122.16094971 0.9979262948 24.427980423 1.1800079346 1.3179599047
 2117.1408691 13.000000000 12.305000305 0.2509999871 2.5539999008 70.556793213 128.36016846 0.9519199133 24.416273117 1.1842879057 1.2929680347
 2117.2932129 13.000000000 12.369001389 0.2509999871 2.4990000725 71.676002502 129.71299744 0.9019423127 24.586126328 0.7400000095 1.2730000019
 2117.4455566 13.000000000 12.399000168 0.2509999871 2.4140000343 71.319000244 127.36399841 0.8659695387 24.664901733 0.7340000272 1.2560000420
 2117.5979004 13.000000000 12.574999809 0.2509999871 2.4269793034 71.394996643 127.26000214 0.8469920158 24.603096008 0.7250000238 1.2400000095
 2117.7502441 13.000000000 12.380999565 0.2509999871 2.4250030518 71.724998474 128.82400513 0.8420000076 24.663000107 0.7319999933 1.2280000448
 2117.9028320 13.000000000 11.968999863 0.2509999871 2.4270000458 73.713996887 127.86900330 0.8530320525 24.745315552 0.6779999733 1.2200000286
 2118.0551758 13.000000000 11.730999947 0.2509999871 2.4330000877 75.323997498 132.10200500 0.8730192780 24.941064835 0.6629999876 1.2200000286
 2118.2075195 13.000000000 11.784999847 0.2510015965 2.3940625191 76.189002991 135.13099670 0.8850095868 24.981063843 0.6719999909 1.2280000448
 2118.3598633 13.000000000 11.947999954 0.2520000041 2.3720352650 76.092002869 132.47000122 0.8909999728 25.020000458 0.6579999924 1.2389999628
 2118.5122070 13.000000000 12.226000786 0.2520000041 2.3919680119 75.624000549 129.77900696 0.8989999890 25.075000763 0.6480000019 1.2560000420
 2118.6647949 13.000000000 12.355998993 0.2520000041 2.4010000229 75.531997681 125.57199860 0.9080336690 25.074935913 0.6219999790 1.2690000534
 2118.8171387 13.000000000 12.159999847 0.2520000041 2.4798736572 76.038002014 121.89800262 0.9290671945 25.034999847 0.6800000072 1.2760000229
 2118.9694824 13.000000000 12.062998772 0.2520000041 2.5528829098 77.349998474 122.93399811 0.9710000157 25.034999847 0.8040000200 1.2760000229
 2119.1218262 13.000000000 12.134000778 0.2520000041 2.5529999733 76.681999207 125.94799805 1.0010000467 25.075000763 0.8009999990 1.2769999504
 2119.2744141 13.000000000 12.144000053 0.2520000041 2.5190000534 75.458000183 127.82099915 1.0149919987 25.062000275 0.7960000038 1.2840000391
 2119.4267578 13.000000000 12.062998772 0.2520000041 2.5139999390 74.113998413 125.15300751 1.0099711418 25.061958313 0.7900000215 1.2879999876
 2119.5791016 13.000000000 12.012000084 0.2520000041 2.5179934502 72.531997681 122.91200256 0.9919615984 25.035934448 0.7450000048 1.2920000553
 2119.7314453 13.000000000 12.005000114 0.2520000041 2.5150048733 70.721000671 117.87000275 0.9679999948 24.996000290 0.7020000219 1.2899999619
 2119.8840332 13.000000000 12.003999710 0.2529999912 2.5030000210 70.276000977 117.13099670 0.9559967518 25.022935867 0.7469999790 1.2869999409
 2120.0363770 13.000000000 12.029999733 0.2529999912 2.4979999065 70.068000793 117.24900055 0.9540112019 24.983085632 0.7950000167 1.2799999714
 2120.1887207 13.000000000 12.112999916 0.2529999912 2.5029919147 69.938003540 116.67199707 0.9610144496 25.036260605 0.8240000010 1.2749999762
 2120.3410645 13.000000000 12.206000328 0.2529999912 2.5169775486 69.986999512 122.85099792 0.9700000286 25.198999405 0.8180000186 1.2599999905
 2120.4934082 13.000000000 12.204000473 0.2529999912 2.5010256767 70.163002014 128.31900024 0.9769999981 25.291000366 0.7329999804 1.2500000000
 2120.6459961 13.000000000 12.170000076 0.2530096173 2.4440000057 71.688003540 130.68200684 0.9809920192 25.354999542 0.6359999776 1.2519999743
 2120.7983398 13.000000000 12.175999641 0.2590064108 2.4260289669 72.388999939 132.41000366 0.9759840369 25.354934692 0.6710000038 1.2569999695
 2120.9506836 13.000000000 12.203000069 0.2630000114 2.4329888821 71.004997253 119.35700226 0.9660000205 25.315000534 0.7129999995 1.2769999504
 2121.1030273 13.000000000 12.223999977 0.2529999912 2.4679439068 69.415000916 114.78099823 0.9649999738 25.304000854 0.7170000076 1.2840000391
 2121.2556152 13.000000000 12.191999435 0.2529999912 2.4949998856 67.739997864 114.57099915 0.9750176668 25.383810043 0.7469999790 1.2869999409
 2121.4079590 13.000000000 12.180999756 0.2529983819 2.4990000725 66.999000549 111.87100220 0.9860224128 25.265064240 0.7900000215 1.2829999924
 2121.5603027 13.000000000 12.095999718 0.2520000041 2.4960048199 67.212997437 114.37300110 0.9999744296 25.305158615 0.7940000296 1.2699999809
 2121.7126465 13.000000000 11.930000305 0.2520000041 2.4690432549 68.967002869 127.69799805 0.9840000272 25.403999329 0.7689999938 1.2500000000
 2121.8652344 13.000000000 11.784000397 0.2520000041 2.4779999256 71.234001160 130.49099731 0.9529567361 25.605094910 0.7509999871 1.2339999676
 2122.0175781 13.000000000 11.774000168 0.2520208359 2.4979999065 73.569999695 130.82800293 0.9259631634 25.664289474 0.7129999995 1.2300000191
 2122.1699219 13.000000000 11.788999557 0.2650047839 2.4790306091 74.938003540 130.25799561 0.9029775858 25.844964981 0.7689999938 1.2269999981
 2122.3222656 13.000000000 11.777000427 0.2680000067 2.4770030975 75.809997559 127.25499725 0.8889999986 25.823999405 0.7509999871 1.2209999561
 2122.4746094 13.000000000 11.748000145 0.2560000122 2.4859857559 76.100997925 126.07900238 0.8799999952 25.864000320 0.6809999943 1.2109999657
 2122.6271973 13.000000000 11.718999863 0.2520000041 2.4890000820 76.219001770 127.10600281 0.8739871979 25.792985916 0.7070000172 1.2109999657
 2122.7795410 13.000000000 11.880000114 0.2520000041 2.5009806156 76.141998291 126.71600342 0.8659824133 25.784885406 0.6949999928 1.2150000334
 2122.9318848 13.000000000 12.109999657 0.2520000041 2.4840271473 75.341003418 127.19200134 0.8550000191 25.714000702 0.7689999938 1.2220000029
 2123.0842285 13.000000000 12.361000061 0.2520000041 2.4670271873 74.613998413 128.93899536 0.8479999900 25.785999298 0.7789999843 1.2230000496
 2123.2368164 13.000000000 12.480999947 0.2520000041 2.4730000496 73.950996399 130.04200745 0.8429967761 25.746040344 0.7049999833 1.2170000076
 2123.3891602 13.000000000 12.227000237 0.2520000041 2.4590001106 74.671997070 130.59300232 0.8409984112 25.770973206 0.6940000057 1.2150000334
 2123.5415039 13.000000000 12.057000160 0.2520000041 2.4570031166 75.189002991 130.71000671 0.8399999738 25.753999710 0.6940000057 1.2130000591
 2123.6938477 13.000000000 12.069001198 0.2520000041 2.4649870396 74.675003052 130.75199890 0.8360000253 25.819000244 0.6880000234 1.2029999495
 2123.8464355 13.000000000 12.001999855 0.2519983947 2.4700000286 74.044998169 128.99099731 0.8360128403 25.907297134 0.6769999862 1.1950000525
 2123.9987793 13.000000000 12.059000969 0.2509999871 2.4470000267 73.345001221 127.78500366 0.8440111876 26.092914581 0.6940000057 1.1950000525
 2124.1511230 13.000000000 12.204000473 0.2509999871 2.4609775543 73.467002869 125.66699982 0.8510112166 26.038915634 0.7210000157 1.1950000525
 2124.3034668 13.000000000 12.196000099 0.2509999871 2.4849615097 72.935997009 124.33399963 0.8579999804 25.986999512 0.7340000272 1.1909999847
