# LAS format log file from PETREL
# Project units are specified as depth units
#==================================================================
~Version information
VERS.   2.0:
WRAP.   NO:
#==================================================================
~Well
STRT .m      289.55999756 :
STOP .m      3317.9003906 :
STEP .m     0.00000000 :
NULL .        -999.250000 :
COMP.           : COMPANY
WELL.  16/9-1   : WELL
FLD.            : FIELD
LOC.            : LOCATION
SRVC.           : SERVICE COMPANY
DATE.  2018-09-11 14:48:12   : Log Export Date {yyyy-MM-dd HH:mm:ss}
PROV.           : PROVINCE
UWI.   16/9-1   : UNIQUE WELL ID
API.            : API NUMBER
#==================================================================
~Curve
DEPT .m                   : DEPTH
Lithology_geolink ._      : Lithology_geolink
CALI .in                  : CALI
DRHO .g/cm3               : DRHO
RHOB .g/cm3               : RHOB
GR .gAPI                  : GR
DTC .us/ft                : DTC
RDEP .ohm.m               : RDEP
SP .mV                    : SP
RSHA .ohm.m               : RSHA
RMED .ohm.m               : RMED
~Parameter
#==================================================================
~Ascii
# ...
 1723.3392334 11.000000000 14.248000145 0.2659952044 2.5920000076 18.638265610 88.872245789 0.9569591880 16.984123230 1.4951065779 1.3270056248
 1723.4915771 11.000000000 14.265000343 0.2639791667 2.5999999046 18.968839645 89.173744202 0.9399727583 17.036239624 1.6279935837 1.3339991570
 1723.6440430 11.000000000 14.255999565 0.2509687543 2.5769999027 18.770074844 90.107490540 0.9229567647 17.186233521 1.6199126244 1.3329967260
 1723.7963867 11.000000000 14.267000198 0.2379919887 2.5460000038 18.864728928 90.714286804 0.9049935341 17.282995224 1.5110008717 1.3289976120
 1723.9488525 11.000000000 14.293000221 0.2329735756 2.5230000019 19.775215149 91.079124451 0.9010144472 17.279474258 1.5117844343 1.3260008097
 1724.1011963 11.000000000 14.307999611 0.2219695598 2.5179998875 20.043928146 91.233161926 0.9070464969 17.060611725 1.2429143190 1.3270071745
 1724.2536621 11.000000000 14.293000221 0.2030023932 2.5000000000 19.950269699 88.936996460 0.9360720515 16.817716599 1.1362210512 1.3360288143
 1724.4060059 11.000000000 14.270000458 0.2040288448 2.5190000534 18.247932434 85.814338684 0.9660705328 16.699937820 1.2741250992 1.3540232182
 1724.5584717 11.000000000 14.234999657 0.2220264226 2.5350000858 16.915887833 84.985198975 1.0101057291 16.661159515 1.4298958778 1.3830769062
 1724.7108154 11.000000000 14.201999664 0.2330064029 2.5580000877 16.223403931 84.487510681 1.0541507006 16.728370667 1.3654286861 1.4310480356
 1724.8632813 11.000000000 14.185998917 0.2369711846 2.5929999352 16.729423523 85.126014709 1.1482546329 16.959487915 1.9003987312 1.4910897017
 1725.0156250 11.000000000 14.156000137 0.2249951810 2.6050000191 17.617208481 87.006561279 1.2541682720 17.162305832 2.1491394043 1.5470433235
 1725.1679688 11.000000000 14.166000366 0.2220192254 2.6280000210 17.876155853 86.453216553 1.3591600657 17.352172852 2.3230807781 1.6010376215
 1725.3204346 11.000000000 14.182001114 0.2340144217 2.6470000744 18.072093964 85.470542908 1.4591313601 17.460245132 2.4241170883 1.6480168104
 1725.4727783 11.000000000 14.184000015 0.2430288494 2.6600000858 18.188211441 84.902984619 1.5410641432 17.614263535 2.5699293613 1.6690008640
 1725.6252441 11.000000000 14.175000191 0.2610024214 2.6640000343 18.452184677 86.134658813 1.5809206963 17.778404236 2.4815185070 1.6699999571
 1725.7775879 11.000000000 14.173999786 0.2619615197 2.6500000954 18.682914734 88.201248169 1.5478044748 17.946563721 1.8814251423 1.6699903011
 1725.9300537 11.000000000 14.197999954 0.2379663736 2.6099998951 18.576002121 88.509529114 1.4257621765 18.297700882 2.4117419720 1.6579903364
 1726.0823975 11.000000000 14.204999924 0.2239791751 2.5789999962 18.579082489 87.920341492 1.3269279003 18.172655106 2.0900535583 1.6459896564
 1726.2348633 11.000000000 14.195999146 0.2110600471 2.5599999428 18.681238174 84.603958130 1.2819639444 17.957553864 2.1567628384 1.6329928637
 1726.3872070 11.000000000 14.213999748 0.2360064089 2.5829999447 18.978227615 83.291458130 1.2669807673 17.771741867 1.8608565331 1.6239839792
 1726.5396729 11.000000000 14.234999657 0.2399807721 2.5789999962 19.262264252 82.613914490 1.2549784184 17.610321045 1.6820961237 1.6039775610
 1726.6920166 11.000000000 14.236000061 0.2319951802 2.5639998913 19.427865982 83.808593750 1.2459776402 17.327514648 1.7421081066 1.5899896622
 1726.8444824 11.000000000 14.236000061 0.2290432304 2.5690000057 19.260379791 83.300605774 1.2319422960 17.025861740 1.8772177696 1.5769840479
 1726.9968262 11.000000000 14.225000381 0.2470128089 2.5929999352 18.874259949 83.676559448 1.2079037428 16.968997955 2.0127420425 1.5669879913
 1727.1492920 11.000000000 14.175000191 0.2550144196 2.6180000305 19.197454453 84.371025085 1.1478319168 16.968057632 1.6916277409 1.5519711971
 1727.3016357 11.000000000 14.065999985 0.2609727681 2.6110000610 19.481117249 84.385330200 1.0779037476 16.992198944 2.0831995010 1.5339752436
 1727.4539795 11.000000000 14.020000458 0.2440000027 2.5880000591 19.625759125 84.800338745 1.0179151297 17.116262436 2.3315188885 1.5029784441
 1727.6064453 11.000000000 14.000000000 0.2439783812 2.5590000153 19.326581955 86.468093872 0.9649134874 17.280231476 1.7306345701 1.4759783745
 1727.7587891 11.000000000 14.000000000 0.2350080162 2.5179998875 18.805269241 86.581497192 0.9289776087 17.375953674 1.2750432491 1.4489799738
 1727.9112549 11.000000000 14.001000404 0.2400120050 2.5060000420 17.893178940 87.205680847 0.9149928093 17.347654343 1.3288998604 1.4239959717
 1728.0635986 11.000000000 14.001000404 0.2449519336 2.5150001049 16.870046616 89.302085876 0.9120112062 17.204040527 1.2040704489 1.4190032482
 1728.2160645 11.000000000 13.980999947 0.2150600553 2.5090000629 15.678616524 89.394165039 0.9191008806 17.228538513 1.2921707630 1.4230215549
 1728.3684082 11.000000000 13.970000267 0.2400352508 2.5429999828 15.199892044 89.604087830 0.9611105919 17.037117004 1.5050736666 1.4500297308
 1728.5208740 11.000000000 13.861000061 0.2619687617 2.5910000801 15.067205429 89.712295532 1.0302809477 17.110101700 1.5975828171 1.4870640039
 1728.6732178 11.000000000 13.791000366 0.2489999980 2.6259999275 15.819378853 87.403259277 1.1471185684 17.152015686 1.9613957405 1.5270240307
 1728.8256836 11.000000000 13.652999878 0.2490312159 2.6440000534 16.291269302 83.989456177 1.2213265896 17.161264420 2.4543530941 1.5570896864
 1728.9780273 11.000000000 13.588999748 0.2619470954 2.6370000839 16.459394455 82.406517029 1.3570673466 17.270874023 2.0513310432 1.6130512953
 1729.1304932 11.000000000 13.498999596 0.2290480435 2.6310000420 16.953058243 81.807846069 1.3989712000 17.192192078 2.4643809795 1.6770528555
 1729.2828369 11.000000000 13.430999756 0.2490112185 2.6510000229 17.613870621 82.958976746 1.3869390488 17.272174835 2.7018790245 1.7100032568
 1729.4351807 11.000000000 13.380999565 0.2559775710 2.6349999905 18.699634552 84.173385620 1.3488942385 17.381338120 2.5506887436 1.7139855623
 1729.5876465 11.000000000 13.324000359 0.2419807762 2.6029999256 19.493452072 84.659103394 1.2829086781 17.591806412 2.1617538929 1.6959807873
 1729.7399902 11.000000000 13.288000107 0.2339999974 2.5720000267 20.057691574 84.792594910 1.2449502945 17.511758804 1.8548231125 1.6719768047
 1729.8924561 11.000000000 13.262001038 0.2339735776 2.5580000877 19.671772003 84.286788940 1.2139447927 17.361501694 1.6339293718 1.6429855824
 1730.0447998 11.000000000 13.251000404 0.2230064124 2.5520000458 19.387149811 85.262336731 1.1909823418 17.154775620 1.5460848808 1.6249952316
 1730.1972656 11.000000000 13.223999977 0.2269807756 2.5650000572 19.576225281 84.430450439 1.1800215244 17.013862610 1.6521883011 1.6190063953
 1730.3496094 11.000000000 13.206000328 0.2189839780 2.5880000591 19.856266022 84.991432190 1.1890352964 16.957002640 1.8872002363 1.6270087957
 1730.5020752 11.000000000 13.218999863 0.2090216279 2.5889999866 20.186876297 85.531303406 1.2110984325 16.958122253 2.1376149654 1.6380208731
 1730.6544189 11.000000000 13.204999924 0.2180144191 2.5980000496 20.110054016 86.975059509 1.2520992756 17.009590149 2.5207073689 1.6510273218
 1730.8068848 11.000000000 13.201999664 0.2270384282 2.5899999142 20.176521301 87.046333313 1.3141320944 17.377508163 2.1562032700 1.6850383282
 1730.9592285 11.000000000 13.252000809 0.2429855764 2.5910000801 20.500514984 85.381874084 1.3690528870 17.588012695 2.2828013897 1.7090167999
 1731.1116943 11.000000000 13.267999649 0.2339759767 2.5820000172 19.894598007 83.959472656 1.4020648003 17.595724106 2.0348863602 1.7300080061
 1731.2640381 11.000000000 13.263999939 0.2240048200 2.5829999447 19.021207809 82.385185242 1.4290208817 17.480804443 1.9640368223 1.7350000143
 1731.4163818 11.000000000 13.260000229 0.2270112187 2.5859999657 19.279943466 82.622200012 1.4419968128 17.358127594 2.0100431442 1.7349903584
 1731.5688477 11.000000000 13.253000259 0.2339687794 2.6029999256 19.208602905 84.123168945 1.4399735928 17.438199997 2.0641071796 1.7229896784
 1731.7211914 11.000000000 13.243000031 0.2210288495 2.5950000286 18.713642120 84.333168030 1.4289791584 17.521203995 2.1980566978 1.7099879980
