# LAS format log file from PETREL
# Project units are specified as depth units
#==================================================================
~Version information
VERS.   2.0:
WRAP.   NO:
#==================================================================
~Well
STRT .m      289.55999756 :
STOP .m      3317.9003906 :
STEP .m     0.00000000 :
NULL .        -999.250000 :
COMP.           : COMPANY
WELL.  16/9-1   : WELL
FLD.            : FIELD
LOC.            : LOCATION
SRVC.           : SERVICE COMPANY
DATE.  2018-09-11 14:48:12   : Log Export Date {yyyy-MM-dd HH:mm:ss}
PROV.           : PROVINCE
UWI.   16/9-1   : UNIQUE WELL ID
API.            : API NUMBER
#==================================================================
~Curve
DEPT .m                   : DEPTH
Lithology_geolink ._      : Lithology_geolink
CALI .in                  : CALI
DRHO .g/cm3               : DRHO
RHOB .g/cm3               : RHOB
GR .gAPI                  : GR
DTC .us/ft                : DTC
RDEP .ohm.m               : RDEP
SP .mV                    : SP
RSHA .ohm.m               : RSHA
RMED .ohm.m               : RMED
~Parameter
#==================================================================
~Ascii
# ...
 1919.6303711 13.000000000 14.267998695 0.2489999980 2.6569960117 52.204677582 91.187126160 1.6279855967 22.590990067 1.3669999838 1.8829703331
 1919.7827148 13.000000000 14.276000023 0.2489999980 2.6609935760 51.799156189 91.353271484 1.6100080013 22.577972412 0.9549999833 1.8459734917
 1919.9351807 13.000000000 14.287999153 0.2489999980 2.6050448418 51.996162415 99.181015015 1.6200208664 22.544940948 0.8379999995 1.8129726648
 1920.0875244 13.000000000 14.284998894 0.2490016073 2.5870287418 52.201168060 105.43828583 1.6459959745 22.471899033 0.9629999995 1.7789808512
 1920.2399902 13.000000000 14.277000427 0.2500000000 2.5939943790 52.412567139 114.53096771 1.6409423351 22.345905304 1.4450000525 1.7550055981
 1920.3923340 13.000000000 14.274999619 0.2500000000 2.6079776287 54.366928101 119.46855927 1.5689511299 22.226057053 3.2609999180 1.7620055676
 1920.5447998 13.000000000 14.553000450 0.2500000000 2.6279840469 55.523975372 110.17392731 1.5080040693 22.298069000 2.7699999809 1.7689912319
 1920.6971436 13.000000000 14.823000908 0.2500000000 2.6379919052 54.243736267 96.366119385 1.5130071640 22.382966995 0.7730000019 1.7579808235
 1920.8496094 13.000000000 14.378999710 0.2500000000 2.6360015869 52.667205811 91.527702332 1.5220047235 22.343254089 0.6520000100 1.7339855433
 1921.0019531 13.000000000 14.260998726 0.2500000000 2.5620594025 50.926769257 93.219223022 1.5249791145 22.500900269 0.6010000110 1.7249815464
 1921.1544189 13.000000000 14.383001328 0.2500000000 2.5140383244 53.139659882 99.744400024 1.4988718033 22.376886368 0.5270000100 1.7018942833
 1921.3067627 13.000000000 14.470000267 0.2500000000 2.5349831581 55.421928406 107.48074341 1.4188910723 22.306043625 0.5690000057 1.6359496117
 1921.4592285 13.000000000 14.411999702 0.2500000000 2.5459911823 57.830940247 113.39745331 1.2829279900 22.361423492 0.6539999843 1.5729454756
 1921.6115723 13.000000000 14.133000374 0.2500000000 2.5360081196 60.288864136 112.43523407 1.2379912138 22.626060486 0.6019999981 1.5389856100
 1921.7639160 13.000000000 13.929999352 0.2500000000 2.5150337219 62.613380432 111.48264313 1.2270015478 22.702886581 0.7390000224 1.5209935904
 1921.9163818 13.000000000 13.913999557 0.2500000000 2.4980134964 63.090530396 112.28376770 1.2290128469 22.562870026 0.8109999895 1.5130000114
 1922.0687256 13.000000000 14.022999763 0.2500000000 2.5059871674 63.751716614 113.24655151 1.2450271845 22.401916504 0.7469999790 1.5130000114
 1922.2211914 13.000000000 14.149999619 0.2500000000 2.5289816856 64.649551392 113.92561340 1.2790241241 22.295999527 0.8000000119 1.5130096674
 1922.3735352 13.000000000 14.277998924 0.2500016093 2.5419793129 66.584793091 110.94233704 1.3090159893 22.295000076 0.7080000043 1.5250064135
 1922.5260010 13.000000000 14.406000137 0.2509999871 2.5420000553 68.828994751 108.86450958 1.3290168047 22.294065475 0.7469999790 1.5329999924
 1922.6783447 13.000000000 14.383001328 0.2509999871 2.5400016308 71.311264038 107.01176453 1.3500071764 22.374048233 0.7450000048 1.5330023766
 1922.8308105 13.000000000 14.304999352 0.2509999871 2.5300080776 72.892181396 107.96348572 1.3589951992 22.434026718 0.8410000205 1.5360000134
 1922.9831543 13.000000000 14.196999550 0.2509999871 2.5200080872 73.628959656 108.88658142 1.3559919596 22.451021194 0.7390000224 1.5360032320
 1923.1356201 13.000000000 14.050999641 0.2509999871 2.5199999809 74.828353882 110.85876465 1.3459807634 22.475894928 0.7160000205 1.5399984121
 1923.2879639 13.000000000 14.032999992 0.2509999871 2.5140047073 76.301734924 110.71382141 1.3339887857 22.409967422 0.8000000119 1.5389935970
 1923.4404297 13.000000000 14.027000427 0.2509999871 2.5179998875 78.462890625 111.73757935 1.3199696541 22.368984222 0.8360000253 1.5309808254
 1923.5927734 13.000000000 14.045000076 0.2509999871 2.5239999294 80.267257690 112.10091400 1.3009840250 22.359004974 0.8100000024 1.5189936161
 1923.7451172 13.000000000 14.062000275 0.2509999871 2.5329999924 81.832588196 112.00157166 1.2809847593 22.366977692 0.7329999804 1.5109928846
 1923.8975830 13.000000000 14.055000305 0.2509999871 2.5429999828 81.314407349 112.71829987 1.2619879246 22.338958740 0.7799999714 1.5019935369
 1924.0499268 13.000000000 14.034000397 0.2509999871 2.5439999104 80.573188782 110.58741760 1.2469911575 22.285999298 0.7639999986 1.4939928055
 1924.2023926 13.000000000 13.998999596 0.2509999871 2.5320000648 79.560440063 108.61614990 1.2359951735 22.285062790 0.8360000253 1.4849959612
 1924.3547363 13.000000000 14.152999878 0.2509999871 2.5380001068 78.863563538 108.80306244 1.2300040722 22.364030838 0.7789999843 1.4799984694
 1924.5072021 13.000000000 14.287999153 0.2509999871 2.5510001183 78.323646545 110.12744904 1.2350103855 22.401939392 0.6029999852 1.4779976606
 1924.6595459 13.000000000 14.277998924 0.2509999871 2.5450000763 77.882949829 110.70482635 1.2480088472 22.324995041 0.6250000000 1.4750000238
 1924.8120117 13.000000000 14.187000275 0.2509999871 2.5580000877 77.817413330 115.47982025 1.2590087652 22.317871094 0.7779999971 1.4750032425
 1924.9643555 13.000000000 14.131999969 0.2509999871 2.5460000038 78.330749512 116.50378418 1.2700096369 22.156938553 0.7850000262 1.4790071249
 1925.1168213 13.000000000 14.190999985 0.2509999871 2.5420000553 78.013854980 114.98782349 1.2820408344 22.081901550 0.6949999928 1.4880224466
 1925.2691650 13.000000000 14.119000435 0.2509999871 2.5490000248 77.299636841 112.38405609 1.2990241051 22.041063309 0.6240000129 1.5020103455
 1925.4216309 13.000000000 13.979999542 0.2509999871 2.5399999619 75.596031189 109.95077515 1.3140383959 22.080028534 0.6359999776 1.5150079727
 1925.5739746 13.000000000 13.883999825 0.2509999871 2.5220000744 74.367431641 106.69354248 1.3300064802 22.092103958 0.6740000248 1.5199991465
 1925.7264404 13.000000000 13.842000008 0.2509999871 2.5309998989 73.664825439 107.37466431 1.3339903355 22.158094406 0.8590000272 1.5189872980
 1925.8787842 13.000000000 13.833999634 0.2509999871 2.5450000763 72.305770874 109.03366852 1.3299888372 22.196998596 0.7829999924 1.5109903812
 1926.0311279 13.000000000 13.834999084 0.2509999871 2.5590000153 70.774650574 108.62613678 1.3229775429 22.195903778 0.7749999762 1.4989951849
 1926.1835938 13.000000000 13.847999573 0.2509999871 2.5620000362 69.093811035 111.28781891 1.3089808226 22.136898041 0.7360000014 1.4929976463
 1926.3359375 13.000000000 13.861000061 0.2509999871 2.5360000134 68.860763550 111.05461121 1.3009808064 22.094993591 0.7120000124 1.4899911880
 1926.4884033 13.000000000 13.873999596 0.2509999871 2.5339999199 69.812110901 110.56649017 1.2889543772 22.092014313 0.7419999838 1.4789943695
 1926.6407471 13.000000000 13.899000168 0.2509999871 2.5409998894 72.450988770 112.42179871 1.2699663639 22.098045349 0.6380000114 1.4719920158
 1926.7932129 13.000000000 13.923001289 0.2509999871 2.5480000973 74.940315247 112.16987610 1.2489495277 22.127059937 0.5910000205 1.4619967937
 1926.9455566 13.000000000 13.937999725 0.2509999871 2.5550000668 76.576026917 112.01870728 1.2279696465 22.152173996 0.5970000029 1.4579902887
 1927.0980225 13.000000000 13.939000130 0.2509999871 2.5529999733 77.858726501 112.89845276 1.2089639902 22.260288239 0.5979999900 1.4459807873
 1927.2503662 13.000000000 13.911000252 0.2509999871 2.5429999828 78.932701111 113.80498505 1.1939840317 22.380075455 0.5720000267 1.4339896441
 1927.4028320 13.000000000 13.911999702 0.2509999871 2.5350000858 79.810661316 115.04104614 1.1839663982 22.427900314 0.5580000281 1.4209872484
 1927.5551758 13.000000000 13.871000290 0.2509999871 2.5350000858 80.225639343 115.69250488 1.1699887514 22.386692047 0.7080000043 1.4129943848
 1927.7076416 13.000000000 13.831999779 0.2509999871 2.5309998989 79.778144836 116.30727386 1.1630191803 22.194795609 0.7459999919 1.4060064554
 1927.8599854 13.000000000 13.774999619 0.2509999871 2.5360000134 79.243453979 115.22955322 1.1710224152 22.110122681 0.6140000224 1.4100103378
 1928.0123291 13.000000000 13.717000008 0.2509999871 2.5480000973 78.553146362 114.67240906 1.1850335598 22.185937881 0.6000000238 1.4230103493
