# LAS format log file from PETREL
# Project units are specified as depth units
#==================================================================
~Version information
VERS.   2.0:
WRAP.   NO:
#==================================================================
~Well
STRT .m      162.32598877 :
STOP .m      3247.3605957 :
STEP .m     0.00000000 :
NULL .        -999.250000 :
COMP.           : COMPANY
WELL.  17/11-1   : WELL
FLD.            : FIELD
LOC.            : LOCATION
SRVC.           : SERVICE COMPANY
DATE.  2018-09-11 14:48:12   : Log Export Date {yyyy-MM-dd HH:mm:ss}
PROV.           : PROVINCE
UWI.   17/11-1   : UNIQUE WELL ID
API.            : API NUMBER
#==================================================================
~Curve
DEPT .m                   : DEPTH
Lithology_geolink ._      : Lithology_geolink
CALI .in                  : CALI
DRHO .g/cm3               : DRHO
NPHI .m3/m3               : NPHI
RHOB .g/cm3               : RHOB
GR .gAPI                  : GR
DTC .us/ft                : DTC
DTE .us/ft                : DTE
RDEP .ohm.m               : RDEP
SP .mV                    : SP
RSHA .ohm.m               : RSHA
RMED .ohm.m               : RMED
~Parameter
#==================================================================
~Ascii
# ...
 3234.7114258 33.000000000 13.371999741 0.0060192309  -999.250000 1.8178653717 118.57399750 77.661651611 77.712783813 714.06842041  -999.250000 0.5299999714  -999.250000
 3234.8637695 33.000000000 12.137998581 0.0070576924  -999.250000 1.8622115850 96.808998108 80.095359802 80.066207886 518.80413818  -999.250000 0.6340000033  -999.250000
 3235.0161133 33.000000000 12.262999535 0.0099423071  -999.250000 1.8730385303 81.900001526 80.346549988 80.235183716 389.19125366  -999.250000 0.4959999919  -999.250000
 3235.1684570 33.000000000 12.388999939 0.0070192311  -999.250000 1.8756538630 67.261001587 78.906715393 78.861503601 328.06237793  -999.250000 0.5059999824  -999.250000
 3235.3210449 33.000000000 12.449999809 0.0080623999  -999.250000 1.9098320007 59.408000946 79.885040283 79.938636780 243.35403442  -999.250000 0.6039999723  -999.250000
 3235.4733887 33.000000000 12.400000572 0.0107307695  -999.250000 1.9496538639 54.613998413 78.024452209 77.949974060 195.83576965  -999.250000 0.5270000100  -999.250000
 3235.6257324 33.000000000 12.314000130 -0.002846154  -999.250000 1.9837884903 46.023998260 75.848533630 75.950111389 242.77383423  -999.250000 0.5220000148  -999.250000
 3235.7780762 33.000000000 12.262999535 0.0050192308  -999.250000 2.0244231224 37.736999512 74.015060425 74.081436157 456.01156616  -999.250000 0.8769999743  -999.250000
 3235.9306641 33.000000000 12.255000114 0.0059376000  -999.250000 2.0460207462 30.441999435 71.148376465 71.046829224 773.81140137  -999.250000 0.7400000095  -999.250000
 3236.0830078 21.000000000 12.246000290 0.0030000000  -999.250000 2.0466153622 22.545000076 68.707984924 68.603897095 1040.9406738  -999.250000 0.8529999852  -999.250000
 3236.2353516 21.000000000 12.258999825 0.0029807691  -999.250000 2.0268268585 19.584999084 68.900924683 68.824409485 1251.6176758  -999.250000 11.720999718  -999.250000
 3236.3876953 21.000000000 12.272000313 0.0019038463  -999.250000 2.0176537037 20.517000198 69.506149292 69.576110840 1374.5347900  -999.250000 276.73400879  -999.250000
 3236.5400391 21.000000000 12.284999847 -0.003038400  -999.250000 1.9999040365 24.202999115 70.253929138 70.327804565 1404.4689941  -999.250000 194.13600159  -999.250000
 3236.6926270 21.000000000 12.276000023 -0.004923077  -999.250000 1.9951153994 23.100000381 71.058944702 70.959724426 1404.5872803  -999.250000 1642.2709961  -999.250000
 3236.8449707 21.000000000 12.266999245 -0.000961539  -999.250000 2.0011346340 23.444999695 70.876342773 70.792610168 1405.8562012  -999.250000 3050.4089355  -999.250000
 3236.9973145 21.000000000 12.262000084 0.0009615385  -999.250000 2.0080769062 23.363000870 70.258743286 70.242958069 1407.4204102  -999.250000 3050.9951172  -999.250000
 3237.1496582 21.000000000 12.258000374 -0.001038462  -999.250000 2.0119230747 21.774000168 69.577392578 69.635505676 1407.7454834  -999.250000 3043.5891113  -999.250000
 3237.3022461 21.000000000 12.253001213 -0.003000000  -999.250000 2.0078959465 23.444000244 69.117713928 69.141181946 1408.7843018  -999.250000 571.82202148  -999.250000
 3237.4545898 21.000000000 12.248999596 -0.002961538  -999.250000 2.0028846264 20.961999893 68.833656311 68.926933289 1410.0289307  -999.250000 326.69299316  -999.250000
 3237.6069336 21.000000000 12.244999886 -0.001000000  -999.250000 1.9968845844 12.602000237 68.961982727 69.058319092 1406.6420898  -999.250000 579.65301514  -999.250000
 3237.7592773 21.000000000 12.246000290 -0.001076923  -999.250000 1.9912692308 2.0599999428 69.200157166 69.189620972 1403.2908936  -999.250000 741.03601074  -999.250000
 3237.9118652 21.000000000 12.250000954 -0.004916800  -999.250000 2.0053536892 1.4390000105 69.405403137 69.321174622 1395.4417725  -999.250000 273.18301392  -999.250000
 3238.0642090 21.000000000 12.255000114 -0.000903846  -999.250000 2.0218462944 1.3719999790 69.423324585 69.451866150 1379.0585938  -999.250000 132.47399902  -999.250000
 3238.2165527 21.000000000 12.258999825 0.0040384619  -999.250000 2.0136344433 1.3040000200 69.548210144 69.580680847 1373.6873779  -999.250000 38.283000946  -999.250000
 3238.3688965 21.000000000 12.265999794 0.0060000001  -999.250000 1.9947115183 1.2369999886 69.576736450 69.606155396 1378.4725342  -999.250000 1.4650000334  -999.250000
 3238.5212402 21.000000000 12.277999878 0.0060768002  -999.250000 1.9798464775 1.1690000296 69.366416931 69.302703857 1388.5148926  -999.250000 224.97799683  -999.250000
 3238.6738281 21.000000000 12.288999557 0.0100769233  -999.250000 1.9718077183 1.1019999981 70.581977844 70.626136780 1402.3004150  -999.250000 214.83900452  -999.250000
 3238.8261719 21.000000000 12.300999641 0.0138076926  -999.250000 1.9617884159 1.0340000391 70.534568787 70.594802856 1411.1938477  -999.250000 2994.8159180  -999.250000
 3238.9785156 21.000000000 12.281999588 0.0039423080  -999.250000 1.9512307644 0.9670000076 70.970825195 71.048088074 1414.0185547  -999.250000 2975.3820801  -999.250000
 3239.1308594 21.000000000 12.262999535 0.0010000000  -999.250000 1.9630000591 0.8989999890 71.857002258 71.835655212 1409.9218750  -999.250000 488.68499756  -999.250000
 3239.2834473 21.000000000 12.260999680 0.0008960001  -999.250000 1.9621680975 0.8320000172 72.049697876 72.018806458 1401.8210449  -999.250000 20.045000076  -999.250000
 3239.4357910 21.000000000 12.260001183 -0.003884616  -999.250000 1.9223653078 0.7670000196 70.873626709 70.947288513 1397.2966309  -999.250000 7.0409998894  -999.250000
 3239.5881348 21.000000000 12.262000084 0.0021346156  -999.250000 1.8889422417 0.8009999990 72.092727661 72.127464294 1395.1914063  -999.250000 2.9400000572  -999.250000
 3239.7404785 21.000000000 12.722000122 0.0088076917 -0.008936009 1.8338845968 0.8349999785 74.136528015 74.096099854 1376.4434814  -999.250000 17.402000427  -999.250000
 3239.8930664 21.000000000 13.058000565 -0.000979200 0.0269361865 1.7769167423 0.8690000176 75.334465027 75.256072998 1242.6292725  -999.250000 2.6989998817  -999.250000
 3240.0454102 21.000000000 12.991000175 0.0001730769 0.0311294869 1.7733076811 0.9029999971 75.515632629 75.441101074 1022.5155640  -999.250000 5.2150001526  -999.250000
 3240.1977539 21.000000000 13.319000244 0.0090769231 0.0386518426 1.7896347046 0.9369999766 77.447235107 77.338233948 839.92181396  -999.250000 0.8000000119  -999.250000
 3240.3500977 21.000000000 13.522999763 0.0129615385 0.0116448551 1.8235000372 0.9710000157 75.193328857 75.132469177 652.64764404  -999.250000 0.6579999924  -999.250000
 3240.5026855 21.000000000 12.574999809 0.0109999999 -0.034691602 1.9006655216 1.0049999952 77.239418030 77.264350891 368.52743530  -999.250000 1.7469999790  -999.250000
 3240.6550293 21.000000000 12.482000351 0.0108653847 -0.046640348 1.9302500486 1.0390000343 78.014427185 77.960556030 146.70574951  -999.250000 1.5470000505  -999.250000
 3240.8073730 21.000000000 12.590000153 0.0039423080 -0.019774424 1.8396538496 1.0740000010 76.071754456 75.974418640 96.589057922  -999.250000 0.7950000167  -999.250000
 3240.9597168 21.000000000 13.178000450 0.0009807693 0.0099916793 1.7708077431 1.1080000401 80.655654907 80.634750366 104.62697601  -999.250000 0.4709999859  -999.250000
 3241.1120605 21.000000000 13.138999939 0.0001153846 0.0066070678 1.7615962029 1.1419999599 77.958435059 77.983734131 209.53250122  -999.250000 0.5360000134  -999.250000
 3241.2646484 21.000000000 13.114000320 0.0060000001  -999.250000 1.7925409079 1.1759999990 78.037803650 78.045722961 586.63684082  -999.250000 0.4490000010  -999.250000
 3241.4169922 21.000000000 12.992999077 0.0061923079  -999.250000 1.8181922436 1.1490000486 79.083580017 79.148132324 1041.2128906  -999.250000 0.4499999881  -999.250000
 3241.5693359 21.000000000 13.143000603 0.0159038473  -999.250000 1.8277499676 1.1169999838 75.059005737 74.975257874 1309.4102783  -999.250000 0.7530000210  -999.250000
 3241.7216797 21.000000000 12.963999748 0.0108653847  -999.250000 1.8148077726 1.4759999514 76.050346375 76.140396118 1398.2315674  -999.250000 1.2749999762  -999.250000
 3241.8742676 21.000000000 12.826999664 0.0039584003  -999.250000 1.8051455021 11.812000275 75.710563660 75.711494446 1399.5522461  -999.250000 1.1330000162  -999.250000
