# LAS format log file from PETREL
# Project units are specified as depth units
#==================================================================
~Version information
VERS.   2.0:
WRAP.   NO:
#==================================================================
~Well
STRT .m      162.32598877 :
STOP .m      3247.3605957 :
STEP .m     0.00000000 :
NULL .        -999.250000 :
COMP.           : COMPANY
WELL.  17/11-1   : WELL
FLD.            : FIELD
LOC.            : LOCATION
SRVC.           : SERVICE COMPANY
DATE.  2018-09-11 14:48:12   : Log Export Date {yyyy-MM-dd HH:mm:ss}
PROV.           : PROVINCE
UWI.   17/11-1   : UNIQUE WELL ID
API.            : API NUMBER
#==================================================================
~Curve
DEPT .m                   : DEPTH
Lithology_geolink ._      : Lithology_geolink
CALI .in                  : CALI
DRHO .g/cm3               : DRHO
NPHI .m3/m3               : NPHI
RHOB .g/cm3               : RHOB
GR .gAPI                  : GR
DTC .us/ft                : DTC
DTE .us/ft                : DTE
RDEP .ohm.m               : RDEP
SP .mV                    : SP
RSHA .ohm.m               : RSHA
RMED .ohm.m               : RMED
~Parameter
#==================================================================
~Ascii
# ...
 1596.1058350 5.0000000000 14.522000313 0.0550352558 -0.023314761 2.2280352116 82.440002441 126.85791779 126.81181335 1.4318846464 31.480707169 0.5757165551 1.6769471169
 1596.2581787 5.0000000000 14.359000206 0.0589383505 -0.020121787 2.2319648266 82.208000183 128.38816833 128.37132263 1.4228847027 31.434856415 0.4581057727 1.6709030867
 1596.4106445 5.0000000000 13.833999634 0.0520264432 -0.011613991 2.2280175686 82.953002930 129.49505615 129.46757507 1.4138590097 31.409976959 0.5239855647 1.6599293947
 1596.5629883 5.0000000000 13.630001068 0.0550616495 -0.004605620 2.2300617695 83.332000732 129.41935730 129.41188049 1.4028974771 31.405870438 0.5183413625 1.6519118547
 1596.7154541 5.0000000000 13.567999840 0.0619471148 0.0047374843 2.2370264530 84.829002380 129.28318787 129.37718201 1.3949743509 31.383184433 0.7311128974 1.6419293880
 1596.8677979 5.0000000000 13.619000435 0.0559911802 0.0205702800 2.2400264740 84.870002747 127.63324738 127.56621552 1.3929487467 31.412984848 0.7779583335 1.6339559555
 1597.0202637 5.0000000000 13.649999619 0.0550728589 0.0267086551 2.2429687977 84.862998962 126.28871918 126.44836426 1.3888334036 31.590429306 0.7519711256 1.6289558411
 1597.1726074 5.0000000000 13.585999489 0.0618365370 0.0153632509 2.2398557663 84.327003479 126.41305542 126.45130157 1.3756797314 32.124351501 0.7400112152 1.6239206791
 1597.3249512 5.0000000000 13.501000404 0.0449519642 0.0108270189 2.2249231339 83.396003723 128.02136230 127.94855499 1.3506754637 32.541767120 0.7470352650 1.6149119139
 1597.4774170 5.0000000000 13.560999870 0.0398750007 0.0131314890 2.2168557644 82.192001343 128.59140015 128.56721497 1.3236925602 32.678802490 0.7689976096 1.6049031019
 1597.6297607 5.0000000000 13.498000145 0.0270096082 0.0083051929 2.2020287514 82.593002319 130.37265015 130.43041992 1.2998316288 32.821811676 0.7677275538 1.5938855410
 1597.7822266 5.0000000000 13.324000359 0.0279711541 0.0006909848 2.2050287724 84.828002930 130.32072449 130.37904358 1.2859102488 32.966396332 0.5981897712 1.5808942318
 1597.9345703 5.0000000000 13.458000183 0.0250192154 -0.007920001 2.2081248760 87.343002319 129.45143127 129.50308228 1.2789360285 33.037872314 0.6771185994 1.5688767433
 1598.0870361 6.0000000000 14.027999878 0.0271153860 -0.016152037 2.2210671902 89.379997253 129.76570129 129.83457947 1.2740000486 33.194934845 0.7507669926 1.5548677444
 1598.2393799 6.0000000000 14.180000305 0.0390192159 -0.012505532 2.2278749943 91.230003357 129.86390686 130.01115417 1.2740384340 33.496921539 0.6537708044 1.5399383307
 1598.3918457 6.0000000000 14.057999611 0.0409038477 0.0106022432 2.2148075104 91.114997864 129.81214905 129.80192566 1.2771409750 33.838802338 0.5111128688 1.5329999924
 1598.5441895 6.0000000000 14.303000450 0.0309519228 0.0418750755 2.1949229240 90.870002747 130.08224487 129.99252319 1.2882177830 33.960762024 0.5579823852 1.5331144333
 1598.6966553 6.0000000000 13.961000443 0.0260312259 0.0472434126 2.1870312691 89.667999268 129.11654663 129.20072937 1.3052691221 33.560123444 0.5472185612 1.5461851358
 1598.8489990 5.0000000000 14.303999901 0.0290480759 0.0202268772 2.1900384426 86.807998657 128.97210693 128.96469116 1.3262946606 32.956291199 0.6379503608 1.5671409369
 1599.0014648 5.0000000000 14.027000427 0.0339167342 -0.005006987 2.1939480305 82.894996643 130.19895935 130.17506409 1.3492820263 32.473812103 0.6064956188 1.5830792189
 1599.1538086 5.0000000000 13.901000023 0.0259903856 -0.013297599 2.1890192032 80.587997437 130.71960449 130.73458862 1.3711793423 32.134712219 0.3969888091 1.5920528173
 1599.3061523 5.0000000000 13.940999985 0.0249327458 -0.013001298 2.1909999847 79.991996765 130.46441650 130.39868164 1.3850841522 32.260223389 0.3900976777 1.5980401039
 1599.4586182 5.0000000000 14.494000435 0.0181153845 -0.013162946 2.1911058426 79.587997437 127.80734253 127.86309814 1.3919999599 32.121551514 0.4510993659 1.6030176878
 1599.6109619 5.0000000000 14.232000351 0.0300960764 -0.010992163 2.2021439075 79.581001282 125.95349121 125.86209869 1.3919278383 32.042999268 0.5128685832 1.6050176620
 1599.7634277 5.0000000000 13.744999886 0.0400096141 -0.002968031 2.2170383930 79.573997498 125.29966736 125.28631592 1.3859102726 32.220321655 0.4314803779 1.6070088148
 1599.9157715 5.0000000000 13.588999748 0.0408366695 0.0047139665 2.2208654881 79.567001343 125.97354126 125.92388916 1.3789103031 32.276702881 0.6308509707 1.6079823971
 1600.0682373 5.0000000000 13.986000061 0.0240096152 0.0052660848 2.2070384026 79.559997559 126.90410614 126.88206482 1.3719487190 32.223819733 0.5380288363 1.6059558392
 1600.2205811 5.0000000000 13.765999794 0.0249711778 0.0059854570 2.2110095024 80.399002075 126.77761078 126.90296173 1.3680256605 32.196441650 0.5501233935 1.6009559631
 1600.3730469 5.0000000000 13.918999672 0.0219999999 0.0010978687 2.2120094299 83.273002625 125.11860657 124.99051666 1.3700512648 32.276012421 0.6267790198 1.5960087776
 1600.5253906 6.0000000000 13.885000229 0.0219903849 -0.015412842 2.2130482197 85.444000244 124.45462799 124.54598236 1.3740639687 32.433956146 0.5348237157 1.5970439911
 1600.6778564 6.0000000000 14.218000412 0.0210312251 -0.034382131 2.2180936337 87.434997559 124.24088287 124.13839722 1.3790897131 32.605648041 0.4253050685 1.6020441055
 1600.8302002 6.0000000000 14.175998688 0.0240288470 -0.038288824 2.2270770073 87.851997375 124.88683319 124.94690704 1.3861025572 32.862087250 0.5522676110 1.6070439816
 1600.9826660 6.0000000000 13.663000107 0.0271561258 -0.029385947 2.2351560593 86.986000061 125.74703979 125.89981079 1.3940898180 33.055290222 0.7184811831 1.6120440960
 1601.1350098 6.0000000000 14.324999809 0.0420576930 -0.018861827 2.2500000000 87.005996704 125.13787842 125.17798615 1.4010769129 33.100418091 0.5029215217 1.6170439720
 1601.2874756 6.0000000000 14.425999641 0.0478542857 -0.004195080 2.2497918606 86.512001038 124.52283478 124.52043152 1.4070768356 33.176254272 0.4542714059 1.6220264435
 1601.4398193 6.0000000000 14.003999710 0.0339519233 -0.001153795 2.2299230099 85.705001831 123.54557800 123.49436951 1.4130256176 33.372310638 0.5672179461 1.6250352859
 1601.5921631 6.0000000000 13.982000351 0.0289615691 -0.006511058 2.2219710350 84.248001099 122.22462463 122.21605682 1.4149879217 33.605049133 0.7028589845 1.6289734840
 1601.7446289 5.0000000000 14.079000473 0.0250865389 0.0031126663 2.2189519405 84.406997681 123.79243469 123.78009796 1.4139744043 33.613189697 0.6150168180 1.6259294748
 1601.8969727 5.0000000000 14.159999847 0.0339231417 0.0196198095 2.2139039040 83.391998291 125.65827942 125.59714508 1.4119758606 33.469669342 0.6218012571 1.6179647446
 1602.0494385 5.0000000000 14.244999886 0.0260096155 0.0292036589 2.2040770054 82.555000305 127.65196991 127.72017670 1.4099358320 33.410713196 0.4981441200 1.6139734983
 1602.2017822 5.0000000000 14.215000153 0.0270480383 0.0257930290 2.2121343613 82.531997681 127.60182190 127.50389862 1.4048718214 33.359405518 0.5579359531 1.6109383106
 1602.3542480 5.0000000000 14.277998924 0.0320192315 0.0054032691 2.2260577679 82.318000793 124.98875427 125.04745483 1.3947820663 33.253490448 0.5181465149 1.6039118767
 1602.5065918 5.0000000000 14.468000412 0.0339423083 -0.014056524 2.2320482731 83.450996399 123.43618774 123.35647583 1.3777438402 33.174098969 0.5789631605 1.5938855410
 1602.6590576 5.0000000000 14.446999550 0.0279895924 -0.021074101 2.2369999886 84.720001221 122.55111694 122.64624023 1.3577564955 33.191905975 0.5560744405 1.5808854103
 1602.8114014 5.0000000000 14.369000435 0.0269903857 -0.022785574 2.2370481491 84.410003662 121.45127869 121.42836761 1.3387565613 33.176437378 0.5871154070 1.5679118633
 1602.9638672 5.0000000000 14.204000473 0.0260312259 -0.018441314 2.2420313358 83.052001953 121.79257965 121.67868805 1.3198205233 33.075717926 0.6589062810 1.5579293966
 1603.1162109 5.0000000000 13.925999641 0.0289423075 -0.008694155 2.2450094223 81.846000671 121.89595032 122.00933075 1.3058590889 32.875213623 0.6200705171 1.5499646664
 1603.2686768 5.0000000000 13.843000412 0.0229895916 -0.007976971 2.2459063530 82.416999817 122.22568512 122.18904114 1.2949101925 32.557621002 0.6639255285 1.5459207296
