# LAS format log file from PETREL
# Project units are specified as depth units
#==================================================================
~Version information
VERS.   2.0:
WRAP.   NO:
#==================================================================
~Well
STRT .m      162.32598877 :
STOP .m      3247.3605957 :
STEP .m     0.00000000 :
NULL .        -999.250000 :
COMP.           : COMPANY
WELL.  17/11-1   : WELL
FLD.            : FIELD
LOC.            : LOCATION
SRVC.           : SERVICE COMPANY
DATE.  2018-09-11 14:48:12   : Log Export Date {yyyy-MM-dd HH:mm:ss}
PROV.           : PROVINCE
UWI.   17/11-1   : UNIQUE WELL ID
API.            : API NUMBER
#==================================================================
~Curve
DEPT .m                   : DEPTH
Lithology_geolink ._      : Lithology_geolink
CALI .in                  : CALI
DRHO .g/cm3               : DRHO
NPHI .m3/m3               : NPHI
RHOB .g/cm3               : RHOB
GR .gAPI                  : GR
DTC .us/ft                : DTC
DTE .us/ft                : DTE
RDEP .ohm.m               : RDEP
SP .mV                    : SP
RSHA .ohm.m               : RSHA
RMED .ohm.m               : RMED
~Parameter
#==================================================================
~Ascii
# ...
 1800.9315186 6.0000000000 13.069999695 0.0551770814 -0.021436123 2.3281772137 86.348999023 115.08939362 115.15452576 1.6389727592 33.615829468 1.0311586857 1.9540191889
 1801.0838623 6.0000000000 13.055000305 0.0720104054 -0.020945219 2.3450312614 85.789001465 114.14553070 114.15047455 1.6369183064 33.592037201 1.1301298141 1.9560191631
 1801.2363281 6.0000000000 13.064000130 0.0727708340 -0.014712309 2.3477916718 86.258003235 112.46552277 112.41126251 1.6308366060 33.597381592 1.2109590769 1.9579999447
 1801.3886719 6.0000000000 13.046999931 0.0509270839 -0.007077101 2.3279166222 86.861999512 111.58834839 111.61138153 1.6187276840 33.511425018 1.1940673590 1.9579615593
 1801.5411377 6.0000000000 12.942999840 0.0440560430 -0.004556939 2.3200223446 87.588996887 110.28681183 110.29353333 1.5986866951 33.420589447 1.2359303236 1.9539614916
 1801.6934814 6.0000000000 12.861000061 0.0489895828 -0.011033186 2.3219687939 88.449996948 109.68945313 109.70613861 1.5757414103 33.224731445 1.2069214582 1.9499423504
 1801.8459473 6.0000000000 12.866000175 0.0480784625 -0.019282164 2.3190896511 88.899002075 111.73868561 111.72314453 1.5568637848 33.026218414 1.1579183340 1.9439231157
 1801.9982910 6.0000000000 12.887999535 0.0550208315 -0.020618824 2.3269791603 88.832000732 112.62638855 112.69079590 1.5468775034 32.779312134 1.1239181757 1.9358942509
 1802.1507568 6.0000000000 12.887001038 0.0568879098 -0.017099069 2.3248431683 87.962997437 113.35455322 113.50112152 1.5378501415 32.517513275 1.0731320381 1.9248749018
 1802.3031006 6.0000000000 12.840999603 0.0469270833 -0.015834155 2.3109166622 87.462997437 112.09738159 112.09135437 1.5268638134 32.451629639 1.1277709007 1.9118748903
 1802.4555664 6.0000000000 12.744999886 0.0399663709 -0.011749319 2.3029999733 87.619003296 111.16442108 111.17451477 1.5168637037 32.705783844 0.9846469164 1.8989168406
 1802.6079102 6.0000000000 12.677000046 0.0369895846 -0.006092626 2.3030207157 87.611999512 111.56385803 111.54988861 1.5068774223 32.952877045 0.8380784988 1.8910000324
 1802.7603760 6.0000000000 12.513999939 0.0359215364 -0.010997532 2.3049776554 88.001998901 113.55031586 113.51947784 1.4979711771 33.091949463 0.8871681690 1.8910000324
 1802.9127197 6.0000000000 12.295999527 0.0290520824 -0.023104971 2.3030312061 87.597000122 115.37983704 115.32361603 1.4960545301 33.500926971 0.9568701982 1.8910288811
 1803.0650635 6.0000000000 12.279999733 0.0340312272 -0.024712756 2.3060417175 86.752998352 116.54895020 116.41581726 1.5000816584 33.905593872 0.8759086132 1.8940769434
 1803.2175293 6.0000000000 12.473999977 0.0370520838 -0.015067412 2.3100206852 85.994003296 116.45481110 116.55499268 1.5061089993 34.154476166 0.8191465139 1.9020384550
 1803.3698730 6.0000000000 12.574999809 0.0418750010 -0.005766261 2.3118021488 85.588996887 115.22812653 115.20984650 1.5141633749 34.358379364 0.8799727559 1.9060384035
 1803.5223389 6.0000000000 12.572999954 0.0298879091 -0.004234279 2.2928879261 85.582000732 114.37341309 114.32888794 1.5262043476 34.416393280 0.8629831672 1.9101153612
 1803.6746826 6.0000000000 12.586000443 0.0200520828 -0.005838503 2.2830936909 85.972000122 113.62432098 113.57083893 1.5412858725 34.332584381 0.8560577035 1.9221345186
 1803.8271484 6.0000000000 12.614998817 0.0250896718 -0.005673349 2.2921681404 85.964996338 113.27825928 113.19483948 1.5623950958 34.267402649 0.8921177387 1.9361057281
 1803.9794922 6.0000000000 12.614000320 0.0330520831 -0.006059248 2.3071146011 86.355003357 113.30907440 113.35173798 1.5913265944 34.183815002 0.9409919977 1.9471057653
 1804.1319580 6.0000000000 12.641999245 0.0380112082 -0.007147243 2.3180785179 87.734001160 114.05856323 114.14592743 1.6152043343 33.997772217 0.9358991385 1.9580961466
 1804.2843018 6.0000000000 12.614998817 0.0389687493 -0.012490033 2.3250625134 89.121002197 114.46851349 114.35045624 1.6302994490 33.689373016 0.8940352798 1.9680769444
 1804.4367676 6.0000000000 12.444001198 0.0359439552 -0.015845496 2.3310225010 89.113998413 114.88278961 114.90306091 1.6524766684 33.435596466 0.9160888791 1.9760727882
 1804.5891113 6.0000000000 12.510000229 0.0309791658 -0.013096077 2.3330416679 88.262001038 114.08094025 114.14441681 1.6875444651 33.241428375 0.9530721307 1.9830673933
 1804.7415771 6.0000000000 12.628999710 0.0289439540 -0.013912653 2.3370783329 86.661003113 111.57869720 111.50374603 1.7275584936 33.153194427 0.9978679419 1.9900624752
 1804.8939209 5.0000000000 12.633999825 0.0241041668  -999.250000 2.3441772461 85.001998901 107.78617859 107.75399780 1.7685720921 33.180015564 0.9429951906 1.9960577488
 1805.0462646 5.0000000000 12.585000038 0.0342185758  -999.250000 2.3611354828 82.864997864 104.27665710 104.29502869 1.8102722168 33.181800842 0.9398863316 2.0020096302
 1805.1987305 5.0000000000 12.524000168 0.0550208315  -999.250000 2.3741147518 82.722999573 101.71286774 101.71102905 1.8299046755 33.150901794 0.8688493967 2.0029711723
 1805.3510742 5.0000000000 12.437999725 0.0568750016  -999.250000 2.3851041794 83.112998962 99.065414429 99.130531311 1.8229727745 33.137371063 0.7749743462 1.9999808073
 1805.5035400 5.0000000000 12.421999931 0.0449775830  -999.250000 2.3953697681 83.237998962 96.704811096 96.546539307 1.8211089373 33.196094513 0.7591152787 1.9979808331
 1805.6558838 5.0000000000 12.437001228 0.0428958349  -999.250000 2.4285416603 81.694999695 93.995666504 93.966117859 1.8290680647 33.347774506 0.8070849180 1.9959808588
 1805.8083496 5.0000000000 12.404999733 0.0327870287  -999.250000 2.4806501865 79.763000488 91.252166748 91.382034302 1.8339864016 33.467487335 0.8601201177 1.9939903021
 1805.9606934 16.000000000 12.366999626 0.0142500000  -999.250000 2.5383541584 77.242996216 88.719894409 88.728744507 1.8327549696 33.397186279 0.9101154208 1.9929616451
 1806.1131592 16.000000000 12.402000427 0.0382802226  -999.250000 2.5710136890 75.529998779 85.961769104 85.898818970 1.8145096302 33.425838470 0.9816997647 1.9889519215
 1806.2655029 16.000000000 12.359999657 0.0628958344  -999.250000 2.4829375744 76.318000793 85.055633545 85.063560486 1.7784284353 33.403083801 0.8570721149 1.9839230776
 1806.4179688 16.000000000 12.269000053 0.0529775806  -999.250000 2.3816413879 78.509002686 85.320823669 85.452674866 1.7364279032 33.260589600 0.9018294811 1.9759062529
 1806.5703125 5.0000000000 12.208000183 0.0509791672  -999.250000 2.3498227596 80.038002014 89.659828186 89.540756226 1.6945781708 33.204338074 0.8310416341 1.9669038057
 1806.7227783 5.0000000000 12.194000244 0.0488879085 -0.044180166 2.3327422142 80.665000916 100.77964783 100.80914307 1.6636731625 33.258396149 0.8569087386 1.9569063187
 1806.8751221 5.0000000000 12.225000381 0.0389479175 -0.041974839 2.3099062443 80.657997131 101.81868744 101.91034698 1.6396731138 33.453487396 0.8188589811 1.9479037523
 1807.0275879 5.0000000000 12.267999649 0.0339663737 -0.044729900 2.3010001183 82.079002380 103.52656555 103.45973969 1.6156973839 33.841697693 0.7309519649 1.9379062653
 1807.1799316 5.0000000000 12.328000069 0.0310312491 -0.040163413 2.3010313511 84.294998169 106.16329956 106.21894836 1.5947821140 34.214397430 0.7111682892 1.9289231300
 1807.3322754 5.0000000000 12.430998802 0.0340937525 -0.033854783 2.3040728569 83.934997559 109.68945313 109.58499908 1.5788230896 34.407745361 0.8160256147 1.9209231138
 1807.4847412 5.0000000000 12.618000984 0.0429551639  -999.250000 2.3110001087 80.943000793 111.31700897 111.34493256 1.5658229589 34.523380280 0.8322570324 1.9129326344
 1807.6370850 5.0000000000 12.845999718 0.0390000008  -999.250000 2.3109166622 79.430999756 109.30187225 109.31217957 1.5528638363 34.573909760 0.9389359355 1.9059519768
 1807.7895508 5.0000000000 12.902000427 0.0390672535  -999.250000 2.3030560017 79.599998474 108.74714661 108.70651245 1.5430408716 34.247253418 0.8986829519 1.9008654356
 1807.9418945 5.0000000000 12.906000137 0.0449895859  -999.250000 2.3079895973 79.814002991 108.71598816 108.71574402 1.5461225510 33.868312836 0.7672548294 1.8869615793
 1808.0943604 5.0000000000 12.899000168 0.0440224186  -999.250000 2.3070335388 79.609001160 109.14780426 109.15335846 1.5551497936 33.761562347 0.9260552526 1.8830673695
