# LAS format log file from PETREL
# Project units are specified as depth units
#==================================================================
~Version information
VERS.   2.0:
WRAP.   NO:
#==================================================================
~Well
STRT .m      162.32598877 :
STOP .m      3247.3605957 :
STEP .m     0.00000000 :
NULL .        -999.250000 :
COMP.           : COMPANY
WELL.  17/11-1   : WELL
FLD.            : FIELD
LOC.            : LOCATION
SRVC.           : SERVICE COMPANY
DATE.  2018-09-11 14:48:12   : Log Export Date {yyyy-MM-dd HH:mm:ss}
PROV.           : PROVINCE
UWI.   17/11-1   : UNIQUE WELL ID
API.            : API NUMBER
#==================================================================
~Curve
DEPT .m                   : DEPTH
Lithology_geolink ._      : Lithology_geolink
CALI .in                  : CALI
DRHO .g/cm3               : DRHO
NPHI .m3/m3               : NPHI
RHOB .g/cm3               : RHOB
GR .gAPI                  : GR
DTC .us/ft                : DTC
DTE .us/ft                : DTE
RDEP .ohm.m               : RDEP
SP .mV                    : SP
RSHA .ohm.m               : RSHA
RMED .ohm.m               : RMED
~Parameter
#==================================================================
~Ascii
 162.32598877  -999.250000 23.288999557  -999.250000  -999.250000  -999.250000 1.4579999447 159.85751343 160.00000000 0.4886527359 144.84114075  -999.250000 0.0939895809
 162.47839355  -999.250000 23.286998749  -999.250000  -999.250000  -999.250000 2.3910000324 159.86755371 160.00000000 0.4208542407 147.76779175  -999.250000 0.0899895877
 162.63078308  -999.250000 23.284999847  -999.250000  -999.250000  -999.250000 4.1960000992 159.85475159 160.00000000 0.3928570449 150.59812927  -999.250000 0.0859899893
 162.78318787 1.0000000000 23.283000946  -999.250000  -999.250000  -999.250000 11.140000343 159.85556030 160.00000000 0.3648774624 152.52030945  -999.250000 0.0819924921
 162.93559265 1.0000000000 23.281000137  -999.250000  -999.250000  -999.250000 18.084999084 159.85459900 160.00000000 0.3411327600 154.44102478  -999.250000 0.0789921954
 163.08799744 1.0000000000 23.278999329  -999.250000  -999.250000  -999.250000 25.030000687 159.85670471 160.00000000 0.3674737811 156.02416992  -999.250000 0.0759973973
 163.24038696 1.0000000000 23.277000427  -999.250000  -999.250000  -999.250000 28.853000641 159.86849976 160.00000000 0.4587250650 157.38064575  -999.250000 0.0749974996
 163.39279175 1.0000000000 23.267999649  -999.250000  -999.250000  -999.250000 27.836999893 159.85459900 160.00000000 0.6014605165 158.07534790  -999.250000 0.0739974007
 163.54519653 1.0000000000 23.250000000  -999.250000  -999.250000  -999.250000 25.826999664 159.85475159 160.00000000 0.8868485689 158.69013977  -999.250000 0.0729999989
 163.69758606 1.0000000000 23.231000900  -999.250000  -999.250000  -999.250000 23.826999664 159.85556030 160.00000000 1.0497710705 158.98754883  -999.250000 0.0729974955
 163.84999084 1.0000000000 23.225997925  -999.250000  -999.250000  -999.250000 24.228000641 159.85655212 160.00000000 1.2010110617 158.86146545  -999.250000 0.0719973966
 164.00239563 1.0000000000 23.254999161  -999.250000  -999.250000  -999.250000 24.930000305 159.86769104 160.00000000 1.3993532658 158.19413757  -999.250000 0.0710000023
 164.15478516 1.0000000000 23.284000397  -999.250000  -999.250000  -999.250000 25.228000641 159.85556030 160.00000000 1.6644808054 157.44769287  -999.250000 0.0709974989
 164.30718994 1.0000000000 23.312999725  -999.250000  -999.250000  -999.250000 24.065999985 159.85459900 160.00000000 1.9511719942 158.44480896  -999.250000 0.0699974969
 164.45959473 1.0000000000 23.319000244  -999.250000  -999.250000  -999.250000 23.754999161 159.85475159 160.00000000 1.5920228958 159.70780945  -999.250000 0.0689999983
 164.61199951 1.0000000000 23.315999985  -999.250000  -999.250000  -999.250000 23.524000168 159.85556030 160.00000000 1.0135358572 160.96968079  -999.250000 0.0689973980
 164.76438904 1.0000000000 23.312000275  -999.250000  -999.250000  -999.250000 22.642000198 159.85655212 160.00000000 1.3105794191 162.19850159  -999.250000 0.0679975003
 164.91679382 1.0000000000 23.309000015  -999.250000  -999.250000  -999.250000 23.752000809 159.86755371 160.00000000 2.0098025799 162.84849548  -999.250000 0.0669974014
 165.06919861 1.0000000000 23.305999756  -999.250000  -999.250000  -999.250000 25.476999283 159.85475159 160.00000000 2.3614633083 161.92794800  -999.250000 0.0659973994
 165.22158813 2.0000000000 23.326999664  -999.250000  -999.250000  -999.250000 27.201000214 159.85556030 160.00000000 2.4514706135 161.13145447  -999.250000 0.0649973974
 165.37399292 2.0000000000 23.340000153  -999.250000  -999.250000  -999.250000 28.926000595 159.85459900 160.00000000 2.7461900711 162.05868530  -999.250000 0.0640135184
 165.52639771 2.0000000000 23.290000916  -999.250000  -999.250000  -999.250000 30.909999847 159.85670471 160.00000000 4.3356013298 162.49256897  -999.250000 0.0690378472
 165.67880249 2.0000000000 23.238998413  -999.250000  -999.250000  -999.250000 33.006999969 159.86849976 160.00000000 3.0895414352 161.05592346  -999.250000 0.0831405818
 165.83119202 2.0000000000 23.190000534  -999.250000  -999.250000  -999.250000 34.506000519 159.85459900 160.00000000 3.1979937553 157.07252502  -999.250000 0.1353081763
 165.98359680 4.0000000000 23.256000519  -999.250000  -999.250000  -999.250000 35.486000061 159.85475159 160.00000000 4.1746206284 148.02102661  -999.250000 0.2498407066
 166.13600159 4.0000000000 23.304000854  -999.250000  -999.250000  -999.250000 36.351001740 159.85556030 160.00000000 4.8676300049 141.72395325  -999.250000 0.5608055592
 166.28839111 2.0000000000 23.274000168  -999.250000  -999.250000  -999.250000 37.118000031 159.85655212 160.00000000 2.5214424133 135.92813110  -999.250000 0.8586039543
 166.44079590 2.0000000000 23.228000641  -999.250000  -999.250000  -999.250000 36.807998657 159.86769104 160.00000000 5.9211592674 130.29614258  -999.250000 1.0903730392
 166.59320068 2.0000000000 23.201999664  -999.250000  -999.250000  -999.250000 35.053001404 159.85556030 160.00000000 6.1390643120 125.86513519  -999.250000 1.2283785343
 166.74559021 2.0000000000 23.257999420  -999.250000  -999.250000  -999.250000 33.963001251 159.85459900 160.00000000 4.5918765068 121.43651581  -999.250000 1.3683723211
 166.89799500 2.0000000000 23.329999924  -999.250000  -999.250000  -999.250000 34.728000641 159.85475159 160.00000000 4.3816518784 117.52734375  -999.250000 1.5112622976
 167.05039978 4.0000000000 23.336999893  -999.250000  -999.250000  -999.250000 35.661998749 159.85556030 160.00000000 6.0639009476 113.67433929  -999.250000 1.6082595587
 167.20280457 4.0000000000 23.319999695  -999.250000  -999.250000  -999.250000 36.608001709 159.85655212 160.00000000 5.4777307510 109.82169342  -999.250000 1.7041974068
 167.35519409 4.0000000000 23.329999924  -999.250000  -999.250000  -999.250000 37.588001251 159.86755371 160.00000000 4.4885888100 106.32429504  -999.250000 1.7771270275
 167.50759888 4.0000000000 23.339000702  -999.250000  -999.250000  -999.250000 38.331001282 159.85475159 160.00000000 4.2163858414 102.89607239  -999.250000 1.8241215944
 167.66000366 4.0000000000 23.330999374  -999.250000  -999.250000  -999.250000 37.652000427 159.85556030 160.00000000 3.7134871483 99.773773193  -999.250000 1.8690567017
 167.81239319 2.0000000000 23.322999954  -999.250000  -999.250000  -999.250000 36.205001831 159.85459900 160.00000000 3.0527300835 99.706375122  -999.250000 1.8900703192
 167.96479797 2.0000000000 23.342000961  -999.250000  -999.250000  -999.250000 34.451000214 159.85670471 160.00000000 2.6181824207 97.644279480  -999.250000 1.9170324802
 168.11720276 2.0000000000 23.343000412  -999.250000  -999.250000  -999.250000 32.955001831 159.86849976 160.00000000 2.4618461132 94.563278198  -999.250000 1.9289703369
 168.26960754 2.0000000000 23.295999527  -999.250000  -999.250000  -999.250000 32.075000763 159.85459900 160.00000000 2.4326975346 91.482284546  -999.250000 1.9180053473
 168.42199707 2.0000000000 23.302999496  -999.250000  -999.250000  -999.250000 32.747001648 159.85475159 160.00000000 2.3760936260 88.406013489  -999.250000 1.9200404882
 168.57438660 2.0000000000 23.333000183  -999.250000  -999.250000  -999.250000 34.230850220 159.85556030 160.00000000 2.3940818310 86.307228088  -999.250000 1.9350910187
 168.72677612 4.0000000000 23.362001419  -999.250000  -999.250000  -999.250000 35.805683136 159.85655212 160.00000000 2.4100000858 84.480232239  -999.250000 1.9700576067
 168.87918091 4.0000000000 23.316999435  -999.250000  -999.250000  -999.250000 37.381843567 159.86770630 160.00000000 2.4102554321 83.156379700  -999.250000 1.9930000305
 169.03158569 4.0000000000 23.232997894  -999.250000  -999.250000  -999.250000 38.331905365 159.85556030 160.00000000 2.4618129730 81.873115540  -999.250000 1.9930391312
 169.18399048 4.0000000000 23.131999969  -999.250000  -999.250000  -999.250000 39.228908539 159.85459900 160.00000000 2.8181238174 80.554100037  -999.250000 2.0081222057
 169.33638000 4.0000000000 23.063999176  -999.250000  -999.250000  -999.250000 40.522869110 159.85475159 160.00000000 3.4192738533 79.231315613  -999.250000 2.0551152229
 169.48878479 4.0000000000 23.232002258  -999.250000  -999.250000  -999.250000 41.087944031 159.85556030 160.00000000 4.2578315735 77.934173584  -999.250000 2.1011197567
