# LAS format log file from PETREL
# Project units are specified as depth units
#==================================================================
~Version information
VERS.   2.0:
WRAP.   NO:
#==================================================================
~Well
STRT .m      162.32598877 :
STOP .m      3247.3605957 :
STEP .m     0.00000000 :
NULL .        -999.250000 :
COMP.           : COMPANY
WELL.  17/11-1   : WELL
FLD.            : FIELD
LOC.            : LOCATION
SRVC.           : SERVICE COMPANY
DATE.  2018-09-11 14:48:12   : Log Export Date {yyyy-MM-dd HH:mm:ss}
PROV.           : PROVINCE
UWI.   17/11-1   : UNIQUE WELL ID
API.            : API NUMBER
#==================================================================
~Curve
DEPT .m                   : DEPTH
Lithology_geolink ._      : Lithology_geolink
CALI .in                  : CALI
DRHO .g/cm3               : DRHO
NPHI .m3/m3               : NPHI
RHOB .g/cm3               : RHOB
GR .gAPI                  : GR
DTC .us/ft                : DTC
DTE .us/ft                : DTE
RDEP .ohm.m               : RDEP
SP .mV                    : SP
RSHA .ohm.m               : RSHA
RMED .ohm.m               : RMED
~Parameter
#==================================================================
~Ascii
# ...
 571.97741699 6.0000000000 13.008999825 0.0319935940 0.1284127235 1.9279614687 77.967262268 180.87362671 181.02517700 1.3719695807 38.113151550 0.8985955119 1.7870527506
 572.12982178 6.0000000000 13.187001228 0.0299903881 0.1290906966 1.9159935713 76.123641968 182.01835632 182.17895508 1.3680076599 37.936717987 0.7977436781 1.7980480194
 572.28216553 5.0000000000 12.946999550 0.0269831810 0.1292571127 1.9140141010 75.224998474 182.67889404 182.84849548 1.3690432310 37.668827057 0.7341838479 1.8080220222
 572.43457031 5.0000000000 12.706000328 0.0210252292 0.1284562349 1.9190757275 74.723999023 182.12307739 182.30314636 1.3750721216 37.174407959 0.7853496671 1.8130087852
 572.58697510 5.0000000000 12.704999924 0.0300364438 0.1274195910 1.9461121559 75.017997742 180.99488831 181.11689758 1.3851009607 36.587543488 0.8816323876 1.8150177002
 572.73937988 5.0000000000 12.696998596 0.0430336408 0.1273144633 1.9860364199 75.875999451 179.61708069 179.78172302 1.3990937471 36.257095337 0.7807391286 1.8190308809
 572.89178467 6.0000000000 12.956000328 0.0549719669 0.1285212040 1.9989887476 77.478996277 179.04930115 179.24653625 1.4120647907 36.052642822 0.9846916199 1.8260396719
 573.04412842 6.0000000000 13.097000122 0.0450216271 0.1213383004 1.9950144291 78.930999756 178.97923279 179.12768555 1.4210340977 35.972476959 0.9082811475 1.8350321054
 573.19653320 6.0000000000 13.260999680 0.0539735705 0.1153606549 2.0009880066 80.166999817 178.90388489 179.00878906 1.4260408878 36.091915131 0.9854846001 1.8430044651
 573.34893799 5.0000000000 13.503999710 0.0429423340 0.1210865155 1.9958943129 78.916000366 178.70930481 178.86827087 1.4320409298 36.300373077 0.8426359296 1.8439911604
 573.50134277 5.0000000000 13.413999557 0.0190216340 0.1256333441 1.9519735575 75.877998352 178.49008179 178.66545105 1.4380476475 36.611495972 0.7425982952 1.8420132399
 573.65374756 5.0000000000 13.260999680 0.0280700848 0.1210221350 1.9410028458 73.007003784 178.89836121 179.08387756 1.4450681210 36.723476410 0.9076071382 1.8450309038
 573.80615234 5.0000000000 13.142000198 0.0529803745 0.1188438758 1.9419803619 71.665000916 180.00721741 180.14939880 1.4550288916 36.605247498 0.7989207506 1.8520441055
 573.95855713 5.0000000000 12.887999535 0.0459747687 0.1171475127 1.9349634647 70.793998718 180.96870422 181.16371155 1.4590288401 36.661312103 0.7775658965 1.8620483875
 574.11096191 5.0000000000 12.531999588 0.0369943939 0.1164866090 1.9220392704 70.886001587 181.80082703 181.97917175 1.4630000591 36.732051849 0.9340288639 1.8730044365
 574.26336670 6.0000000000 12.805998802 0.0349887870 0.1238526553 1.9359831810 72.972000122 181.33280945 181.49467468 1.4629567862 36.744483948 0.9417476654 1.8739734888
 574.41577148 6.0000000000 13.069000244 0.0310140159 0.1270031631 1.9300055504 74.747001648 180.30630493 180.45408630 1.4569495916 36.854804993 0.8720468283 1.8679647446
 574.56817627 6.0000000000 12.934000015 0.0360448509 0.1277920008 1.9320504665 76.280998230 180.39918518 180.55476379 1.4499711990 37.037319183 0.8847441077 1.8599647284
 574.72058105 6.0000000000 12.852000237 0.0520196259 0.1282891929 1.9500477314 78.600997925 180.70651245 180.86608887 1.4459855556 37.110019684 0.8138197064 1.8519647121
 574.87298584 6.0000000000 13.149000168 0.0589439347 0.1280892342 1.9669495821 79.387001038 180.99349976 181.17758179 1.4440000057 37.114772797 0.7647529244 1.8439779282
 575.02539063 6.0000000000 13.321000099 0.0389607549 0.1279007643 1.9489411116 78.705001831 181.30729675 181.48898315 1.4440000057 37.291267395 0.9514353275 1.8389779329
 575.17773438 6.0000000000 13.666000366 0.0249975976 0.1280892044 1.9279855490 77.227996826 181.65345764 181.75154114 1.4439932108 37.578018188 0.8113748431 1.8339823484
 575.33013916 6.0000000000 14.028999329 0.0239975974 0.1278592199 1.9219952822 76.485000610 181.52636719 181.68090820 1.4429999590 37.808322906 0.9146143794 1.8299868107
 575.48254395 6.0000000000 13.631999969 0.0230024029 0.1248748824 1.9199951887 75.760002136 181.34756470 181.52731323 1.4429999590 37.881977081 0.8082451224 1.8270044327
 575.63494873 6.0000000000 13.702000618 0.0240144227 0.1234627590 1.9179903269 75.483001709 181.18452454 181.37370300 1.4429999590 37.876449585 0.8763459921 1.8280220032
 575.78735352 5.0000000000 13.371001244 0.0299943928 0.1241502836 1.9139720201 74.160003662 181.10127258 181.22012329 1.4430215359 37.751091003 0.9711205363 1.8330131769
 575.93975830 5.0000000000 13.189999580 0.0280168205 0.1242237240 1.9040560722 73.805000305 180.87864685 181.06658936 1.4460288286 37.545097351 0.7286019325 1.8359911442
 576.09216309 5.0000000000 12.832999229 0.0339943953 0.1251513362 1.9240672588 74.017997742 180.75157166 180.91300964 1.4500216246 37.340621948 0.8949387074 1.8339911699
 576.24456787 5.0000000000 12.718999863 0.0319803767 0.1254798025 1.9480140209 73.364997864 180.61216736 180.79852295 1.4530215263 37.253948212 0.8779892325 1.8320000172
 576.39697266 5.0000000000 13.009999275 0.0249803681 0.1254321635 1.9529466629 71.777999878 180.72351074 180.91902161 1.4560359716 37.015285492 0.8753099442 1.8320044279
 576.54937744 5.0000000000 12.805000305 0.0180416498 0.1259761751 1.9340096712 71.037002563 180.75318909 180.89582825 1.4610288143 36.853248596 0.9603224397 1.8330043554
 576.70178223 5.0000000000 12.369999886 0.0310512614 0.1275135428 1.9370353222 70.476997375 180.45729065 180.87272644 1.4650216103 36.681610107 0.7734649777 1.8340044022
 576.85418701 5.0000000000 12.126000404 0.0470288321 0.1283907145 1.9480255842 71.179000854 179.46389771 180.84963989 1.4680072069 36.366348267 0.9017079473 1.8350000381
 577.00659180 5.0000000000 12.258000374 0.0560288355 0.1285720915 1.9560256004 71.642997742 179.46389771 180.82653809 1.4689422846 35.991710663 0.8211761713 1.8349735737
 577.15899658 5.0000000000 12.538000107 0.0650224239 0.1290918887 1.9639903307 71.772003174 179.45599365 180.80342102 1.4609206915 35.699802399 0.8644112945 1.8289514780
 577.31134033 5.0000000000 12.642999649 0.0719803721 0.1295583546 1.9609410763 72.392997742 179.40429688 180.78024292 1.4499251842 35.655452728 0.7187064290 1.8179558516
 577.46374512 5.0000000000 12.616999626 0.0649383217 0.1290955245 1.9399384260 72.900001526 179.39642334 180.75714111 1.4389046431 35.759162903 0.9142991304 1.8079646826
 577.61614990 5.0000000000 12.446000099 0.0429355241 0.1278586388 1.9179410934 73.500000000 179.34469604 180.73460388 1.4248842001 36.023754120 0.9961889982 1.7999515533
 577.76855469 5.0000000000 12.406000137 0.0200168192 0.1274833679 1.8969999552 74.228996277 179.34469604 180.71820068 1.4078705311 36.421787262 0.7722486854 1.7889295816
 577.92095947 5.0000000000 12.166000366 0.0260420516 0.1283225566 1.8969999552 73.190002441 179.34469604 180.71820068 1.3888415098 36.827739716 0.8412523270 1.7729119062
 578.07336426 5.0000000000 12.232000351 0.0409747697 0.1289605945 1.8969775438 72.276000977 179.34469604 180.71820068 1.3668774366 37.222225189 0.9106287956 1.7529295683
 578.22576904 5.0000000000 12.329999924 0.0319719687 0.1291115284 1.8889747858 72.140998840 179.34469604 180.71820068 1.3499279022 37.499538422 0.8082486987 1.7369779348
 578.37817383 5.0000000000 12.427000999 0.0220168196 0.1294924021 1.8800112009 71.745002747 179.34469604 180.71820068 1.3399711847 37.620765686 0.8771657944 1.7319999933
 578.53057861 5.0000000000 12.519001007 0.0280168280 0.1300915182 1.8840223551 71.003997803 179.34632874 180.71820068 1.3359566927 37.567867279 0.9226936102 1.7320088148
 578.68298340 5.0000000000 12.449999809 0.0340064093 0.1304713488 1.8919999599 70.263000488 179.35536194 180.71820068 1.3299928904 37.538085938 0.8383243680 1.7340087891
 578.83538818 5.0000000000 12.352999687 0.0359455347 0.1308112890 1.8919487000 69.658996582 179.33679199 180.71820068 1.3290684223 37.557964325 0.9278124571 1.7360087633
 578.98779297 5.0000000000 12.295000076 0.0189679600 0.1311291158 1.8759487867 69.614997864 179.29299927 180.71820068 1.3380990028 37.549514771 0.8757877350 1.7380176783
 579.14019775 5.0000000000 12.293000221 0.0090096109 0.1308924556 1.8600128889 69.830001831 179.34469604 180.71820068 1.3510912657 37.439071655 0.8227356672 1.7420176268
