# LAS format log file from PETREL
# Project units are specified as depth units
#==================================================================
~Version information
VERS.   2.0:
WRAP.   NO:
#==================================================================
~Well
STRT .m      162.32598877 :
STOP .m      3247.3605957 :
STEP .m     0.00000000 :
NULL .        -999.250000 :
COMP.           : COMPANY
WELL.  17/11-1   : WELL
FLD.            : FIELD
LOC.            : LOCATION
SRVC.           : SERVICE COMPANY
DATE.  2018-09-11 14:48:12   : Log Export Date {yyyy-MM-dd HH:mm:ss}
PROV.           : PROVINCE
UWI.   17/11-1   : UNIQUE WELL ID
API.            : API NUMBER
#==================================================================
~Curve
DEPT .m                   : DEPTH
Lithology_geolink ._      : Lithology_geolink
CALI .in                  : CALI
DRHO .g/cm3               : DRHO
NPHI .m3/m3               : NPHI
RHOB .g/cm3               : RHOB
GR .gAPI                  : GR
DTC .us/ft                : DTC
DTE .us/ft                : DTE
RDEP .ohm.m               : RDEP
SP .mV                    : SP
RSHA .ohm.m               : RSHA
RMED .ohm.m               : RMED
~Parameter
#==================================================================
~Ascii
# ...
 367.15167236 4.0000000000 20.055000305  -999.250000  -999.250000  -999.250000 48.033000946 159.86041260 160.00000000 1.6489940882 41.857185364  -999.250000 1.6990102530
 367.30407715 4.0000000000 20.111999512  -999.250000  -999.250000  -999.250000 49.384998322 159.88047791 160.00000000 1.6480000019 41.656501770  -999.250000 1.7020272017
 367.45648193 4.0000000000 20.173000336  -999.250000  -999.250000  -999.250000 49.895999908 159.85459900 160.00000000 1.6479940414 42.249099731  -999.250000 1.7100341320
 367.60888672 4.0000000000 20.184999466  -999.250000  -999.250000  -999.250000 50.418998718 159.85459900 160.00000000 1.6471054554 42.274566650  -999.250000 1.7200409174
 367.76129150 4.0000000000 20.186000824  -999.250000  -999.250000  -999.250000 50.356998444 159.85459900 160.00000000 1.6641862392 42.645141602  -999.250000 1.7320374250
 367.91369629 4.0000000000 20.184000015  -999.250000  -999.250000  -999.250000 50.294998169 159.85459900 160.00000000 1.6941862106 42.441986084  -999.250000 1.7430102825
 368.06607056 5.0000000000 20.170000076  -999.250000  -999.250000  -999.250000 50.292999268 159.85488892 160.00000000 1.7241021395 42.439311981  -999.250000 1.7459820509
 368.21847534 5.0000000000 20.156000137  -999.250000  -999.250000  -999.250000 50.495998383 159.85649109 160.00000000 1.7409099340 42.768672943  -999.250000 1.7409784794
 368.37088013 5.0000000000 20.137998581  -999.250000  -999.250000  -999.250000 52.615001678 159.85459900 160.00000000 1.7259098291 43.433986664  -999.250000 1.7350000143
 368.52328491 5.0000000000 20.111999512  -999.250000  -999.250000  -999.250000 54.189998627 159.85459900 160.00000000 1.7108497620 43.430984497  -999.250000 1.7350071669
 368.67568970 5.0000000000 20.086000443  -999.250000  -999.250000  -999.250000 55.319999695 159.85459900 160.00000000 1.6857889891 43.426139832  -999.250000 1.7369999886
 368.82809448 5.0000000000 20.045999527  -999.250000  -999.250000  -999.250000 55.268001556 159.85853577 160.00000000 1.6520558596 43.222988129  -999.250000 1.7370303869
 368.98049927 5.0000000000 20.009000778  -999.250000  -999.250000  -999.250000 53.569999695 159.88075256 160.00000000 1.6611490250 43.220832825  -999.250000 1.7449847460
 369.13287354 5.0000000000 20.010000229  -999.250000  -999.250000  -999.250000 52.132999420 159.85649109 160.00000000 1.6851440668 43.417987823  -999.250000 1.7410072088
 369.28527832 5.0000000000 19.930999756  -999.250000  -999.250000  -999.250000 50.877998352 159.85459900 160.00000000 1.7091441154 43.414989471  -999.250000 1.7430071831
 369.43768311 5.0000000000 19.795000076  -999.250000  -999.250000  -999.250000 51.362998962 159.85459900 160.00000000 1.7330601215 43.407863617  -999.250000 1.7450144291
 369.59008789 5.0000000000 19.812999725  -999.250000  -999.250000  -999.250000 51.848999023 159.85459900 160.00000000 1.7430124283 42.429733276  -999.250000 1.7490108013
 369.74249268 5.0000000000 19.826999664  -999.250000  -999.250000  -999.250000 52.554000854 159.85459900 160.00000000 1.7450124025 42.603832245  -999.250000 1.7519855499
 369.89489746 5.0000000000 19.840999603  -999.250000  -999.250000  -999.250000 53.328998566 159.85488892 160.00000000 1.7470185757 42.801235199  -999.250000 1.7480038404
 370.04730225 5.0000000000 19.857000351  -999.250000  -999.250000  -999.250000 53.655998230 159.85649109 160.00000000 1.7500123978 42.856258392  -999.250000 1.7490113974
 370.19967651 5.0000000000 19.929000854  -999.250000  -999.250000  -999.250000 53.186000824 159.85459900 160.00000000 1.7520179749 42.681449890  -999.250000 1.7520288229
 370.35208130 5.0000000000 20.087999344  -999.250000  -999.250000  -999.250000 53.122001648 159.85852051 160.00000000 1.7550120354 42.792987823  -999.250000 1.7600144148
 370.50448608 5.0000000000 20.153999329  -999.250000  -999.250000  -999.250000 54.425998688 159.88047791 160.00000000 1.7569819689 42.789146423  -999.250000 1.7639856339
 370.65689087 5.0000000000 20.115999222  -999.250000  -999.250000  -999.250000 55.073001862 159.85459900 160.00000000 1.7539751530 42.586990356  -999.250000 1.7599784136
 370.80929565 5.0000000000 20.045999527  -999.250000  -999.250000  -999.250000 56.238998413 159.85459900 160.00000000 1.7499752045 42.583145142  -999.250000 1.7539746761
 370.96170044 5.0000000000 19.982000351  -999.250000  -999.250000  -999.250000 57.285999298 159.85488892 160.00000000 1.7459744215 42.380146027  -999.250000 1.7469733953
 371.11407471 5.0000000000 19.930000305  -999.250000  -999.250000  -999.250000 57.647998810 159.85649109 160.00000000 1.7419751883 42.177188873  -999.250000 1.7399964333
 371.26647949 5.0000000000 19.878000259  -999.250000  -999.250000  -999.250000 57.203998566 159.85459900 160.00000000 1.7379814386 41.974990845  -999.250000 1.7390215397
 371.41888428 5.0000000000 19.912002563  -999.250000  -999.250000  -999.250000 56.969001770 159.85459900 160.00000000 1.7349938154 41.975276947  -999.250000 1.7450215816
 371.57128906 5.0000000000 19.968000412  -999.250000  -999.250000  -999.250000 56.923999786 159.84281921 159.98933411 1.7339999676 42.517768860  -999.250000 1.7510144711
 371.72369385 5.0000000000 19.988000870  -999.250000  -999.250000  -999.250000 56.284000397 159.68273926 159.83476257 1.7339935303 43.173995972  -999.250000 1.7549999952
 371.87609863 5.0000000000 19.955999374  -999.250000  -999.250000  -999.250000 54.907001495 159.10034180 159.23739624 1.7330000401 43.174674988  -999.250000 1.7549847364
 372.02850342 5.0000000000 19.910999298  -999.250000  -999.250000  -999.250000 54.931999207 159.00436401 159.12220764 1.7331154346 43.570987701  -999.250000 1.7510000467
 372.18087769 5.0000000000 19.878000259  -999.250000  -999.250000  -999.250000 55.514999390 160.07890320 160.21606445 1.7509628534 43.569431305  -999.250000 1.7510000467
 372.33328247 5.0000000000 19.849000931  -999.250000  -999.250000  -999.250000 56.150001526 160.11958313 160.26277161 1.7449690104 43.923900604  -999.250000 1.7509964705
 372.48568726 5.0000000000 19.819999695  -999.250000  -999.250000  -999.250000 56.965000153 159.67025757 159.82475281 1.7399679422 43.649765015  -999.250000 1.7500000000
 372.63809204 5.0000000000 19.850999832  -999.250000  -999.250000  -999.250000 56.907001495 159.36671448 159.52186584 1.7349615097 43.357826233  -999.250000 1.7499855757
 372.79049683 5.0000000000 19.825000763  -999.250000  -999.250000  -999.250000 56.451000214 158.90519714 159.06129456 1.7289038897 43.553989410  -999.250000 1.7460000515
 372.94290161 5.0000000000 19.785999298  -999.250000  -999.250000  -999.250000 55.741001129 158.98759460 159.14768982 1.7138526440 43.551364899  -999.250000 1.7460153103
 373.09530640 5.0000000000 19.782999039  -999.250000  -999.250000  -999.250000 55.782001495 159.39912415 159.55726624 1.6910256147 43.636238098  -999.250000 1.7500000000
 373.24768066 5.0000000000 19.868000031  -999.250000  -999.250000  -999.250000 55.703998566 159.74325562 159.88706970 1.6950248480 43.217075348  -999.250000 1.7499855757
 373.40008545 5.0000000000 19.812000275  -999.250000  -999.250000  -999.250000 55.701000214 159.80285645 159.93673706 1.6990247965 42.736377716  -999.250000 1.7459856272
 373.55249023 5.0000000000 19.739000320  -999.250000  -999.250000  -999.250000 55.872001648 159.85067749 159.98078918 1.7030255795 42.332141876  -999.250000 1.7419999838
 373.70489502 5.0000000000 19.787000656  -999.250000  -999.250000  -999.250000 55.936000824 159.80908203 159.95246887 1.7070641518 42.129829407  -999.250000 1.7420144081
 373.85729980 5.0000000000 19.816999435  -999.250000  -999.250000  -999.250000 55.227001190 159.68228149 159.84230042 1.7171025276 42.325988770  -999.250000 1.7460108995
 374.00970459 5.0000000000 19.847000122  -999.250000  -999.250000  -999.250000 54.116001129 159.47750854 159.63490295 1.7331089973 42.322986603  -999.250000 1.7489999533
 374.16210938 5.0000000000 19.839000702  -999.250000  -999.250000  -999.250000 53.540000916 159.11973572 159.27676392 1.7501025200 42.318988800  -999.250000 1.7489999533
 374.31448364 5.0000000000 19.796998978  -999.250000  -999.250000  -999.250000 53.298999786 159.04144287 159.19743347 1.7660993338 42.316318512  -999.250000 1.7489855289
