# LAS format log file from PETREL
# Project units are specified as depth units
#==================================================================
~Version information
VERS.   2.0:
WRAP.   NO:
#==================================================================
~Well
STRT .m      162.32598877 :
STOP .m      3247.3605957 :
STEP .m     0.00000000 :
NULL .        -999.250000 :
COMP.           : COMPANY
WELL.  17/11-1   : WELL
FLD.            : FIELD
LOC.            : LOCATION
SRVC.           : SERVICE COMPANY
DATE.  2018-09-11 14:48:12   : Log Export Date {yyyy-MM-dd HH:mm:ss}
PROV.           : PROVINCE
UWI.   17/11-1   : UNIQUE WELL ID
API.            : API NUMBER
#==================================================================
~Curve
DEPT .m                   : DEPTH
Lithology_geolink ._      : Lithology_geolink
CALI .in                  : CALI
DRHO .g/cm3               : DRHO
NPHI .m3/m3               : NPHI
RHOB .g/cm3               : RHOB
GR .gAPI                  : GR
DTC .us/ft                : DTC
DTE .us/ft                : DTE
RDEP .ohm.m               : RDEP
SP .mV                    : SP
RSHA .ohm.m               : RSHA
RMED .ohm.m               : RMED
~Parameter
#==================================================================
~Ascii
# ...
 2415.4086914 4.0000000000 12.266999245 0.0673317313  -999.250000 2.5004470348 50.477977753 86.816390991 86.808593750 2.2159152031  -999.250000 0.3840192258  -999.250000
 2415.5610352 4.0000000000 12.173999786 0.0900000036  -999.250000 2.5309567451 52.336380005 86.816390991 86.811485291 2.2676410675  -999.250000 0.3959231973  -999.250000
 2415.7133789 5.0000000000 12.097000122 0.0899567306  -999.250000 2.5280866623 53.820999146 86.816390991 86.814300537 2.3071923256  -999.250000 0.3479999900  -999.250000
 2415.8659668 5.0000000000 12.085000038 0.0867599994  -999.250000 2.5334558487 55.307197571 86.830062866 86.817199707 2.3184711933  -999.250000 0.3859791756  -999.250000
 2416.0183105 5.0000000000 12.019000053 0.0719567314  -999.250000 2.4999711514 55.430000305 86.901931763 86.820098877 2.2880847454  -999.250000 0.3730480671  -999.250000
 2416.1706543 5.0000000000 11.928999901 0.0690432638  -999.250000 2.4979999065 55.429111481 86.816390991 86.823005676 2.2360703945  -999.250000 0.4032208025  -999.250000
 2416.3229980 5.0000000000 12.042000771 0.0722596124  -999.250000 2.4982161522 55.498001099 86.816390991 86.825889587 2.1780383587  -999.250000 0.5410000086  -999.250000
 2416.4753418 5.0000000000 12.281000137 0.0900576040  -999.250000 2.5130577087 56.101001740 86.829902649 86.828697205 2.1182308197  -999.250000 0.4639999866  -999.250000
 2416.6279297 5.0000000000 12.479999542 0.0939567313  -999.250000 2.5168125629 58.144027710 86.901931763 86.831596375 2.0706655979  -999.250000 0.4061698616  -999.250000
 2416.7802734 5.0000000000 12.572999954 0.0904663429  -999.250000 2.5035383701 58.156620026 86.816390991 86.834495544 2.0520641804  -999.250000 0.5123168230  -999.250000
 2416.9326172 5.0000000000 12.656000137 0.0539134629  -999.250000 2.4719421864 55.423999786 86.816390991 86.837387085 2.0565288067  -999.250000 0.7099999785  -999.250000
 2417.0849609 5.0000000000 12.676000595 0.0480865389  -999.250000 2.4682018757 55.423000336 86.830039978 86.840194702 2.0897691250  -999.250000 1.0390000343  -999.250000
 2417.2375488 5.0000000000 12.694999695 0.0541440025  -999.250000 2.4822721481 54.017959595 86.901931763 86.843093872 2.1381988525  -999.250000 1.1010961533  -999.250000
 2417.3898926 5.0000000000 12.708000183 0.0630432665  -999.250000 2.4991154671 52.122253418 87.013610840 87.034049988 2.2062847614  -999.250000 1.1607853174  -999.250000
 2417.5422363 5.0000000000 12.680999756 0.0659999996  -999.250000 2.5069711208 51.037136078 88.247398376 88.202362061 2.2792501450  -999.250000 1.0267695189  -999.250000
 2417.6945801 5.0000000000 12.654000282 0.0659423098  -999.250000 2.5048415661 52.993999481 88.280212402 88.169799805 2.3571376801  -999.250000 0.8830000162  -999.250000
 2417.8471680 5.0000000000 12.649999619 0.0619679987  -999.250000 2.4940159321 53.838283539 88.499206543 88.417045593 2.4279344082  -999.250000 0.8223782182  -999.250000
 2417.9995117 5.0000000000 12.645001411 0.0601298064  -999.250000 2.4950287342 54.640125275 88.602096558 88.635307312 2.4798943996  -999.250000 1.0579310656  -999.250000
 2418.1518555 5.0000000000 12.621998787 0.0689423084  -999.250000 2.4969422817 57.206123352 88.724502563 88.664253235 2.4726858139  -999.250000 1.0144608021  -999.250000
 2418.3041992 5.0000000000 12.608000755 0.0651153848  -999.250000 2.4934759140 54.787998199 88.724502563 88.665374756 2.3911345005  -999.250000 0.6779999733  -999.250000
 2418.4565430 5.0000000000 12.607000351 0.0729999989  -999.250000 2.5263311863 53.020999908 88.704933167 88.666549683 2.3381602764  -999.250000 0.7369999886  -999.250000
 2418.6091309 5.0000000000 12.607000351 0.0728846118  -999.250000 2.5489711761 53.823020935 88.602294922 88.667655945 2.3494081497  -999.250000 0.7835496664  -999.250000
 2418.7614746 5.0000000000 12.590000153 0.0652451888  -999.250000 2.5474903584 53.217414856 88.724502563 88.668769836 2.4285609722  -999.250000 0.5028848052  -999.250000
 2418.9138184 5.0000000000 12.532999039 0.0818413496  -999.250000 2.5809712410 56.596000671 88.724502563 88.669952393 2.4624872208  -999.250000 0.4309999943  -999.250000
 2419.0661621 5.0000000000 12.465999603 0.0708269253  -999.250000 2.5789134502 57.555999756 88.724502563 88.671051025 2.4311602116  -999.250000 0.6000000238  -999.250000
 2419.2187500 5.0000000000 12.428999901 0.0588239990  -999.250000 2.5726480484 58.749523163 88.704704285 88.672164917 2.4412992001  -999.250000 0.8981618881  -999.250000
 2419.3710938 5.0000000000 12.420000076 0.0481011234  -999.250000 2.5510723591 60.316661835 88.602264404 88.673355103 2.4585287571  -999.250000 0.9991410375  -999.250000
 2419.5234375 5.0000000000 12.463999748 0.0552879982  -999.250000 2.5563199520 58.232112885 88.724502563 88.674453735 2.4906795025  -999.250000 1.0867440701  -999.250000
 2419.6757813 5.0000000000 12.482000351 0.0729999989  -999.250000 2.5757837296 54.560001373 88.724502563 88.675559998 2.4704389572  -999.250000 0.9269999862  -999.250000
 2419.8283691 5.0000000000 12.482000351 0.0725192279  -999.250000 2.5603430271 54.316822052 88.704704285 88.676742554 2.4361763000  -999.250000 0.8418798447  -999.250000
 2419.9807129 5.0000000000 12.484999657 0.0428717956  -999.250000 2.5202243328 54.204257965 88.602294922 88.677848816 2.4456832409  -999.250000 0.7666939497  -999.250000
 2420.1330566 4.0000000000 12.536999702 0.0351920016  -999.250000 2.5342400074 53.114170074 88.724502563 88.678970337 2.4276154041  -999.250000 0.5760799646  -999.250000
 2420.2854004 4.0000000000 12.519001007 0.0472019203  -999.250000 2.5492596626 50.723999023 88.724502563 88.680152893 2.4036154747  -999.250000 0.6259999871  -999.250000
 2420.4377441 4.0000000000 12.446999550 0.0609423071  -999.250000 2.5670430660 50.021999359 88.606475830 88.556541443 2.3795192242  -999.250000 0.8220000267  -999.250000
 2420.5903320 5.0000000000 12.373999596 0.0566474348  -999.250000 2.5695993900 50.432434082 87.721473694 87.646385193 2.3503167629  -999.250000 1.1200768948  -999.250000
 2420.7426758 5.0000000000 12.369001389 0.0347756408  -999.250000 2.5446155071 52.573326111 87.181594849 87.198829651 2.3686571121  -999.250000 1.1674703360  -999.250000
 2420.8950195 5.0000000000 12.397000313 0.0210320000  -999.250000 2.5207920074 53.402000427 89.341392517 89.323364258 2.4093525410  -999.250000 0.8370000124  -999.250000
 2421.0473633 5.0000000000 12.362999916 0.0229134616  -999.250000 2.5079133511 52.287998199 88.527267456 88.471199036 2.4316570759  -999.250000 1.1289999485  -999.250000
 2421.1999512 5.0000000000 12.336000443 0.0169839747  -999.250000 2.5020320415 50.876934052 87.340332031 87.315650940 2.4710142612  -999.250000 1.0570209026  -999.250000
 2421.3522949 5.0000000000 12.328000069 0.0162403844  -999.250000 2.5044646263 52.082950592 87.516738892 87.609069824 2.4144134521  -999.250000 1.0698734522  -999.250000
 2421.5046387 5.0000000000 12.312000275 0.0312879980  -999.250000 2.5334000587 53.299373627 87.046485901 87.032264709 2.3163268566  -999.250000 0.9910352230  -999.250000
 2421.6569824 5.0000000000 12.295999527 0.0491298065  -999.250000 2.5581154823 54.157001495 88.453025818 88.441490173 2.2745673656  -999.250000 1.0130000114  -999.250000
 2421.8095703 5.0000000000 12.310999870 0.0579198711  -999.250000 2.5658237934 56.212337494 88.260925293 88.185913086 2.2484757900  -999.250000 0.9136233926  -999.250000
 2421.9619141 5.0000000000 12.312999725 0.0528076924  -999.250000 2.5548076630 57.044178009 88.397392273 88.481506348 2.2746832371  -999.250000 0.6795304418  -999.250000
 2422.1142578 5.0000000000 12.312000275 0.0409680009  -999.250000 2.5430800915 55.281360626 88.492095947 88.487876892 2.2568876743  -999.250000 1.0104992390  -999.250000
 2422.2666016 5.0000000000 12.310999870 0.0391009636  -999.250000 2.5480144024 53.011001587 87.120643616 87.107543945 2.2517468929  -999.250000 1.3220000267  -999.250000
 2422.4189453 5.0000000000 12.328000069 0.0461442322  -999.250000 2.5491008759 53.311000824 87.512603760 87.453720093 2.3607628345  -999.250000 1.3389999866  -999.250000
 2422.5715332 4.0000000000 12.298999786 0.0559198745  -999.250000 2.5558075905 53.031391144 87.178649902 87.150817871 2.4692640305  -999.250000 1.0464454889  -999.250000
