# LAS format log file from PETREL
# Project units are specified as depth units
#==================================================================
~Version information
VERS.   2.0:
WRAP.   NO:
#==================================================================
~Well
STRT .m      162.32598877 :
STOP .m      3247.3605957 :
STEP .m     0.00000000 :
NULL .        -999.250000 :
COMP.           : COMPANY
WELL.  17/11-1   : WELL
FLD.            : FIELD
LOC.            : LOCATION
SRVC.           : SERVICE COMPANY
DATE.  2018-09-11 14:48:12   : Log Export Date {yyyy-MM-dd HH:mm:ss}
PROV.           : PROVINCE
UWI.   17/11-1   : UNIQUE WELL ID
API.            : API NUMBER
#==================================================================
~Curve
DEPT .m                   : DEPTH
Lithology_geolink ._      : Lithology_geolink
CALI .in                  : CALI
DRHO .g/cm3               : DRHO
NPHI .m3/m3               : NPHI
RHOB .g/cm3               : RHOB
GR .gAPI                  : GR
DTC .us/ft                : DTC
DTE .us/ft                : DTE
RDEP .ohm.m               : RDEP
SP .mV                    : SP
RSHA .ohm.m               : RSHA
RMED .ohm.m               : RMED
~Parameter
#==================================================================
~Ascii
# ...
 2210.5830078 3.0000000000 13.649999619 0.0128990384  -999.250000 2.4380431175 58.898349762 88.313156128 88.177246094 1.3724904060  -999.250000 0.3770480752  -999.250000
 2210.7353516 3.0000000000 13.486999512 0.0062016002  -999.250000 2.4409999847 46.644805908 88.934661865 88.996330261 1.7835481167  -999.250000 0.4069198668  -999.250000
 2210.8876953 3.0000000000 13.270999908 0.0201282054  -999.250000 2.4410383701 39.034000397 89.611907959 89.744438171 2.5750398636  -999.250000 0.3571714759  -999.250000
 2211.0400391 3.0000000000 12.968000412 0.0299999993  -999.250000 2.4442691803 36.933998108 84.343971252 84.244003296 3.8953220844  -999.250000 0.4638589621  -999.250000
 2211.1926270 3.0000000000 12.713000298 0.0299423076  -999.250000 2.4657211304 34.746273041 75.237358093 75.321289063 5.7103137970  -999.250000 0.3759071827  -999.250000
 2211.3449707 3.0000000000 12.781000137 0.0258416012  -999.250000 2.5158209801 29.926435471 67.826850891 67.829483032 6.6953010559  -999.250000 0.3470192254  -999.250000
 2211.4973145 3.0000000000 12.817999840 0.0151025634  -999.250000 2.5725641251 26.454999924 64.135437012 64.118362427 5.6425600052  -999.250000 0.3590624928  -999.250000
 2211.6496582 16.000000000 12.791000366 0.0231410265  -999.250000 2.6159870625 23.936000824 65.728569031 65.715423584 3.9417307377  -999.250000 0.3985192180  -999.250000
 2211.8022461 16.000000000 12.671999931 0.0341442339  -999.250000 2.6146538258 22.913188934 67.423255920 67.402946472 3.0287821293  -999.250000 0.7259904146  -999.250000
 2211.9545898 16.000000000 12.584000587 0.0440288000  -999.250000 2.5903377533 23.034389496 68.747230530 68.701316833 2.6445000172  -999.250000 1.9729182720  -999.250000
 2212.1069336 16.000000000 12.522998810 0.0458846167  -999.250000 2.5442435741 25.154256821 70.943344116 70.874633789 2.4899759293  -999.250000 4.4129261971  -999.250000
 2212.2592773 3.0000000000 12.439000130 0.0370512828  -999.250000 2.4854359627 30.305999756 74.466079712 74.507400513 2.4261634350  -999.250000 3.7419791222  -999.250000
 2212.4118652 3.0000000000 12.392000198 0.0413173102  -999.250000 2.4414229393 40.987579346 83.394752502 83.486389160 2.3681507111  -999.250000 2.4807024002  -999.250000
 2212.5642090 5.0000000000 12.375999451 0.0630288497  -999.250000 2.4015672207 49.446670532 86.585556030 86.603851318 2.3156795502  -999.250000 1.7638797760  -999.250000
 2212.7165527 5.0000000000 12.463999748 0.0644816011  -999.250000 2.3721871376 47.999813080 90.268943787 90.183837891 2.2951025963  -999.250000 1.0655592680  -999.250000
 2212.8688965 5.0000000000 12.670000076 0.0288846139  -999.250000 2.3857691288 51.005001068 84.963630676 84.957679749 2.2379200459  -999.250000 0.7908766270  -999.250000
 2213.0212402 5.0000000000 12.852000237 0.0199999996  -999.250000 2.4453077316 51.555000305 84.899536133 84.906059265 2.1092209816  -999.250000 0.7134903669  -999.250000
 2213.1738281 5.0000000000 12.961000443 0.0199423078  -999.250000 2.4688847065 53.093418121 86.273658752 86.284309387 2.0567853451  -999.250000 0.3962687850  -999.250000
 2213.3261719 5.0000000000 13.001999855 0.0159568004  -999.250000 2.4607696533 53.976173401 86.223968506 86.194259644 2.1057691574  -999.250000 0.4809583127  -999.250000
 2213.4785156 5.0000000000 13.003001213 0.0130256414  -999.250000 2.4448974133 52.835998535 88.499206543 88.567077637 2.1530160904  -999.250000 1.0779342651  -999.250000
 2213.6308594 5.0000000000 12.972998619 0.0149999997  -999.250000 2.4370641708 51.124000549 88.503570557 88.503738403 2.1537404060  -999.250000 1.0373172760  -999.250000
 2213.7834473 3.0000000000 12.902999878 0.0150576923  -999.250000 2.4422883987 47.963012695 87.745941162 87.649696350 2.1358237267  -999.250000 1.2346223593  -999.250000
 2213.9357910 3.0000000000 12.798000336 0.0189711992  -999.250000 2.4623167515 44.853229523 85.805053711 85.809249878 2.1250000000  -999.250000 1.1167612076  -999.250000
 2214.0881348 3.0000000000 12.713998795 0.0170256421  -999.250000 2.4841537476 43.126213074 83.837341309 83.948623657 2.1256558895  -999.250000 0.9678301215  -999.250000
 2214.2404785 3.0000000000 12.682000160 0.0191410258  -999.250000 2.4960770607 41.386001587 82.992660522 82.981666565 2.1667211056  -999.250000 0.8616474271  -999.250000
 2214.3930664 3.0000000000 12.633999825 0.0300144218  -999.250000 2.5019569397 39.009426117 82.153312683 82.088005066 2.2165770531  -999.250000 0.6432288289  -999.250000
 2214.5454102 3.0000000000 12.602000237 0.0308269225  -999.250000 2.4988846779 39.276729584 81.527938843 81.525321960 2.2526090145  -999.250000 1.0261218548  -999.250000
 2214.6977539 3.0000000000 12.572999954 0.0190719999  -999.250000 2.4910576344 39.738231659 83.006103516 83.152877808 2.2898557186  -999.250000 1.1016410589  -999.250000
 2214.8500977 3.0000000000 12.517000198 0.0242307689  -999.250000 2.4951410294 44.251998901 84.717422485 84.739921570 2.2794640064  -999.250000 0.8782339692  -999.250000
 2215.0024414 3.0000000000 12.484000206 0.0421538465  -999.250000 2.5060000420 48.452999115 85.829582214 85.723205566 2.1829519272  -999.250000 1.0235929489  -999.250000
 2215.1550293 3.0000000000 12.480999947 0.0538269244  -999.250000 2.5057837963 47.444328308 85.656768799 85.726097107 2.0404038429  -999.250000 0.7705247998  -999.250000
 2215.3073730 3.0000000000 12.503000259 0.0417551994  -999.250000 2.4907839298 46.401382446 85.829528809 85.728996277 1.8786762953  -999.250000 0.9342499971  -999.250000
 2215.4597168 3.0000000000 12.517999649 0.0249102563  -999.250000 2.4757692814 45.393001556 85.637832642 85.727806091 1.7344799042  -999.250000 1.0895817280  -999.250000
 2215.6120605 3.0000000000 12.498000145 0.0179230757  -999.250000 2.4577307701 42.034000397 85.546981812 85.536178589 1.6406971216  -999.250000 0.8288878202  -999.250000
 2215.7646484 3.0000000000 12.461001396 0.0119567309  -999.250000 2.4368414879 38.013179779 84.266944885 84.311470032 1.6220192909  -999.250000 0.7597488165  -999.250000
 2215.9169922 3.0000000000 12.428999901 0.0091151996  -999.250000 2.4262304306 34.386714935 83.304542542 83.313796997 1.7483558655  -999.250000 0.9927547574  -999.250000
 2216.0693359 3.0000000000 12.404999733 0.0173076931  -999.250000 2.4423077106 34.841110229 83.828620911 83.769294739 1.8941199780  -999.250000 0.8401954770  -999.250000
 2216.2216797 3.0000000000 12.378999710 0.0412307717  -999.250000 2.4660384655 41.148998260 84.618682861 84.505226135 1.9638798237  -999.250000 0.9614871740  -999.250000
 2216.3742676 3.0000000000 12.362999916 0.0590144247  -999.250000 2.4690577984 44.449848175 85.245498657 85.239692688 2.0241281986  -999.250000 0.6416063905  -999.250000
 2216.5266113 3.0000000000 12.388999939 0.0597692281  -999.250000 2.4729135036 47.474845886 85.928138733 85.948234558 2.0312788486  -999.250000 0.5191249847  -999.250000
 2216.6789551 3.0000000000 12.439999580 0.0437263995  -999.250000 2.4669711590 49.869125366 86.418815613 86.462432861 1.9863910675  -999.250000 0.5968813896  -999.250000
 2216.8312988 3.0000000000 12.475999832 0.0248974357  -999.250000 2.4650382996 49.324001312 86.934768677 86.796257019 1.9488240480  -999.250000 0.5231730938  -999.250000
 2216.9836426 3.0000000000 12.487999916 0.0169615392  -999.250000 2.4679229259 43.705001831 87.054901123 87.088363647 1.9395143986  -999.250000 0.6308861971  -999.250000
 2217.1362305 3.0000000000 12.493000031 0.0140865389  -999.250000 2.4620864391 40.296947479 87.022026062 87.075225830 2.0446026325  -999.250000 0.5611904263  -999.250000
 2217.2885742 3.0000000000 12.494000435 0.0202303994  -999.250000 2.4682879448 43.382225037 86.882133484 86.852935791 2.1424710751  -999.250000 0.9320272207  -999.250000
 2217.4409180 4.0000000000 12.479000092 0.0361025631  -999.250000 2.4880769253 44.769001007 87.208518982 87.078010559 2.1099679470  -999.250000 0.9485929608  -999.250000
 2217.5932617 4.0000000000 12.475999832 0.0439487174  -999.250000 2.4939103127 46.696998596 86.762245178 86.794326782 2.1077549458  -999.250000 0.6949278712  -999.250000
 2217.7458496 4.0000000000 12.494000435 0.0398990363  -999.250000 2.4868702888 47.747497559 87.227661133 87.091865540 2.0891571045  -999.250000 0.6511967778  -999.250000
