# LAS format log file from PETREL
# Project units are specified as depth units
#==================================================================
~Version information
VERS.   2.0:
WRAP.   NO:
#==================================================================
~Well
STRT .m      162.32598877 :
STOP .m      3247.3605957 :
STEP .m     0.00000000 :
NULL .        -999.250000 :
COMP.           : COMPANY
WELL.  17/11-1   : WELL
FLD.            : FIELD
LOC.            : LOCATION
SRVC.           : SERVICE COMPANY
DATE.  2018-09-11 14:48:12   : Log Export Date {yyyy-MM-dd HH:mm:ss}
PROV.           : PROVINCE
UWI.   17/11-1   : UNIQUE WELL ID
API.            : API NUMBER
#==================================================================
~Curve
DEPT .m                   : DEPTH
Lithology_geolink ._      : Lithology_geolink
CALI .in                  : CALI
DRHO .g/cm3               : DRHO
NPHI .m3/m3               : NPHI
RHOB .g/cm3               : RHOB
GR .gAPI                  : GR
DTC .us/ft                : DTC
DTE .us/ft                : DTE
RDEP .ohm.m               : RDEP
SP .mV                    : SP
RSHA .ohm.m               : RSHA
RMED .ohm.m               : RMED
~Parameter
#==================================================================
~Ascii
# ...
 3029.8857422 21.000000000 12.529998779 0.0109471157  -999.250000 2.0799646378 9.8780002594 68.451400757 68.522315979 1946.4456787  -999.250000 2986.7719727  -999.250000
 3030.0380859 21.000000000 12.529998779 0.0079471162  -999.250000 2.0779471397 9.6929998398 68.484657288 68.539161682 1952.5039063  -999.250000 2984.9560547  -999.250000
 3030.1904297 21.000000000 12.529998779 0.0049647433  -999.250000 2.0748765469 9.7500000000 68.689903259 68.627616882 1954.7054443  -999.250000 2983.1411133  -999.250000
 3030.3427734 21.000000000 12.529998779 0.0029648000  -999.250000 2.0678417683 10.149999619 68.674758911 68.630615234 1950.0496826  -999.250000 2981.3239746  -999.250000
 3030.4953613 21.000000000 12.529000282 0.0010352564  -999.250000 2.0590000153 10.548999786 68.562072754 68.619758606 1942.6508789  -999.250000 2979.5048828  -999.250000
 3030.6477051 21.000000000 12.529000282 0.0029647436  -999.250000 2.0589647293 10.654000282 68.451400757 68.537200928 1938.3935547  -999.250000 2977.6889648  -999.250000
 3030.8000488 21.000000000 12.529000282 0.0010000000  -999.250000 2.0569293499 10.500000000 68.484603882 68.553955078 1937.5479736  -999.250000 2975.8730469  -999.250000
 3030.9523926 21.000000000 12.529000282 0.0010176282  -999.250000 2.0531411171 10.720000267 68.674758911 68.642509460 1937.2596436  -999.250000 2974.0581055  -999.250000
 3031.1047363 21.000000000 12.529000282 0.0019296001  -999.250000 2.0608768463 10.295000076 68.595146179 68.645515442 1935.4902344  -999.250000 2973.3300781  -999.250000
 3031.2573242 21.000000000 12.524999619 -0.001876603  -999.250000 2.0541234016 11.024000168 68.689903259 68.648521423 1931.7941895  -999.250000 2972.7539063  -999.250000
 3031.4096680 21.000000000 12.492000580 0.0049647433  -999.250000 2.0608589649 11.828000069 68.689903259 68.651519775 1927.5809326  -999.250000 2972.1789551  -999.250000
 3031.5620117 21.000000000 12.460000038 0.0029823717  -999.250000 2.0529823303 11.916999817 68.674758911 68.640800476 1923.3673096  -999.250000 2971.6040039  -999.250000
 3031.7143555 21.000000000 12.451999664 0.0022112001  -999.250000 2.0521409512 11.336999893 68.562278748 68.558013916 1919.3879395  -999.250000 2971.0258789  -999.250000
 3031.8669434 21.000000000 12.454999924 0.0140352566  -999.250000 2.0601234436 10.786000252 68.484657288 68.574386597 1918.5795898  -999.250000 2970.4509277  -999.250000
 3032.0192871 21.000000000 12.458999634 0.0157884620  -999.250000 2.0667355061 10.784999847 68.723152161 68.681083679 1921.6970215  -999.250000 2969.8750000  -999.250000
 3032.1716309 21.000000000 12.463000298 0.0039118594  -999.250000 2.0519824028 10.371000290 68.895202637 68.807914734 1925.8059082  -999.250000 2969.3000488  -999.250000
 3032.3239746 21.000000000 12.465999603 -0.000912000  -999.250000 2.0511410236 10.163999557 68.707572937 68.768814087 1929.9002686  -999.250000 2968.7250977  -999.250000
 3032.4765625 21.000000000 12.458999634 0.0040000002  -999.250000 2.0590882301 9.2480001450 68.800224304 68.771820068 1933.5659180  -999.250000 2968.1469727  -999.250000
 3032.6289063 21.000000000 12.439999580 0.0040000002  -999.250000 2.0640351772 9.2709999084 68.689903259 68.777435303 1935.1137695  -999.250000 2982.3601074  -999.250000
 3032.7812500 21.000000000 12.421999931 0.0040705130  -999.250000 2.0660705566 9.1569995880 68.689903259 68.793876648 1934.9501953  -999.250000 2996.8889160  -999.250000
 3032.9335938 21.000000000 12.409000397 0.0079823723  -999.250000 2.0699470043 9.5310001373 68.707572937 68.778686523 1934.7501221  -999.250000 3011.4169922  -999.250000
 3033.0859375 21.000000000 12.409000397 0.0069648004  -999.250000 2.0670351982 9.7740001678 68.800430298 68.761291504 1934.5500488  -999.250000 3025.9680176  -999.250000
 3033.2385254 21.000000000 12.409000397 0.0050705126  -999.250000 2.0691058636 10.104000092 68.689903259 68.684593201 1934.3498535  -999.250000 3011.3320313  -999.250000
 3033.3908691 21.000000000 12.401000023 0.0090881409  -999.250000 2.0750353336 10.489000320 68.689903259 68.686706543 1934.1502686  -999.250000 2243.1101074  -999.250000
 3033.5432129 21.000000000 12.375999451 0.0138942311  -999.250000 2.0768940449 11.739999771 68.689903259 68.690887451 1933.9510498  -999.250000 1807.7790527  -999.250000
 3033.6955566 21.000000000 12.350999832 0.0078944005  -999.250000 2.0707888603 11.048999786 68.707572937 68.717201233 1933.7502441  -999.250000 677.43103027  -999.250000
 3033.8481445 21.000000000 12.362001419 0.0020176284  -999.250000 2.0590353012 9.6090002060 68.800224304 68.792587280 1933.5509033  -999.250000 2955.0568848  -999.250000
 3034.0004883 21.000000000 12.373999596 0.0030000000  -999.250000 2.0611059666 8.8149995804 68.689903259 68.794692993 1933.4945068  -999.250000 2971.7041016  -999.250000
 3034.1528320 21.000000000 12.387000084 0.0029647436  -999.250000 2.0668940544 9.2819995880 68.689903259 68.793907166 1940.9742432  -999.250000 2970.4851074  -999.250000
 3034.3051758 21.000000000 12.397999763 0.0010528001  -999.250000 2.0610353947 10.812000275 68.674758911 68.753486633 1957.1741943  -999.250000 2965.3168945  -999.250000
 3034.4577637 21.000000000 12.409000397 0.0039647436  -999.250000 2.0629646778 11.751000404 68.562072754 68.597007751 1965.9576416  -999.250000 2960.1398926  -999.250000
 3034.6101074 21.000000000 12.394000053 0.0019647437  -999.250000 2.0609471798 12.489000320 68.484657288 68.575378418 1965.9359131  -999.250000 2954.9719238  -999.250000
 3034.7624512 21.000000000 12.378000259 0.0001233974  -999.250000 2.0581235886 11.621000290 68.689903259 68.646339417 1965.8184814  -999.250000 2949.8029785  -999.250000
 3034.9147949 21.000000000 12.362001419 0.0069647436  -999.250000 2.0650177002 10.850999832 68.707572937 68.754104614 1965.2651367  -999.250000 941.90997314  -999.250000
 3035.0671387 21.000000000 12.347000122 0.0048944000  -999.250000 2.0659472942 10.038000107 68.833297729 68.865020752 1964.3408203  -999.250000 327.03698730  -999.250000
 3035.2197266 21.000000000 12.333999634 -0.000929487  -999.250000 2.0629470348 9.0570001602 68.895149231 68.783973694 1963.3912354  -999.250000 804.78601074  -999.250000
 3035.3720703 21.000000000 12.321000099 0.0030705128  -999.250000 2.0601058006 8.9449996948 68.689903259 68.610427856 1962.4438477  -999.250000 2977.1469727  -999.250000
 3035.5244141 21.000000000 12.309000015 0.0069294875  -999.250000 2.0659823418 9.5299997330 68.689903259 68.588821411 1961.4958496  -999.250000 2977.4221191  -999.250000
 3035.6767578 21.000000000 12.303000450 0.0029648000  -999.250000 2.0650353432 10.088999748 68.674758911 68.619293213 1960.5576172  -999.250000 2427.2900391  -999.250000
 3035.8293457 21.000000000 12.295999527 0.0009294872  -999.250000 2.0669822693 10.779999733 68.595321655 68.621406555 1960.1343994  -999.250000 2977.9709473  -999.250000
 3035.9816895 21.000000000 12.289999962 -0.003070513  -999.250000 2.0659117699 10.909000397 68.689903259 68.623588562 1960.4411621  -999.250000 2978.2460938  -999.250000
 3036.1340332 21.000000000 12.283999443 -0.007000000  -999.250000 2.0608766079 11.253999710 68.689903259 68.625686646 1960.9672852  -999.250000 2978.5209961  -999.250000
 3036.2863770 21.000000000 12.277001381 -0.006903846  -999.250000 2.0540575981 11.642000198 68.674758911 68.621841431 1961.3861084  -999.250000 2978.7971191  -999.250000
 3036.4389648 21.000000000 12.270001411 -0.002000000  -999.250000 2.0569584370 11.647999763 68.562072754 68.578872681 1961.2226563  -999.250000 2979.0729980  -999.250000
 3036.5913086 21.000000000 12.253999710 -0.002076923  -999.250000 2.0548846722 10.852000237 68.484657288 68.539176941 1960.5325928  -999.250000 2979.3491211  -999.250000
 3036.7436523 21.000000000 12.237000465 -0.005942308  -999.250000 2.0491924286 10.430999756 68.689903259 68.588653564 1959.7816162  -999.250000 2979.6240234  -999.250000
 3036.8959961 21.000000000 12.220000267 -0.002961538  -999.250000 2.0590384007 10.612000465 68.674758911 68.622604370 1959.0305176  -999.250000 2979.8989258  -999.250000
 3037.0483398 21.000000000 12.203000069 -0.000942400  -999.250000 2.0611536503 10.802000046 68.595146179 68.546134949 1958.2844238  -999.250000 2349.8149414  -999.250000
