# LAS format log file from PETREL
# Project units are specified as depth units
#==================================================================
~Version information
VERS.   2.0:
WRAP.   NO:
#==================================================================
~Well
STRT .m      162.32598877 :
STOP .m      3247.3605957 :
STEP .m     0.00000000 :
NULL .        -999.250000 :
COMP.           : COMPANY
WELL.  17/11-1   : WELL
FLD.            : FIELD
LOC.            : LOCATION
SRVC.           : SERVICE COMPANY
DATE.  2018-09-11 14:48:12   : Log Export Date {yyyy-MM-dd HH:mm:ss}
PROV.           : PROVINCE
UWI.   17/11-1   : UNIQUE WELL ID
API.            : API NUMBER
#==================================================================
~Curve
DEPT .m                   : DEPTH
Lithology_geolink ._      : Lithology_geolink
CALI .in                  : CALI
DRHO .g/cm3               : DRHO
NPHI .m3/m3               : NPHI
RHOB .g/cm3               : RHOB
GR .gAPI                  : GR
DTC .us/ft                : DTC
DTE .us/ft                : DTE
RDEP .ohm.m               : RDEP
SP .mV                    : SP
RSHA .ohm.m               : RSHA
RMED .ohm.m               : RMED
~Parameter
#==================================================================
~Ascii
# ...
 776.80310059 6.0000000000 13.083000183 0.0759955943 0.1217006296 1.9990264177 75.283996582 156.74775696 157.98863220 1.3271093369 35.907066345 0.9062916636 1.6170300245
 776.95550537 6.0000000000 12.701000214 0.0749383271 0.1218392178 2.0049824715 75.289176941 156.76992798 157.94230652 1.3401010036 36.109897614 0.6863424182 1.6220541000
 777.10784912 6.0000000000 12.423000336 0.0609759726 0.1237523332 2.0009958744 75.725997925 157.23210144 158.42156982 1.3520641327 35.898296356 0.7806475759 1.6310448647
 777.26025391 6.0000000000 12.388999939 0.0550680831 0.1242784634 2.0000882149 76.357002258 157.16870117 158.38246155 1.3600320816 35.752265930 0.6711153388 1.6390392780
 777.41265869 6.0000000000 12.877000809 0.0720240250 0.1239339635 2.0219640732 76.260002136 156.69187927 157.88615417 1.3639999628 35.609775543 0.7073396444 1.6460336447
 777.56506348 6.0000000000 13.388999939 0.0780600756 0.1248345375 2.0129199028 76.943000793 156.37350464 157.56521606 1.3639839888 35.183620453 0.8129070997 1.6520671844
 777.71740723 6.0000000000 13.696999550 0.0929963961 0.1258580685 1.9929820299 77.666999817 156.79617310 158.00717163 1.3619772196 34.919734955 0.7844344974 1.6640365124
 777.86981201 6.0000000000 12.854000092 0.0918414071 0.1254214197 1.9879099131 78.734001160 155.44830322 156.63281250 1.3589771986 34.863636017 0.9381757975 1.6709896326
 778.02221680 6.0000000000 12.727999687 0.0479675494 0.1257411540 1.9630901814 81.317001343 155.01528931 156.18214417 1.3560152054 34.580120087 0.6453896761 1.6689687967
 778.17462158 6.0000000000 12.432999611 0.0389919914 0.1259955913 1.9880961180 82.819999695 154.41567993 155.59245300 1.3580609560 34.398529053 0.7844401002 1.6629791260
 778.32702637 6.0000000000 12.475999832 0.0369799770 0.1250003129 2.0119919777 82.503997803 153.46556091 154.65727234 1.3660304546 34.508018494 0.9408906698 1.6590052843
 778.47943115 6.0000000000 12.782999992 0.0321121365 0.1250753850 2.0101161003 82.291000366 153.00028992 154.17588806 1.3699923754 34.511966705 0.9014421701 1.6599999666
 778.63183594 6.0000000000 12.906999588 0.0600280315 0.1262931675 2.0390641689 81.110000610 152.79425049 153.92658997 1.3690079451 34.504962921 0.7035214305 1.6600052118
 778.78424072 6.0000000000 12.842999458 0.0670160204 0.1270111948 2.0550160408 78.778999329 151.37939453 152.57125854 1.3700168133 34.497386932 0.8895242214 1.6610260010
 778.93664551 6.0000000000 12.829999924 0.0709599555 0.1272817105 2.0589599609 78.021003723 150.85942078 151.97555542 1.3720335960 34.577499390 1.0748921633 1.6660504341
 779.08905029 6.0000000000 12.715999603 0.0609158985 0.1276337504 2.0489158630 77.516998291 150.56039429 151.69099426 1.3760672808 34.680965424 0.6807949543 1.6750615835
 779.24145508 6.0000000000 12.500000000 0.0400120132 0.1194026023 2.0280160904 76.592002869 151.08476257 152.26405334 1.3840588331 34.675018311 0.6177785397 1.6860280037
 779.39385986 6.0000000000 12.902000427 0.0430320390 0.1109892502 2.0320761204 75.622001648 151.83999634 152.96115112 1.3910421133 34.888561249 0.8607977629 1.6909999847
 779.54626465 6.0000000000 13.253999710 0.0510160178 0.1198959053 2.0510282516 74.685997009 152.09423828 153.27861023 1.3960421085 35.379894257 1.1083335876 1.6909831762
 779.69860840 5.0000000000 13.201999664 0.0550144166 0.1279436797 2.0580432415 72.445999146 152.38059998 153.49934387 1.4009920359 35.742927551 0.9009243250 1.6879999638
 779.85101318 5.0000000000 13.557999611 0.0589675605 0.1114355102 2.0699493885 70.804000854 152.06747437 153.26065063 1.3999758959 35.935443878 0.8743280172 1.6880208254
 780.00341797 5.0000000000 13.458999634 0.0500036068 0.1059528664 2.0560181141 71.291999817 151.02549744 152.14416504 1.3970079422 36.025978088 0.9905149937 1.6920312643
 780.15582275 5.0000000000 12.951999664 0.0509242788 0.1179210991 2.0609028339 74.510002136 150.99749756 152.19522095 1.3980159760 35.812042236 0.8187513351 1.6980155706
 780.30822754 6.0000000000 12.867000580 0.0300240275 0.1227063462 2.0339798927 76.109001160 151.30278015 152.42741394 1.4000252485 35.406318665 1.0854729414 1.7010155916
 780.46063232 6.0000000000 12.857999802 0.0360120125 0.1264040172 2.0290601254 76.355003357 152.34056091 153.53178406 1.4030168056 35.265445709 0.8979074955 1.7039843798
 780.61303711 5.0000000000 12.876000404 0.0390040055 0.1273122877 2.0440640450 75.407997131 152.55964661 153.68865967 1.4050252438 35.358707428 0.8646184206 1.7009739876
 780.76544189 5.0000000000 12.821999550 0.0400400460 0.1278322488 2.0600600243 73.500999451 151.38377380 152.55801392 1.4079831839 35.505393982 0.7289422750 1.6959896088
 780.91784668 5.0000000000 12.762999535 0.0500760935 0.1283415258 2.0751121044 72.785003662 149.50466919 150.62649536 1.4059664011 35.586425781 0.7132991552 1.6940056086
 781.07025146 5.0000000000 12.884000778 0.0689759701 0.1286903620 2.1029717922 73.027999878 147.75108337 148.88552856 1.4019746780 35.466270447 0.7956287861 1.6950168610
 781.22265625 5.0000000000 12.884000778 0.0628958791 0.1287674457 2.0959038734 73.029998779 148.09704590 149.24223328 1.3989915848 35.313358307 0.6940272450 1.6980111599
 781.37506104 5.0000000000 12.869000435 0.0369919911 0.1281853765 2.0719640255 72.797996521 148.21559143 149.33723450 1.3980420828 34.971958160 0.9775025845 1.7000168562
 781.52746582 5.0000000000 12.857000351 0.0349639580 0.1271374077 2.0629839897 72.803001404 149.74978638 150.85746765 1.4030672312 34.581020355 0.8398990631 1.7030055523
 781.67987061 5.0000000000 12.847000122 0.0259919912 0.1265480667 2.0589880943 73.055999756 150.38160706 151.51773071 1.4110504389 34.393768311 0.8127641082 1.7040280104
 781.83221436 5.0000000000 12.845000267 0.0240288340 0.1260858178 2.0560324192 73.041000366 150.90560913 152.10095215 1.4170321226 34.348964691 1.0233432055 1.7090312243
 781.98461914 5.0000000000 12.860000610 0.0319603533 0.1205883771 2.0649819374 72.071998596 151.62150574 152.78077698 1.4210159779 34.341960907 0.8196728230 1.7149896622
 782.13702393 5.0000000000 12.860000610 0.0210180283 0.1134684607 2.0600612164 71.244003296 151.50669861 152.71038818 1.4229919910 34.333965302 1.0287116766 1.7129688263
 782.28942871 5.0000000000 12.854000092 0.0259959958 0.1199378818 2.0770280361 70.436996460 151.05348206 152.17529297 1.4220000505 34.326961517 0.9384937882 1.7069635391
 782.44183350 5.0000000000 12.847999573 0.0250440538 0.1285008341 2.0840120316 70.695999146 150.60530090 151.75236511 1.4219160080 34.318965912 0.7809839845 1.6999688148
 782.59423828 5.0000000000 12.855999947 0.0360120125 0.1286901832 2.0869839191 72.120002747 149.28526306 150.48336792 1.4118485451 34.312606812 0.7766602635 1.6939584017
 782.74664307 5.0000000000 12.845999718 0.0390320383 0.1287304908 2.0829758644 72.276000977 148.82398987 149.97198486 1.3938486576 34.438926697 0.9812827110 1.6859322786
 782.89904785 5.0000000000 13.072999954 0.0469799750 0.1288406104 2.0769317150 73.410003662 149.29682922 150.41180420 1.3758907318 34.633243561 0.7833568454 1.6729270220
 783.05145264 5.0000000000 13.036999702 0.0419559479 0.1289663464 2.0599479675 76.305000305 150.23416138 151.36544800 1.3629243374 35.100196838 0.8828542829 1.6589496136
 783.20385742 6.0000000000 12.812001228 0.0310200229 0.1258718073 2.0470440388 78.066001892 151.93054199 153.11730957 1.3539410830 35.555541992 1.1180124283 1.6499887705
 783.35626221 6.0000000000 12.904001236 0.0360480547 0.1239889488 2.0580720901 79.075996399 154.01318359 155.16670227 1.3469074965 35.668647766 0.8445386887 1.6480000019
 783.50866699 6.0000000000 12.843999863 0.0479559489 0.1169471741 2.0759918690 78.224998474 154.80426025 155.98614502 1.3359327316 35.803291321 0.7174144983 1.6479495764
 783.66107178 6.0000000000 12.552000046 0.0369759724 0.1118018925 2.0740399361 76.121002197 154.70948792 155.89907837 1.3279159069 35.859699249 0.8311818242 1.6389384270
 783.81341553 6.0000000000 12.446999550 0.0310684815 0.1145101115 2.0840649605 74.190002441 153.29109192 154.46002197 1.3178958893 35.992832184 0.6052947640 1.6279791594
 783.96582031 5.0000000000 12.387999535 0.0499927923 0.1195338815 2.1019928455 74.314002991 152.28216553 153.41804504 1.3049519062 35.958217621 0.6974581480 1.6240103245
