# LAS format log file from PETREL
# Project units are specified as depth units
#==================================================================
~Version information
VERS.   2.0:
WRAP.   NO:
#==================================================================
~Well
STRT .m      162.32598877 :
STOP .m      3247.3605957 :
STEP .m     0.00000000 :
NULL .        -999.250000 :
COMP.           : COMPANY
WELL.  17/11-1   : WELL
FLD.            : FIELD
LOC.            : LOCATION
SRVC.           : SERVICE COMPANY
DATE.  2018-09-11 14:48:12   : Log Export Date {yyyy-MM-dd HH:mm:ss}
PROV.           : PROVINCE
UWI.   17/11-1   : UNIQUE WELL ID
API.            : API NUMBER
#==================================================================
~Curve
DEPT .m                   : DEPTH
Lithology_geolink ._      : Lithology_geolink
CALI .in                  : CALI
DRHO .g/cm3               : DRHO
NPHI .m3/m3               : NPHI
RHOB .g/cm3               : RHOB
GR .gAPI                  : GR
DTC .us/ft                : DTC
DTE .us/ft                : DTE
RDEP .ohm.m               : RDEP
SP .mV                    : SP
RSHA .ohm.m               : RSHA
RMED .ohm.m               : RMED
~Parameter
#==================================================================
~Ascii
# ...
 2620.2341309 5.0000000000 12.362001419 0.0048990385  -999.250000 1.9466971159 58.356998444 72.448471069 72.457038879 440.51925659  -999.250000 10.609999657  -999.250000
 2620.3867188 5.0000000000 12.378999710 -0.002064103  -999.250000 1.9258397818 57.905998230 73.597038269 73.654640198 477.66116333  -999.250000 1.2829999924  -999.250000
 2620.5390625 5.0000000000 12.387000084 -0.005967949  -999.250000 1.9164327383 59.244998932 73.731750488 73.710937500 546.75225830  -999.250000 1.2250000238  -999.250000
 2620.6914063 5.0000000000 12.336000443 -0.003968000  -999.250000 1.9436559677 60.196998596 73.936996460 73.902679443 556.71221924  -999.250000 0.9620000124  -999.250000
 2620.8437500 5.0000000000 12.333000183 -0.002014423  -999.250000 1.9844326973 59.094001770 73.789421082 73.672912598 479.42309570  -999.250000 4.3439998627  -999.250000
 2620.9963379 33.000000000 12.345001221 -0.002855769  -999.250000 2.0143525600 53.380001068 72.782730103 72.699935913 416.00115967  -999.250000 3.7260000706  -999.250000
 2621.1486816 33.000000000 12.361000061 0.0059038461  -999.250000 2.0357437134 50.490001678 72.234245300 72.327659607 373.97363281  -999.250000 0.6409999728  -999.250000
 2621.3010254 33.000000000 12.373999596 -0.000032051  -999.250000 2.0199358463 49.367000580 72.028999329 72.085845947 341.51385498  -999.250000 0.9459999800  -999.250000
 2621.4533691 33.000000000 12.371999741 -0.002080000  -999.250000 2.0159039497 46.333000183 71.996131897 71.897575378 322.45281982  -999.250000 0.9639999866  -999.250000
 2621.6057129 33.000000000 12.342000961 -0.006942308  -999.250000 2.0098845959 46.937000275 71.774658203 71.748779297 319.92196655  -999.250000 5.9590001106  -999.250000
 2621.7583008 33.000000000 12.336000443 -0.003032051  -999.250000 2.0018398762 46.431999207 71.691619873 71.737533569 331.95275879  -999.250000 6.6009998322  -999.250000
 2621.9106445 33.000000000 12.336999893 -0.005016026  -999.250000 1.9922403097 46.062999725 71.856895447 71.964096069 349.49349976  -999.250000 6.7140002251  -999.250000
 2622.0629883 33.000000000 12.338000298 -0.005904000  -999.250000 2.0071120262 47.474998474 72.300369263 72.381362915 358.88992310  -999.250000 2.4549999237  -999.250000
 2622.2153320 33.000000000 12.338000298 0.0000432692  -999.250000 2.0137979984 49.261001587 72.457191467 72.493461609 362.65353394  -999.250000 3.3169999123  -999.250000
 2622.3679199 33.000000000 12.338998795 0.0028878206  -999.250000 1.9994230270 48.680999756 72.201271057 72.237342834 383.76455688  -999.250000 10.111000061  -999.250000
 2622.5202637 33.000000000 12.331000328 -0.003935898  -999.250000 1.9639358521 48.678001404 72.439491272 72.381065369 414.37374878  -999.250000 4.9070000648  -999.250000
 2622.6726074 33.000000000 12.314000130 0.0000640000  -999.250000 1.9603040218 48.154998779 72.028999329 72.081336975 442.30075073  -999.250000 3.3239998817  -999.250000
 2622.8249512 33.000000000 12.281000137 0.0040288465  -999.250000 1.9793028831 47.481998444 72.078750610 72.127143860 491.52090454  -999.250000 1.3650000095  -999.250000
 2622.9775391 33.000000000 12.246998787 0.0059358976  -999.250000 1.9999679327 49.573001862 72.339668274 72.248977661 575.97631836  -999.250000 10.996000290  -999.250000
 2623.1298828 33.000000000 12.229998589 0.0020000001  -999.250000 1.9976314306 49.540000916 71.929244995 71.983566284 693.36480713  -999.250000 3.7650001049  -999.250000
 2623.2822266 33.000000000 12.234000206 0.0020480771  -999.250000 1.9748718739 48.662998199 71.247100830 71.334983826 793.90222168  -999.250000 2.2390000820  -999.250000
 2623.4345703 33.000000000 12.256999016 0.0050639999  -999.250000 1.9668719769 48.659999847 70.902244568 70.935379028 832.25256348  -999.250000 1.1950000525  -999.250000
 2623.5869141 33.000000000 12.276000023 0.0089711538  -999.250000 1.9588701725 50.374000549 71.396217346 71.393333435 838.40136719  -999.250000 2.7790000439  -999.250000
 2623.7395020 33.000000000 12.293999672 0.0069358977  -999.250000 1.9499199390 54.491001129 71.963027954 71.971054077 837.52630615  -999.250000 4.5920000076  -999.250000
 2623.8918457 5.0000000000 12.300999641 0.0030320513  -999.250000 1.9449679852 58.872001648 72.400299072 72.465187073 817.68884277  -999.250000 9.4010000229  -999.250000
 2624.0441895 5.0000000000 12.289999962 0.0051119998  -999.250000 1.9429519176 63.124000549 73.254364014 73.256576538 760.68884277  -999.250000 43.486999512  -999.250000
 2624.1965332 5.0000000000 12.270999908 0.0119711543  -999.250000 1.9398125410 64.925003052 73.443801880 73.442840576 749.70312500  -999.250000 10.515000343  -999.250000
 2624.3491211 5.0000000000 12.243000984 0.0099999998  -999.250000 1.9270641804 65.815002441 73.425384521 73.420616150 768.74176025  -999.250000 1.7020000219  -999.250000
 2624.5014648 5.0000000000 12.227999687 0.0100480765 -0.045839120 1.9314006567 65.811996460 73.837402344 73.746681213 777.62322998  -999.250000 2.8350000381  -999.250000
 2624.6538086 5.0000000000 12.227999687 0.0130799999 -0.026255690 1.9564639330 65.725997925 73.221496582 73.202644348 763.15161133  -999.250000 2.7409999371  -999.250000
 2624.8061523 5.0000000000 12.232000351 0.0179278832 -0.016059296 1.9849711657 65.455001831 73.303802490 73.391960144 716.88421631  -999.250000 0.6840000153  -999.250000
 2624.9587402 5.0000000000 12.243000984 0.0128557691 -0.005383205 1.9829038382 66.652999878 73.702186584 73.656372070 724.85418701  -999.250000 0.7549999952  -999.250000
 2625.1110840 5.0000000000 12.246000290 0.0039198720 -0.002673264 1.9774967432 66.754997253 72.983001709 72.964874268 799.62445068  -999.250000 0.5749999881  -999.250000
 2625.2634277 5.0000000000 12.236000061 -0.001048077 -0.012385065 2.0084004402 62.187999725 72.949798584 72.943542480 879.78045654  -999.250000 0.6990000010  -999.250000
 2625.4157715 33.000000000 12.239998817 -0.004032000  -999.250000 2.0332880020 57.618999481 72.711631775 72.784194946 923.62194824  -999.250000 1.0069999695  -999.250000
 2625.5681152 33.000000000 12.260999680 -0.005985577  -999.250000 2.0512452126 55.664001465 72.555641174 72.508743286 952.61047363  -999.250000 0.5239999890  -999.250000
 2625.7207031 33.000000000 12.284999847 -0.005016026  -999.250000 2.0681762695 55.395000458 72.815979004 72.746246338 962.32550049  -999.250000 1.0039999485  -999.250000
 2625.8730469 33.000000000 12.312000275 -0.006048077  -999.250000 2.0790481567 55.189998627 72.439598083 72.369613647 944.71496582  -999.250000 2.1340000629  -999.250000
 2626.0253906 33.000000000 12.312999725 -0.008904000  -999.250000 2.0819039345 54.941001892 71.996131897 71.956207275 891.44805908  -999.250000 2.5610001087  -999.250000
 2626.1777344 33.000000000 12.324000359 -0.002855769  -999.250000 2.0757403374 54.130001068 71.741844177 71.693870544 777.92523193  -999.250000 1.7430000305  -999.250000
 2626.3303223 33.000000000 12.380999565 0.0069679487  -999.250000 2.0574231148 53.810001373 71.453460693 71.505828857 648.31549072  -999.250000 2.2160000801  -999.250000
 2626.4826660 33.000000000 12.421999931 0.0049839742  -999.250000 2.0213589668 56.688999176 71.552001953 71.548965454 565.95056152  -999.250000 1.3619999886  -999.250000
 2626.6350098 33.000000000 12.454001427 0.0039840001  -999.250000 1.9817279577 55.583000183 71.519134521 71.447456360 520.92626953  -999.250000 6.2090001106  -999.250000
 2626.7873535 33.000000000 12.447999001 0.0029567308  -999.250000 1.9648846388 55.305000305 71.363403320 71.384757996 523.60491943  -999.250000 5.6310000420  -999.250000
 2626.9399414 33.000000000 12.442000389 0.0000000000  -999.250000 1.9571763277 55.782001495 71.724868774 71.689910889 592.66674805  -999.250000 6.3420000076  -999.250000
 2627.0922852 33.000000000 12.430998802 -0.000016026  -999.250000 1.9682564735 55.778999329 72.128753662 72.215835571 662.83831787  -999.250000 3.3329999447  -999.250000
 2627.2446289 33.000000000 12.401000023 -0.000983974  -999.250000 1.9843044281 55.936000824 72.777702332 72.708587646 695.56982422  -999.250000 4.2859997749  -999.250000
 2627.3969727 33.000000000 12.375000000 0.0000320000  -999.250000 2.0032079220 56.198001862 72.950134277 72.909988403 708.17663574  -999.250000 5.6599998474  -999.250000
