# LAS format log file from PETREL
# Project units are specified as depth units
#==================================================================
~Version information
VERS.   2.0:
WRAP.   NO:
#==================================================================
~Well
STRT .m      162.32598877 :
STOP .m      3247.3605957 :
STEP .m     0.00000000 :
NULL .        -999.250000 :
COMP.           : COMPANY
WELL.  17/11-1   : WELL
FLD.            : FIELD
LOC.            : LOCATION
SRVC.           : SERVICE COMPANY
DATE.  2018-09-11 14:48:12   : Log Export Date {yyyy-MM-dd HH:mm:ss}
PROV.           : PROVINCE
UWI.   17/11-1   : UNIQUE WELL ID
API.            : API NUMBER
#==================================================================
~Curve
DEPT .m                   : DEPTH
Lithology_geolink ._      : Lithology_geolink
CALI .in                  : CALI
DRHO .g/cm3               : DRHO
NPHI .m3/m3               : NPHI
RHOB .g/cm3               : RHOB
GR .gAPI                  : GR
DTC .us/ft                : DTC
DTE .us/ft                : DTE
RDEP .ohm.m               : RDEP
SP .mV                    : SP
RSHA .ohm.m               : RSHA
RMED .ohm.m               : RMED
~Parameter
#==================================================================
~Ascii
# ...
 2005.7572021 5.0000000000 13.333000183 0.0618766025 -0.029160865 2.4068429470 80.506477356 105.93212128 105.89610291 1.3501586914 36.344848633 0.7762275934 1.8640729189
 2005.9096680 5.0000000000 13.232000351 0.0508558825 -0.023052722 2.3928437233 78.600219727 105.33312988 105.43323517 1.3611520529 36.478126526 0.9185836315 1.8709104061
 2006.0620117 5.0000000000 13.052000046 0.0390560888 -0.021439807 2.3799664974 76.871437073 106.72495270 106.71452332 1.3710000515 36.772453308 1.1611746550 1.8628125191
 2006.2144775 5.0000000000 12.979001045 0.0440480784 -0.024468366 2.3769400120 78.661376953 109.59310913 109.52639008 1.3709543943 36.999004364 1.2707926035 1.8448207378
 2006.3668213 5.0000000000 13.036999702 0.0481080860 -0.020493174 2.3720841408 78.893013000 110.64608765 110.60983276 1.3679567575 37.137340546 1.5999808311 1.8289166689
 2006.5192871 5.0000000000 13.397999763 0.0570600964 -0.018798305 2.3790841103 78.908020020 112.59540558 112.56710052 1.3650000095 37.189975739 1.5863379240 1.8209999800
 2006.6716309 5.0000000000 13.376999855 0.0618198551 -0.022392115 2.3859398365 78.922027588 112.93159485 112.98957062 1.3651442528 37.186985016 0.8957564235 1.8210729361
 2006.8239746 5.0000000000 13.210000038 0.0468205102 -0.017483924 2.3808765411 77.714706421 114.27718353 114.19475555 1.3752305508 37.184295654 0.7443253398 1.8281456232
 2006.9764404 5.0000000000 13.108999252 0.0310360286 -0.020034617 2.3699157238 77.351974487 114.40539551 114.47992706 1.3912452459 37.072624207 0.9470912814 1.8421666622
 2007.1287842 5.0000000000 13.027999878 0.0339551307 -0.028724348 2.3628990650 78.570968628 113.82986450 113.97472382 1.4082161188 36.742935181 0.9848285317 1.8581563234
 2007.2812500 5.0000000000 13.038000107 0.0299639702 -0.026059328 2.3538920879 79.781265259 113.14768219 113.13393402 1.4231442213 36.422077179 0.8782234192 1.8730784655
 2007.4335938 5.0000000000 13.036000252 0.0269775651 -0.023950944 2.3449776173 80.111946106 112.25893402 112.22985840 1.4330576658 36.294567108 0.9709823728 1.8799791336
 2007.5860596 5.0000000000 12.999999046 0.0249519628 -0.026099328 2.3429639339 78.793151855 112.38954163 112.27989960 1.4369696379 36.227386475 0.9596396685 1.8779327869
 2007.7384033 5.0000000000 12.904001236 0.0209214743 -0.025018448 2.3400111198 77.741081238 112.86554718 112.91304779 1.4349422455 36.142108917 0.8100352883 1.8719478846
 2007.8908691 5.0000000000 12.877000809 0.0140360296 -0.026964229 2.3411080837 77.850975037 113.88574219 114.00233459 1.4307718277 36.004665375 0.8322762251 1.8669663668
 2008.0432129 5.0000000000 12.928999901 0.0168989580 -0.031537402 2.3500447273 79.708572388 114.64237976 114.64369202 1.4157115221 36.096565247 0.9472436309 1.8639999628
 2008.1956787 6.0000000000 13.217000008 0.0080897436 -0.033370800 2.3541796207 81.676887512 114.61115265 114.57850647 1.3957566023 36.183933258 1.0990047455 1.8639663458
 2008.3480225 6.0000000000 13.750000000 0.0150640504 -0.037277784 2.3680129051 84.726478577 113.89473724 113.83412933 1.3798846006 36.175159454 1.1004662514 1.8608957529
 2008.5004883 6.0000000000 13.737999916 0.0200512819 -0.040181946 2.3691666126 86.571472168 113.82043457 113.94463348 1.3720303774 36.200122833 0.7684419751 1.8508654833
 2008.6528320 6.0000000000 12.542999268 0.0240896717  -999.250000 2.3822817802 86.238891602 114.13305664 114.05430603 1.3741297722 36.217876434 0.9512532353 1.8388749361
 2008.8051758 6.0000000000 12.812001228 0.0309999995  -999.250000 2.4040961266 83.609046936 114.03860474 114.14841461 1.3831874132 36.340007782 0.4860896766 1.8269584179
 2008.9576416 5.0000000000 12.989000320 0.0311024822  -999.250000 2.4118461609 82.413513184 114.23217010 114.17272949 1.3961442709 36.496597290 0.5423814058 1.8231353760
 2009.1099854 5.0000000000 12.940999985 0.0389879830  -999.250000 2.3997597694 80.560852051 114.16566467 114.19701385 1.4061585665 36.579666138 0.7801265717 1.8362395763
 2009.2624512 5.0000000000 13.038999557 0.0379743576 -0.044213366 2.3799617290 80.375083923 113.87326050 113.84709930 1.4172019958 36.683994293 0.8589447737 1.8592802286
 2009.4147949 5.0000000000 13.197999954 0.0361409113 -0.043451026 2.3771922588 79.228118896 111.28395844 111.27555847 1.4312882423 36.822250366 0.8358702064 1.8842604160
 2009.5672607 5.0000000000 12.895999908 0.0469615385 -0.035186633 2.3919870853 76.877639771 109.53783417 109.60656738 1.4513894320 37.017158508 0.7555884719 1.9092690945
 2009.7196045 5.0000000000 12.913999557 0.0438206568 -0.022444932 2.3908846378 76.433013916 108.57539368 108.54631805 1.4782885313 37.176582336 1.0001810789 1.9331457615
 2009.8720703 5.0000000000 12.942999840 0.0298461523 -0.018893750 2.3819487095 76.448356628 109.69090271 109.63736725 1.4980456829 37.110790253 1.1124883890 1.9470336437
 2010.0244141 5.0000000000 12.842999458 0.0183074456 -0.025518846 2.3781538010 76.898773193 111.06722260 111.18465424 1.5008846521 36.944030762 0.9001602530 1.9499479532
 2010.1768799 5.0000000000 12.718999863 0.0419743583 -0.031526085 2.3897693157 79.115173340 111.13190460 111.14859009 1.4927262068 36.949455261 0.9994907975 1.9448543787
 2010.3292236 5.0000000000 13.253999710 0.0398590863 -0.026284616 2.3717310429 82.343055725 110.93666077 110.86956024 1.4746826887 37.012424469 0.7881586552 1.9318437576
 2010.4816895 6.0000000000 13.958000183 0.0290384609 -0.014240545 2.3510000706 83.659439087 110.07996368 110.08940125 1.4527717829 37.078128815 0.8866757751 1.9168655872
 2010.6340332 6.0000000000 13.901000023 0.0320896730 0.0009099038 2.3511409760 83.307907104 109.46420288 109.58076477 1.4379134178 37.094802856 0.7519679070 1.9049270153
 2010.7864990 6.0000000000 13.401000023 0.0390512832 -0.000299864 2.3620769978 84.440475464 110.08222961 110.06752777 1.4319696426 36.907058716 0.7318679094 1.8979215622
 2010.9388428 6.0000000000 13.836999893 0.0430768616 -0.016490864 2.3681409359 85.981460571 111.15446472 111.17549896 1.4299566746 36.637893677 0.6768798232 1.8909479380
 2011.0911865 6.0000000000 13.583999634 0.0488557667 -0.020588456 2.3789639473 86.555725098 112.86554718 112.89119720 1.4269711971 36.345710754 0.6018333435 1.8859479427
 2011.2436523 6.0000000000 12.940999985 0.0368462764 -0.009015673 2.3760766983 84.963493347 113.75514221 113.69391632 1.4248989820 35.988494873 0.4979303479 1.8809328079
 2011.3959961 5.0000000000 13.190999985 0.0249639433 -0.001343379 2.3819758892 83.092781067 113.46157074 113.54571533 1.4178558588 35.642585754 0.4693028927 1.8749791384
 2011.5484619 5.0000000000 13.243000031 0.0221025646 0.0003518269 2.3799617290 82.816558838 111.92267609 111.78151703 1.4078701735 35.579700470 0.6577189565 1.8730560541
 2011.7008057 5.0000000000 12.867000580 0.0300768614 -0.001670841 2.3768846989 82.261726379 110.76392365 110.81363678 1.3990000486 35.815433502 0.5410240293 1.8780521154
 2011.8532715 5.0000000000 12.871000290 0.0360769220 -0.017301923 2.3679616451 80.674819946 110.25334930 110.13047028 1.3991065025 36.039661407 0.5565260053 1.8830224276
 2012.0056152 5.0000000000 12.947999954 0.0418718979 -0.025754616 2.3649103642 80.445472717 109.71280670 109.71948242 1.4062019587 36.271217346 0.7747163177 1.8849166632
 2012.1580811 5.0000000000 12.996001244 0.0321538486 -0.027262498 2.3581666946 82.288818359 113.44144440 113.41637421 1.4201977253 36.616630554 0.5978390574 1.8769663572
 2012.3104248 5.0000000000 13.486000061 0.0442305841 -0.027461346 2.3712947369 84.046363831 114.50201416 114.59603882 1.4331730604 36.841915131 0.5313974619 1.8741250038
 2012.4628906 6.0000000000 13.420999527 0.0619230755 -0.023465324 2.3940258026 85.754898071 115.38197327 115.32696533 1.4451674223 36.984584808 0.7788270712 1.8861232996
 2012.6152344 6.0000000000 13.036000252 0.0558462776 -0.022112308 2.3956797123 86.317695618 116.22255707 116.26251221 1.4561874866 37.064788818 0.7068878412 1.8970832825
 2012.7677002 6.0000000000 12.987000465 0.0439230762 -0.026526205 2.3708589077 85.937339783 114.14664459 114.20001221 1.4692130089 37.031879425 0.6371057034 1.9050896168
 2012.9200439 6.0000000000 13.378999710 0.0379359461 -0.031866156 2.3599102497 86.152450562 113.38615417 113.44351196 1.4832308292 37.014827728 0.6807371974 1.9130833149
