# LAS format log file from PETREL
# Project units are specified as depth units
#==================================================================
~Version information
VERS.   2.0:
WRAP.   NO:
#==================================================================
~Well
STRT .m      162.32598877 :
STOP .m      3247.3605957 :
STEP .m     0.00000000 :
NULL .        -999.250000 :
COMP.           : COMPANY
WELL.  17/11-1   : WELL
FLD.            : FIELD
LOC.            : LOCATION
SRVC.           : SERVICE COMPANY
DATE.  2018-09-11 14:48:12   : Log Export Date {yyyy-MM-dd HH:mm:ss}
PROV.           : PROVINCE
UWI.   17/11-1   : UNIQUE WELL ID
API.            : API NUMBER
#==================================================================
~Curve
DEPT .m                   : DEPTH
Lithology_geolink ._      : Lithology_geolink
CALI .in                  : CALI
DRHO .g/cm3               : DRHO
NPHI .m3/m3               : NPHI
RHOB .g/cm3               : RHOB
GR .gAPI                  : GR
DTC .us/ft                : DTC
DTE .us/ft                : DTE
RDEP .ohm.m               : RDEP
SP .mV                    : SP
RSHA .ohm.m               : RSHA
RMED .ohm.m               : RMED
~Parameter
#==================================================================
~Ascii
# ...
 1186.4544678 9.0000000000 16.066999435 0.0140216174  -999.250000 2.2730360031 27.092517853 87.568626404 87.508026123 1.2862914801 29.201381683 0.7298334837 1.4131153822
 1186.6068115 9.0000000000 16.017999649 0.0170128215  -999.250000 2.2780258656 27.739999771 86.375289917 86.302139282 1.3142499924 29.268993378 0.6780456305 1.4291225672
 1186.7592773 9.0000000000 15.994000435 0.0190288220  -999.250000 2.2820432186 27.644216537 86.789085388 86.841209412 1.3402187824 29.267663956 0.6971024871 1.4461586475
 1186.9116211 9.0000000000 15.974999428 0.0230128206  -999.250000 2.2880065441 26.666999817 85.055900574 85.130432129 1.3613017797 29.207517624 0.7289855480 1.4681730270
 1187.0640869 9.0000000000 15.947999001 0.0250072069  -999.250000 2.2890071869 25.686302185 84.867202759 84.829719543 1.3903541565 29.122249603 0.7232786417 1.4921298027
 1187.2164307 9.0000000000 15.917000771 0.0260000005  -999.250000 2.2900383472 26.062999725 84.579238892 84.632949829 1.4243434668 29.161245346 0.8100985885 1.5101008415
 1187.3688965 9.0000000000 15.900000572 0.0260288231  -999.250000 2.2959783077 26.835500717 84.422203064 84.435806274 1.4573020935 29.204198837 0.8506891131 1.5241225958
 1187.5212402 9.0000000000 15.902000427 0.0300064087  -999.250000 2.2930128574 26.212999344 84.308921814 84.222663879 1.4861977100 29.079101563 0.7541376948 1.5411298275
 1187.6737061 9.0000000000 15.890999794 0.0309711769  -999.250000 2.2950506210 25.996431351 83.881103516 83.895401001 1.5051666498 28.919551849 0.7972948551 1.5591441393
 1187.8260498 9.0000000000 15.786000252 0.0270256419  -999.250000 2.3021154404 25.287342072 83.451568604 83.589912415 1.5211874247 28.849859238 0.8891569376 1.5771225691
 1187.9785156 9.0000000000 15.656000137 0.0309927873  -999.250000 2.3200719357 24.465373993 83.610527039 83.618148804 1.5391250849 28.824604034 0.9379776120 1.5941361189
 1188.1308594 9.0000000000 15.592000008 0.0299711768  -999.250000 2.3300216198 23.685508728 83.199401855 83.102493286 1.5510520935 28.762590408 0.9310320020 1.6110792160
 1188.2832031 9.0000000000 15.520000458 0.0260000005  -999.250000 2.3330063820 24.319999695 84.940315247 85.087005615 1.5559326410 28.688890457 0.9410625100 1.6220215559
 1188.4356689 9.0000000000 15.503000259 0.0260216184  -999.250000 2.3340432644 25.094087601 84.977439880 84.930976868 1.5488126278 28.491081238 0.9665644765 1.6249784231
 1188.5880127 9.0000000000 15.486000061 0.0289999992  -999.250000 2.3399999142 26.450000763 84.279083252 84.248481750 1.5307403803 28.327405930 0.8311826587 1.6219567060
 1188.7404785 9.0000000000 15.468999863 0.0289495587  -999.250000 2.3399279118 28.217994690 86.582656860 86.484886169 1.5036356449 28.221939087 0.9071313143 1.6159352064
 1188.8928223 9.0000000000 15.450000763 0.0219615381  -999.250000 2.3299357891 28.211999893 85.055900574 85.028633118 1.4687500000 28.211566925 0.9479302764 1.6069207191
 1189.0452881 9.0000000000 15.430999756 0.0159783829  -999.250000 2.3199422359 28.819496155 85.219802856 85.220230103 1.4428333044 28.312833786 0.9189615846 1.5959422588
 1189.1976318 9.0000000000 15.411999702 0.0129743591  -999.250000 2.3119423389 29.438999176 87.232856750 87.281509399 1.4268438816 28.442981720 0.9068942070 1.5879640579
 1189.3500977 9.0000000000 15.392999649 0.0089855883  -999.250000 2.3029279709 28.892349243 87.155792236 87.114372253 1.4118436575 28.617980957 0.8628078103 1.5829639435
 1189.5024414 9.0000000000 15.376999855 0.0070192311  -999.250000 2.2929551601 29.327999115 86.343376160 86.270378113 1.3969167471 28.769870758 0.8029807210 1.5779639482
 1189.6549072 9.0000000000 15.369000435 0.0100504402  -999.250000 2.2860143185 29.706666946 86.935348511 87.037254333 1.3890209198 28.745769501 0.7951186299 1.5729999542
 1189.8072510 9.0000000000 15.366000175 0.0170192309  -999.250000 2.2880384922 29.289642334 87.484992981 87.463638306 1.3911353350 28.554584503 0.8320096135 1.5730648041
 1189.9597168 9.0000000000 15.365000725 0.0200072117  -999.250000 2.2940576077 28.842531204 86.123703003 86.030113220 1.4042812586 28.481840134 0.8350608945 1.5821040869
 1190.1120605 9.0000000000 15.376000404 0.0210216176  -999.250000 2.3020865917 28.258144379 86.279594421 86.365142822 1.4313851595 28.613048553 0.8541216850 1.5951081514
 1190.2644043 9.0000000000 15.420000076 0.0240128208  -999.250000 2.3140640259 28.437999725 86.243659973 86.247451782 1.4684039354 28.800485611 0.8919327259 1.6101152897
 1190.4168701 9.0000000000 15.477999687 0.0260072071  -999.250000 2.3239781857 29.165372849 85.582618713 85.576751709 1.5103539228 29.065221786 0.8638719320 1.6261370182
 1190.5692139 9.0000000000 15.522000313 0.0269743595  -999.250000 2.3209488392 29.629999161 85.262321472 85.245124817 1.5442116261 29.282526016 0.8241514564 1.6451368332
 1190.7216797 9.0000000000 15.548000336 0.0229783822  -999.250000 2.3130216599 28.013921738 84.706924438 84.601089478 1.5661456585 29.375562668 0.8871985674 1.6641154289
 1190.8740234 9.0000000000 15.553000450 0.0199871790  -999.250000 2.3160896301 26.669000626 83.100288391 83.100761414 1.5801442862 29.296794891 0.9489976168 1.6801080704
 1191.0264893 9.0000000000 15.548000336 0.0180072058  -999.250000 2.3300504684 26.355634689 81.307861328 81.355522156 1.5952917337 29.081430435 0.9480865002 1.6950865984
 1191.1788330 9.0000000000 15.536999702 0.0190128200  -999.250000 2.3369870186 25.898000717 82.672462463 82.634757996 1.6233330965 28.836629868 0.9749062657 1.7070577145
 1191.3312988 9.0000000000 15.522000313 0.0209783819  -999.250000 2.3349423409 25.522985458 82.738792419 82.834022522 1.6552395821 28.592565536 0.9362530112 1.7150504589
 1191.4836426 9.0000000000 15.510000229 0.0179935899  -999.250000 2.3269999027 25.503999710 84.102500916 83.951957703 1.6780831814 28.368923187 1.0151802301 1.7220648527
 1191.6361084 9.0000000000 15.507999420 0.0170000009  -999.250000 2.3270359039 25.484985352 83.752777100 83.714035034 1.6859896183 28.176603317 1.0899552107 1.7310720682
 1191.7884521 9.0000000000 15.534999847 0.0169807710  -999.250000 2.3320193291 25.465999603 82.690650940 82.719818115 1.6849374771 27.958629608 1.0762753487 1.7410504818
 1191.9409180 9.0000000000 15.598999977 0.0139711769  -999.250000 2.3349928856 25.048984528 83.991241455 83.970077515 1.6789063215 27.715179443 1.1624807119 1.7480400801
 1192.0932617 9.0000000000 15.652000427 0.0100192307  -999.250000 2.3340642452 25.031303406 82.576103210 82.709693909 1.6698334217 27.589071274 1.3121409416 1.7530071735
 1192.2457275 9.0000000000 15.678001404 0.0130504807  -999.250000 2.3441083431 25.409652710 81.936225891 81.905319214 1.6537812948 27.781061172 1.3563237190 1.7539519072
 1192.3980713 9.0000000000 15.706000328 0.0200288221  -999.250000 2.3590071201 26.224590302 82.624671936 82.642120361 1.6326773167 28.102745056 1.4567662477 1.7479207516
 1192.5504150 9.0000000000 15.723000526 0.0239807703  -999.250000 2.3599228859 26.961000443 82.134040833 81.996932983 1.6016538143 28.412292480 1.3839422464 1.7369135618
 1192.7028809 9.0000000000 15.715000153 0.0209999997  -999.250000 2.3478991985 27.340303421 84.564521790 84.593704224 1.5656253099 28.464847565 1.3595900536 1.7249134779
 1192.8552246 9.0000000000 15.690999985 0.0210320503  -999.250000 2.3339681625 27.718000412 84.023765564 84.157806396 1.5296537876 28.616697311 1.2318124771 1.7129136324
 1193.0076904 9.0000000000 15.670000076 0.0259927940  -999.250000 2.3289351463 28.129858017 85.219802856 85.201965332 1.4937082529 28.919221878 1.1543331146 1.7009495497
 1193.1600342 9.0000000000 15.654998779 0.0250064097  -999.250000 2.3199422359 27.954000473 86.690292358 86.566970825 1.4659374952 29.137502670 1.2577500343 1.6939928532
 1193.3125000 9.0000000000 15.654000282 0.0260144118  -999.250000 2.3110001087 27.065824509 83.774772644 83.911430359 1.4601458311 29.405759811 1.1537022591 1.6930432320
 1193.4648438 9.0000000000 15.680999756 0.0279679503  -999.250000 2.3109872341 26.847999573 87.360511780 87.307815552 1.4743539095 29.679931641 1.0610480309 1.6990648508
 1193.6173096 9.0000000000 15.691999435 0.0230144113  -999.250000 2.3090143204 26.829303741 87.885002136 87.838584900 1.5085625648 29.845754623 1.0806345940 1.7081224918
