# LAS format log file from PETREL
# Project units are specified as depth units
#==================================================================
~Version information
VERS.   2.0:
WRAP.   NO:
#==================================================================
~Well
STRT .m      162.32598877 :
STOP .m      3247.3605957 :
STEP .m     0.00000000 :
NULL .        -999.250000 :
COMP.           : COMPANY
WELL.  17/11-1   : WELL
FLD.            : FIELD
LOC.            : LOCATION
SRVC.           : SERVICE COMPANY
DATE.  2018-09-11 14:48:12   : Log Export Date {yyyy-MM-dd HH:mm:ss}
PROV.           : PROVINCE
UWI.   17/11-1   : UNIQUE WELL ID
API.            : API NUMBER
#==================================================================
~Curve
DEPT .m                   : DEPTH
Lithology_geolink ._      : Lithology_geolink
CALI .in                  : CALI
DRHO .g/cm3               : DRHO
NPHI .m3/m3               : NPHI
RHOB .g/cm3               : RHOB
GR .gAPI                  : GR
DTC .us/ft                : DTC
DTE .us/ft                : DTE
RDEP .ohm.m               : RDEP
SP .mV                    : SP
RSHA .ohm.m               : RSHA
RMED .ohm.m               : RMED
~Parameter
#==================================================================
~Ascii
# ...
 981.62872314 19.000000000 12.996999741 0.0309739690 0.1272295713 1.8309739828 28.617000580 147.60038757 148.62918091 0.8472210765 34.532428741 1.1767580509 1.2671089172
 981.78112793 19.000000000 13.008999825 0.0259895884 0.1271402091 1.8261770010 28.138999939 151.56581116 152.67689514 0.8714789748 34.806011200 0.7349131107 1.2841089964
 981.93353271 19.000000000 13.090999603 0.0239791758 0.1251486987 1.8602342606 27.900999069 150.88235474 152.15086365 0.9235526323 34.808010101 0.7053119540 1.3011473417
 982.08593750 19.000000000 12.924999237 0.0199635550 0.1018050089 1.9051457644 28.094999313 148.04507446 149.13960266 0.9833499789 34.810012817 1.1732110977 1.3241473436
 982.23834229 19.000000000 12.765000343 0.0129739689 0.0701666102 1.9330571890 28.040000916 139.74832153 140.71553040 1.0212303400 34.811660767 1.6069154739 1.3471602201
 982.39074707 19.000000000 12.716999054 0.0080520837 0.0484463535 1.9439270496 28.004999161 130.95909119 132.09158325 1.0461013317 34.746326447 2.6429290771 1.3721985817
 982.54315186 19.000000000 12.718000412 0.0180448536 0.0384059884 1.9298261404 27.979000092 127.86784363 128.85377502 1.0571105480 34.616569519 2.2584791183 1.4031153917
 982.69555664 19.000000000 12.748999596 0.0259719677 0.0751885399 1.8988374472 27.709999084 131.12631226 132.04020691 1.0690736771 34.539340973 1.0052260160 1.4210191965
 982.84796143 19.000000000 12.782999992 0.0210224260 0.1193211898 1.8700280190 28.138000488 139.09704590 140.24446106 1.0768895149 34.422012329 0.7323452234 1.4240128994
 983.00036621 19.000000000 12.812999725 0.0250056069 0.1283993274 1.8750672340 29.309000015 140.99610901 141.98321533 1.0647051334 34.424011230 1.4682058096 1.4260064363
 983.15277100 19.000000000 12.814999580 0.0260168202 0.1282796562 1.8870335817 30.093999863 144.07409668 145.21051025 1.0327020884 34.426010132 3.3984456062 1.4269808531
 983.30517578 19.000000000 12.803999901 0.0290504601 0.1282166243 1.8930168152 30.832000732 145.00160217 146.23817444 1.0019230843 34.427394867 3.2189900875 1.4240000248
 983.45751953 19.000000000 12.817000389 0.0379947908 0.1275456548 1.8959531784 31.570999146 145.34329224 146.46798706 0.9940736890 34.319255829 1.0376299620 1.4240601063
 983.60992432 19.000000000 12.826999664 0.0369062871 0.1131856292 1.8869531155 31.591999054 145.50244141 146.47238159 1.0020828247 34.175830841 0.9064205289 1.4340600967
 983.76232910 19.000000000 12.833999634 0.0189843811 0.0835263208 1.8780989647 30.878000259 145.24008179 146.47668457 1.0110276937 33.951843262 1.0572952032 1.4440000057
 983.91473389 19.000000000 12.829999924 0.0160416514 0.0521714352 1.8970468044 29.919000626 144.65975952 145.61073303 1.0139447451 33.730998993 1.5158863068 1.4439743757
 984.06713867 19.000000000 12.817999840 0.0239739697 0.0372351781 1.9059115648 29.731000900 138.81089783 139.89488220 1.0078803301 33.731452942 0.7645775080 1.4399871826
 984.21954346 19.000000000 12.838999748 0.0190416500 0.0517576970 1.8889375925 30.229999542 138.39759827 139.47248840 0.9948065877 33.818458557 0.9717969894 1.4380320311
 984.37194824 19.000000000 12.838000298 0.0271197446 0.0819320157 1.8770259619 30.684000015 139.09709167 140.14378357 0.9740183949 33.906455994 1.6082947254 1.4430640936
 984.52435303 19.000000000 12.836999893 0.0501562506 0.0899541155 1.8820729256 31.228000641 144.38986206 145.59745789 0.9763960838 33.993953705 0.6465046406 1.4531922340
 984.67675781 19.000000000 12.861000061 0.0799495354 0.0889572725 1.8960953951 31.966999054 149.29298401 150.43307495 1.0197921991 33.984405518 0.8256269693 1.4833717346
 984.82916260 19.000000000 12.864000320 0.0708205849 0.1116191447 1.9131289721 33.226001740 149.68240356 150.69641113 1.1060501337 33.878868103 0.6934677958 1.5414421558
 984.98156738 19.000000000 12.848999977 0.0388486199 0.1273686141 1.9365270138 35.290000916 150.30244446 151.50382996 1.2203360796 33.857025146 0.8386700153 1.6105318069
 985.13397217 19.000000000 12.895999908 0.0118654389 0.1162008420 2.0306334496 36.219001770 150.31483459 151.46519470 1.3651629686 34.217266083 0.7369579673 1.6936150789
 985.28637695 19.000000000 12.885999680 -0.012084101 0.0662586689 2.1437175274 36.658000946 143.78527832 144.89651489 1.4856824875 34.442863464 1.0415453911 1.7896151543
 985.43872070 19.000000000 12.798000336 -0.026973970  -999.250000 2.2715570927 37.097999573 124.55904388 125.59368896 1.5562026501 34.596324921 3.0991961956 1.8855826855
 985.59112549 19.000000000 12.713998795 -0.021916701  -999.250000 2.3777813911 38.026000977 94.172401428 94.851631165 1.5777604580 34.661014557 10.652136803 1.9823484421
 985.74353027 16.000000000 12.708000183 -0.005791750  -999.250000 2.3352451324 37.040000916 96.627922058 97.270027161 1.5518158674 35.236160278 15.331262589 2.0400118828
 985.89593506 16.000000000 12.708000183 0.0340728909  -999.250000 2.1901202202 35.361999512 114.57095337 115.60650635 1.5317512751 35.075927734 17.529138565 2.0416028500
 986.04833984 16.000000000 12.708999634 0.0478906706  -999.250000 2.0214326382 34.411998749 130.19599915 131.01757813 1.5046776533 35.059940338 6.8907375336 1.9795130491
 986.20074463 19.000000000 12.779000282 0.0270676818 -0.015936416 1.9128073454 34.798000336 146.41024780 147.54418945 1.4693275690 34.666011810 1.1068718433 1.9035066366
 986.35314941 19.000000000 12.835999489 0.0399375260 0.0881383568 1.8759844303 37.821998596 149.91119385 151.18008423 1.3961893320 34.665939331 1.4150236845 1.8265130520
 986.50555420 19.000000000 12.869999886 0.0279271137 0.1279421896 1.8730937243 40.638000488 145.99336243 147.02171326 1.3082078695 34.272010803 0.7164265513 1.7505835295
 986.65795898 19.000000000 12.854000092 0.0140729174 0.1263485402 1.8913177252 42.632999420 143.37463379 144.46693420 1.2224842310 34.274009705 2.2885441780 1.6856155396
 986.81036377 19.000000000 12.789999962 0.0280504618 0.1067655236 1.9522242546 43.743999481 148.52467346 149.56718445 1.1665395498 34.272663116 1.4173388481 1.6257437468
 986.96276855 19.000000000 12.760000229 0.0370336398 0.0704018846 1.9921121597 42.428001404 153.30435181 154.48231506 1.1169171333 33.679893494 2.2566509247 1.5857564211
 987.11517334 19.000000000 12.763999939 0.0430112146 0.0529675968 2.0120561123 40.287998199 154.90496826 156.09577942 1.1080185175 33.484012604 4.6261520386 1.5477564335
 987.26757813 19.000000000 12.770000458 0.0449383296 0.0472339652 2.0219552517 39.452999115 157.58970642 158.85647583 1.1096155643 33.487125397 1.2495871782 1.5098397732
 987.41998291 19.000000000 12.784000397 0.0338878669 0.0498434417 2.0139269829 38.498001099 157.58970642 158.82255554 1.0694810152 33.688125610 0.8098558187 1.4848333597
 987.57232666 19.000000000 12.825999260 0.0139531447 0.0736340135 2.0009894371 37.534999847 157.58970642 158.78866577 1.0157052279 33.888011932 0.7665810585 1.4587596655
 987.72473145 19.000000000 12.892999649 0.0051561873 0.0974328741 1.9990520477 35.291000366 157.58970642 158.75476074 0.9837052822 33.890384674 1.3267068863 1.4187536240
 987.87713623 19.000000000 12.968000412 0.0351353623 0.1171438247 2.0088491440 33.451000214 157.58970642 158.72087097 0.9519631863 33.965709686 0.5109354854 1.3778975010
 988.02954102 19.000000000 13.027999878 0.0608646385 0.1274309456 1.9795938730 31.968000412 157.55781555 158.68696594 0.9482302666 34.292469025 0.4895082116 1.3619487286
 988.18194580 19.000000000 13.038999557 0.0349114947 0.1276089549 1.9018489122 30.322000504 157.38319397 158.65306091 0.9732394814 34.382587433 1.0252767801 1.3539935350
 988.33435059 19.000000000 13.052000046 0.0179375242 0.1274085939 1.8730365038 28.843000412 157.01568604 158.07920837 0.9992026687 34.496810913 0.7686027288 1.3531794548
 988.48675537 19.000000000 13.048999786 0.0059531438 0.1271369755 1.8800677061 28.618000031 152.69238281 153.92399597 1.0214790106 34.844314575 0.9856855869 1.3810961246
 988.63916016 19.000000000 13.026999474 -0.002885417 0.1265588105 1.8931145668 30.799999237 148.14663696 149.22157288 1.0736354589 35.096527100 1.9382106066 1.3960833549
 988.79156494 19.000000000 13.005000114 0.0191962346 0.1263336539 1.9150671959 33.233001709 143.52107239 144.56755066 1.1424973011 35.196453094 0.9469422698 1.4091154337
