# LAS format log file from PETREL
# Project units are specified as depth units
#==================================================================
~Version information
VERS.   2.0:
WRAP.   NO:
#==================================================================
~Well
STRT .m      162.32598877 :
STOP .m      3247.3605957 :
STEP .m     0.00000000 :
NULL .        -999.250000 :
COMP.           : COMPANY
WELL.  17/11-1   : WELL
FLD.            : FIELD
LOC.            : LOCATION
SRVC.           : SERVICE COMPANY
DATE.  2018-09-11 14:48:12   : Log Export Date {yyyy-MM-dd HH:mm:ss}
PROV.           : PROVINCE
UWI.   17/11-1   : UNIQUE WELL ID
API.            : API NUMBER
#==================================================================
~Curve
DEPT .m                   : DEPTH
Lithology_geolink ._      : Lithology_geolink
CALI .in                  : CALI
DRHO .g/cm3               : DRHO
NPHI .m3/m3               : NPHI
RHOB .g/cm3               : RHOB
GR .gAPI                  : GR
DTC .us/ft                : DTC
DTE .us/ft                : DTE
RDEP .ohm.m               : RDEP
SP .mV                    : SP
RSHA .ohm.m               : RSHA
RMED .ohm.m               : RMED
~Parameter
#==================================================================
~Ascii
# ...
 1391.2801514 9.0000000000 13.904999733 -0.009943910  -999.250000 2.3869681358 24.225999832 82.510833740 82.578514099 2.3028991222 29.833127975 2.2240478992 2.2478797436
 1391.4324951 9.0000000000 13.880999565 -0.003056045  -999.250000 2.3829038143 25.090000153 81.354034424 81.347328186 2.2939062119 29.697366714 2.2443220615 2.2329280376
 1391.5848389 9.0000000000 13.855999947 -0.009992789  -999.250000 2.3709495068 26.260999680 81.352371216 81.296836853 2.2849168777 29.584163666 2.4443333149 2.2239422798
 1391.7373047 9.0000000000 13.845999718 -0.008943954  -999.250000 2.3639681339 26.216999054 80.400123596 80.417701721 2.2769582272 29.435102463 2.0294828415 2.2159280777
 1391.8896484 9.0000000000 13.844999313 -0.001942308  -999.250000 2.3600142002 25.822000504 80.976417542 81.047630310 2.2729582787 29.275146484 2.2300930023 2.2069494724
 1392.0421143 9.0000000000 13.829999924 0.0060880706  -999.250000 2.3621280193 25.823999405 83.706779480 83.678535461 2.2689552307 29.122570038 2.2869241238 2.1999840736
 1392.1944580 9.0000000000 13.798000336 0.0169711541  -999.250000 2.3780431747 25.429000854 83.689895630 83.683525085 2.2649583817 28.867692947 1.8402467966 2.1979999542
 1392.3469238 10.000000000 13.784000397 0.0129519235  -999.250000 2.3840482235 25.430999756 84.179061890 84.104187012 2.2610447407 28.635122299 1.9935843945 2.1979999542
 1392.4992676 10.000000000 13.781999588 0.0070560449  -999.250000 2.3901202679 25.433000565 85.390098572 85.418334961 2.2652084827 28.499061584 1.8211233616 2.1982800961
 1392.6517334 10.000000000 13.769999504 0.0139519237  -999.250000 2.4049439430 25.832000732 84.122100830 84.156616211 2.2854373455 28.510999680 1.8994195461 2.2334969044
 1392.8040771 10.000000000 13.744000435 0.0079359496  -999.250000 2.3979439735 25.833999634 85.775077820 85.889709473 2.3248436451 28.666454315 2.4882500172 2.2953283787
 1392.9565430 10.000000000 13.722999573 -0.000032051  -999.250000 2.3909919262 25.836000443 86.788574219 86.798820496 2.4059078693 28.747333527 2.0222873688 2.3361761570
 1393.1088867 10.000000000 13.704000473 -0.004016013  -999.250000 2.3899841309 25.134000778 87.109672546 86.975425720 2.4865729809 28.799268723 2.5565960407 2.3581840992
 1393.2613525 10.000000000 13.684000015 -0.005991987  -999.250000 2.3880481720 24.881000519 87.084022522 87.125144958 2.5416052341 28.847486496 2.3065061569 2.3812885284
 1393.4136963 10.000000000 13.668999672 -0.004959968  -999.250000 2.3940880299 24.650999069 84.596511841 84.495964050 2.5952813625 28.923830032 2.9317562580 2.4174084663
 1393.5660400 10.000000000 13.652000427 0.0000576923  -999.250000 2.4050359726 23.871999741 83.781585693 83.757644653 2.6219582558 29.072164536 2.7799999714 2.4682161808
 1393.7185059 9.0000000000 13.628999710 0.0080880709  -999.250000 2.4101042747 23.066999435 81.496337891 81.584945679 2.6178541183 29.280328751 2.7812249660 2.4980959892
 1393.8708496 9.0000000000 13.604000092 0.0189999994  -999.250000 2.4229495525 23.482999802 81.421005249 81.422058105 2.6038439274 29.517614365 3.2899198532 2.5099568367
 1394.0233154 9.0000000000 13.579999924 0.0189839862  -999.250000 2.4159679413 25.673999786 83.913185120 83.807907104 2.5889663696 29.805353165 3.2373194695 2.5038478374
 1394.1756592 9.0000000000 13.574000359 0.0169855785  -999.250000 2.4119782448 28.341999054 83.689895630 83.795303345 2.5862290859 30.046586990 2.1245849133 2.4850287437
 1394.3281250 12.000000000 13.572999954 0.0149198715  -999.250000 2.4089357853 30.070999146 83.922203064 83.782707214 2.6083698273 30.328153610 2.4871530533 2.4892163277
 1394.4804688 12.000000000 13.562999725 0.0049039233  -999.250000 2.4009840488 31.017000198 83.706779480 83.770088196 2.6411874294 30.350429535 1.7216682434 2.5164084435
 1394.6329346 12.000000000 13.531000137 -0.007000000  -999.250000 2.3990640640 28.165000916 83.625595093 83.698890686 2.6591119766 30.071104050 2.7604641914 2.5675046444
 1394.7852783 9.0000000000 13.496000290 -0.006951962  -999.250000 2.4070801735 25.089000702 83.372062683 83.241600037 2.6695103645 29.932369232 2.5394840240 2.6303203106
 1394.9377441 9.0000000000 13.458999634 -0.001008013  -999.250000 2.4169681072 23.877000809 82.639930725 82.692695618 2.7189414501 29.998556137 3.4643218517 2.6702003479
 1395.0900879 9.0000000000 13.437999725 -0.001951962  -999.250000 2.4130642414 23.878999710 82.051368713 81.947959900 2.8028125763 30.085845947 3.5971426964 2.6952002048
 1395.2425537 9.0000000000 13.420999527 0.0040560900  -999.250000 2.4210240841 24.674999237 80.623962402 80.628196716 2.8806278706 30.237556458 3.0636243820 2.7201843262
 1395.3948975 9.0000000000 13.409999847 0.0110400319  -999.250000 2.4239759445 26.270999908 81.628852844 81.586730957 2.9364063740 30.479600906 3.3243973255 2.7431762218
 1395.5472412 10.000000000 13.406000137 0.0159639437  -999.250000 2.4209351540 27.061000824 85.184104919 85.160461426 2.9751560688 30.585098267 4.1930418015 2.7651586533
 1395.6997070 10.000000000 13.387999535 0.0109199360  -999.250000 2.4119520187 27.604999542 85.981460571 86.011436462 2.9900105000 30.423513412 2.9713780880 2.7871761322
 1395.8520508 10.000000000 13.333000183 0.0009495193  -999.250000 2.4060359001 28.256000519 86.563766479 86.403785706 2.9911873341 30.158536911 2.5847692490 2.8091948032
 1396.0045166 10.000000000 13.263999939 -0.006000000  -999.250000 2.4111120701 28.951999664 85.247863770 85.209991455 3.0093586445 29.897800446 3.0649271011 2.8363041878
 1396.1568604 9.0000000000 13.246000290 -0.005985577  -999.250000 2.4250216484 28.302000046 84.019912720 84.065872192 3.0418748856 29.683563232 3.4486668110 2.8743174076
 1396.3093262 9.0000000000 13.244000435 -0.003983987  -999.250000 2.4280159473 27.091999054 81.647254944 81.726631165 3.1263115406 29.428167343 2.6212401390 2.9183523655
 1396.4616699 9.0000000000 13.243000031 -0.001978365  -999.250000 2.4300506115 25.684999466 80.734840393 80.590827942 3.2429168224 29.298658371 3.9665384293 2.9623172283
 1396.6141357 9.0000000000 13.242000580 0.0010240385  -999.250000 2.4371042252 25.016000748 81.254653931 81.216537476 3.3307733536 29.237085342 3.6784257889 3.0063526630
 1396.7664795 9.0000000000 13.242000580 0.0040000002  -999.250000 2.4500880241 24.298000336 79.748863220 79.755271912 3.3997187614 29.094499588 3.4404375553 3.0503602028
 1396.9189453 9.0000000000 13.232999802 0.0039599361  -999.250000 2.4609599113 25.093999863 80.353370667 80.325408936 3.4687397480 29.007480621 3.7139632702 3.0953445435
 1397.0712891 9.0000000000 13.218999863 -0.000991994  -999.250000 2.4559280872 25.889999390 80.766921997 80.722434998 3.5346562862 29.238855362 4.1147933006 3.1383202076
 1397.2237549 9.0000000000 13.204999924 0.0000480769  -999.250000 2.4469599724 26.510999680 81.751167297 81.812469482 3.5978741646 29.570043564 4.6070928574 3.1782965660
 1397.3760986 9.0000000000 13.211999893 0.0060160127  -999.250000 2.4419999123 25.764999390 81.959373474 82.082458496 3.6761875153 29.888996124 3.8150994778 3.2152881622
 1397.5285645 9.0000000000 13.173000336 0.0079599358  -999.250000 2.4420399666 24.704999924 82.749168396 82.761100769 3.7897734642 30.245279312 3.8760514259 3.2512965202
 1397.6809082 9.0000000000 13.156998634 0.0029359488  -999.250000 2.4470160007 23.913000107 81.303848267 81.342826843 3.8581666946 30.599988937 3.4841122627 3.2883043289
 1397.8332520 9.0000000000 13.135000229 -0.005028846  -999.250000 2.4489998817 23.915000916 79.573898315 79.559875488 3.8741979599 30.775592804 4.7999281883 3.3263027668
 1397.9857178 9.0000000000 13.105999947 -0.008975981  -999.250000 2.4490318298 26.010000229 79.349983215 79.310577393 3.8934032917 30.881107330 4.7537341118 3.3682963848
 1398.1380615 9.0000000000 13.104000092 -0.005963943  -999.250000 2.4530289173 27.336000443 79.083488464 79.169197083 3.9293956757 30.900508881 4.2293605804 3.4051947594
 1398.2905273 9.0000000000 13.105999947 -0.000967974  -999.250000 2.4569759369 26.700000763 80.440910339 80.313995361 3.9672129154 30.992351532 5.0747447014 3.4321920872
 1398.4428711 9.0000000000 13.078001022 0.0030144232  -999.250000 2.4539928436 26.222999573 81.005271912 81.004791260 3.9860730171 31.232332230 4.1387534142 3.4561154842
