# LAS format log file from PETREL
# Project units are specified as depth units
#==================================================================
~Version information
VERS.   2.0:
WRAP.   NO:
#==================================================================
~Well
STRT .m      162.32598877 :
STOP .m      3247.3605957 :
STEP .m     0.00000000 :
NULL .        -999.250000 :
COMP.           : COMPANY
WELL.  17/11-1   : WELL
FLD.            : FIELD
LOC.            : LOCATION
SRVC.           : SERVICE COMPANY
DATE.  2018-09-11 14:48:12   : Log Export Date {yyyy-MM-dd HH:mm:ss}
PROV.           : PROVINCE
UWI.   17/11-1   : UNIQUE WELL ID
API.            : API NUMBER
#==================================================================
~Curve
DEPT .m                   : DEPTH
Lithology_geolink ._      : Lithology_geolink
CALI .in                  : CALI
DRHO .g/cm3               : DRHO
NPHI .m3/m3               : NPHI
RHOB .g/cm3               : RHOB
GR .gAPI                  : GR
DTC .us/ft                : DTC
DTE .us/ft                : DTE
RDEP .ohm.m               : RDEP
SP .mV                    : SP
RSHA .ohm.m               : RSHA
RMED .ohm.m               : RMED
~Parameter
#==================================================================
~Ascii
# ...
 2825.0598145 21.000000000 12.345999718 -0.011929600  -999.250000 2.0539646149 10.100000381 68.689903259 68.718505859 1985.2451172  -999.250000 2978.5610352  -999.250000
 2825.2124023 21.000000000 12.326999664 -0.007841347  -999.250000 2.0522291660 9.9049997330 68.707778931 68.714202881 1982.5229492  -999.250000 2324.7241211  -999.250000
 2825.3647461 21.000000000 12.329999924 0.0010528846  -999.250000 2.0650882721 9.5170001984 68.800254822 68.709915161 1979.8034668  -999.250000 134.44599915  -999.250000
 2825.5170898 21.000000000 12.331000328 0.0040528849  -999.250000 2.0701761246 9.6210002899 68.689903259 68.706985474 1977.6029053  -999.250000 61.494998932  -999.250000
 2825.6694336 21.000000000 12.331000328 0.0069648004  -999.250000 2.0801758766 9.9289999008 68.689903259 68.709442139 1977.8623047  -999.250000 45.067001343  -999.250000
 2825.8220215 21.000000000 12.331998825 0.0049999999  -999.250000 2.0901057720 9.9320001602 68.689903259 68.697196960 1980.2749023  -999.250000 597.45898438  -999.250000
 2825.9743652 21.000000000 12.331998825 0.0050705126  -999.250000 2.0959999561 10.020000458 68.674606323 68.692901611 1982.8809814  -999.250000 332.81100464  -999.250000
 2826.1267090 21.000000000 12.331998825 0.0089118583  -999.250000 2.0958764553 10.182999611 68.595146179 68.702308655 1985.4938965  -999.250000 24.600000381  -999.250000
 2826.2790527 21.000000000 12.331998825 0.0038416001  -999.250000 2.0889120102 9.7119998932 68.689903259 68.781700134 1988.0998535  -999.250000 37.782001495  -999.250000
 2826.4316406 21.000000000 12.315000534 -0.004964743  -999.250000 2.0840001106 9.4820003510 68.689903259 68.755767822 1990.7049561  -999.250000 24.056999207  -999.250000
 2826.5839844 21.000000000 12.298000336 -0.003000000  -999.250000 2.0839471817 9.7010002136 68.707778931 68.712036133 1993.2996826  -999.250000 20.714000702  -999.250000
 2826.7363281 21.000000000 12.293000221 -0.002823718  -999.250000 2.0810706615 10.392999649 68.800254822 68.794387817 1995.3006592  -999.250000 30.455999374  -999.250000
 2826.8886719 21.000000000 12.273999214 0.0070352000  -999.250000 2.0849473476 10.390000343 68.689903259 68.697410583 1996.0080566  -999.250000 11.484999657  -999.250000
 2827.0410156 21.000000000 12.290999413 0.0089999996  -999.250000 2.0819840431 9.5620002747 68.689903259 68.663101196 1996.0080566  -999.250000 30.513999939  -999.250000
 2827.1936035 21.000000000 12.260001183 0.0089999996  -999.250000 2.0810883045 9.1829996109 68.674583435 68.658813477 1996.0080566  -999.250000 2988.5659180  -999.250000
 2827.3459473 21.000000000 12.253999710 0.0089647435  -999.250000 2.0860881805 9.3839998245 68.595298767 68.661514282 1996.0080566  -999.250000 731.93798828  -999.250000
 2827.4982910 21.000000000 12.253999710 0.0069647436  -999.250000 2.0909824371 10.612000465 68.689903259 68.706855774 1996.0080566  -999.250000 1370.1760254  -999.250000
 2827.6506348 21.000000000 12.255000114 0.0049648001  -999.250000 2.0898416042 10.836999893 68.722770691 68.756340027 1996.0080566  -999.250000 2453.5739746  -999.250000
 2827.8032227 21.000000000 12.255000114 0.0029294873  -999.250000 2.0808415413 10.845999718 68.928398132 68.823204041 1996.0080566  -999.250000 18.437999725  -999.250000
 2827.9555664 21.000000000 12.229998589 -0.000964744  -999.250000 2.0721762180 11.109000206 68.913047791 68.836212158 1996.0080566  -999.250000 43.951999664  -999.250000
 2828.1079102 21.000000000 12.230999947 0.0010000000  -999.250000 2.0820529461 11.470999718 68.800430298 68.818321228 1996.0080566  -999.250000 11.234999657  -999.250000
 2828.2602539 21.000000000 12.234999657 0.0009648001  -999.250000 2.0850353241 11.029999733 68.689903259 68.728401184 1996.0080566  -999.250000 20.579999924  -999.250000
 2828.4128418 21.000000000 12.236000061 -0.000929487  -999.250000 2.0871760845 9.9069995880 68.689903259 68.724098206 1996.0080566  -999.250000 18.695999146  -999.250000
 2828.5651855 21.000000000 12.236000061 0.0031410258  -999.250000 2.0975110531 9.2790002823 68.707778931 68.719810486 1996.0080566  -999.250000 36.740001678  -999.250000
 2828.7175293 21.000000000 12.289999962 0.0108942306  -999.250000 2.1265287399 10.425000191 68.833450317 68.729438782 1996.0444336  -999.250000 2647.9450684  -999.250000
 2828.8698730 21.000000000 12.352001190 0.0052463999  -999.250000 2.1564223766 10.199000359 68.895530701 68.783226013 1998.1442871  -999.250000 23.743999481  -999.250000
 2829.0222168 21.000000000 12.336000443 0.0188076925  -999.250000 2.1790385246 10.218999863 68.492683411 68.428512573 2001.5333252  -999.250000 25.246000290  -999.250000
 2829.1748047 21.000000000 12.302000046 0.0069823721  -999.250000 2.1193122864 10.102999687 67.177497864 67.233268738 1960.4846191  -999.250000 17.065999985  -999.250000
 2829.3271484 21.000000000 12.296999931 0.0059823720  -999.250000 2.0810883045 10.598999977 66.689872742 66.770561218 1887.3265381  -999.250000 17.628000259  -999.250000
 2829.4794922 21.000000000 12.241999626 0.0050881407  -999.250000 2.0860881805 10.921999931 66.781799316 66.763916016 1788.8331299  -999.250000 17.358999252  -999.250000
 2829.6318359 21.000000000 12.203000069 0.0099471994  -999.250000 2.0908768177 9.9820003510 66.913291931 66.870269775 1727.2614746  -999.250000 45.589000702  -999.250000
 2829.7844238 21.000000000 12.178001404 0.0068942308  -999.250000 2.0837357044 10.560000420 67.868911743 67.886611938 1763.1457520  -999.250000 171.90100098  -999.250000
 2829.9367676 21.000000000 12.170999527 0.0009823719  -999.250000 2.0689117908 11.524999619 68.707748413 68.798027039 1853.1839600  -999.250000 1961.4189453  -999.250000
 2830.0891113 21.000000000 12.178001404 0.0000528846  -999.250000 2.0640351772 10.753999710 68.800430298 68.776603699 1956.2248535  -999.250000 22.650999069  -999.250000
 2830.2414551 21.000000000 12.178999901 0.0030704001  -999.250000 2.0661408901 9.7709999084 68.689903259 68.772323608 2005.8665771  -999.250000 12.425999641  -999.250000
 2830.3940430 21.000000000 12.178999901 0.0071586543  -999.250000 2.0742466450 9.6250000000 68.689903259 68.768096924 2005.5758057  -999.250000 13.918000221  -999.250000
 2830.5463867 21.000000000 12.161001205 0.0158589743  -999.250000 2.0879118443 10.454999924 68.707778931 68.777656555 1997.1240234  -999.250000 33.763999939  -999.250000
 2830.6987305 21.000000000 12.144000053 0.0079294872  -999.250000 2.0829646587 11.159999847 68.833450317 68.858901978 1996.0080566  -999.250000 28.184000015  -999.250000
 2830.8510742 21.000000000 12.141000748 0.0039296001  -999.250000 2.0808417797 10.399000168 68.928398132 68.854621887 1996.0080566  -999.250000 181.74099731  -999.250000
 2831.0036621 21.000000000 12.154000282 -0.000035256  -999.250000 2.0719647408 10.151000023 68.928398132 68.864242554 1996.0080566  -999.250000 47.520000458  -999.250000
 2831.1560059 21.000000000 12.168001175 -0.001964744  -999.250000 2.0700175762 10.640000343 68.946212769 68.945411682 1996.0080566  -999.250000 17.009000778  -999.250000
 2831.3083496 21.000000000 12.196000099 0.0000352564  -999.250000 2.0710883141 11.265000343 69.038406372 68.941200256 1996.0080566  -999.250000 15.107000351  -999.250000
 2831.4606934 21.000000000 12.213999748 0.0018766026  -999.250000 2.0758590698 11.026000023 68.928398132 68.936920166 1996.0080566  -999.250000 13.748999596  -999.250000
 2831.6130371 21.000000000 12.223000526 -0.005035200  -999.250000 2.0677537918 10.359000206 68.928398132 68.932701111 1996.0080566  -999.250000 18.818000793  -999.250000
 2831.7656250 21.000000000 12.210000038 -0.006964744  -999.250000 2.0540351868 10.744000435 68.928398132 68.928398132 1996.0080566  -999.250000 403.71798706  -999.250000
 2831.9179688 21.000000000 12.201000214 -0.004982372  -999.250000 2.0561761856 10.996000290 68.913047791 68.924110413 1996.0080566  -999.250000 259.06298828  -999.250000
 2832.0703125 21.000000000 12.201000214 -0.003964744  -999.250000 2.0660705566 11.572999954 68.833297729 68.919906616 1996.0151367  -999.250000 35.444000244  -999.250000
 2832.2226563 21.000000000 12.201000214 -0.001912000  -999.250000 2.0699999332 11.619000435 68.928398132 68.915618896 1996.4248047  -999.250000 25.007999420  -999.250000
