# LAS format log file from PETREL
# Project units are specified as depth units
#==================================================================
~Version information
VERS.   2.0:
WRAP.   NO:
#==================================================================
~Well
STRT .m      984.14562988 :
STOP .m      1996.3865967 :
STEP .m     0.00000000 :
NULL .        -999.250000 :
COMP.           : COMPANY
WELL.  25/11-23  Balder Appr   : WELL
FLD.            : FIELD
LOC.            : LOCATION
SRVC.           : SERVICE COMPANY
DATE.  2018-09-11 14:48:16   : Log Export Date {yyyy-MM-dd HH:mm:ss}
PROV.           : PROVINCE
UWI.   25/11-23   : UNIQUE WELL ID
API.            : API NUMBER
#==================================================================
~Curve
DEPT .m                   : DEPTH
Lithology_geolink ._      : Lithology_geolink
DCAL .in                  : DCAL
CALI .in                  : CALI
BS .in                    : BS
MUDWEIGHT ._              : MUDWEIGHT
ROP .m/h                  : ROP
DRHO .g/cm3               : DRHO
NPHI .m3/m3               : NPHI
RHOB .g/cm3               : RHOB
GR .gAPI                  : GR
DTC .us/ft                : DTC
RDEP .ohm.m               : RDEP
SP .mV                    : SP
RSHA .ohm.m               : RSHA
RMED .ohm.m               : RMED
~Parameter
#==================================================================
~Ascii
# ...
 1655.7724609 5.0000000000 0.1857004017 8.6857004166 8.5000000000 1.3200000525 194155.54688 -0.012900000 0.4852539897 2.1261000633 60.387798309 148.63320923 0.5532000065 0.0000000000 0.6035000086 0.5536000133
 1655.9248047 5.0000000000 0.2117003947 8.7117004395 8.5000000000 1.3200000525 205168.85938 -0.015900001 0.4743820131 2.1243000031 60.418201447 148.51263428 0.5472000241 0.0000000000 0.5886999965 0.5476999879
 1656.0772705 5.0000000000 0.2542000115 8.7541999817 8.5000000000 1.3200000525 284845.40625 -0.015799999 0.4787310064 2.1250998974 58.063800812 148.30102539 0.5496000051 0.0000000000 0.5957999825 0.5501000285
 1656.2296143 5.0000000000 0.2809000015 8.7809000015 8.5000000000 1.3200000525 370546.50000 -0.014600000 0.4842509925 2.1266000271 56.242698669 148.59182739 0.5393999815 0.0000000000 0.5659999847 0.5399000049
 1656.3820801 5.0000000000 0.2847996056 8.7847995758 8.5000000000 1.3200000525 383484.25000 -0.014600000 0.4931389987 2.1252000332 54.913101196 148.13621521 0.5357999802 0.0000000000 0.5946999788 0.5364999771
 1656.5344238 5.0000000000 0.2547998130 8.7547998428 8.5000000000 1.3200000525 383484.25000 -0.013700000 0.4952009916 2.1238000393 53.411998749 147.65455627 0.5249000192 0.0000000000 0.5864999890 0.5256999731
 1656.6868896 5.0000000000 0.2231997997 8.7231998444 8.5000000000 1.3200000525 383484.25000 -0.012200000 0.4786849916 2.1626999378 49.998600006 143.86866760 0.5501999855 0.0000000000 0.6064000130 0.5512999892
 1656.8392334 5.0000000000 0.0600004196 8.5600004196 8.5000000000 1.3200000525 383484.25000 -0.006500000 0.4629550278 2.2418999672 47.280498505 140.71809387 0.6062999964 0.0000000000 0.8313000202 0.6078000069
 1656.9916992 5.0000000000 -0.020400047 8.4795999527 8.5000000000 1.3200000525 367855.53125 0.0020999999 0.4732519984 2.3366999626 46.442798615 140.34165955 0.5166000128 0.0000000000 0.5666999817 0.5177999735
 1657.1440430 5.0000000000 -0.012999530 8.4870004654 8.5000000000 1.3200000525 171826.53125 0.0015000000 0.5003519654 2.3227999210 47.358501434 141.56805420 0.5325999856 0.0000000000 0.5619999766 0.5339000225
 1657.2965088 5.0000000000 0.0059995656 8.5059995651 8.5000000000 1.3200000525 133238.15625 -0.004100000 0.4999719858 2.2413001060 48.770500183 146.63023376 0.5321999788 0.0000000000 0.5557000041 0.5335999727
 1657.4488525 5.0000000000 0.0333995782 8.5333995819 8.5000000000 1.3200000525 133238.15625 -0.006300000 0.4772050083 2.1737000942 50.231201172 148.64402771 0.5271000266 0.0000000000 0.5740000010 0.5285999775
 1657.6013184 5.0000000000 0.0638999864 8.5638999939 8.5000000000 1.3200000525 133238.15625 -0.007100000 0.4651260078 2.1491999626 51.639400482 148.05044556 0.5365182161 0.0000000000 0.5946975946 0.5382187366
 1657.7536621 5.0000000000 0.0934000015 8.5934000015 8.5000000000 1.3200000525 133238.15625 -0.008300000 0.4573350251 2.1479001045 52.350399017 147.89302063 0.5479163527 0.0000000000 0.5932146907 0.5499166846
 1657.9060059 5.0000000000 0.1161002889 8.6161003113 8.5000000000 1.3200000525 134858.76563 -0.009100000 0.4635359943 2.1477999687 52.228298187 147.91304016 0.5682911873 0.0000000000 0.6114934683 0.5706912875
 1658.0584717 5.0000000000 0.0975999907 8.5975999832 8.5000000000 1.3200000525 169019.14063 -0.010300000 0.4758290052 2.1496999264 52.190299988 147.58750916 0.5572966933 0.0000000000 0.6032986045 0.5597969294
 1658.2108154 5.0000000000 0.0953998417 8.5953998566 8.5000000000 1.3200000525 175864.59375 -0.010000000 0.5003210306 2.1561048031 52.494899750 147.47161865 0.5532016754 0.0000000000 0.6016044617 0.5559017658
 1658.3632813 5.0000000000 0.1133003011 8.6133003235 8.5000000000 1.3200000525 176315.53125 -0.009999840 0.5007590055 2.1620020866 53.800399780 148.50502014 0.5553081632 0.0000000000 0.6072090864 0.5581083894
 1658.5156250 5.0000000000 0.1260004044 8.6260004044 8.5000000000 1.3200000525 176827.87500 -0.009799840 0.4930559993 2.1645987034 54.854000092 148.91041565 0.5655009151 0.0000000000 0.6185021400 0.5686010122
 1658.6680908 5.0000000000 0.1399001926 8.6399002075 8.5000000000 1.3200000525 177269.89063 -0.009600081 0.4942539930 2.1630969048 56.664398193 149.06044006 0.5665943623 0.0000000000 0.6211899519 0.5698943138
 1658.8204346 5.0000000000 0.1485995948 8.6485996246 8.5000000000 1.3200000525 177770.29688 -0.009700001 0.4966120124 2.1590981483 57.323101044 149.11761475 0.5594909191 0.0000000000 0.6085914373 0.5627909303
 1658.9729004 5.0000000000 0.1602000892 8.6602001190 8.5000000000 1.3200000525 179660.50000 -0.009700322 0.4952749908 2.1567025185 57.282501221 148.99658203 0.5482091308 0.0000000000 0.5979164839 0.5515094995
 1659.1252441 5.0000000000 0.1433001012 8.6433000565 8.5000000000 1.3200000525 189300.79688 -0.009898959 0.4706919789 2.1583042145 55.708000183 148.67594910 0.5538948178 0.0000000000 0.6082069278 0.5573951006
 1659.2777100 5.0000000000 0.1209002063 8.6209001541 8.5000000000 1.3200000525 193947.42188 -0.008598879 0.4549560249 2.1638062000 54.798198700 147.48747253 0.5474206805 0.0000000000 0.6167441010 0.5513216257
 1659.4300537 5.0000000000 0.1155005023 8.6155004501 8.5000000000 1.3200000525 194846.51563 -0.007901122 0.4577170312 2.1675975323 54.040000916 146.85409546 0.5603018403 0.0000000000 0.5819071531 0.5648021698
 1659.5825195 5.0000000000 0.1083002016 8.6083002090 8.5000000000 1.3200000525 195335.14063 -0.009302882 0.4835409820 2.1646931171 54.707698822 146.72151184 0.5625947118 0.0000000000 0.5908125043 0.5674951673
 1659.7348633 5.0000000000 0.1083002016 8.6083002090 8.5000000000 1.3200000525 195824.18750 -0.011100721 0.4947350025 2.1603989601 56.111598969 146.41455078 0.5592881441 0.0000000000 0.5985904932 0.5644880533
 1659.8872070 5.0000000000 0.1150998995 8.6150999069 8.5000000000 1.3200000525 196330.62500 -0.012001921 0.4974260032 2.1590950489 55.578998566 146.22351074 0.5445007682 0.0000000000 0.5867978334 0.5496011376
 1660.0396729 5.0000000000 0.1259002984 8.6259002686 8.5000000000 1.3200000525 189920.57813 -0.014401603 0.4917069972 2.1526911259 54.735401154 146.24739075 0.5455141068 0.0000000000 0.5841062665 0.5510148406
 1660.1920166 5.0000000000 0.1422996968 8.6422996521 8.5000000000 1.3200000525 155882.23438 -0.016400240 0.4905189872 2.1417920589 53.716499329 146.60099792 0.5630968809 0.0000000000 0.5918910503 0.5694971681
 1660.3444824 5.0000000000 0.1514997035 8.6514997482 8.5000000000 1.3200000525 152127.85938 -0.016699839 0.5074530244 2.1322960854 54.108798981 146.84013367 0.5591925979 0.0000000000 0.5807016492 0.5658928156
 1660.4968262 5.0000000000 0.1527996063 8.6527996063 8.5000000000 1.3200000525 151786.07813 -0.016499039 0.5164220333 2.1275026798 53.829200745 147.25448608 0.5499835014 0.0000000000 0.5827739239 0.5568835139
 1660.6492920 5.0000000000 0.1457004994 8.6457004547 8.5000000000 1.3200000525 151786.07813 -0.015299039 0.5286780000 2.1309032440 53.530899048 147.61579895 0.5293819904 0.0000000000 0.5502801538 0.5362818241
 1660.8016357 5.0000000000 0.1336002052 8.6336002350 8.5000000000 1.3200000525 151786.07813 -0.014099279 0.5184820294 2.1351015568 54.302600861 147.86720276 0.5069051981 0.0000000000 0.5255102515 0.5136056542
 1660.9541016 5.0000000000 0.1279000938 8.6279001236 8.5000000000 1.3200000525 150559.51563 -0.013199599 0.5172380209 2.1370997429 55.284900665 147.50375366 0.5134162903 0.0000000000 0.5383256078 0.5207172036
 1661.1064453 5.0000000000 0.1302995980 8.6302995682 8.5000000000 1.3200000525 144133.10938 -0.012699199 0.5073770285 2.1367990971 54.676799774 147.69613647 0.5337092876 0.0000000000 0.5703071356 0.5422100425
 1661.2589111 5.0000000000 0.1379003972 8.6379003525 8.5000000000 1.3200000525 135052.29688 -0.011700000 0.5137369633 2.1357119083 53.095798492 146.49951172 0.5453195572 0.0000000000 0.5792250037 0.5547208190
 1661.4112549 5.0000000000 0.1533003002 8.6533002853 8.5000000000 1.3200000525 133727.45313 -0.011700881 0.5198960304 2.1431102753 50.748699188 145.38690186 0.5575250983 0.0000000000 0.5948170424 0.5677263737
 1661.5637207 5.0000000000 0.1293001026 8.6293001175 8.5000000000 1.3200000525 134126.92188 -0.012800480 0.5167430043 2.1560230255 48.533901215 143.27066040 0.5887944102 0.0000000000 0.6163387895 0.6005944014
