# LAS format log file from PETREL
# Project units are specified as depth units
#==================================================================
~Version information
VERS.   2.0:
WRAP.   NO:
#==================================================================
~Well
STRT .m      1118.6159668 :
STOP .m      2017.3187256 :
STEP .m     0.00000000 :
NULL .        -999.250000 :
COMP.           : COMPANY
WELL.  25/11-15  Grane   : WELL
FLD.            : FIELD
LOC.            : LOCATION
SRVC.           : SERVICE COMPANY
DATE.  2018-09-11 14:48:15   : Log Export Date {yyyy-MM-dd HH:mm:ss}
PROV.           : PROVINCE
UWI.   25/11-15   : UNIQUE WELL ID
API.            : API NUMBER
#==================================================================
~Curve
DEPT .m                   : DEPTH
Lithology_geolink ._      : Lithology_geolink
CALI .in                  : CALI
BS .in                    : BS
MUDWEIGHT ._              : MUDWEIGHT
ROP .m/h                  : ROP
TGAS ._                   : TGAS
DRHO .g/cm3               : DRHO
THOR .ppm                 : THOR
NPHI .m3/m3               : NPHI
RHOB .g/cm3               : RHOB
GR .gAPI                  : GR
URAN .ppm                 : URAN
DTC .us/ft                : DTC
DTE .us/ft                : DTE
RDEP .ohm.m               : RDEP
SP .mV                    : SP
RSHA .ohm.m               : RSHA
RMED .ohm.m               : RMED
~Parameter
#==================================================================
~Ascii
# ...
 1536.0395508  -999.250000 12.027999878 8.5000000000 1.1299999952 214856.40625 0.0503351651 -0.091473602 7.9787278175 0.4566223919 2.1377050877 114.49720001 -3.555488348 143.58210754 141.01803589 0.7903603315 18.700000763 0.1492042243 0.7564144731
 1536.1918945  -999.250000 11.395130157 8.5000000000 1.1299999952 261169.95313 0.0520113558 -0.079314813 8.0938148499 0.4896196127 2.1766369343 110.75789642 -3.473830938 139.52239990 137.39143372 0.8170565963 17.200000763 0.2101595998 0.7769790888
 1536.3443604  -999.250000 10.426509857 8.5000000000 1.1299999952 278069.03125 0.0536875464 -0.073865443 8.4271326065 0.5645219088 2.2083830833 113.49709320 -3.268364668 136.31550598 133.98927307 0.8546370268 17.700000763 0.3119711280 0.7946979403
 1536.4967041  -999.250000 10.480519295 8.5000000000 1.1299999952 278069.03125 0.0554604419 -0.085220575 8.2140426636 0.5459157228 2.1939070225 110.69039917 -3.274989128 138.44380188 135.05067444 0.8691461682 19.200000763 0.5955481529 0.8422837257
 1536.6491699  -999.250000 10.506480217 8.5000000000 1.1299999952 278069.03125 0.0572897568 -0.093772851 7.9930763245 0.5417944193 2.1802959442 108.12665558 -3.424380302 139.52430725 136.32885742 0.8435438871 19.700000763 0.2070993632 0.9432182312
 1536.8015137  -999.250000 10.380509377 8.5000000000 1.1299999952 278069.03125 0.0591058582 -0.097827993 7.9526643753 0.4927516878 2.1936659813 106.00240326 -3.355909824 137.74530029 135.10079956 0.8342961669 20.200000763 0.1522949934 0.9386023879
 1536.9539795  -999.250000 11.108208656 8.5000000000 1.1299999952 278069.03125 0.0595000014 -0.103751518 8.0389299393 0.4993923008 2.1840949059 104.18885040 -3.361095667 138.69039917 135.48983765 0.7869821191 19.200000763 0.1662887037 0.9295955300
 1537.1063232  -999.250000 11.953080177 8.5000000000 1.1299999952 277690.56250 0.0594937652 -0.102799058 8.2847023010 0.4908326864 2.1486279964 103.50105286 -3.355804205 142.51220703 138.63719177 0.7712276578 19.700000763 0.1664140075 0.8469434977
 1537.2587891  -999.250000 11.910759926 8.5000000000 1.1299999952 265708.34375 0.0593999997 -0.093907394 8.6828813553 0.5391557813 2.1289579868 104.56165314 -3.467210770 144.89109802 141.41075134 0.7707015276 19.700000763 0.1967794597 0.8029346466
 1537.4111328  -999.250000 11.304732323 8.5000000000 1.1299999952 261310.31250 0.0593000017 -0.087156527 9.2057809830 0.5826678276 2.1173880100 105.18669891 -3.387464046 146.68370056 143.38943481 0.7799860239 20.200000763 0.2570761740 0.7944067121
 1537.5635986  -999.250000 9.7779989243 8.5000000000 1.1299999952 261310.31250 0.0592363849 -0.093695886 8.7586584091 0.6059771776 2.0750129223 104.56300354 -3.717235565 151.56919861 147.64411926 0.7858893871 22.700000763 0.3191490769 0.7941004634
 1537.7159424  -999.250000 9.6742153168 8.5000000000 1.1299999952 261310.31250 0.0591841266 -0.106293701 9.0330801010 0.5965915918 2.0166769028 100.19139862 -3.695117950 156.09538269 152.16918945 0.7709224820 23.700000763 0.2116760164 0.8171662092
 1537.8684082  -999.250000 8.9199409485 8.5000000000 1.1299999952 261310.31250 0.0590999983 -0.121196374 9.4106979370 0.5501480103 2.0050001144 101.18659973 -3.549816370 157.53160095 154.22843933 0.7599201202 22.700000763 0.1862216294 0.7777336836
 1538.0207520  -999.250000 8.7225770950 8.5000000000 1.1299999952 265837.65625 0.0590793639 -0.142787844 8.3191757202 0.4932483137 2.0175089836 104.81119537 -3.953176737 157.04760742 154.18501282 0.7623959184 22.700000763 0.3488475680 0.7369369864
 1538.1730957  -999.250000 8.6508312225 8.5000000000 1.1299999952 327053.31250 0.0590000004 -0.172347710 8.3852920532 0.4702207148 2.0173380375 109.92710114 -3.884211063 155.38600159 152.72424316 0.7637088895 21.700000763 0.2856826186 0.7508175373
 1538.3255615  -999.250000 8.4037981033 8.5000000000 1.1299999952 343241.28125 0.0588999987 -0.201676533 8.7221298218 0.4676041901 2.0049719810 106.75165558 -3.667573452 156.57130432 153.33967590 0.7818645835 21.700000763 0.2593377531 0.8112588525
 1538.4779053  -999.250000 9.1852140427 8.5000000000 1.1299999952 343241.28125 0.0588220991 -0.197527692 8.5309066772 0.4742015004 2.0173780918 103.00700378 -3.634652376 155.97869873 152.99023438 0.7697111964 20.700000763 0.3344770372 0.8405593038
 1538.6303711  -999.250000 9.6901273727 8.5000000000 1.1299999952 343241.28125 0.0587695986 -0.156274647 8.2407331467 0.4868902862 2.0632240772 104.62409210 -3.670571089 151.56889343 149.40135193 0.7378554344 19.700000763 0.3306800425 0.8505803347
 1538.7827148  -999.250000 9.8285236359 8.5000000000 1.1299999952 343241.28125 0.0586999990 -0.120394193 8.0804567337 0.5008950233 2.0686919689 106.74739838 -3.746078968 150.61109924 147.77371216 0.7314128876 19.200000763 0.2290070653 0.7911716104
 1538.9351807  -999.250000 9.1543149948 8.5000000000 1.1299999952 343241.28125 0.0586648360 -0.102925465 8.3991441727 0.5164802074 2.1135029793 108.24829865 -3.400077581 146.08270264 144.00114441 0.7248160243 18.700000763 0.3229199648 0.7497342229
 1539.0875244  -999.250000 9.2695522308 8.5000000000 1.1299999952 343241.28125 0.0586000010 -0.080482826 7.8633303642 0.4809392095 2.1853299141 104.31455994 -3.643504381 139.29280090 137.64801025 0.7591557503 18.200000763 0.2884812951 0.7585962415
 1539.2399902  -999.250000 10.784521103 8.5000000000 1.1299999952 336403.03125 0.0584999993 -0.074575275 7.9043669701 0.4898920953 2.1960508823 102.00195313 -3.576653719 137.25900269 134.66540527 0.7941375971 17.700000763 0.4194007516 0.7654993534
 1539.3923340  -999.250000 11.017620087 8.5000000000 1.1299999952 252866.73438 0.0584078059 -0.078772262 8.0505828857 0.5033971071 2.1887090206 103.06204224 -3.449402094 138.10569763 134.97561646 0.7891021371 17.200000763 0.5191462636 0.8459206820
 1539.5447998  -999.250000 9.4538002014 8.5000000000 1.1299999952 222206.75000 0.0584000014 -0.082962997 7.8114914894 0.5270770192 2.1129341125 103.87435150 -3.427317619 146.08349609 141.54435730 0.7733280659 16.700000763 0.3741163909 0.8125268221
 1539.6971436  -999.250000 9.7669048309 8.5000000000 1.1299999952 222206.75000 0.0583028086 -0.089306496 7.9039001465 0.5528718829 2.1472969055 102.24910736 -3.262000084 142.27319336 140.00529480 0.7298799157 18.200000763 0.4348291159 0.7999967933
 1539.8496094  -999.250000 10.317669868 8.5000000000 1.1299999952 222206.75000 0.0582504272 -0.093551233 7.7437996864 0.5450081825 2.1334409714 96.192718506 -3.346100092 143.81759644 140.53199768 0.7368869185 18.700000763 0.3793476820 0.7652299404
 1540.0019531  -999.250000 10.589928627 8.5000000000 1.1299999952 221822.53125 0.0582000017 -0.092396468 7.5798001289 0.5776551962 2.1141009331 93.065544128 -3.530200005 145.49029541 142.17173767 0.7407928109 18.700000763 0.2108639777 0.8117529154
 1540.1542969  -999.250000 10.029899597 8.5000000000 1.1299999952 185928.81250 0.0582000017 -0.089331478 7.4162998199 0.5357580185 2.0981230736 94.812179565 -3.595200062 146.80070496 143.53866577 0.7397293448 18.700000763 0.3287708759 0.7806822658
 1540.3067627  -999.250000 8.9941978455 8.5000000000 1.1299999952 171930.95313 0.0581328459 -0.085061237 7.4242000580 0.5608642101 2.0694000721 98.498153687 -3.650700092 149.30387878 145.79798889 0.7799307704 19.200000763 0.4311061800 0.8299466968
 1540.4591064  -999.250000 8.9822282791 8.5000000000 1.1299999952 171930.95313 0.0561965853 -0.095080040 7.7480998039 0.5153362751 2.0440430641 103.05699158 -3.467799902 151.68679810 148.21809387 0.7895567417 19.200000763 0.3853112757 0.7753804326
 1540.6115723  -999.250000 8.7026901245 8.5000000000 1.1299999952 171930.95313 0.0538161397 -0.123162203 7.4572000504 0.5019040704 2.0360529423 105.93599701 -3.548399925 152.88380432 149.66065979 0.7599508762 20.200000763 0.2961837947 0.7638111711
 1540.7639160  -999.250000 9.7463302612 8.5000000000 1.1299999952 171930.95313 0.0513123348 -0.133230880 7.2941999435 0.4525614083 2.0496330261 110.11689758 -3.496400118 151.20869446 148.55696106 0.7496256232 21.700000763 0.3722319305 0.7745769024
 1540.9163818  -999.250000 10.890600204 8.5000000000 1.1299999952 176266.54688 0.0507000014 -0.120766193 7.3070998192 0.4764764011 2.0612800121 107.50220490 -3.428699970 149.89900208 147.13488770 0.7477014661 22.200000763 0.2976546884 0.7641146779
