# LAS format log file from PETREL
# Project units are specified as depth units
#==================================================================
~Version information
VERS.   2.0:
WRAP.   NO:
#==================================================================
~Well
STRT .m      206.00000000 :
STOP .m      2655.9824219 :
STEP .m     0.00000000 :
NULL .        -999.250000 :
COMP.           : COMPANY
WELL.  25/10-8  Hanz   : WELL
FLD.            : FIELD
LOC.            : LOCATION
SRVC.           : SERVICE COMPANY
DATE.  2018-09-11 14:48:14   : Log Export Date {yyyy-MM-dd HH:mm:ss}
PROV.           : PROVINCE
UWI.   25/10-8   : UNIQUE WELL ID
API.            : API NUMBER
#==================================================================
~Curve
DEPT .m                   : DEPTH
Lithology_geolink ._      : Lithology_geolink
CALI .in                  : CALI
BS .in                    : BS
THOR .ppm                 : THOR
NPHI .m3/m3               : NPHI
RHOB .g/cm3               : RHOB
GR .gAPI                  : GR
URAN .ppm                 : URAN
DTC .us/ft                : DTC
RDEP .ohm.m               : RDEP
RSHA .ohm.m               : RSHA
RMED .ohm.m               : RMED
~Parameter
#==================================================================
~Ascii
# ...
 1456.8992920  -999.250000 12.278259277 12.250000954 7.4694080353 0.0087548811 2.1292355061 59.868835449 1.3605200052 143.40447998 0.7037651539 0.6954727173 0.6936056614
 1457.0516357  -999.250000 12.284362793 12.250000954 6.8755297661 0.0062649245 2.1319344044 58.821838379 1.6673386097 143.26785278 0.7011971474 0.6969730854 0.6946775913
 1457.2041016  -999.250000 12.296572685 12.250000954 6.3253054619 0.0059955413 2.1477968693 61.233749390 1.9494048357 143.51127625 0.6931374073 0.6941649914 0.6901202202
 1457.3564453  -999.250000 12.284362793 12.250000954 5.8941049576 0.0099033872 2.1548326015 59.760147095 2.1557850838 143.74011230 0.6819381714 0.6863245964 0.6800012589
 1457.5087891  -999.250000 12.284362793 12.250000954 5.5390400887 0.0077395481 2.1152679920 56.449600220 2.2603800297 144.37194824 0.6717138290 0.6765444279 0.6686775684
 1457.6611328  -999.250000 12.278259277 12.250000954 5.2864398956 0.0058349930 2.0971479416 55.765487671 2.2211589813 144.89932251 0.6646816730 0.6683876514 0.6599805355
 1457.8135986  -999.250000 12.296572685 12.250000954 5.1993231773 0.0062134126 2.0893278122 56.759704590 2.0540924072 144.99911499 0.6611247063 0.6633038521 0.6545977592
 1457.9659424  -999.250000 12.278259277 12.250000954 5.2339525223 0.0052955947 2.0852980614 60.118011475 1.8337781429 144.80877686 0.6621134281 0.6618232727 0.6525628567
 1458.1182861  -999.250000 12.296572685 12.250000954 5.2851214409 0.0046079806 2.0820863247 60.600509644 1.6223871708 144.08499146 0.6698296070 0.6656990051 0.6559946537
 1458.2707520  -999.250000 12.290469170 12.250000954 5.3468899727 0.0067745135 2.1030101776 58.982254028 1.4499551058 143.09327698 0.6841473579 0.6766860485 0.6671469212
 1458.4230957  -999.250000 12.284362793 12.250000954 5.4845914841 0.0098002162 2.1513612270 56.996734619 1.3279230595 142.36824036 0.6996943951 0.6926810741 0.6835861206
 1458.5755615  -999.250000 12.272154808 12.250000954 5.7085599899 0.0068461443 2.1630232334 55.283096313 1.2531756163 142.39872742 0.7093346119 0.7067730427 0.6972904205
 1458.7279053  -999.250000 12.284362793 12.250000954 5.9876847267 0.0053206584 2.1615297794 56.104690552 1.2361569405 142.72846985 0.7116825581 0.7128233910 0.7021951675
 1458.8803711  -999.250000 12.290469170 12.250000954 6.2586321831 0.0043672663 2.1401665211 59.084915161 1.2991448641 142.92352295 0.7124125957 0.7121279240 0.7015855312
 1459.0327148  -999.250000 12.272154808 12.250000954 6.4708318710 0.0038142933 2.1356909275 60.153686523 1.4179538488 143.18209839 0.7170796394 0.7112724781 0.7032752037
 1459.1851807  -999.250000 12.290469170 12.250000954 6.6110267639 0.0064953943 2.1367983818 61.976913452 1.5494554043 143.25646973 0.7258622646 0.7145774364 0.7104337215
 1459.3375244  -999.250000 12.278259277 12.250000954 6.6562948227 0.0087177269 2.1284873486 61.047424316 1.6599820852 143.21188354 0.7353467941 0.7214136124 0.7202730179
 1459.4899902  -999.250000 12.284362793 12.250000954 6.6112952232 0.0059065698 2.1182117462 60.581329346 1.7347906828 143.19799805 0.7428908348 0.7289664745 0.7288658619
 1459.6423340  -999.250000 12.272154808 12.250000954 6.4644117355 0.0047304993 2.1256756783 61.471267700 1.7583653927 142.92468262 0.7479231358 0.7352483273 0.7348091602
 1459.7947998  -999.250000 12.308780670 12.250000954 6.2145209312 0.0079781115 2.1324419975 56.786865234 1.7026307583 142.36553955 0.7503478527 0.7393829823 0.7383513451
 1459.9471436  -999.250000 12.375930786 12.250000954 5.9835591316 0.0068371226 2.1300096512 53.281555176 1.5838012695 141.66362000 0.7494831085 0.7407417297 0.7391190529
 1460.0994873  -999.250000 12.388137817 12.250000954 5.8399524689 0.0050256345 2.1026778221 55.049499512 1.4587364197 140.74142456 0.7451200485 0.7390186787 0.7363240719
 1460.2519531  -999.250000 12.369827271 12.250000954 5.7950115204 0.0056857518 2.1162736416 57.445480347 1.3552076817 140.14080811 0.7384891510 0.7349913120 0.7304673195
 1460.4042969  -999.250000 12.375930786 12.250000954 5.9474768639 0.0053214231 2.1317384243 60.499877930 1.2679280043 140.41429138 0.7316288948 0.7302901745 0.7235114574
 1460.5567627  -999.250000 12.375930786 12.250000954 6.2579088211 0.0049865674 2.1215531826 61.412948608 1.2113281488 141.16325378 0.7260143757 0.7262284756 0.7174289227
 1460.7091064  -999.250000 12.382034302 12.250000954 6.6082768440 0.0066969423 2.1142985821 63.176239014 1.2104003429 141.76496887 0.7220597267 0.7231659889 0.7130906582
 1460.8615723  -999.250000 12.394245148 12.250000954 6.9772872925 0.0056981435 2.1167075634 60.027450562 1.2638307810 141.65921021 0.7196402550 0.7208752632 0.7103705406
 1461.0139160  -999.250000 12.388137817 12.250000954 7.2610678673 0.0044483510 2.1367673874 54.565811157 1.3291987181 140.94328308 0.7191731930 0.7194492817 0.7091283798
 1461.1663818  -999.250000 12.345409393 12.250000954 7.3297319412 0.0039381571 2.1151282787 57.501754761 1.3674974442 140.22665405 0.7220811844 0.7199146748 0.7102558613
 1461.3187256  -999.250000 12.296572685 12.250000954 7.2358279228 0.0042618536 2.0782361031 59.568267822 1.3734846115 140.00357056 0.7298688889 0.7239382267 0.7155225277
 1461.4711914  -999.250000 12.284362793 12.250000954 7.0901255608 0.0054426203 2.0727443695 59.713088989 1.3556712866 140.44136047 0.7423992157 0.7325515747 0.7259349823
 1461.6235352  -999.250000 12.278259277 12.250000954 6.9402651787 0.0061999992 2.0614008904 57.661453247 1.3204653263 140.98707581 0.7569475174 0.7449421883 0.7399930954
 1461.7760010  -999.250000 12.296572685 12.250000954 6.8200502396 0.0057118814 2.0708193779 58.025512695 1.3250644207 141.01531982 0.7698090076 0.7582285404 0.7536659241
 1461.9283447  -999.250000 12.296572685 12.250000954 6.7510395050 0.0056560203 2.0960950851 62.889923096 1.3816115856 140.55105591 0.7798333168 0.7693257332 0.7635219097
 1462.0808105  -999.250000 12.278259277 12.250000954 6.6131191254 0.0056872275 2.0897333622 60.741210938 1.4385147095 140.04092407 0.7899954319 0.7777945995 0.7708780766
 1462.2331543  -999.250000 12.272154808 12.250000954 6.3619551659 0.0042015812 2.0752689838 57.849380493 1.4998563528 139.78359985 0.8034114838 0.7861554623 0.7806186676
 1462.3854980  -999.250000 12.290469170 12.250000954 6.1292848587 0.0044699325 2.0846650600 57.534896851 1.5447757244 139.71711731 0.8182990551 0.7960479259 0.7944774628
 1462.5379639  -999.250000 12.290469170 12.250000954 5.9572229385 0.0042455117 2.0743660927 58.554183960 1.5413974524 139.59056091 0.8294000626 0.8055655956 0.8077821732
 1462.6903076  -999.250000 12.314887047 12.250000954 5.8589801788 0.0052967309 2.0656361580 58.144531250 1.4980876446 139.13237000 0.8346967697 0.8119318485 0.8151652813
 1462.8427734  -999.250000 12.296572685 12.250000954 5.9030704498 0.0053370036 2.0788795948 55.328002930 1.4154833555 138.40179443 0.8386878967 0.8159759045 0.8179469109
 1462.9951172  -999.250000 12.327095032 12.250000954 6.0616421700 0.0052384231 2.0885529518 53.620513916 1.3021794558 138.06185913 0.8488874435 0.8225193024 0.8231599331
 1463.1475830  -999.250000 12.327095032 12.250000954 6.2132463455 0.0055382145 2.0844154358 53.791213989 1.1944117546 136.91929626 0.8722307682 0.8380792141 0.8382077217
 1463.2999268  -999.250000 12.308780670 12.250000954 6.2699179649 0.0053132498 2.0624175072 53.555969238 1.1009088755 130.85118103 0.9143474102 0.8695945740 0.8692708015
 1463.4523926  -999.250000 12.314887047 12.250000954 6.1824631691 0.0047790743 2.0562825203 51.054977417 1.0241075754 121.57046509 0.9767096043 0.9223186970 0.9217188358
 1463.6047363  -999.250000 12.308780670 12.250000954 5.8665485382 0.0059949965 2.2216928005 47.047332764 1.0169910192 115.79550934 1.0439157486 0.9924156666 0.9941411018
 1463.7572021  -999.250000 12.430870056 12.250000954 5.4123954773 0.0050281179 2.5332159996 40.898696899 1.0785237551 115.96575928 1.0723452568 1.0521349907 1.0596294403
 1463.9095459  -999.250000 12.455287933 12.250000954 5.0942244530 0.0040986096 2.5529193878 40.824798584 1.1486204863 122.53468323 1.0217247009 1.0522184372 1.0590958595
 1464.0620117  -999.250000 12.455287933 12.250000954 5.0590953827 0.0045387805 2.4408578873 48.582031250 1.2577106953 132.27833557 0.9134085178 0.9723672867 0.9681911469
