# LAS format log file from PETREL
# Project units are specified as depth units
#==================================================================
~Version information
VERS.   2.0:
WRAP.   NO:
#==================================================================
~Well
STRT .m      460.12496948 :
STOP .m      2548.7502441 :
STEP .m     0.00000000 :
NULL .        -999.250000 :
COMP.           : COMPANY
WELL.  25/10-4R  Balder Appr   : WELL
FLD.            : FIELD
LOC.            : LOCATION
SRVC.           : SERVICE COMPANY
DATE.  2018-09-11 14:48:14   : Log Export Date {yyyy-MM-dd HH:mm:ss}
PROV.           : PROVINCE
UWI.   25/10-4 R   : UNIQUE WELL ID
API.            : API NUMBER
#==================================================================
~Curve
DEPT .m                   : DEPTH
Lithology_geolink ._      : Lithology_geolink
CALI .in                  : CALI
MUDWEIGHT ._              : MUDWEIGHT
ROP .m/h                  : ROP
DRHO .g/cm3               : DRHO
NPHI .m3/m3               : NPHI
RHOB .g/cm3               : RHOB
GR .gAPI                  : GR
DTC .us/ft                : DTC
RDEP .ohm.m               : RDEP
SP .mV                    : SP
RSHA .ohm.m               : RSHA
RMED .ohm.m               : RMED
~Parameter
#==================================================================
~Ascii
# ...
 2407.1250000 5.0000000000 6.2210001945  -999.250000  -999.250000 0.0960000008 0.0907000005 2.6050000191 87.476997375 66.139999390 11.491999626 67.184997559  -999.250000 13.015000343
 2407.2500000 5.0000000000 6.2379999161  -999.250000  -999.250000 0.0960000008 0.0914799944 2.6089999676 86.665000916 66.900001526 11.376000404 67.016998291  -999.250000 12.913000107
 2407.3750000 5.0000000000 6.2540001869  -999.250000  -999.250000 0.0970000029 0.0930300057 2.6150000095 87.319000244 67.248001099 11.229000092 66.985000610  -999.250000 12.810999870
 2407.5000000 5.0000000000 6.2509999275  -999.250000  -999.250000 0.0939999968 0.0944900066 2.6210000515 88.789001465 67.433998108 11.079000473 67.268997192  -999.250000 12.708999634
 2407.6250000 5.0000000000 6.2379999161  -999.250000  -999.250000 0.0900000036 0.0955400020 2.6229999065 90.126998901 67.535003662 10.946999550 67.622001648  -999.250000 12.605999947
 2407.7500000 5.0000000000 6.2239995003  -999.250000  -999.250000 0.0860000029 0.0964599997 2.6210000515 90.830001831 66.893997192 10.953000069 67.954002380  -999.250000 12.501999855
 2407.8750000 5.0000000000 6.2090001106  -999.250000  -999.250000 0.0839999989 0.0976700038 2.6159999371 91.448997498 66.285003662 11.031999588 68.070999146  -999.250000 12.406000137
 2408.0000000 5.0000000000 6.1929998398  -999.250000  -999.250000 0.0839999989 0.0993500054 2.6089999676 92.057998657 65.952003479 11.112000465 67.989997864  -999.250000 12.355999947
 2408.1250000 5.0000000000 6.1770000458  -999.250000  -999.250000 0.0860000029 0.0998800024 2.5999999046 92.597000122 65.772003174 11.206000328 67.789001465  -999.250000 12.319000244
 2408.2500000 5.0000000000 6.1609992981  -999.250000  -999.250000 0.0860000029 0.0999800041 2.5869998932 93.114997864 65.799003601 11.369000435 67.573997498  -999.250000 12.284999847
 2408.3750000 5.0000000000 6.1490001678  -999.250000  -999.250000 0.0860000029 0.1000500023 2.5780000687 93.633003235 65.973999023 11.555000305 67.521003723  -999.250000 12.277000427
 2408.5000000 5.0000000000 6.1459999084  -999.250000  -999.250000 0.0850000009 0.1001599953 2.5759999752 94.130996704 66.313003540 11.722000122 67.625000000  -999.250000 12.277000427
 2408.6250000 5.0000000000 6.1540002823  -999.250000  -999.250000 0.0839999989 0.1002800018 2.5769999027 94.305000305 66.726997375 11.829000473 67.733001709  -999.250000 12.277000427
 2408.7500000 5.0000000000 6.1640000343  -999.250000  -999.250000 0.0829999968 0.1002999991 2.5799999237 93.963996887 66.997001648 11.923999786 67.807998657  -999.250000 12.277000427
 2408.8750000 5.0000000000 6.1739997864  -999.250000  -999.250000 0.0799999982 0.0985000059 2.5829999447 93.411003113 66.763999939 12.017999649 67.620002747  -999.250000 12.289999962
 2409.0000000 5.0000000000 6.1849999428  -999.250000  -999.250000 0.0769999996 0.0954300016 2.5889999866 92.940002441 66.352996826 12.079000473 67.342002869  -999.250000 12.350999832
 2409.1250000 5.0000000000 6.1950001717  -999.250000  -999.250000 0.0799999982 0.0923400000 2.5940001011 92.940002441 66.065002441 12.118000031 67.063003540  -999.250000 12.390000343
 2409.2500000 5.0000000000 6.2069993019  -999.250000  -999.250000 0.1030000001 0.0903400034 2.6029999256 93.888999939 65.947998047 12.131999969 66.806999207  -999.250000 12.366999626
 2409.3750000 5.0000000000 6.2189998627  -999.250000  -999.250000 0.1430000067 0.0901099965 2.6199998856 94.946998596 65.984001160 11.956000328 66.624000549  -999.250000 12.166000366
 2409.5000000 5.0000000000 6.2319998741  -999.250000  -999.250000 0.1689999998 0.0913500041 2.6389999390 94.795997620 66.112998962 11.704000473 66.519996643  -999.250000 11.895000458
 2409.6250000 5.0000000000 6.2439999580  -999.250000  -999.250000 0.1739999950 0.0933699980 2.6459999084 93.391998291 66.271003723 11.451999664 66.690002441  -999.250000 11.623000145
 2409.7500000 5.0000000000 6.2560000420  -999.250000  -999.250000 0.1630000025 0.0956999958 2.6389999390 91.731002808 66.494003296 11.217000008 66.936996460  -999.250000 11.390000343
 2409.8750000 5.0000000000 6.2699995041  -999.250000  -999.250000 0.1439999938 0.0980599970 2.6250000000 90.523002625 66.718002319 11.003000259 67.133003235  -999.250000 11.239000320
 2410.0000000 5.0000000000 6.2890000343  -999.250000  -999.250000 0.1260000020 0.1002599970 2.6059999466 90.785003662 66.919998169 10.791000366 66.850997925  -999.250000 11.100000381
 2410.1250000 5.0000000000 6.3169999123  -999.250000  -999.250000 0.1099999994 0.1017099917 2.5869998932 92.134002686 66.996002197 10.578000069 66.375999451  -999.250000 10.961999893
 2410.2500000 5.0000000000 6.3480000496  -999.250000  -999.250000 0.1010000035 0.1019900069 2.5739998817 93.620002747 66.846000671 10.407999992 65.954002380  -999.250000 10.822999954
 2410.3750000 5.0000000000 6.3860001564  -999.250000  -999.250000 0.1010000035 0.1018999964 2.5639998913 94.269996643 66.625999451 10.354999542 65.542999268  -999.250000 10.685000420
 2410.5000000 5.0000000000 6.4489994049  -999.250000  -999.250000 0.1129999980 0.1019400060 2.5539999008 92.926002502 66.310997009 10.324000359 65.160003662  -999.250000 10.661000252
 2410.6250000 5.0000000000 6.5479998589  -999.250000  -999.250000 0.1360000074 0.1027000025 2.5420000553 90.339996338 66.198997498 10.366000175 65.026000977  -999.250000 10.800999641
 2410.7500000 5.0000000000 6.6519999504  -999.250000  -999.250000 0.1609999985 0.1047799960 2.5309998989 87.537002563 66.165000916 10.531000137 65.208000183  -999.250000 10.954999924
 2410.8750000 5.0000000000 6.7480001450  -999.250000  -999.250000 0.1790000051 0.1041100025 2.5280001163 85.644996643 66.004997253 10.821999550 65.675003052  -999.250000 11.156000137
 2411.0000000 5.0000000000 6.7969999313  -999.250000  -999.250000 0.1749999970 0.1015399992 2.5380001068 85.125999451 65.579002380 11.387999535 66.169998169  -999.250000 11.475000381
 2411.1250000 5.0000000000 6.7659993172  -999.250000  -999.250000 0.1609999985 0.0984200016 2.5590000153 86.152999878 64.857002258 12.043999672 66.665000916  -999.250000 11.819000244
 2411.2500000 5.0000000000 6.6459999084  -999.250000  -999.250000 0.1449999958 0.0955599993 2.5920000076 87.343002319 63.721000671 12.699999809 66.942001343  -999.250000 12.163999557
 2411.3750000 5.0000000000 6.4720001221  -999.250000  -999.250000 0.1379999965 0.0934899971 2.6310000420 88.196998596 62.557998657 13.357000351 66.767997742  -999.250000 12.503000259
 2411.5000000 5.0000000000 6.3740000725  -999.250000  -999.250000 0.1379999965 0.0924199969 2.6640000343 88.004997253 61.395004272 14.034000397 66.386001587  -999.250000 12.767999649
 2411.6250000 5.0000000000 6.3200001717  -999.250000  -999.250000 0.1369999945 0.0918000042 2.6779999733 87.638999939 60.548000336 14.890999794 65.986000061  -999.250000 12.989999771
 2411.7500000 5.0000000000 6.2930002213  -999.250000  -999.250000 0.1309999973 0.0910400003 2.6749999523 87.607002258 60.374000549 15.815999985 65.587997437  -999.250000 13.211999893
 2411.8750000 5.0000000000 6.2820000648  -999.250000  -999.250000 0.1180000007 0.0901900008 2.6679999828 87.908996582 60.256000519 16.075000763 65.202003479  -999.250000 13.369999886
 2412.0000000 5.0000000000 6.2729997635  -999.250000  -999.250000 0.1030000001 0.0896399990 2.6610000134 88.962997437 60.327999115 15.397999763 64.828002930  -999.250000 13.354999542
 2412.1250000 5.0000000000 6.2659997940  -999.250000  -999.250000 0.0879999995 0.0900299996 2.6519999504 90.346000671 60.479999542 14.281000137 64.689002991  -999.250000 12.953000069
 2412.2500000 5.0000000000 6.2659997940  -999.250000  -999.250000 0.0719999969 0.0927200019 2.6389999390 91.730003357 60.631000519 12.828000069 64.833999634  -999.250000 12.281000137
 2412.3750000 5.0000000000 6.2740001678  -999.250000  -999.250000 0.0599999987 0.0964400023 2.6229999065 93.028999329 60.979000092 10.980999947 64.859001160  -999.250000 11.350000381
 2412.5000000 5.0000000000 6.2859997749  -999.250000  -999.250000 0.0599999987 0.0998800024 2.6050000191 93.410003662 62.139999390 9.0159997940 64.263999939  -999.250000 10.295000076
