# LAS format log file from PETREL
# Project units are specified as depth units
#==================================================================
~Version information
VERS.   2.0:
WRAP.   NO:
#==================================================================
~Well
STRT .m      1456.9927979 :
STOP .m      2094.7868652 :
STEP .m     0.00000000 :
NULL .        -999.250000 :
COMP.           : COMPANY
WELL.  25/11-24 Jakob South   : WELL
FLD.            : FIELD
LOC.            : LOCATION
SRVC.           : SERVICE COMPANY
DATE.  2018-09-11 14:48:16   : Log Export Date {yyyy-MM-dd HH:mm:ss}
PROV.           : PROVINCE
UWI.   25/11-24   : UNIQUE WELL ID
API.            : API NUMBER
#==================================================================
~Curve
DEPT .m                   : DEPTH
Lithology_geolink ._      : Lithology_geolink
DCAL .in                  : DCAL
CALI .in                  : CALI
BS .in                    : BS
ROP .m/h                  : ROP
DRHO .g/cm3               : DRHO
NPHI .m3/m3               : NPHI
RHOB .g/cm3               : RHOB
PEF .b/e                  : PEF
GR .gAPI                  : GR
DTC .us/ft                : DTC
DTS .us/ft                : DTS
RDEP .ohm.m               : RDEP
RMIC .ohm.m               : RMIC
RMED .ohm.m               : RMED
~Parameter
#==================================================================
~Ascii
# ...
 1920.5936279 5.0000000000 -0.117899902 8.3821001053 8.5000000000 91.284782410 -0.010000000 0.3450999856 2.1273000240 2.6296999454 112.34069824 114.00000000 239.78175354 0.4810000062 0.2496999949 0.4320154488
 1920.7459717 5.0000000000 -0.159799606 8.3402004242 8.5000000000 91.284782410 -0.010200000 0.3353999853 2.1205000877 2.4393000603 109.78990173 114.00000000 238.35664368 0.4641000032 0.2357999980 0.4174117148
 1920.8984375 5.0000000000 -0.163599998 8.3364000320 8.5000000000 91.284782410 -0.010200000 0.3118000031 2.1180000305 2.5599999428 109.84159851 114.00000000 237.34559631 0.4533999860 0.2369000018 0.4085071087
 1921.0507813 1.0000000000 -0.148300201 8.3516998291 8.5000000000 91.284782410 -0.009300000 0.3118999898 2.1238999367 2.5776000023 108.11389923 114.00000000 236.56732178 0.4806999862 0.2549000084 0.4325806797
 1921.2032471 1.0000000000 -0.167400405 8.3325996399 8.5000000000 91.284782410 -0.008900000 0.3161000013 2.1136000156 2.6765999794 109.60739899 113.89969635 234.39984131 0.5060999990 0.2515999973 0.4532834291
 1921.3555908 1.0000000000 -0.171199799 8.3288002014 8.5000000000 107.53839111 -0.007600000 0.3192999959 2.1205000877 2.6319999695 104.53489685 113.32479095 232.72045898 0.4961999953 0.2474000007 0.4437076747
 1921.5079346 1.0000000000 -0.120900206 8.3790998459 8.5000000000 107.53839111 -0.006600000 0.3161000013 2.1143000126 2.6319000721 101.87779999 112.46520233 231.05596924 0.4912000000 0.2352000028 0.4383086562
 1921.6604004 1.0000000000 -0.148300201 8.3516998291 8.5000000000 107.53839111 -0.007900000 0.2996999919 2.1389000416 2.6140999794 104.86769867 112.00119781 228.71278381 0.5155000091 0.2626999915 0.4592831731
 1921.8127441 1.0000000000 -0.133099601 8.3669004440 8.5000000000 107.53839111 -0.008500000 0.3018000126 2.1644999981 2.4962000847 106.40540314 111.10279846 225.38464355 0.5606999993 0.3095999956 0.4988365769
 1921.9652100 1.0000000000 -0.110199898 8.3898000717 8.5000000000 107.53839111 -0.008600000 0.2985000014 2.1435999870 2.5787000656 108.69039917 109.90090179 221.87670898 0.5651999712 0.2944000065 0.5039958954
 1922.1175537 1.0000000000 -0.079700470 8.4202995300 8.5000000000 107.53839111 -0.004400000 0.3037999868 2.1521999836 2.6724998951 102.55970001 108.74859619 219.60234070 0.5566999912 0.2953999937 0.4948147237
 1922.2700195 1.0000000000 -0.207799882 8.2922000885 8.5000000000 104.98290253 -0.003500000 0.2856000066 2.1561000347 2.7883000374 104.70030212 108.14169312 218.69851685 0.6216999888 0.2770000100 0.5506552458
 1922.4223633 1.0000000000 -0.198699996 8.3013000488 8.5000000000 104.98290253 -0.002900000 0.2910999954 2.1614999771 2.8276000023 103.37169647 107.99999237 218.41464233 0.6126999855 0.3111000061 0.5434058309
 1922.5748291 1.0000000000 -0.186499596 8.3135004044 8.5000000000 104.98290253 -0.003500000 0.2897000015 2.1544001102 2.7251999378 106.36979675 107.97989655 218.75642395 0.5491999984 0.3373999894 0.4881442785
 1922.7271729 1.0000000000 -0.152199700 8.3478002548 8.5000000000 104.98290253 -0.005500000 0.2985000014 2.1730999947 2.6603000164 102.90409851 108.02949524 219.69454956 0.5680000186 0.3142000139 0.5064852834
 1922.8796387 1.0000000000 -0.087400444 8.4125995636 8.5000000000 104.98290253 -0.008100000 0.3021999896 2.2170000076 2.4814000130 103.11669922 108.33419800 221.17811584 0.6072999835 0.3188999891 0.5425710678
 1923.0319824 1.0000000000 -0.056900021 8.4430999756 8.5000000000 104.98290253 -0.010900000 0.3057000041 2.1324999332 2.4079000950 104.76270294 107.74859619 220.71946716 0.5989000201 0.2782000005 0.5363050699
 1923.1844482 1.0000000000 -0.037799839 8.4622001648 8.5000000000 160.16009521 -0.011500000 0.3003000021 2.1275000572 2.5088000298 106.30380249 107.10160065 220.88764954 0.6176000237 0.2727000117 0.5587819815
 1923.3367920 1.0000000000 -0.060700424 8.4392995834 8.5000000000 160.16009521 -0.011100000 0.2822999954 2.1489000320 2.5411000252 108.53569794 106.67769623 219.38862610 0.6753000021 0.2908000052 0.6187518835
 1923.4891357 1.0000000000 -0.068300247 8.4316997528 8.5000000000 160.16009521 -0.010400000 0.2879000008 2.1614000797 2.6126999855 106.12359619 106.02130890 217.55084229 0.6353999972 0.3298999965 0.5882489681
 1923.6416016 1.0000000000 -0.095000267 8.4049997330 8.5000000000 160.16009521 -0.009400000 0.2732000053 2.1638998985 2.4495000839 107.71929932 105.43450165 215.52012634 0.5796999931 0.3163000047 0.5415999889
 1923.7939453 1.0000000000 -0.171199799 8.3288002014 8.5000000000 160.16009521 -0.009800000 0.2851999998 2.1335999966 2.5552999973 107.08159637 105.32350922 214.25593567 0.5680000186 0.3151000142 0.5346999764
 1923.9464111 1.0000000000 -0.056900021 8.4430999756 8.5000000000 160.16009521 -0.009700001 0.2829999924 2.1803998947 2.3622000217 107.90080261 105.18180084 212.82174683 0.6111999750 0.3188999891 0.5795999765
 1924.0987549 1.0000000000 -0.053099629 8.4469003677 8.5000000000 229.16079712 -0.012000000 0.2910000086 2.1835999489 2.3208999634 107.42109680 105.18180084 211.71018982 0.6355999708 0.3540999889 0.6054999828
 1924.2512207 1.0000000000 -0.037799839 8.4622001648 8.5000000000 229.16079712 -0.012100000 0.2982999980 2.1961998940 2.3819999695 104.93640137 104.88089752 211.32380676 0.6421999931 0.4000999928 0.6234999895
 1924.4035645 1.0000000000 -0.083499916 8.4165000916 8.5000000000 229.16079712 -0.011800000 0.2804000080 2.1616001129 2.2969000340 104.24620056 104.25959778 212.05841064 0.6234999895 0.3623999953 0.6080999970
 1924.5560303 1.0000000000 0.0040998459 8.5040998459 8.5000000000 229.16079712 -0.008400000 0.2752999961 2.1514000893 2.4900999069 100.26049805 105.85829926 210.79220581 0.6499000192 0.3194000125 0.6380000114
 1924.7083740 1.0000000000 -0.066699982 8.4333000183 8.5000000000 229.16079712 -0.005700000 0.2768999934 2.1935999393 2.5508000851 99.465599060 106.22071075 211.75352478 0.7243999839 0.3341000080 0.7153999805
 1924.8608398 1.0000000000 -0.064499862 8.4355001450 8.5000000000 229.16079712 -0.003000000 0.2802999914 2.1728000641 2.6019001007 96.998397827 107.32099152 214.98182678 0.6561999917 0.3630000055 0.6503999829
 1925.0131836 5.0000000000 -0.079700470 8.4202995300 8.5000000000 229.16079712 -0.001000000 0.3009999990 2.1317999363 2.7177000046 102.36569977 108.91600037 220.05801392 0.6614999771 0.3479999900 0.6552000046
 1925.1656494 5.0000000000 -0.156000093 8.3439998627 8.5000000000 56.668647766 -0.000500000 0.3490000069 2.1752998829 2.7339999676 109.47470093 111.10719299 229.09825134 0.7148000002 0.3420999944 0.7074000239
 1925.3179932 5.0000000000 -0.095000267 8.4049997330 8.5000000000 56.668647766 -0.000700000 0.4449000061 2.2330999374 2.5962998867 116.91459656 113.93360138 244.30531311 0.6516000032 0.4323000014 0.6474999785
 1925.4703369 5.0000000000 0.0155000696 8.5155000687 8.5000000000 56.668647766 0.0006000000 0.5371000171 2.2590000629 2.8252000809 130.50419617 117.95240021 259.41857910 0.8100000024 0.7149000168 0.8088999987
 1925.6228027 5.0000000000 0.0542001687 8.5542001724 8.5000000000 56.668647766 0.0060000001 0.4801999927 2.3385999203 3.2369999886 137.79429626 121.99748993 269.60516357 1.1151000261 0.9071999788 1.1201000214
 1925.7751465 5.0000000000 -0.022600170 8.4773998260 8.5000000000 56.668647766 0.0208000001 0.4659999907 2.3062000275 3.6918001175 141.96449280 123.39310455 272.91192627 1.2017999887 1.3245999813 1.2079999447
 1925.9276123 5.0000000000 0.1146001965 8.6146001816 8.5000000000 56.668647766 0.0403000005 0.5285999775 2.1435000896 4.8113999367 138.68339539 123.31659698 271.43939209 1.1639000177 0.7933999896 1.1669000387
 1926.0799561 5.0000000000 0.1183995977 8.6183996201 8.5000000000 38.262470245 0.0456000008 0.6262000203 2.1921999454 4.8186998367 139.09559631 120.66259766 265.88781738 1.4280999899 0.3483999968 1.4208999872
 1926.2324219 5.0000000000 0.1374997944 8.6374998093 8.5000000000 38.262470245 0.0372000001 0.5758000016 2.3050999641 4.7747998238 143.22680664 116.68270111 254.70535278 1.7639000416 0.8324000239 1.7461999655
 1926.3847656 5.0000000000 0.1070004031 8.6070003510 8.5000000000 38.262470245 0.0226000007 0.5130000114 2.3210000992 4.4321999550 136.61650085 113.27519989 239.96461487 2.3217999935 1.1270999908 2.2918000221
