# LAS format log file from PETREL
# Project units are specified as depth units
#==================================================================
~Version information
VERS.   2.0:
WRAP.   NO:
#==================================================================
~Well
STRT .m      206.00000000 :
STOP .m      2655.9824219 :
STEP .m     0.00000000 :
NULL .        -999.250000 :
COMP.           : COMPANY
WELL.  25/10-8  Hanz   : WELL
FLD.            : FIELD
LOC.            : LOCATION
SRVC.           : SERVICE COMPANY
DATE.  2018-09-11 14:48:14   : Log Export Date {yyyy-MM-dd HH:mm:ss}
PROV.           : PROVINCE
UWI.   25/10-8   : UNIQUE WELL ID
API.            : API NUMBER
#==================================================================
~Curve
DEPT .m                   : DEPTH
Lithology_geolink ._      : Lithology_geolink
CALI .in                  : CALI
BS .in                    : BS
THOR .ppm                 : THOR
NPHI .m3/m3               : NPHI
RHOB .g/cm3               : RHOB
GR .gAPI                  : GR
URAN .ppm                 : URAN
DTC .us/ft                : DTC
RDEP .ohm.m               : RDEP
RSHA .ohm.m               : RSHA
RMED .ohm.m               : RMED
~Parameter
#==================================================================
~Ascii
# ...
 1025.3024902  -999.250000  -999.250000  -999.250000  -999.250000  -999.250000 1.8023271561 65.666992188  -999.250000 140.26005554 1.0261516571 0.8294594288  -999.250000
 1025.4548340  -999.250000  -999.250000  -999.250000  -999.250000  -999.250000 1.8023271561 66.045837402  -999.250000 140.25579834 1.0894150734 0.9579885006  -999.250000
 1025.6072998  -999.250000  -999.250000  -999.250000  -999.250000  -999.250000 1.8023271561 65.511688232  -999.250000 140.25152588 1.1252913475 1.1213140488  -999.250000
 1025.7596436  -999.250000  -999.250000  -999.250000  -999.250000  -999.250000 1.8023271561 65.776977539  -999.250000 140.24728394 1.1390609741 1.1841392517  -999.250000
 1025.9119873  -999.250000  -999.250000  -999.250000  -999.250000  -999.250000 1.8023271561 66.509582520  -999.250000 140.24302673 1.1478810310 1.1635060310  -999.250000
 1026.0644531  -999.250000  -999.250000  -999.250000  -999.250000  -999.250000 1.8023271561 66.328277588  -999.250000 140.23876953 1.1546134949 1.1678042412  -999.250000
 1026.2167969  -999.250000  -999.250000  -999.250000  -999.250000  -999.250000 1.8023271561 65.664215088  -999.250000 140.23449707 1.1614813805 1.1709489822  -999.250000
 1026.3692627  -999.250000  -999.250000  -999.250000  -999.250000  -999.250000 1.8023271561 64.973266602  -999.250000 140.23025513 1.1682882309 1.1681890488  -999.250000
 1026.5216064  -999.250000  -999.250000  -999.250000  -999.250000  -999.250000 1.8023271561 64.100616455  -999.250000 140.22599792 1.1705832481 1.1680941582  -999.250000
 1026.6740723  -999.250000  -999.250000  -999.250000  -999.250000  -999.250000 1.8023271561 62.989822388  -999.250000 140.22174072 1.1704134941 1.1399297714  -999.250000
 1026.8264160  -999.250000  -999.250000  -999.250000  -999.250000  -999.250000 1.8023271561 61.564025879  -999.250000 140.21749878 1.1804118156 1.1064553261  -999.250000
 1026.9787598  -999.250000  -999.250000  -999.250000  -999.250000  -999.250000 1.8023271561 59.616836548  -999.250000 140.21327209 1.1981334686 1.1091656685  -999.250000
 1027.1312256  -999.250000  -999.250000  -999.250000  -999.250000  -999.250000 1.8023271561 57.174392700  -999.250000 140.20901489 1.2023596764 1.1651978493  -999.250000
 1027.2835693  -999.250000  -999.250000  -999.250000  -999.250000  -999.250000 1.8023271561 55.163101196  -999.250000 140.20475769 1.1773333549 1.1995730400  -999.250000
 1027.4359131  -999.250000  -999.250000  -999.250000  -999.250000  -999.250000 1.8023271561 53.495559692  -999.250000 140.20053101 1.1493153572 1.1187715530  -999.250000
 1027.5883789  -999.250000  -999.250000  -999.250000  -999.250000  -999.250000 1.8023271561 52.708099365  -999.250000 140.19628906 1.1508579254 1.0455212593  -999.250000
 1027.7407227  -999.250000  -999.250000  -999.250000  -999.250000  -999.250000 1.8023271561 53.693450928  -999.250000 140.19206238 1.1625566483 1.0598211288  -999.250000
 1027.8931885  -999.250000  -999.250000  -999.250000  -999.250000  -999.250000 1.8023271561 54.993881226  -999.250000 140.18782043 1.1545372009 1.1903710365  -999.250000
 1028.0455322  -999.250000  -999.250000  -999.250000  -999.250000  -999.250000 1.8023271561 55.514862061  -999.250000 140.18356323 1.1241431236 1.1660575867  -999.250000
 1028.1979980  -999.250000  -999.250000  -999.250000  -999.250000  -999.250000 1.8023271561 56.449050903  -999.250000 140.17932129 1.0845651627 1.1058874130  -999.250000
 1028.3503418  -999.250000  -999.250000  -999.250000  -999.250000  -999.250000 1.8023271561 59.471557617  -999.250000 140.17510986 1.0579981804 0.9854383469  -999.250000
 1028.5028076  -999.250000  -999.250000  -999.250000  -999.250000  -999.250000 1.8023271561 63.171112061  -999.250000 140.17088318 1.0613613129 0.9855930805  -999.250000
 1028.6551514  -999.250000  -999.250000  -999.250000 1.9948091507  -999.250000 1.8023271561 65.705261230 1.7201857567 140.16667175 1.0833969116 1.0972557068  -999.250000
 1028.8076172  -999.250000  -999.250000  -999.250000 2.0565018654  -999.250000 1.8023271561 68.465362549 1.7595247030 140.16242981 1.1084203720 1.1708760262  -999.250000
 1028.9599609  -999.250000  -999.250000  -999.250000 2.2665412426  -999.250000 1.8023271561 72.611389160 1.7614643574 140.15820313 1.1254372597 1.2176265717  -999.250000
 1029.1124268  -999.250000  -999.250000  -999.250000 2.5587048531  -999.250000 1.8023271561 76.546936035 1.7297528982 140.15397644 1.1380667686 1.1921043396  -999.250000
 1029.2647705  -999.250000  -999.250000  -999.250000 2.8283824921  -999.250000 1.8023271561 78.841522217 1.6841801405 140.14973450 1.1588983536 1.1657252312  -999.250000
 1029.4172363  -999.250000  -999.250000  -999.250000 3.0134854317  -999.250000 1.8023271561 80.919769287 1.6674753428 140.14553833 1.1797404289 1.1666736603  -999.250000
 1029.5695801  -999.250000  -999.250000  -999.250000 3.0983262062  -999.250000 1.8023271561 80.794372559 1.6894545555 140.14132690 1.1873450279 1.1664967537  -999.250000
 1029.7219238  -999.250000  -999.250000  -999.250000 3.0936751366  -999.250000 1.8023271561 59.291305542 1.7253606319 140.13710022 1.1796503067 1.1545867920  -999.250000
 1029.8743896  -999.250000  -999.250000  -999.250000 3.0460195541  -999.250000 1.8023271561 37.919281006 1.7696309090 140.13290405 1.1663494110 1.1300439835  -999.250000
 1030.0267334  -999.250000  -999.250000  -999.250000 2.9882912636  -999.250000 1.8023271561 38.648330688 1.8232438564 140.12869263 1.1591963768 1.1030669212  -999.250000
 1030.1791992  -999.250000  -999.250000  -999.250000 2.9341382980  -999.250000 1.8023271561 37.391693115 1.8444607258 140.12449646 1.1557998657 1.1024413109  -999.250000
 1030.3315430  -999.250000  -999.250000  -999.250000 2.8782091141  -999.250000 1.8023271561 33.045593262 1.8061619997 140.12026978 1.1464881897 1.1409678459  -999.250000
 1030.4840088  -999.250000  -999.250000  -999.250000 2.7946381569  -999.250000 1.8023271561 33.849792480 1.7174417973 140.11605835 1.1351137161 1.1301856041  -999.250000
 1030.6363525  -999.250000  -999.250000  -999.250000 2.6720936298  -999.250000 1.8023271561 36.646606445 1.6139421463 140.11187744 1.1243972778 1.1220798492  -999.250000
 1030.7888184  -999.250000  -999.250000  -999.250000 2.5281581879  -999.250000 1.8023271561 34.870086670 1.5314674377 140.10765076 1.0921101570 1.1100864410  -999.250000
 1030.9411621  -999.250000  -999.250000  -999.250000 2.4227192402  -999.250000 1.8023271561 32.836929321 1.4742505550 140.10343933 1.0133843422 1.0342001915  -999.250000
 1031.0936279  -999.250000  -999.250000  -999.250000 2.4286773205  -999.250000 1.8023271561 33.255477905 1.4348255396 140.09924316 0.9698834419 0.8200500011  -999.250000
 1031.2459717  -999.250000  -999.250000  -999.250000 2.5491306782  -999.250000 1.8023271561 35.837066650 1.4113285542 140.09506226 1.0132732391 0.8222770691  -999.250000
 1031.3984375  -999.250000  -999.250000  -999.250000 2.7155427933  -999.250000 1.8023271561 36.530532837 1.4029047489 140.09086609 1.0288667679 1.2432837486  -999.250000
 1031.5507813  -999.250000  -999.250000  -999.250000 2.8719482422  -999.250000 1.8023271561 36.216125488 1.4031118155 140.08666992 1.0036325455 1.2443313599  -999.250000
 1031.7031250  -999.250000  -999.250000  -999.250000 3.0000057220  -999.250000 1.8023271561 36.548538208 1.3888754845 140.08247375 1.0041327477 1.1194868088  -999.250000
 1031.8555908  -999.250000  -999.250000  -999.250000 3.0451688766  -999.250000 1.8023271561 34.767761230 1.3503576517 140.07826233 1.0227451324 1.0494337082  -999.250000
 1032.0079346  -999.250000  -999.250000  -999.250000 2.9554407597  -999.250000 1.8023271561 36.500961304 1.3149455786 140.07408142 1.0471887589 1.0321455002  -999.250000
 1032.1604004  -999.250000  -999.250000  -999.250000 2.7749965191  -999.250000 1.8023271561 37.695388794 1.3074241877 140.06991577 1.0657629967 1.0330481529  -999.250000
 1032.3127441  -999.250000  -999.250000  -999.250000 2.5962624550  -999.250000 1.8023271561 36.691528320 1.3192536831 140.06571960 1.0635051727 1.0409255028  -999.250000
 1032.4652100  -999.250000  -999.250000  -999.250000 2.4484961033  -999.250000 1.8023271561 35.238708496 1.3661992550 140.06155396 1.0392994881 1.0255475044  -999.250000
