# LAS format log file from PETREL
# Project units are specified as depth units
#==================================================================
~Version information
VERS.   2.0:
WRAP.   NO:
#==================================================================
~Well
STRT .m      460.12496948 :
STOP .m      2548.7502441 :
STEP .m     0.00000000 :
NULL .        -999.250000 :
COMP.           : COMPANY
WELL.  25/10-4R  Balder Appr   : WELL
FLD.            : FIELD
LOC.            : LOCATION
SRVC.           : SERVICE COMPANY
DATE.  2018-09-11 14:48:14   : Log Export Date {yyyy-MM-dd HH:mm:ss}
PROV.           : PROVINCE
UWI.   25/10-4 R   : UNIQUE WELL ID
API.            : API NUMBER
#==================================================================
~Curve
DEPT .m                   : DEPTH
Lithology_geolink ._      : Lithology_geolink
CALI .in                  : CALI
MUDWEIGHT ._              : MUDWEIGHT
ROP .m/h                  : ROP
DRHO .g/cm3               : DRHO
NPHI .m3/m3               : NPHI
RHOB .g/cm3               : RHOB
GR .gAPI                  : GR
DTC .us/ft                : DTC
RDEP .ohm.m               : RDEP
SP .mV                    : SP
RSHA .ohm.m               : RSHA
RMED .ohm.m               : RMED
~Parameter
#==================================================================
~Ascii
 460.12496948  -999.250000 12.699000359 1.1000000238 6.6852850914  -999.250000  -999.250000  -999.250000 67.593002319 159.38699341 1.6339999437 47.833999634  -999.250000 1.9390000105
 460.25000000  -999.250000 12.700000763 1.1000000238 6.6848754883  -999.250000  -999.250000  -999.250000 67.182998657 160.11300659 1.6289999485 47.563999176  -999.250000 1.9429999590
 460.37503052  -999.250000 12.700000763 1.1000000238 6.6844654083  -999.250000  -999.250000  -999.250000 65.597000122 161.01300049 1.6230000257 47.209999084  -999.250000 1.9459999800
 460.50000000  -999.250000 12.700000763 1.1000000238 6.6840553284  -999.250000  -999.250000  -999.250000 64.083000183 161.87100220 1.6169999838 46.872001648  -999.250000 1.9459999800
 460.62500000  -999.250000 12.701000214 1.1000000238 6.6839733124  -999.250000  -999.250000  -999.250000 62.904998779 162.69999695 1.6119999886 46.603000641  -999.250000 1.9440000057
 460.75000000  -999.250000 12.701000214 1.1000000238 6.6835632324  -999.250000  -999.250000  -999.250000 62.638999939 163.26199341 1.6089999676 46.576999664  -999.250000 1.9409999847
 460.87500000  -999.250000 12.701999664 1.1000000238 6.6831526756  -999.250000  -999.250000  -999.250000 62.687999725 163.80999756 1.6100000143 46.748001099  -999.250000 1.9400000572
 460.99996948  -999.250000 12.701999664 1.1000000238 6.6827430725  -999.250000  -999.250000  -999.250000 62.870998383 164.33799744 1.6139999628 47.112998962  -999.250000 1.9400000572
 461.12500000  -999.250000 12.701999664 1.1000000238 6.6823325157  -999.250000  -999.250000  -999.250000 62.756999969 165.10198975 1.6189999580 47.471000671  -999.250000 1.9429999590
 461.25000000  -999.250000 12.703001022 1.1000000238 6.6819229126  -999.250000  -999.250000  -999.250000 62.737998962 165.98300171 1.6230000257 47.721000671  -999.250000 1.9450000525
 461.37500000  -999.250000 12.703001022 1.1000000238 6.6815123558  -999.250000  -999.250000  -999.250000 63.250999451 167.09300232 1.6260000467 47.706001282  -999.250000 1.9479999542
 461.50000000  -999.250000 12.703001022 1.1000000238 6.6814303398  -999.250000  -999.250000  -999.250000 64.516998291 168.17901611 1.6239999533 47.417999268  -999.250000 1.9459999800
 461.62500000  -999.250000 12.701999664 1.1000000238 6.6810207367  -999.250000  -999.250000  -999.250000 66.091003418 169.24699402 1.6200000048 46.956001282  -999.250000 1.9420000315
 461.75000000  -999.250000 12.699000359 1.1000000238 6.6806106567  -999.250000  -999.250000  -999.250000 66.763000488 169.95100403 1.6109999418 46.435001373  -999.250000 1.9340000153
 461.87496948  -999.250000 12.696998596 1.1000000238 6.6802005768  -999.250000  -999.250000  -999.250000 66.444000244 170.50100708 1.6019999981 46.026000977  -999.250000 1.9259999990
 462.00000000  -999.250000 12.694999695 1.1000000238 6.6797900200  -999.250000  -999.250000  -999.250000 64.938003540 170.82099915 1.5909999609 45.800998688  -999.250000 1.9179999828
 462.12500000  -999.250000 12.692000389 1.1000000238 6.6793804169  -999.250000  -999.250000  -999.250000 63.618000031 170.70500183 1.5809999704 45.889999390  -999.250000 1.9119999409
 462.25000000  -999.250000 12.689998627 1.1000000238 6.6789698601  -999.250000  -999.250000  -999.250000 62.861999512 170.27700806 1.5709999800 46.105998993  -999.250000 1.9079999924
 462.37500000  -999.250000 12.687999725 1.1000000238 6.6785597801  -999.250000  -999.250000  -999.250000 63.618000031 169.03598022 1.5640000105 46.424999237  -999.250000 1.9069999456
 462.50000000  -999.250000 12.685999870 1.1000000238 6.6784777641  -999.250000  -999.250000  -999.250000 65.352996826 167.37600708 1.5609999895 46.583999634  -999.250000 1.9079999924
 462.62500000  -999.250000 12.684000015 1.1000000238 6.6780676842  -999.250000  -999.250000  -999.250000 67.620002747 165.43600464 1.5599999428 46.599998474  -999.250000 1.9090000391
 462.74996948  -999.250000 12.680999756 1.1000000238 6.6776576042  -999.250000  -999.250000  -999.250000 69.328002930 163.90400696 1.5620000362 46.326000214  -999.250000 1.9119999409
 462.87500000  -999.250000 12.678999901 1.1000000238 6.6772480011  -999.250000  -999.250000  -999.250000 70.251998901 162.71400452 1.5659999847 45.987998962  -999.250000 1.9140000343
 463.00000000  -999.250000 12.677000046 1.1000000238 6.6768374443  -999.250000  -999.250000  -999.250000 70.099998474 162.03599548 1.5709999800 45.604999542  -999.250000 1.9170000553
 463.12500000  -999.250000 12.675000191 1.1000000238 6.6764273643  -999.250000  -999.250000  -999.250000 69.166999817 161.78500366 1.5750000477 45.368000031  -999.250000 1.9190000296
 463.25000000  -999.250000 12.671999931 1.1000000238 6.6760172844  -999.250000  -999.250000  -999.250000 68.228996277 161.81700134 1.5789999962 45.208000183  -999.250000 1.9210000038
 463.37500000  -999.250000 12.670000076 1.1000000238 6.6758532524  -999.250000  -999.250000  -999.250000 68.053001404 162.55299377 1.5820000172 45.210998535  -999.250000 1.9240000248
 463.50000000  -999.250000 12.670000076 1.1000000238 6.6755247116  -999.250000  -999.250000  -999.250000 68.458999634 163.86100769 1.5839999914 45.284000397  -999.250000 1.9259999990
 463.62496948  -999.250000 12.670000076 1.1000000238 6.6751151085  -999.250000  -999.250000  -999.250000 69.247001648 165.55000305 1.5859999657 45.408000946  -999.250000 1.9279999733
 463.75000000  -999.250000 12.670999527 1.1000000238 6.6747045517  -999.250000  -999.250000  -999.250000 69.863998413 167.14700317 1.5870000124 45.609001160  -999.250000 1.9279999733
 463.87500000  -999.250000 12.670999527 1.1000000238 6.6742949486  -999.250000  -999.250000  -999.250000 70.459999084 168.38699341 1.5880000591 45.831001282  -999.250000 1.9279999733
 464.00000000  -999.250000 12.671999931 1.1000000238 6.6738843918  -999.250000  -999.250000  -999.250000 71.032997131 169.09300232 1.5859999657 46.077999115  -999.250000 1.9279999733
 464.12500000  -999.250000 12.671999931 1.1000000238 6.6734747887  -999.250000  -999.250000  -999.250000 71.482002258 169.21499634 1.5839999914 46.180999756  -999.250000 1.9259999990
 464.25000000  -999.250000 12.671999931 1.1000000238 6.6732282639  -999.250000  -999.250000  -999.250000 71.817001343 169.06300354 1.5800000429 46.180000305  -999.250000 1.9249999523
 464.37500000  -999.250000 12.673000336 1.1000000238 6.6729822159  -999.250000  -999.250000  -999.250000 71.819999695 168.39599609 1.5770000219 45.909000397  -999.250000 1.9229999781
 464.50003052  -999.250000 12.673000336 1.1000000238 6.6725716591  -999.250000  -999.250000  -999.250000 71.892997742 167.54499817 1.5770000219 45.603000641  -999.250000 1.9220000505
 464.62500000  -999.250000 12.673999786 1.1000000238 6.6721620560  -999.250000  -999.250000  -999.250000 72.022003174 166.57098389 1.5770000219 45.280998230  -999.250000 1.9220000505
 464.75000000  -999.250000 12.673999786 1.1000000238 6.6717524529  -999.250000  -999.250000  -999.250000 72.391998291 165.78100586 1.5809999704 45.199001312  -999.250000 1.9229999781
 464.87500000  -999.250000 12.673999786 1.1000000238 6.6713418961  -999.250000  -999.250000  -999.250000 72.400001526 165.01600647 1.5839999914 45.200000763  -999.250000 1.9249999523
 465.00000000  -999.250000 12.675000191 1.1000000238 6.6709313393  -999.250000  -999.250000  -999.250000 71.852996826 164.28999329 1.5880000591 45.311000824  -999.250000 1.9270000458
 465.12500000  -999.250000 12.673000336 1.1000000238 6.6705217361  -999.250000  -999.250000  -999.250000 71.727996826 163.47799683 1.5900000334 45.414001465  -999.250000 1.9299999475
 465.25000000  -999.250000 12.668999672 1.1000000238 6.6702752113  -999.250000  -999.250000  -999.250000 71.910003662 162.68099976 1.5909999609 45.535999298  -999.250000 1.9329999685
 465.37503052  -999.250000 12.663000107 1.1000000238 6.6700296402  -999.250000  -999.250000  -999.250000 72.892997742 162.02099609 1.5900000334 45.742000580  -999.250000 1.9340000153
 465.50000000  -999.250000 12.657999992 1.1000000238 6.6696195602  -999.250000  -999.250000  -999.250000 73.291999817 161.48800659 1.5870000124 46.097000122  -999.250000 1.9340000153
