# LAS format log file from PETREL
# Project units are specified as depth units
#==================================================================
~Version information
VERS.   2.0:
WRAP.   NO:
#==================================================================
~Well
STRT .m      206.00000000 :
STOP .m      2655.9824219 :
STEP .m     0.00000000 :
NULL .        -999.250000 :
COMP.           : COMPANY
WELL.  25/10-8  Hanz   : WELL
FLD.            : FIELD
LOC.            : LOCATION
SRVC.           : SERVICE COMPANY
DATE.  2018-09-11 14:48:14   : Log Export Date {yyyy-MM-dd HH:mm:ss}
PROV.           : PROVINCE
UWI.   25/10-8   : UNIQUE WELL ID
API.            : API NUMBER
#==================================================================
~Curve
DEPT .m                   : DEPTH
Lithology_geolink ._      : Lithology_geolink
CALI .in                  : CALI
BS .in                    : BS
THOR .ppm                 : THOR
NPHI .m3/m3               : NPHI
RHOB .g/cm3               : RHOB
GR .gAPI                  : GR
URAN .ppm                 : URAN
DTC .us/ft                : DTC
RDEP .ohm.m               : RDEP
RSHA .ohm.m               : RSHA
RMED .ohm.m               : RMED
~Parameter
#==================================================================
~Ascii
# ...
 1566.6271973  -999.250000 12.186695099 12.250000954 2.6596169472 0.0047971136 2.0234425068 31.818572998 0.7544803619 120.34937286 0.4116618633 0.5711774826 0.4269064665
 1566.7796631  -999.250000 12.223320007 12.250000954 2.6180083752 0.0049146260 2.0055108070 29.934806824 0.7156894207 117.36035156 0.3967005014 0.5501399040 0.4138619900
 1566.9320068  -999.250000 12.205009460 12.250000954 2.5849752426 0.0038221402 1.9914566278 28.922409058 0.6869811416 112.48547363 0.3801684380 0.5088789463 0.3942915201
 1567.0843506  -999.250000 12.198902130 12.250000954 2.5854239464 0.0039621247 2.0014200211 30.872825623 0.6649872661 107.48892975 0.3691692352 0.4691972733 0.3779491186
 1567.2368164  -999.250000 12.192798615 12.250000954 2.6275804043 0.0035899032 2.0536520481 33.098464966 0.6483781338 105.38153839 0.3661789894 0.4444723129 0.3704336882
 1567.3891602  -999.250000 12.229424477 12.250000954 2.7079689503 0.0036303077 2.0836808681 33.585586548 0.6476708651 106.60737610 0.3692222834 0.4369360209 0.3714566231
 1567.5416260  -999.250000 12.198902130 12.250000954 2.8059520721 0.0030429647 2.0764336586 30.948143005 0.6578152180 109.05310059 0.3754534721 0.4429421425 0.3771747351
 1567.6939697  -999.250000 12.125652313 12.250000954 3.0132117271 0.0030968317 2.0722827911 30.661811829 0.6697300076 111.91380310 0.3844079971 0.4590959549 0.3853355646
 1567.8464355  -999.250000 12.162277222 12.250000954 3.3159973621 0.0038697852 2.0776293278 32.103668213 0.6806147695 114.23947906 0.3963246346 0.4842004776 0.3968917131
 1567.9987793  -999.250000 12.150066376 12.250000954 3.5129244328 0.0040190434 2.0707399845 32.817001343 0.6863825321 115.77416992 0.4077676535 0.5146651268 0.4112149477
 1568.1512451  -999.250000 12.205009460 12.250000954 3.4774806499 0.0043441569 2.0842576027 34.091049194 0.6768369079 117.35876465 0.4112672806 0.5388886929 0.4216313362
 1568.3035889  -999.250000 12.211112976 12.250000954 3.1668226719 0.0038633561 2.0512876511 31.001754761 0.6649171710 117.93527222 0.4020026922 0.5413911343 0.4190206528
 1568.4560547  -999.250000 12.198902130 12.250000954 2.8093209267 0.0034896249 1.9917377234 27.751358032 0.6828437448 116.82240295 0.3837838173 0.5180408955 0.4021582603
 1568.6083984  -999.250000 12.186695099 12.250000954 2.5814502239 0.0046416000 1.9816526175 29.322479248 0.7422857285 115.04883575 0.3659207821 0.4826081991 0.3802709579
 1568.7608643  -999.250000 12.198902130 12.250000954 2.4358923435 0.0042047654 2.0095758438 30.677070618 0.8048518896 113.12331390 0.3556970358 0.4529362917 0.3638302088
 1568.9132080  -999.250000 12.186695099 12.250000954 2.4683458805 0.0038190002 2.0185732841 29.387367249 0.7915332317 111.78778076 0.3548690081 0.4380656481 0.3576525450
 1569.0656738  -999.250000 12.223320007 12.250000954 2.6675207615 0.0034369326 1.9984854460 28.174705505 0.7074066997 111.14412689 0.3607289791 0.4374901056 0.3607503176
 1569.2180176  -999.250000 12.143962860 12.250000954 2.8630495071 0.0035702698 2.0166292191 28.976448059 0.6153663993 110.48343658 0.3686350584 0.4451920986 0.3686082363
 1569.3703613  -999.250000 12.095127106 12.250000954 3.0017881393 0.0039927741 2.0419080257 30.578613281 0.5369494557 109.77072144 0.3750507832 0.4540377855 0.3763380051
 1569.5228271  -999.250000 12.137859344 12.250000954 3.0646636486 0.0035460650 2.0904760361 30.530891418 0.4951861203 109.17373657 0.3789478540 0.4598082304 0.3815848827
 1569.6751709  -999.250000 12.217216492 12.250000954 3.0150899887 0.0038510624 2.1021211147 31.767524719 0.5143606663 108.51234436 0.3805923462 0.4622777700 0.3845587969
 1569.8276367  -999.250000 12.223320007 12.250000954 2.9118394852 0.0035394130 2.0728003979 30.580673218 0.5738192201 107.36172485 0.3797150850 0.4625673294 0.3855149746
 1569.9799805  -999.250000 12.211112976 12.250000954 2.7926411629 0.0032491540 2.0674543381 28.876609802 0.6482271552 106.15471649 0.3760224581 0.4611358643 0.3835833073
 1570.1324463  -999.250000 12.229424477 12.250000954 2.6208457947 0.0029841666 2.0632824898 29.243537903 0.7272519469 105.84367371 0.3715069294 0.4593108892 0.3789671659
 1570.2847900  -999.250000 12.205009460 12.250000954 2.4377563000 0.0033814183 2.0530946255 28.446212769 0.7948206067 106.85025787 0.3709458113 0.4617941380 0.3754782677
 1570.4372559  -999.250000 12.180591583 12.250000954 2.3051326275 0.0031065857 2.0649712086 27.822700500 0.8408816457 109.49610901 0.3787348270 0.4755963087 0.3791657686
 1570.5895996  -999.250000 12.119544983 12.250000954 2.1768817902 0.0028662891 2.0505473614 27.351867676 0.8671539426 113.58905029 0.3934543133 0.5038580894 0.3931928873
 1570.7420654  -999.250000 12.095127106 12.250000954 2.0495941639 0.0027690490 2.0463721752 32.727111816 0.8708990216 117.41873932 0.4046729803 0.5370576382 0.4116457701
 1570.8944092  -999.250000 12.076816559 12.250000954 1.9777330160 0.0031714910 2.0335040092 33.445266724 0.8185083270 119.42000580 0.3999902010 0.5514044762 0.4185173512
 1571.0468750  -999.250000 12.095127106 12.250000954 1.9339766502 0.0042640092 2.0026400089 28.689720154 0.7218934298 119.15252686 0.3793036938 0.5305182934 0.4030306339
 1571.1992188  -999.250000 12.082920074 12.250000954 1.8777794838 0.0042373231 1.9942181110 28.600105286 0.6659630537 116.55066681 0.3560472727 0.4891122580 0.3755366802
 1571.3515625  -999.250000 12.095127106 12.250000954 1.8301744461 0.0036982596 2.0174243450 27.166007996 0.6645241380 112.65108490 0.3427518606 0.4561624527 0.3542548418
 1571.5040283  -999.250000 12.125652313 12.250000954 1.8394674063 0.0037193275 1.9993242025 26.311798096 0.6867015362 109.42771912 0.3430696726 0.4467692375 0.3477735519
 1571.6563721  -999.250000 12.137859344 12.250000954 1.8954855204 0.0046690530 1.9998435974 27.069618225 0.7392971516 107.84269714 0.3544273376 0.4609875679 0.3553130627
 1571.8088379  -999.250000 12.137859344 12.250000954 1.9616361856 0.0044264235 2.0398733616 28.386322021 0.7888594270 108.09983826 0.3711038828 0.4921267033 0.3721935749
 1571.9611816  -999.250000 12.113441467 12.250000954 2.0228614807 0.0057298075 2.0315194130 29.745841980 0.7961937785 110.43762207 0.3845589161 0.5279963017 0.3909252882
 1572.1136475  -999.250000 12.150066376 12.250000954 2.0774443150 0.0043799430 2.0127952099 29.158348083 0.7704553008 113.58486938 0.3861835003 0.5497286320 0.4005123377
 1572.2659912  -999.250000 12.156173706 12.250000954 2.0715103149 0.0038830433 2.0126843452 28.089027405 0.7196854949 116.22670746 0.3745664358 0.5420076847 0.3933799267
 1572.4184570  -999.250000 12.089023590 12.250000954 1.9462945461 0.0041721193 2.0003461838 27.895019531 0.6603713036 117.55847168 0.3570432663 0.5091476440 0.3743075132
 1572.5708008  -999.250000 12.205009460 12.250000954 1.7911634445 0.0041671311 1.9919180870 27.155204773 0.6259282827 116.92317963 0.3423624039 0.4700821638 0.3546864986
 1572.7232666  -999.250000 12.229424477 12.250000954 1.7464175224 0.0039147125 2.0129647255 27.571693420 0.6331645250 115.07400513 0.3348300457 0.4392448664 0.3420175314
 1572.8756104  -999.250000 12.235530853 12.250000954 1.7899264097 0.0039372351 2.0213534832 29.072830200 0.6725610495 113.22686768 0.3339668512 0.4209423065 0.3378071785
 1573.0280762  -999.250000 12.229424477 12.250000954 1.8369821310 0.0034960953 2.0170602798 27.089691162 0.7167944908 111.84157562 0.3366496563 0.4130035639 0.3394664526
 1573.1804199  -999.250000 12.235530853 12.250000954 1.9091452360 0.0042448686 2.0179512501 27.971084595 0.7490248084 110.83078003 0.3398382664 0.4111011028 0.3428736925
 1573.3327637  -999.250000 12.186695099 12.250000954 2.0162994862 0.0040220241 2.0132687092 29.188583374 0.7679301500 110.38666534 0.3427326679 0.4120435715 0.3456214666
 1573.4852295  -999.250000 12.235530853 12.250000954 2.1435725689 0.0041449335 2.0003774166 27.788543701 0.7621605992 110.67803192 0.3462551832 0.4152157307 0.3482623100
 1573.6375732  -999.250000 12.205009460 12.250000954 2.3265919685 0.0037316685 2.0116984844 30.162857056 0.7049552798 111.84439087 0.3509793282 0.4211468697 0.3521380424
 1573.7900391  -999.250000 12.186695099 12.250000954 2.5228486061 0.0035847845 2.0510358810 31.493782043 0.6110830307 113.30252075 0.3562779427 0.4294396639 0.3572214842
