# LAS format log file from PETREL
# Project units are specified as depth units
#==================================================================
~Version information
VERS.   2.0:
WRAP.   NO:
#==================================================================
~Well
STRT .m      1118.6159668 :
STOP .m      2017.3187256 :
STEP .m     0.00000000 :
NULL .        -999.250000 :
COMP.           : COMPANY
WELL.  25/11-15  Grane   : WELL
FLD.            : FIELD
LOC.            : LOCATION
SRVC.           : SERVICE COMPANY
DATE.  2018-09-11 14:48:15   : Log Export Date {yyyy-MM-dd HH:mm:ss}
PROV.           : PROVINCE
UWI.   25/11-15   : UNIQUE WELL ID
API.            : API NUMBER
#==================================================================
~Curve
DEPT .m                   : DEPTH
Lithology_geolink ._      : Lithology_geolink
CALI .in                  : CALI
BS .in                    : BS
MUDWEIGHT ._              : MUDWEIGHT
ROP .m/h                  : ROP
TGAS ._                   : TGAS
DRHO .g/cm3               : DRHO
THOR .ppm                 : THOR
NPHI .m3/m3               : NPHI
RHOB .g/cm3               : RHOB
GR .gAPI                  : GR
URAN .ppm                 : URAN
DTC .us/ft                : DTC
DTE .us/ft                : DTE
RDEP .ohm.m               : RDEP
SP .mV                    : SP
RSHA .ohm.m               : RSHA
RMED .ohm.m               : RMED
~Parameter
#==================================================================
~Ascii
# ...
 1717.0908203 5.0000000000 10.556180000 8.5000000000 1.1499999762 27163.798828 0.0100999996 -0.155428618 7.9760003090 0.4082449973 2.1464340687 100.68569946 -3.491899967 142.14819336 138.59352112 0.7135307789 40.200000763 0.5777425766 0.7551087141
 1717.2431641 5.0000000000 10.821020126 8.5000000000 1.1499999762 26914.759766 0.0108017093 -0.167251766 7.6771993637 0.4529590011 2.1436440945 97.935417175 -3.590899944 142.14729309 139.05183411 0.7369865179 39.200000763 0.3846457899 0.7681192756
 1717.3956299 5.0000000000 9.7816448212 8.5000000000 1.1499999762 23582.376953 0.0118692312 -0.169039711 7.7506999969 0.4556013048 2.1470830441 95.939323425 -3.539999962 141.31210327 138.42831421 0.7460960150 38.700000763 0.7122516036 0.7869032025
 1717.5479736 5.0000000000 9.3600282669 8.5000000000 1.1499999762 22377.240234 0.0130829057 -0.158791393 7.6083998680 0.4618746936 2.1704089642 98.941329956 -3.750400066 139.03790283 136.48855591 0.7541041970 38.700000763 0.8019958735 0.7921978831
 1717.7004395 5.0000000000 9.3883285522 8.5000000000 1.1499999762 22377.511719 0.0144032920 -0.154510126 7.3892998695 0.4422298968 2.1872200966 102.87529755 -3.887999773 137.03070068 134.46928406 0.7664840817 38.700000763 0.2867608964 0.7899892926
 1717.8527832 5.0000000000 9.6243858337 8.5000000000 1.1499999762 22509.210938 0.0158268958 -0.144806504 7.6462001801 0.4618782103 2.1681520939 103.49720001 -3.718499899 138.68359375 135.37561035 0.7595874071 38.700000763 0.2230698019 0.7704771757
 1718.0052490 5.0000000000 9.7191610336 8.5000000000 1.1499999762 22600.552734 0.0174525026 -0.124006853 8.0036001205 0.4604183733 2.1523380280 100.43730164 -3.545000076 140.72410583 137.35025024 0.7387037873 39.200000763 0.3141891956 0.7459231019
 1718.1575928 5.0000000000 9.9227743149 8.5000000000 1.1499999762 24121.984375 0.0189180486 -0.112458281 8.5264997482 0.4662440419 2.1545968056 100.31710052 -3.342299938 141.07510376 138.03195190 0.7259215117 40.200000763 0.2387381941 0.7641885281
 1718.3100586 5.0000000000 10.246129990 8.5000000000 1.1499999762 28267.687500 0.0187098905 -0.104864724 8.8573999405 0.4359089732 2.1608910561 105.69029999 -3.223700047 141.31199646 138.24456787 0.7364959121 40.200000763 0.4720264077 0.7508152127
 1718.4622803 5.0000000000 9.9386959076 8.5000000000 1.1499999762 29741.041016 0.0172158536 -0.097417615 8.9489269257 0.4639543891 2.1780662537 107.99705505 -3.268464088 140.12086487 137.33708191 0.7415946126 40.200000763 0.4154310822 0.7634305954
 1718.6146240 5.0000000000 9.8072204590 8.5000000000 1.1499999762 29732.828125 0.0156546999 -0.088517025 8.6182298660 0.4410195947 2.1920876503 106.62520599 -3.553343296 138.81828308 136.01295471 0.7463966012 41.697597504 0.5394092202 0.8167737722
 1718.7670898 5.0000000000 10.083959579 8.5000000000 1.1499999762 29598.851563 0.0141296703 -0.069650292 8.6464767456 0.4384765923 2.1944642067 104.88009644 -3.593468189 137.96658325 135.16435242 0.7541813254 43.198799133 0.2881239653 0.7824518085
 1718.9194336 5.0000000000 10.025299072 8.5000000000 1.1499999762 29556.720703 0.0128261615 -0.055204634 8.8298530579 0.4027571976 2.1925773621 109.94044495 -3.545038939 138.22338867 135.16429138 0.7477101684 43.200000763 0.3203404248 0.8164477944
 1719.0718994 6.0000000000 9.6636772156 8.5000000000 1.1499999762 29556.720703 0.0115246642 -0.056171134 8.6536407471 0.4230845869 2.1763989925 116.30870056 -3.712265968 140.23898315 136.87950134 0.7464840412 44.199199677 0.2910379171 0.7939941287
 1719.2242432 6.0000000000 10.081940651 8.5000000000 1.1499999762 29316.900391 0.0106271952 -0.067582689 8.7962856293 0.4300216138 2.1664757729 118.24575043 -3.680125952 140.94903564 137.84300232 0.7196410894 44.200000763 0.3136995137 0.7585213184
 1719.3767090 6.0000000000 10.025321007 8.5000000000 1.1499999762 26220.765625 0.0104000000 -0.080076411 9.6165428162 0.4575687945 2.1664829254 115.62320709 -3.485455990 141.19799805 138.17346191 0.7131220698 43.700401306 0.3313815296 0.7517183423
 1719.5290527 6.0000000000 9.8999633789 8.5000000000 1.1499999762 25506.718750 0.0104000000 -0.087644689 9.8777914047 0.4504798055 2.2152938843 109.13380432 -3.557741880 137.61007690 135.35772705 0.7311054468 42.201202393 0.3242633343 0.7736049891
 1719.6815186 6.0000000000 10.172509193 8.5000000000 1.1499999762 25506.718750 0.0104000000 -0.092541859 9.8077564240 0.4224188924 2.2244615555 112.87360382 -3.703083754 137.14886475 134.22468567 0.7709349394 43.698799133 0.3895753622 0.7973867059
 1719.8338623 6.0000000000 10.189640045 8.5000000000 1.1499999762 25506.718750 0.0104000000 -0.095827952 9.7255659103 0.4064354897 2.2309126854 115.93874359 -3.760753632 136.29689026 133.46359253 0.7816874385 42.700801849 0.4447069466 0.8079874516
 1719.9863281 6.0000000000 10.341130257 8.5000000000 1.1499999762 25506.718750 0.0104000000 -0.097643591 9.8023376465 0.4283976853 2.2150275707 119.99465179 -3.626507521 137.86375427 134.59570313 0.7887703180 41.201202393 0.2396585345 0.8034255505
 1720.1386719 6.0000000000 10.828180313 8.5000000000 1.1499999762 25442.900391 0.0104000000 -0.100117438 9.9222040176 0.4689526856 2.1952059269 115.62840271 -3.529477835 140.12078857 136.63023376 0.7534565330 42.199199677 0.2276508957 0.8512365818
 1720.2910156 6.0000000000 10.917909622 8.5000000000 1.1499999762 24682.228516 0.0104000000 -0.097263366 10.137555122 0.4598008990 2.1779477596 115.49870300 -3.476285219 142.14614868 138.70655823 0.7458004951 42.699199677 0.4758372307 0.8220041394
 1720.4434814 6.0000000000 10.842811584 8.5000000000 1.1499999762 23633.765625 0.0104000000 -0.090736382 10.114019394 0.4531219900 2.1729021072 114.25160217 -3.679337263 143.10194397 139.95130920 0.7301180959 40.202003479 0.4255646169 0.7873026729
 1720.5958252 6.0000000000 9.5687246323 8.5000000000 1.1499999762 23297.759766 0.0104000000 -0.086221099 10.796106339 0.4730111957 2.1664443016 115.00099182 -3.341342449 143.70094299 140.57597351 0.7176263332 38.702404022 0.2504573762 0.7557569742
 1720.7482910 6.0000000000 9.7640609741 8.5000000000 1.1499999762 23168.035156 0.0104000000 -0.078640029 10.612149239 0.4996725023 2.1868925095 116.87649536 -3.563621521 143.09799194 140.21630859 0.7124845982 40.198799133 0.2306874245 0.7612522244
 1720.9006348 6.0000000000 10.267061234 8.5000000000 1.1499999762 23113.798828 0.0104000000 -0.067205451 10.966431618 0.4976842999 2.1839118004 121.11780548 -3.356432676 142.98866272 140.06829834 0.6790657043 39.700801849 0.3563089967 0.7031553388
 1721.0531006 6.0000000000 10.322569847 8.5000000000 1.1499999762 23286.636719 0.0104000000 -0.058738161 10.706109047 0.4814130068 2.1836712360 120.75080109 -3.511875153 143.81533813 140.70112610 0.6602379680 38.700801849 0.4741769433 0.6691004634
 1721.2054443 6.0000000000 9.8206930161 8.5000000000 1.1499999762 27420.800781 0.0104000000 -0.050153367 10.434317589 0.4768905938 2.2033693790 121.49769592 -3.527287722 141.18901062 138.70156860 0.6672201157 38.700000763 0.3131444156 0.6292144656
 1721.3579102 6.0000000000 9.7152004242 8.5000000000 1.1499999762 29950.367188 0.0104000000 -0.033995315 10.501146317 0.4634042978 2.2088096142 119.87609863 -3.601040840 140.00834656 137.28131104 0.6997485757 39.699199677 0.3282629848 0.6123738885
 1721.5102539 6.0000000000 10.393540382 8.5000000000 1.1499999762 30299.593750 0.0104000000 -0.010713227 10.590728760 0.4483129084 2.2314038277 119.49540710 -3.678937435 137.72923279 135.23730469 0.7107192278 39.700000763 0.2890008986 0.7236575484
 1721.6627197 6.0000000000 10.746509552 8.5000000000 1.1499999762 30431.564453 0.0104000000 0.0089284517 10.832606316 0.4464035928 2.2298290730 114.43994904 -3.503240824 138.10350037 134.97067261 0.7522561550 38.700801849 0.5323614478 0.7742021084
 1721.8150635 6.0000000000 10.568699837 8.5000000000 1.1499999762 30477.242188 0.0104000000 0.0194837917 10.720090866 0.4498018026 2.2072741985 111.31850433 -3.521984816 141.06701660 137.49809265 0.8113837242 40.698398590 0.4560438693 0.8589754701
 1721.9675293 6.0000000000 10.907110214 8.5000000000 1.1499999762 30477.242188 0.0104000000 0.0165978931 10.675735474 0.4554975927 2.1977562904 115.24884796 -3.334850073 141.79492188 138.69651794 0.7991138697 42.198799133 0.3422313333 0.7981517911
