# LAS format log file from PETREL
# Project units are specified as depth units
#==================================================================
~Version information
VERS.   2.0:
WRAP.   NO:
#==================================================================
~Well
STRT .m      1456.9927979 :
STOP .m      2094.7868652 :
STEP .m     0.00000000 :
NULL .        -999.250000 :
COMP.           : COMPANY
WELL.  25/11-24 Jakob South   : WELL
FLD.            : FIELD
LOC.            : LOCATION
SRVC.           : SERVICE COMPANY
DATE.  2018-09-11 14:48:16   : Log Export Date {yyyy-MM-dd HH:mm:ss}
PROV.           : PROVINCE
UWI.   25/11-24   : UNIQUE WELL ID
API.            : API NUMBER
#==================================================================
~Curve
DEPT .m                   : DEPTH
Lithology_geolink ._      : Lithology_geolink
DCAL .in                  : DCAL
CALI .in                  : CALI
BS .in                    : BS
ROP .m/h                  : ROP
DRHO .g/cm3               : DRHO
NPHI .m3/m3               : NPHI
RHOB .g/cm3               : RHOB
PEF .b/e                  : PEF
GR .gAPI                  : GR
DTC .us/ft                : DTC
DTS .us/ft                : DTS
RDEP .ohm.m               : RDEP
RMIC .ohm.m               : RMIC
RMED .ohm.m               : RMED
~Parameter
#==================================================================
~Ascii
# ...
 1498.5980225 5.0000000000 -0.006600380 12.243399620 12.250000954 100.69290161 0.0375000015 0.4787000120 2.1393001080 4.9491000175 150.06359863 150.51679993 473.19439697 0.8126999736 0.4817999899 0.7728999853
 1498.7504883 5.0000000000 0.0390996896 12.289100647 12.250000954 90.701118469 0.0362999998 0.5058000088 2.1329998970 5.2375001907 152.53430176 150.40350342 472.07830811 0.8094999790 0.4830000103 0.7695999742
 1498.9028320 5.0000000000 0.0873003080 12.337300301 12.250000954 87.116798401 0.0342999995 0.5479999781 2.1229999065 5.5514998436 151.86549377 149.81669617 477.28961182 0.8245000243 0.4268000126 0.7879999876
 1499.0552979 5.0000000000 -0.145899802 12.104100227 12.250000954 77.586288452 0.0329000019 0.5792000294 2.1171998978 5.7575001717 148.89559937 148.44189453 474.22369385 0.8061000109 0.4433999956 0.7710000277
 1499.2076416 5.0000000000 -0.262999505 11.987000465 12.250000954 91.367126465 0.0304000005 0.5806999803 2.1157999039 5.7822999954 148.37930298 147.56779480 475.36511230 0.7706999779 0.4187000096 0.7418000102
 1499.3599854 5.0000000000 -0.268099815 11.981900215 12.250000954 98.298889160 0.0277999993 0.5576999784 2.1231000423 5.6163001060 149.48060608 147.48320007 470.33560181 0.8262000084 0.5015000105 0.7958999872
 1499.5124512 5.0000000000 -0.185899690 12.064101219 12.250000954 101.11979675 0.0260000005 0.5519000292 2.1357998848 5.4008002281 150.42970276 147.27760315 468.46426392 0.8378000259 0.5505999923 0.8059999943
 1499.6647949 5.0000000000 -0.154499993 12.095499992 12.250000954 131.99929810 0.0232999995 0.5217000246 2.1456999779 5.2534999847 150.39169312 146.97760010 469.89929199 0.7764000297 0.5430999994 0.7473999858
 1499.8172607 5.0000000000 0.1968001872 12.446799278 12.250000954 147.08369446 0.0230999999 0.4961000085 2.1542999744 5.2104997635 152.07299805 147.06219482 470.34115601 0.7854999900 0.5335999727 0.7560999990
 1499.9696045 5.0000000000 -0.228799790 12.021199226 12.250000954 168.68240356 0.0228000004 0.4744000137 2.1486999989 5.2677001953 156.40089417 146.86944580 470.36358643 0.7778999805 0.4914999902 0.7497000098
 1500.1220703 5.0000000000 -0.234499887 12.015500069 12.250000954 169.13810730 0.0227000006 0.4753000140 2.1366999149 5.3860998154 156.52980042 147.17726135 475.99447632 0.7415000200 0.4893999994 0.7142000198
 1500.2744141 5.0000000000 -0.128800407 12.121199608 12.250000954 149.51609802 0.0264999997 0.5019000173 2.1586000919 5.4795999527 153.30009460 147.63624573 481.65319824 0.7702000141 0.4492999911 0.7411999702
 1500.4268799 5.0000000000 -0.054800030 12.195199966 12.250000954 122.84449005 0.0368999988 0.5370000005 2.2270998955 5.4805998802 148.72200012 147.43626404 481.31741333 0.7813000083 0.5587000251 0.7505000234
 1500.5792236 5.0000000000 -0.197300002 12.052700043 12.250000954 101.88020325 0.0527000017 0.5346999764 2.3022999763 5.3896999359 144.64469910 146.98271179 479.73699951 0.8148000240 0.5141000152 0.7825000286
 1500.7316895 5.0000000000 -0.227500007 12.022500038 12.250000954 96.818572998 0.0606999993 0.5242000222 2.3081998825 5.3246002197 145.05400085 147.24674988 480.31890869 0.9025999904 0.5540999770 0.8668000102
 1500.8840332 5.0000000000 -0.227500007 12.022500038 12.250000954 115.78839874 0.0571999997 0.4923000038 2.2392001152 5.3224000931 148.22740173 148.02923584 481.55801392 0.8264999986 0.4332999885 0.7929999828
 1501.0364990 5.0000000000 -0.268699586 11.981301308 12.250000954 134.63450623 0.0520999990 0.4979999959 2.1744000912 5.3709998131 153.65629578 148.70080566 475.49362183 0.8119999766 0.4128000140 0.7770000100
 1501.1888428 5.0000000000 -0.185899690 12.064101219 12.250000954 139.62759399 0.0452000014 0.5023999810 2.1326999664 5.4664998055 153.61830139 149.20396423 479.35668945 0.8087999821 0.3723999858 0.7717999816
 1501.3411865 5.0000000000 -0.143099800 12.106900215 12.250000954 148.67059326 0.0397999994 0.4982999861 2.1184999943 5.5689997673 151.22659302 148.92022705 482.87838745 0.7921000123 0.3596999943 0.7554000020
 1501.4936523 5.0000000000 -0.043100368 12.206898689 12.250000954 155.01840210 0.0333999991 0.5159999728 2.0996000767 5.6321997643 147.58320618 148.81817627 483.60281372 0.7958999872 0.3883000016 0.7576000094
 1501.6459961 5.0000000000 -0.739999831 11.510000229 12.250000954 152.30610657 0.0324999988 0.5394999981 2.1024000645 5.5543999672 146.90829468 148.77833557 485.85461426 0.8382999897 0.3858999908 0.7993999720
 1501.7984619 5.0000000000 -0.671400189 11.578599930 12.250000954 151.88980103 0.0377000012 0.5519999862 2.1228001118 5.3847999573 149.58149719 148.80718994 482.24609375 0.8481000066 0.3939999938 0.8095999956
 1501.9508057 5.0000000000 -0.568599701 11.681401253 12.250000954 156.97079468 0.0403000005 0.5285999775 2.1345000267 5.2525000572 153.35429382 149.02870178 480.46429443 0.8183000088 0.4128000140 0.7836999893
 1502.1032715 5.0000000000 -0.251600295 11.998398781 12.250000954 162.18899536 0.0423999988 0.5126000047 2.1289999485 5.2666997910 158.59190369 149.02217102 482.24060059 0.8062999845 0.4061999917 0.7734000087
 1502.2556152 5.0000000000 -0.303600311 11.946397781 12.250000954 169.55090332 0.0438000001 0.5231000185 2.1205999851 5.3882999420 159.12350464 148.73854065 483.55801392 0.7657999992 0.3749000132 0.7343000174
 1502.4080811 5.0000000000 -0.324000388 11.925999641 12.250000954 163.92089844 0.0447999984 0.5468000174 2.1271998882 5.4889001846 159.14599609 148.79658508 484.31890869 0.7620999813 0.3673999906 0.7308999896
 1502.5604248 5.0000000000 -0.522899628 11.727100372 12.250000954 146.86349487 0.0417000018 0.5338000059 2.1387999058 5.5232000351 158.02330017 149.27906799 487.43499756 0.7684999704 0.4248999953 0.7369999886
 1502.7128906 5.0000000000 -0.497200012 11.752799988 12.250000954 137.00289917 0.0353999995 0.5158109069 2.1438000202 5.5152001381 159.31449890 149.35589600 484.90631104 0.7637000084 0.4623000026 0.7322999835
 1502.8652344 5.0000000000 -0.317299753 11.932700157 12.250000954 138.39930725 0.0318000019 0.5226064324 2.1414000988 5.5300002098 160.33949280 148.48110962 484.04470825 0.7639999986 0.4860000014 0.7325000167
 1503.0177002 5.0000000000 -0.251600295 11.998398781 12.250000954 149.81039429 0.0309999995 0.5305793285 2.1326000690 5.6269998550 160.09309387 147.61822510 480.58731079 0.7774000168 0.4751000106 0.7466999888
 1503.1700439 5.0000000000 -0.308699578 11.941300392 12.250000954 155.81199646 0.0337000005 0.5176817179 2.1328999996 5.7916998863 157.35560608 147.20413208 476.78030396 0.7925000191 0.4839000106 0.7613000274
 1503.3223877 5.0000000000 -0.488699943 11.761300087 12.250000954 166.05349731 0.0322000012 0.4948982298 2.1301000118 5.9875998497 159.85310364 147.11991882 475.18038940 0.7957999706 0.4620000124 0.7659999728
 1503.4748535 5.0000000000 -0.306199998 11.943800926 12.250000954 173.09609985 0.0293000005 0.4927228391 2.1284999847 6.0886001587 156.92539978 147.51249695 472.19009399 0.7914000154 0.4573000073 0.7612000108
 1503.6271973 5.0000000000 -0.222399697 12.027600288 12.250000954 167.52560425 0.0245999992 0.5212069154 2.1194999218 6.0440001488 159.47850037 148.25698853 467.05169678 0.7922000289 0.4040000141 0.7620000243
 1503.7796631 5.0000000000 -0.171600297 12.078400612 12.250000954 166.36549377 0.0223999992 0.5298058391 2.1226000786 5.8078999519 156.88290405 148.61849976 464.16778564 0.7761999965 0.3811999857 0.7450000048
 1503.9320068 5.0000000000 -0.400099844 11.849899292 12.250000954 164.81100464 0.0204000007 0.5371049643 2.1364998817 5.4955000877 158.47790527 148.12405396 459.39291382 0.7960000038 0.4201000035 0.7644000053
 1504.0844727 5.0000000000 -0.425800264 11.824200630 12.250000954 158.67909241 0.0159000009 0.5433141589 2.1500999928 5.1823000908 157.56700134 147.57865906 456.70199585 0.8192999959 0.5151000023 0.7922000289
 1504.2368164 5.0000000000 -0.251600295 11.998398781 12.250000954 152.54760742 0.0153999999 0.5609972477 2.1642999649 4.9239997864 160.36500549 147.15275574 454.66848755 0.8784000278 0.6499999762 0.8518000245
 1504.3892822 5.0000000000 -0.143099800 12.106900215 12.250000954 148.47700500 0.0138999997 0.5575351715 2.1703999043 4.7147002220 160.95700073 146.71981812 450.62091064 0.9067999721 0.6851000190 0.8810999990
