# LAS format log file from PETREL
# Project units are specified as depth units
#==================================================================
~Version information
VERS.   2.0:
WRAP.   NO:
#==================================================================
~Well
STRT .m      460.12496948 :
STOP .m      2548.7502441 :
STEP .m     0.00000000 :
NULL .        -999.250000 :
COMP.           : COMPANY
WELL.  25/10-4R  Balder Appr   : WELL
FLD.            : FIELD
LOC.            : LOCATION
SRVC.           : SERVICE COMPANY
DATE.  2018-09-11 14:48:14   : Log Export Date {yyyy-MM-dd HH:mm:ss}
PROV.           : PROVINCE
UWI.   25/10-4 R   : UNIQUE WELL ID
API.            : API NUMBER
#==================================================================
~Curve
DEPT .m                   : DEPTH
Lithology_geolink ._      : Lithology_geolink
CALI .in                  : CALI
MUDWEIGHT ._              : MUDWEIGHT
ROP .m/h                  : ROP
DRHO .g/cm3               : DRHO
NPHI .m3/m3               : NPHI
RHOB .g/cm3               : RHOB
GR .gAPI                  : GR
DTC .us/ft                : DTC
RDEP .ohm.m               : RDEP
SP .mV                    : SP
RSHA .ohm.m               : RSHA
RMED .ohm.m               : RMED
~Parameter
#==================================================================
~Ascii
# ...
 1153.1250000  -999.250000 13.164999962 1.0599999428 7.3379812241  -999.250000  -999.250000  -999.250000 60.305999756 131.00700378 1.1180000305 38.132999420  -999.250000 1.8179999590
 1153.2500000  -999.250000 13.104999542 1.0599999428 6.6281166077  -999.250000  -999.250000  -999.250000 60.868000031 131.16600037 1.1109999418 37.884998322  -999.250000 1.7849999666
 1153.3750000  -999.250000 12.982998848 1.0599999428 6.5454573631  -999.250000  -999.250000  -999.250000 60.866001129 131.71299744 1.0859999657 37.152999878  -999.250000 1.7669999599
 1153.5000000  -999.250000 12.848999977 1.0599999428 6.5590553284  -999.250000  -999.250000  -999.250000 59.611000061 132.33200073 1.0579999685 36.088001251  -999.250000 1.7549999952
 1153.6250000  -999.250000 12.715000153 1.0599999428 6.5909619331  -999.250000  -999.250000  -999.250000 56.301998138 133.01699829 1.0299999714 35.023998260  -999.250000 1.7430000305
 1153.7500000  -999.250000 12.581000328 1.0599999428 6.6212272644  -999.250000  -999.250000  -999.250000 52.234001160 133.79299927 0.9940000176 34.015998840  -999.250000 1.7309999466
 1153.8750000  -999.250000 12.456000328 1.0599999428 6.6497702599  -999.250000  -999.250000  -999.250000 47.262001038 134.72500610 0.9440000057 33.066001892  -999.250000 1.7189999819
 1154.0000000  -999.250000 12.400000572 1.0599999428 6.7093176842  -999.250000  -999.250000  -999.250000 40.960998535 136.88800049 0.9089999795 32.405998230  -999.250000 1.7070000172
 1154.1250000  -999.250000 12.416000366 1.0599999428 9.4277534485  -999.250000  -999.250000  -999.250000 37.291000366 139.81900024 0.8790000081 32.272998810  -999.250000 1.6859999895
 1154.2500000  -999.250000 12.477000237 1.0599999428 9.6843833923  -999.250000  -999.250000  -999.250000 37.349998474 141.88299561 0.8610000014 32.566001892  -999.250000 1.6540000439
 1154.3750000  -999.250000 12.543999672 1.0599999428 9.7078418732  -999.250000  -999.250000  -999.250000 40.004001617 142.99099731 0.8600000143 33.021999359  -999.250000 1.6230000257
 1154.5000000  -999.250000 12.588000298 1.0599999428 9.7089900970  -999.250000  -999.250000  -999.250000 43.133998871 144.91799927 0.8730000257 33.519001007  -999.250000 1.5930000544
 1154.6250000  -999.250000 12.624999046 1.0599999428 9.7098913193  -999.250000  -999.250000  -999.250000 46.379001617 146.43800354 0.8920000196 34.089000702  -999.250000 1.5770000219
 1154.7500000  -999.250000 12.654999733 1.0599999428 9.7109584808  -999.250000  -999.250000  -999.250000 50.764999390 146.70700073 0.9110000134 34.777999878  -999.250000 1.5770000219
 1154.8750000  -999.250000 12.661000252 1.0599999428 9.7120246887  -999.250000  -999.250000  -999.250000 55.082000732 146.15600586 0.9309999943 35.466999054  -999.250000 1.5770000219
 1155.0000000  -999.250000 12.656999588 1.0599999428 9.7132539749  -999.250000  -999.250000  -999.250000 57.700000763 144.78199768 0.9509999752 36.157001495  -999.250000 1.5779999495
 1155.1250000  -999.250000 12.647999763 1.0599999428 9.6157312393  -999.250000  -999.250000  -999.250000 59.409999847 143.17300415 0.9700000286 36.846000671  -999.250000 1.6080000401
 1155.2500000  -999.250000 12.651000023 1.0599999428 8.0265750885  -999.250000  -999.250000  -999.250000 60.476001740 141.88800049 0.9890000224 37.471000671  -999.250000 1.6499999762
 1155.3750000  -999.250000 12.668000221 1.0599999428 5.0117292404  -999.250000  -999.250000  -999.250000 61.537998199 141.11599731 1.0089999437 37.848999023  -999.250000 1.6749999523
 1155.5000000  -999.250000 12.689998627 1.0599999428 4.5236220360  -999.250000  -999.250000  -999.250000 61.964000702 140.85099792 1.0319999456 38.140998840  -999.250000 1.6970000267
 1155.6250000  -999.250000 12.713000298 1.0599999428 4.5241141319  -999.250000  -999.250000  -999.250000 61.964000702 140.93699646 1.0559999943 37.895000458  -999.250000 1.7189999819
 1155.7500000  -999.250000 12.711000443 1.0599999428 4.5247702599  -999.250000  -999.250000  -999.250000 61.198001862 140.99299622 1.0709999800 37.534000397  -999.250000 1.7280000448
 1155.8750000  -999.250000 12.692000389 1.0599999428 4.5251803398  -999.250000  -999.250000  -999.250000 60.053001404 140.99299622 1.0709999800 36.976001740  -999.250000 1.7280000448
 1156.0000000  -999.250000 12.654000282 1.0599999428 4.5255904198  -999.250000  -999.250000  -999.250000 58.827999115 141.01100159 1.0690000057 36.346000671  -999.250000 1.7280000448
 1156.1250000  -999.250000 12.590000153 1.0599999428 3.3133201599  -999.250000  -999.250000  -999.250000 58.152000427 141.13000488 1.0670000315 35.911998749  -999.250000 1.7280000448
 1156.2500000  -999.250000 12.527999878 1.0599999428 3.2701768875  -999.250000  -999.250000  -999.250000 58.188999176 141.27099609 1.0620000362 35.723999023  -999.250000 1.7209999561
 1156.3750000  -999.250000 12.479000092 1.0599999428 3.2703411579  -999.250000  -999.250000  -999.250000 58.863998413 141.50900269 1.0559999943 35.941001892  -999.250000 1.7209999561
 1156.5000000  -999.250000 12.470000267 1.0599999428 3.2713255882  -999.250000  -999.250000  -999.250000 59.659999847 141.95899963 1.0529999733 36.326999664  -999.250000 1.7209999561
 1156.6250000  -999.250000 12.477000237 1.0599999428 3.2999508381  -999.250000  -999.250000  -999.250000 60.456001282 142.41499329 1.0549999475 36.924999237  -999.250000 1.7200000286
 1156.7500000  -999.250000 12.467000008 1.0599999428 3.3149604797  -999.250000  -999.250000  -999.250000 61.346000671 142.64300537 1.0509999990 37.437000275  -999.250000 1.7200000286
 1156.8750000  -999.250000 12.437999725 1.0599999428 3.3299703598  -999.250000  -999.250000  -999.250000 62.465000153 142.86999512 1.0460000038 37.835998535  -999.250000 1.7200000286
 1157.0000000  -999.250000 12.407000542 1.0599999428 3.3303806782  -999.250000  -999.250000  -999.250000 62.933998108 142.77799988 1.0420000553 38.042999268  -999.250000 1.7200000286
 1157.1250000  -999.250000 12.378000259 1.0599999428 3.3378536701  -999.250000  -999.250000  -999.250000 62.612998962 142.42900085 1.0399999619 37.907001495  -999.250000 1.7250000238
 1157.2500000  -999.250000 12.359999657 1.0599999428 3.3604001999  -999.250000  -999.250000  -999.250000 61.691001892 142.02600098 1.0390000343 37.625000000  -999.250000 1.7300000191
 1157.3750000  -999.250000 12.343000412 1.0599999428 6.0536112785  -999.250000  -999.250000  -999.250000 60.647998810 141.52999878 1.0399999619 37.355998993  -999.250000 1.7339999676
 1157.5000000  -999.250000 12.329000473 1.0599999428 7.8661422729  -999.250000  -999.250000  -999.250000 60.050998688 141.08799744 1.0479999781 37.377998352  -999.250000 1.7339999676
 1157.6250000  -999.250000 12.317000389 1.0599999428 7.9090390205  -999.250000  -999.250000  -999.250000 59.973999023 140.71899414 1.0640000105 37.577999115  -999.250000 1.7369999886
 1157.7500000  -999.250000 12.305000305 1.0599999428 7.9086284637  -999.250000  -999.250000  -999.250000 59.928001404 140.18499756 1.0820000172 37.791999817  -999.250000 1.7419999838
 1157.8750000  -999.250000 12.295999527 1.0599999428 7.9082183838  -999.250000  -999.250000  -999.250000 59.881000519 139.26199341 1.1009999514 38.012001038  -999.250000 1.7519999743
 1158.0000000  -999.250000 12.293999672 1.0599999428 6.7506561279  -999.250000  -999.250000  -999.250000 59.863998413 138.33799744 1.1189999580 37.965000153  -999.250000 1.7680000067
 1158.1250000  -999.250000 12.293999672 1.0599999428 6.7502455711  -999.250000  -999.250000  -999.250000 60.119998932 137.27699280 1.1360000372 37.855998993  -999.250000 1.7899999619
 1158.2500000  -999.250000 12.296999931 1.0599999428 6.7498359680  -999.250000  -999.250000  -999.250000 60.472000122 136.08299255 1.1390000582 37.540000916  -999.250000 1.8120000362
 1158.3750000  -999.250000 12.317999840 1.0599999428 6.7494258881  -999.250000  -999.250000  -999.250000 60.823001862 134.88900757 1.1410000324 37.167999268  -999.250000 1.8300000429
 1158.5000000  -999.250000 12.340999603 1.0599999428 6.8087267876  -999.250000  -999.250000  -999.250000 61.584999084 133.69500732 1.1440000534 36.799999237  -999.250000 1.8459999561
