# LAS format log file from PETREL
# Project units are specified as depth units
#==================================================================
~Version information
VERS.   2.0:
WRAP.   NO:
#==================================================================
~Well
STRT .m      1118.6159668 :
STOP .m      2017.3187256 :
STEP .m     0.00000000 :
NULL .        -999.250000 :
COMP.           : COMPANY
WELL.  25/11-15  Grane   : WELL
FLD.            : FIELD
LOC.            : LOCATION
SRVC.           : SERVICE COMPANY
DATE.  2018-09-11 14:48:15   : Log Export Date {yyyy-MM-dd HH:mm:ss}
PROV.           : PROVINCE
UWI.   25/11-15   : UNIQUE WELL ID
API.            : API NUMBER
#==================================================================
~Curve
DEPT .m                   : DEPTH
Lithology_geolink ._      : Lithology_geolink
CALI .in                  : CALI
BS .in                    : BS
MUDWEIGHT ._              : MUDWEIGHT
ROP .m/h                  : ROP
TGAS ._                   : TGAS
DRHO .g/cm3               : DRHO
THOR .ppm                 : THOR
NPHI .m3/m3               : NPHI
RHOB .g/cm3               : RHOB
GR .gAPI                  : GR
URAN .ppm                 : URAN
DTC .us/ft                : DTC
DTE .us/ft                : DTE
RDEP .ohm.m               : RDEP
SP .mV                    : SP
RSHA .ohm.m               : RSHA
RMED .ohm.m               : RMED
~Parameter
#==================================================================
~Ascii
# ...
 1893.1126709 12.000000000 8.4375000000 8.5000000000 1.1599999666 45235.390625 0.0201999992 -0.089661568 3.8961660862 0.1687878072 2.4687287807 58.900524139 -3.571177006 78.892089844 77.717666626 4.3353605270 77.203201294 5.3481435776 4.0278334618
 1893.2651367 12.000000000 8.4374961853 8.5000000000 1.1599999666 43890.539063 0.0201999992 -0.086705960 3.6865682602 0.1767885983 2.4584133625 60.717876434 -3.623557806 83.713829041 81.564239502 4.0483331680 75.201599121 6.6161050797 4.4593110085
 1893.4174805 12.000000000 8.4276247025 8.5000000000 1.1599999666 43448.402344 0.0201999992 -0.080002785 3.6524543762 0.1681237966 2.4717786312 61.999958038 -3.610920191 90.700119019 88.236030579 3.0497462749 74.201599121 10.711663246 4.3547301292
 1893.5699463 12.000000000 8.3315439224 8.5000000000 1.1599999666 43448.402344 0.0202698410 -0.082907945 4.9726414680 0.1876958013 2.4717850685 64.562583923 -2.545354605 99.927040100 96.907127380 2.2449052334 73.700401306 3.5669946671 2.9438583851
 1893.7222900 12.000000000 8.4564228058 8.5000000000 1.1599999666 43448.402344 0.0203000009 -0.089849234 6.1863279343 0.2301867008 2.4277102947 70.620773315 -1.401616454 103.83049011 101.90346527 1.9168955088 72.201202393 2.1416175365 1.8658615351
 1893.8747559 12.000000000 8.4875860214 8.5000000000 1.1599999666 43448.402344 0.0203000009 -0.089031741 5.7927160263 0.2692609131 2.3927268982 71.498794556 -1.649100900 101.28189850 100.62185669 1.5581562519 69.701995850 2.1119329929 1.6054879427
 1894.0270996 12.000000000 8.4375000000 8.5000000000 1.1599999666 43448.402344 0.0203000009 -0.087491915 5.0924611092 0.2661907077 2.3883094788 69.747200012 -2.849037886 97.862693787 97.495010376 1.6233355999 68.201202393 2.9771871567 1.9052324295
 1894.1795654 12.000000000 8.4375000000 8.5000000000 1.1599999666 43448.402344 0.0203000009 -0.086113855 5.1106848717 0.2475112975 2.3981990814 63.379131317 -2.785851479 94.447120667 93.928924561 1.8716830015 67.700393677 2.9490020275 2.3687627316
 1894.3319092 12.000000000 8.4375000000 8.5000000000 1.1599999666 43448.402344 0.0203000009 -0.082858920 4.8834819794 0.2169218957 2.4281818867 59.129562378 -2.831663370 92.971054077 92.193260193 1.9859526157 68.199592590 3.8532736301 2.5247492790
 1894.4843750 12.000000000 8.4375000000 8.5000000000 1.1599999666 43448.402344 0.0203000009 -0.079450294 4.6975488663 0.2035112977 2.4390921593 61.061260223 -2.896048546 91.897979736 91.009902954 2.0813417435 67.200798035 3.5316045284 2.4823241234
 1894.6367188 12.000000000 8.4375000000 8.5000000000 1.1599999666 42167.898438 0.0203000009 -0.077311516 4.8060126305 0.1929121017 2.4424912930 62.967952728 -2.810168982 94.566261292 92.891296387 2.1493287086 68.698791504 3.2193770409 2.4230184555
 1894.7890625 12.000000000 8.4375000000 8.5000000000 1.1599999666 41586.117188 0.0203000009 -0.075026602 4.6877899170 0.1960978955 2.4316213131 64.246292114 -2.856725216 93.687271118 92.813392639 2.0575792789 69.698394775 3.2702379227 2.3692023754
 1894.9415283 12.000000000 8.4375009537 8.5000000000 1.1599999666 53735.769531 0.0203000009 -0.071495563 4.3205943108 0.1971963942 2.4359993935 62.406814575 -3.030660629 93.137817383 92.114311218 1.9947743416 70.199592590 2.8758203983 2.3863282204
 1895.0938721 12.000000000 8.4395179749 8.5000000000 1.1599999666 81525.234375 0.0203000009 -0.071718812 4.7369318008 0.1919177026 2.4421799183 60.379459381 -2.785593510 97.627861023 95.609466553 1.9172762632 70.699195862 3.1046235561 2.2669124603
 1895.2463379 12.000000000 8.4616022110 8.5000000000 1.1599999666 96526.421875 0.0203000009 -0.076038331 5.0230712891 0.2068945020 2.4303984642 61.812568665 -2.437578678 99.576637268 98.005645752 1.7757173777 70.200401306 2.9783086777 1.9578807354
 1895.3986816 12.000000000 8.4660806656 8.5000000000 1.1599999666 99310.320313 0.0203000009 -0.080550194 4.9781723022 0.2293964028 2.4042339325 64.810806274 -2.453773499 102.87630463 101.11569977 1.6923176050 69.700798035 2.5413527489 1.7993898392
 1895.5511475 12.000000000 8.4408121109 8.5000000000 1.1599999666 100636.22656 0.0203000009 -0.084076807 4.7663698196 0.2530786097 2.3938124180 68.809944153 -2.599882841 101.28330994 100.44003296 1.6950527430 69.699996948 2.2414031029 1.8465819359
 1895.7034912 12.000000000 8.4732742310 8.5000000000 1.1599999666 101172.60156 0.0203000009 -0.085738525 5.5954346657 0.2579909861 2.4043993950 70.685020447 -2.269065380 102.28019714 101.01165009 1.5777980089 69.200401306 2.7692484856 1.9067428112
 1895.8559570 12.000000000 8.4375000000 8.5000000000 1.1599999666 100332.50781 0.0203000009 -0.087693371 5.8113274574 0.2521049976 2.4146866798 69.313125610 -2.141302109 101.48239899 100.52146149 1.5622713566 69.699600220 3.0209574699 1.7604981661
 1896.0083008 12.000000000 8.4375000000 8.5000000000 1.1599999666 71734.859375 0.0203000009 -0.089449808 5.5105414391 0.2494910061 2.3965005875 67.625213623 -2.223034382 98.221580505 97.766471863 1.7269519567 70.699195862 2.0256962776 1.6948115826
 1896.1607666 12.000000000 8.4375000000 8.5000000000 1.1599999666 60206.761719 0.0203000009 -0.085665062 5.0217914581 0.2317138016 2.3748173714 65.876754761 -2.423739195 96.074943542 95.328475952 1.7977733612 69.700798035 2.3524653912 1.9575823545
 1896.3131104 12.000000000 8.4367904663 8.5000000000 1.1599999666 60284.082031 0.0203000009 -0.071188971 5.0219993591 0.2152069062 2.3755993843 67.500892639 -2.432093382 97.072883606 95.742172241 1.7954149246 69.200401306 5.3966269493 2.4306635857
 1896.4655762 12.000000000 8.4192781448 8.5000000000 1.1599999666 61631.597656 0.0203000009 -0.050796218 5.5258960724 0.1996179968 2.3753912449 71.247070313 -1.995749593 100.25199890 98.454978943 1.8128490448 66.701995850 3.7818667889 2.0317618847
 1896.6179199 12.000000000 8.2782382965 8.5000000000 1.1599999666 62069.039063 0.0203000009 -0.039722603 5.3697252274 0.2170964032 2.3202192783 71.688758850 -2.037366390 101.12709045 99.878356934 1.6919839382 65.201202393 1.8320336342 1.6928355694
 1896.7702637 12.000000000 7.9691929817 8.5000000000 1.1599999666 62069.039063 0.0203000009 -0.035391346 6.0018858910 0.2427856028 2.2723717690 74.747215271 -1.824541450 104.07099915 102.28671265 1.4606658220 65.199996948 1.9716675282 1.6249284744
 1896.9227295 12.000000000 7.7382087708 8.5000000000 1.1599999666 64425.003906 0.0203000009 -0.030783750 6.5265798569 0.2546871006 2.2673349380 77.124168396 -1.599979758 104.10690308 102.95204163 1.4253950119 66.199195862 2.6075651646 1.6467783451
 1897.0750732 12.000000000 7.9745388031 8.5000000000 1.1599999666 95419.296875 0.0203000009 -0.042461343 5.8613677025 0.2519902885 2.3341429234 79.429450989 -1.833125830 104.31050110 103.20305634 1.4983030558 65.201599121 1.9943393469 1.6379251480
 1897.2275391 12.000000000 8.2612485886 8.5000000000 1.1599999666 103034.52344 0.0203000009 -0.074756429 5.7463917732 0.2371135950 2.3946626186 74.191177368 -1.851385713 105.21399689 103.83710480 1.4877165556 63.701198578 2.1883435249 1.6513042450
 1897.3798828 12.000000000 8.3835086823 8.5000000000 1.1599999666 103034.52344 0.0203000009 -0.098379962 5.7206411362 0.2346096039 2.4217495918 72.876808167 -1.857889652 102.52089691 101.94829559 1.4826440811 65.197593689 2.7480025291 1.6885462999
 1897.5323486 12.000000000 8.3946142197 8.5000000000 1.1599999666 103034.52344 0.0203000009 -0.121073775 5.6753363609 0.2439931929 2.4128892422 72.499664307 -1.969610453 104.34570313 102.76695251 1.5237430334 66.698791504 2.2755024433 1.6960140467
 1897.6846924 12.000000000 8.4375000000 8.5000000000 1.1599999666 103034.52344 0.0203000009 -0.141087770 6.3053946495 0.2509956956 2.3607187271 70.625930786 -1.777054548 105.26439667 103.97966766 1.5723930597 68.198791504 2.3436162472 1.7560518980
 1897.8371582 12.000000000 8.4375000000 8.5000000000 1.1599999666 105358.28125 0.0203000009 -0.126089767 6.5327181816 0.2545965016 2.3291323185 69.813438416 -1.760013580 105.21540070 104.07222748 1.5433373451 65.701995850 2.4454555511 1.7560750246
 1897.9895020 13.000000000 8.4375000000 8.5000000000 1.1599999666 132239.28125 0.0203000009 -0.102507986 6.3106784821 0.2547081113 2.3534774780 70.878128052 -1.896890163 106.45969391 105.09489441 1.4926795959 67.698394775 2.5829439163 1.6654965878
