# LAS format log file from PETREL
# Project units are specified as depth units
#==================================================================
~Version information
VERS.   2.0:
WRAP.   NO:
#==================================================================
~Well
STRT .m      353.26309204 :
STOP .m      2468.2702637 :
STEP .m     0.00000000 :
NULL .        -999.250000 :
COMP.           : COMPANY
WELL.  25/11-1  Balder   : WELL
FLD.            : FIELD
LOC.            : LOCATION
SRVC.           : SERVICE COMPANY
DATE.  2018-09-11 14:48:15   : Log Export Date {yyyy-MM-dd HH:mm:ss}
PROV.           : PROVINCE
UWI.   25/11-1   : UNIQUE WELL ID
API.            : API NUMBER
#==================================================================
~Curve
DEPT .m                   : DEPTH
Lithology_geolink ._      : Lithology_geolink
CALI .in                  : CALI
MUDWEIGHT ._              : MUDWEIGHT
ROP .m/h                  : ROP
DRHO .g/cm3               : DRHO
RHOB .g/cm3               : RHOB
GR .gAPI                  : GR
DTC .us/ft                : DTC
DTE .us/ft                : DTE
RDEP .ohm.m               : RDEP
SP .mV                    : SP
RSHA .ohm.m               : RSHA
RMED .ohm.m               : RMED
~Parameter
#==================================================================
~Ascii
# ...
 641.60388184  -999.250000 14.197060585 9.1000003815 0.3261215389 0.0536678694 2.0357019901 85.922027588 166.75630188 166.75695801 1.0757999420 36.034976959 1.1022160053 1.0343010426
 641.75628662  -999.250000 13.876090050 9.1000003815 0.3254653811 0.0439947918 2.0559010506 88.011978149 165.93460083 165.93554688 1.0783989429 35.953102112 1.2479989529 1.0460009575
 641.90869141  -999.250000 13.707500458 9.1000003815 0.3251342475 0.0304621551 2.0622000694 89.323593140 162.23170471 162.23495483 1.0707989931 35.896339417 1.2321929932 1.0534000397
 642.06109619  -999.250000 13.656101227 9.1000003815 0.3244810998 0.0277336817 2.0678999424 87.813575745 156.42869568 156.43334961 1.0611000061 35.975654602 1.1103969812 1.0559999943
 642.21350098  -999.250000 13.674499512 9.1000003815 0.3238249421 0.0375378467 2.0713999271 86.449058533 154.29939270 154.30110168 1.0542000532 36.084426880 1.0051009655 1.0585000515
 642.36584473  -999.250000 13.838990211 9.1000003815 0.3231690526 0.0571321584 2.0662920475 81.673286438 154.24000549 154.23988342 1.0523010492 36.237648010 1.0386120081 1.0608999729
 642.51824951  -999.250000 14.089619637 9.1000003815 0.3225128949 0.0366019234 2.0439920425 80.468444824 154.89561462 154.89440918 1.0545020103 36.287410736 1.3978470564 1.0616999865
 642.67065430  -999.250000 14.143660545 9.1000003815 0.3221814930 0.0196672007 2.0197010040 81.013793945 156.10710144 156.10415649 1.0612059832 36.294147491 1.2472419739 1.0627019405
 642.82305908  -999.250000 14.011779785 9.1000003815 0.3215283453 0.0360652804 2.0231010914 80.776832581 161.36280823 161.35600281 1.0802099705 36.274688721 1.0691039562 1.0680030584
 642.97546387  -999.250000 13.916971207 9.1000003815 0.3211972415 0.0261345617 2.0278010368 79.817558289 163.33052063 163.32853699 1.1196099520 36.150154114 1.0826129913 1.0792030096
 643.12786865  -999.250000 13.782870293 9.1000003815 0.3211942315 0.0221998394 2.0321040154 76.361640930 161.54750061 161.54954529 1.1644049883 36.113147736 1.1401050091 1.0921030045
 643.28027344  -999.250000 13.614689827 9.1000003815 0.3215192854 0.0134673603 2.0513041019 73.236083984 158.69259644 158.69538879 1.1897029877 36.093688965 1.1658940315 1.1062029600
 643.43267822  -999.250000 13.566699982 9.1000003815 0.3215222955 0.0121998396 2.0753018856 71.664154053 156.01570129 156.01805115 1.2058000565 35.943431854 1.1322079897 1.1211010218
 643.58508301  -999.250000 13.557490349 9.1000003815 0.3215222955 0.0151998401 2.0885000229 71.869682312 154.61399841 154.61552429 1.2047959566 35.775890350 1.1918079853 1.1266989708
 643.73748779  -999.250000 13.492599487 9.1000003815 0.3215222955 0.0115985582 2.0861999989 75.124038696 150.70849609 150.71173096 1.1720960140 35.738410950 1.2691019773 1.1165989637
 643.88989258  -999.250000 13.457599640 9.1000003815 0.3215222955 0.0129347220 2.0834000111 76.960754395 148.20179749 148.20381165 1.1266980171 35.744407654 1.2884010077 1.0983990431
 644.04229736  -999.250000 13.473010063 9.1000003815 0.3094950318 0.0235378463 2.0833001137 76.862991333 150.04249573 150.04092407 1.0811990499 35.704845428 1.3000960350 1.0772999525
 644.19470215  -999.250000 13.730601311 9.1000003815 0.3093832135 0.0380052067 2.0613000393 74.381828308 152.67068481 152.66857910 1.0361009836 35.496723175 1.0987030268 1.0563999414
 644.34704590  -999.250000 14.140140533 9.1000003815 0.3093832135 0.0573988780 2.0264830589 71.335372925 159.06770325 159.05830383 0.9951872230 35.575366974 0.8350532055 1.0368930101
 644.49945068  -999.250000 14.809770584 9.1000003815 0.3097081482 0.0776655972 1.9772809744 67.498802185 163.98699951 163.98057556 0.9598931074 35.881763458 0.7130975723 1.0175950527
 644.65185547  -999.250000 15.320029259 9.1000003815 0.3217385411 0.0859331191 1.9171869755 64.508392334 165.69920349 165.69703674 0.9387000799 36.104545593 0.7059080005 1.0024980307
 644.80426025  -999.250000 15.061889648 9.1000003815 0.3218503892 0.0752675235 1.8737980127 65.877037048 166.14529419 166.14476013 0.9390032291 36.186538696 0.7339264154 0.9949983954
 644.95666504  -999.250000 15.023812294 9.1000003815 0.3221754730 0.0541345626 1.8643089533 68.159057617 166.42939758 166.42897034 0.9513033032 36.271018982 0.8422219753 0.9888995886
 645.10906982  -999.250000 15.513070107 9.1000003815 0.3221784830 0.0392006412 1.9032119513 70.623703003 167.25057983 167.24940491 0.9658033252 36.369754791 0.9436920285 0.9871010184
 645.26147461  -999.250000 15.849909782 9.1000003815 0.3221784830 0.0543319993 1.9632049799 71.587074280 168.20039368 168.19934082 0.9825037122 36.400409698 0.9037955999 0.9922009706
 645.41387939  -999.250000 15.878890991 9.1000003815 0.3221784830 0.0580668822 1.9919999838 72.549743652 169.90998840 169.90843201 1.0051039457 36.406410217 0.8778138757 0.9983006120
 645.56628418  -999.250000 15.803770065 9.1000003815 0.3221784830 0.0496671982 1.9908009768 72.787971497 171.71850586 171.71714783 1.0329029560 36.387424469 0.9874162078 1.0026999712
 645.71868896  -999.250000 15.503378868 9.1000003815 0.3225035667 0.0447992794 1.9969010353 71.408378601 170.86259460 170.86347961 1.0621010065 36.255752563 1.1566070318 1.0047999620
 645.87109375  -999.250000 15.154890060 9.1000003815 0.3225065768 0.0278590303 2.0083000660 70.449478149 168.13479614 168.13708496 1.0820000172 36.163940430 1.2634969950 1.0053000450
 646.02349854  -999.250000 14.904100418 9.1000003815 0.3225065768 0.0124621540 2.0146999359 70.378547668 165.80110168 165.80297852 1.0882999897 36.067558289 1.2010990381 1.0103000402
 646.17590332  -999.250000 14.626609802 9.1000003815 0.3225065768 0.0134020820 2.0346989632 72.968505859 165.39830017 165.39862061 1.0873999596 36.039737701 1.1400010586 1.0191999674
 646.32830811  -999.250000 14.605299950 9.1000003815 0.3225065768 0.0311409701 2.0477991104 77.027061462 164.80650330 164.80686951 1.0791000128 36.044414520 1.1046019793 1.0274000168
 646.48065186  -999.250000 14.768650055 9.1000003815 0.3225065768 0.0597316809 2.0522999763 77.864616394 165.64689636 165.64559937 1.0633929968 36.051147461 0.9901015162 1.0289980173
 646.63305664  -999.250000 14.913519859 9.1000003815 0.3228314817 0.0643336028 2.0526928902 73.399734497 166.42889404 166.42774963 1.0427930355 36.057411194 0.9946166277 1.0214990377
 646.78546143  -999.250000 15.327199936 9.1000003815 0.3195840418 0.0366019234 2.0276958942 71.163131714 167.25431824 167.25318909 1.0189939737 36.062675476 1.0548059940 1.0175009966
 646.93786621  -999.250000 15.701580048 9.1000003815 0.3107771575 0.0262667201 2.0102999210 72.100593567 167.83848572 167.83760071 0.9960955977 36.029441833 1.0792160034 1.0219000578
 647.09027100  -999.250000 15.633958817 9.1000003815 0.3106955588 0.0399323218 2.0124969482 74.207626343 168.72689819 168.72563171 0.9764972925 35.873619080 1.1518059969 1.0235990286
 647.24267578  -999.250000 15.434890747 9.1000003815 0.3106955588 0.0259347223 1.9976990223 73.006690979 169.65080261 169.64978027 0.9625990987 35.867588043 1.1820629835 1.0205999613
 647.39508057  -999.250000 15.352190018 9.1000003815 0.3106955588 0.0365987197 1.9917010069 72.333267212 169.42849731 169.42887878 0.9570000172 35.891353607 0.9715880752 1.0195000172
 647.54748535  -999.250000 15.238570213 9.1000003815 0.3106955588 0.0583988801 1.9973989725 72.140312195 168.11889648 168.11994934 0.9566006064 35.943264008 0.8824098706 1.0210000277
 647.69989014  -999.250000 14.969989777 9.1000003815 0.3106955588 0.0456680022 1.9831000566 71.198883057 168.31210327 168.31195068 0.9629009962 36.136734009 0.9914063811 1.0238000154
 647.85229492  -999.250000 14.745301247 9.1000003815 0.3110206127 0.0272628199 1.9830009937 69.277641296 168.41349792 168.41342163 0.9784008861 36.280143738 1.0953979492 1.0276000500
 648.00469971  -999.250000 14.769000053 9.1000003815 0.3110236228 0.0274020825 2.0164000988 67.514701843 169.03050232 169.03001404 1.0055999756 36.334735870 1.0390000343 1.0331000090
 648.15710449  -999.250000 14.892499924 9.1000003815 0.3110236228 0.0466083288 2.0611979961 65.880836487 170.09300232 170.09214783 1.0389989614 36.431533813 0.9976012111 1.0412000418
