# LAS format log file from PETREL
# Project units are specified as depth units
#==================================================================
~Version information
VERS.   2.0:
WRAP.   NO:
#==================================================================
~Well
STRT .m      1456.9927979 :
STOP .m      2094.7868652 :
STEP .m     0.00000000 :
NULL .        -999.250000 :
COMP.           : COMPANY
WELL.  25/11-24 Jakob South   : WELL
FLD.            : FIELD
LOC.            : LOCATION
SRVC.           : SERVICE COMPANY
DATE.  2018-09-11 14:48:16   : Log Export Date {yyyy-MM-dd HH:mm:ss}
PROV.           : PROVINCE
UWI.   25/11-24   : UNIQUE WELL ID
API.            : API NUMBER
#==================================================================
~Curve
DEPT .m                   : DEPTH
Lithology_geolink ._      : Lithology_geolink
DCAL .in                  : DCAL
CALI .in                  : CALI
BS .in                    : BS
ROP .m/h                  : ROP
DRHO .g/cm3               : DRHO
NPHI .m3/m3               : NPHI
RHOB .g/cm3               : RHOB
PEF .b/e                  : PEF
GR .gAPI                  : GR
DTC .us/ft                : DTC
DTS .us/ft                : DTS
RDEP .ohm.m               : RDEP
RMIC .ohm.m               : RMIC
RMED .ohm.m               : RMED
~Parameter
#==================================================================
~Ascii
# ...
 1581.8084717 5.0000000000 0.7080001235 12.958000183 12.250000954 137.49008179 0.0436999984 0.5139989853 2.1203000546 4.4519000053 147.59899902 147.00000000 442.67419434 0.7463313341 0.3386999965 0.7053999901
 1581.9608154 5.0000000000 0.7371997237 12.987199783 12.250000954 136.60064697 0.0333000049 0.5126920342 2.1173999310 4.3702998161 147.56449890 146.99894714 442.39718628 0.7854063511 0.3736999929 0.7421000004
 1582.1132813 5.0000000000 0.1140002906 12.363999367 12.250000954 138.92004395 0.0260000005 0.5026796460 2.0924999714 4.3571000099 144.53489685 145.68331909 442.36358643 0.7933683991 0.4517000020 0.7504000068
 1582.2656250 5.0000000000 0.2549000084 12.504899979 12.250000954 150.06488037 0.0254999995 0.4773068130 2.0731999874 4.4492001534 150.74409485 144.07987976 451.40710449 0.7539932728 0.3973000050 0.7135999799
 1582.4180908 5.0000000000 0.8210000992 13.070999146 12.250000954 152.77537537 0.0348000005 0.4858507514 2.0827000141 4.5801000595 151.73759460 144.30171204 451.31741333 0.7455241084 0.3675000072 0.7045999765
 1582.5704346 5.0000000000 0.8742999434 13.124300003 12.250000954 145.27163696 0.0375000015 0.5175271630 2.0966000557 4.6226000786 157.23019409 144.49430847 449.39581299 0.6981902122 0.3824999928 0.6603000164
 1582.7229004 5.0000000000 0.9753999710 13.225399971 12.250000954 141.95135498 0.0381000005 0.5513679981 2.1061000824 4.5591001511 156.98860168 144.38536072 446.20138550 0.6860145330 0.4769000113 0.6493999958
 1582.8752441 5.0000000000 0.9378004670 13.187799454 12.250000954 144.54835510 0.0333000049 0.5313923955 2.0959000587 4.5748000145 156.85800171 143.98204041 447.87701416 0.6950935721 0.5098999739 0.6577000022
 1583.0277100 5.0000000000 1.0342999697 13.284297943 12.250000954 155.34736633 0.0296000000 0.5219060779 2.0992999077 4.8477997780 152.74209595 143.40780640 446.46429443 0.6870895624 0.4812999964 0.6506000161
 1583.1800537 5.0000000000 1.0850000381 13.335000992 12.250000954 165.55789185 0.0267999992 0.5257183909 2.1521999836 5.2905998230 150.31269836 143.04026794 452.84762573 0.6805944443 0.3540000021 0.6452000141
 1583.3323975 16.000000000 1.0494999886 13.299499512 12.250000954 166.52857971 0.0346999988 0.5486967564 2.2648999691 5.6300997734 146.27459717 143.49003601 452.76089478 0.6738874912 0.3352999985 0.6424000263
 1583.4848633 16.000000000 1.0850000381 13.335000992 12.250000954 153.00733948 0.0480999984 0.5446773767 2.3475999832 5.6928000450 139.67640686 144.16003418 452.55661011 0.9078488350 0.3589999974 0.8666999936
 1583.6372070 16.000000000 1.2221000195 13.472100258 12.250000954 124.47434998 0.0562000014 0.5163806677 2.3250999451 5.5503997803 137.29060364 144.96266174 457.66439819 0.8439847827 0.3485000134 0.8101000190
 1583.7896729 5.0000000000 1.2069000006 13.456898689 12.250000954 99.450820923 0.0476999991 0.4922988713 2.2035000324 5.3199000359 137.70480347 146.40585327 466.70220947 0.7001885772 0.3134999871 0.6725000143
 1583.9420166 5.0000000000 0.8413000107 13.091300011 12.250000954 88.859268188 0.0344999991 0.4909085631 2.1019999981 5.0342001915 144.38870239 147.59214783 455.84030151 0.6859217286 0.3032000065 0.6579999924
 1584.0944824 5.0000000000 0.9275999069 13.177599907 12.250000954 99.928421021 0.0230999999 0.5016102791 2.0592999458 4.7416000366 147.37150574 148.28034973 448.43618774 0.7131086588 0.4020000100 0.6844000220
 1584.2468262 5.0000000000 1.0621999502 13.312201500 12.250000954 101.49233246 0.0188999996 0.5143939257 2.0710999966 4.5322999954 146.83389282 149.95272827 454.14279175 0.7238627672 0.4704999924 0.6945999861
 1584.3992920 5.0000000000 1.1814999580 13.431502342 12.250000954 96.778297424 0.0170000009 0.5067790747 2.0822999477 4.4643001556 150.93200684 151.11769104 461.54138184 0.6773971319 0.4693000019 0.6491000056
 1584.5516357 5.0000000000 1.2564001083 13.506399155 12.250000954 87.056846619 0.0195000004 0.4807018340 2.0864999294 4.5008001328 150.74909973 150.49436951 458.41668701 0.6738018394 0.4810999930 0.6455000043
 1584.7041016 5.0000000000 1.4962999821 13.746299744 12.250000954 74.911659241 0.0254999995 0.4830384552 2.0801999569 4.5548000336 155.49580383 150.46540833 461.42379761 0.6760641336 0.4307999909 0.6492999792
 1584.8564453 5.0000000000 1.2653000355 13.515298843 12.250000954 80.594261169 0.0291000009 0.5070100427 2.0660998821 4.5896000862 152.78340149 150.28404236 462.31890869 0.6536864638 0.4293000102 0.6309000254
 1585.0089111 5.0000000000 1.2244000435 13.474399567 12.250000954 90.540008545 0.0318999998 0.5194678307 2.0676999092 4.6205000877 155.64720154 150.46194458 467.48260498 0.6368645430 0.4537999928 0.6164000034
 1585.1612549 5.0000000000 1.2120000124 13.461998940 12.250000954 92.371955872 0.0344000012 0.4993737042 2.0854001045 4.6919999123 154.59269714 151.17720032 473.79031372 0.6771323085 0.5192000270 0.6542000175
 1585.3137207 5.0000000000 1.4836001396 13.733599663 12.250000954 94.297706604 0.0351999998 0.4665794969 2.1026999950 4.7905998230 151.17070007 151.55670166 479.98330688 0.7173814178 0.5045999885 0.6933000088
 1585.4660645 5.0000000000 1.2170000076 13.466999054 12.250000954 93.148315430 0.0333999991 0.4538216293 2.1003000736 4.8461999893 148.50300598 151.61416626 484.11758423 0.7057606578 0.4546999931 0.6823999882
 1585.6184082 5.0000000000 1.5750000477 13.824998856 12.250000954 93.170394897 0.0309999995 0.4808140099 2.0833001137 4.8074002266 146.65989685 151.81832886 491.53021240 0.6566706896 0.4061999917 0.6341999769
 1585.7708740 5.0000000000 1.3846000433 13.634598732 12.250000954 90.040946960 0.0308999997 0.4983194470 2.0683000088 4.7458000183 148.27160645 151.97795105 491.31741333 0.6200864911 0.4099000096 0.5978999734
 1585.9232178 5.0000000000 1.4862002134 13.736199379 12.250000954 79.308311462 0.0342999995 0.5226039290 2.0615999699 4.7451000214 148.67559814 152.42143250 490.93145752 0.6032431722 0.3925000131 0.5820000172
 1586.0756836 5.0000000000 1.3262001276 13.576199532 12.250000954 57.484004974 0.0419999994 0.5275039077 2.0643000603 4.8277001381 149.03030396 152.92697144 487.49639893 0.6571375728 0.3943000138 0.6344000101
 1586.2280273 5.0000000000 1.8517001867 14.101699829 12.250000954 32.611022949 0.0472999997 0.5323845744 2.0650000572 4.9064998627 145.84410095 153.38150024 485.56631470 0.7040005326 0.3864000142 0.6811000109
 1586.3804932 5.0000000000 1.7044999599 13.954500198 12.250000954 14.750198364 0.0443999991 0.5130740404 2.0524001122 4.9226999283 148.32209778 153.87464905 487.84341431 0.7046990395 0.4300000072 0.6827999949
 1586.5328369 5.0000000000 1.4278000593 13.677802086 12.250000954 13.368857384 0.0353999995 0.4806997478 2.0327999592 4.8561000824 150.57989502 152.82528687 490.21820068 0.7034811378 0.4216000140 0.6819999814
 1586.6853027 5.0000000000 1.5716999769 13.821701050 12.250000954 19.230871201 0.0291000009 0.4804070294 2.0246000290 4.7277002335 151.54609680 151.33096313 485.92718506 0.6799900532 0.3984999955 0.6596999764
 1586.8376465 5.0000000000 1.2831000090 13.533100128 12.250000954 29.611377716 0.0292000007 0.4848214984 2.0392999649 4.5714001656 148.27810669 151.87583923 482.22369385 0.6737978458 0.3754999936 0.6502000093
 1586.9901123 5.0000000000 1.2632999420 13.513299942 12.250000954 42.504981995 0.0286999997 0.5115673542 2.0576999187 4.4057002068 144.56109619 152.30131531 480.80560303 0.6710875034 0.4128000140 0.6456999779
 1587.1424561 5.0000000000 1.4075000286 13.657499313 12.250000954 50.723461151 0.0212999992 0.4912000895 2.0562996864 4.2673001289 145.03140259 152.25492859 478.50897217 0.6633083224 0.4638999999 0.6335999966
 1587.2949219 5.0000000000 1.5945999622 13.844599724 12.250000954 49.529594421 0.0135000004 0.4913148880 2.0394999981 4.2182002068 145.70930481 151.91975403 473.07400513 0.6737090945 0.4975000024 0.6420999765
 1587.4472656 5.0000000000 1.3752000332 13.625200272 12.250000954 43.018321991 0.0175999999 0.5006151199 2.0348000526 4.2978000641 147.17230225 151.57878113 470.50900269 0.6794136763 0.4302000105 0.6478000283
 1587.5996094 5.0000000000 1.2043999434 13.454400063 12.250000954 38.457607269 0.0302000009 0.5195037127 2.0448999405 4.4966001511 146.24040222 151.31257629 468.14538574 0.6964414716 0.3910000026 0.6631000042
