# LAS format log file from PETREL
# Project units are specified as depth units
#==================================================================
~Version information
VERS.   2.0:
WRAP.   NO:
#==================================================================
~Well
STRT .m      353.26309204 :
STOP .m      2468.2702637 :
STEP .m     0.00000000 :
NULL .        -999.250000 :
COMP.           : COMPANY
WELL.  25/11-1  Balder   : WELL
FLD.            : FIELD
LOC.            : LOCATION
SRVC.           : SERVICE COMPANY
DATE.  2018-09-11 14:48:15   : Log Export Date {yyyy-MM-dd HH:mm:ss}
PROV.           : PROVINCE
UWI.   25/11-1   : UNIQUE WELL ID
API.            : API NUMBER
#==================================================================
~Curve
DEPT .m                   : DEPTH
Lithology_geolink ._      : Lithology_geolink
CALI .in                  : CALI
MUDWEIGHT ._              : MUDWEIGHT
ROP .m/h                  : ROP
DRHO .g/cm3               : DRHO
RHOB .g/cm3               : RHOB
GR .gAPI                  : GR
DTC .us/ft                : DTC
DTE .us/ft                : DTE
RDEP .ohm.m               : RDEP
SP .mV                    : SP
RSHA .ohm.m               : RSHA
RMED .ohm.m               : RMED
~Parameter
#==================================================================
~Ascii
# ...
 1754.7335205 2.0000000000 12.170599937 9.6000003815 4.9057111740 0.0113381408 2.0670020580 23.618770599 131.99189758 131.99229431 7.5282297134 59.664848328 3.4234540462 4.8624830246
 1754.8859863 2.0000000000 12.160010338 9.6000003815 4.9074726105 0.0056044837 2.0614030361 24.279630661 130.92990112 130.92939758 8.0472402573 59.520366669 3.4548819065 4.9844298363
 1755.0383301 2.0000000000 12.166200638 9.6000003815 4.9680476189 0.0047323718 2.0655989647 25.283100128 130.46870422 130.46859741 8.3872137070 59.590278625 2.8634059429 5.1081762314
 1755.1907959 2.0000000000 12.174400330 9.6000003815 4.9694886208 0.0071977586 2.0779919624 26.712799072 130.21299744 130.21290588 8.7413091660 59.685451508 2.9420499802 5.2386159897
 1755.3431396 2.0000000000 12.174698830 9.6000003815 4.9098825455 0.0094647435 2.0899970531 26.947839737 129.34219360 129.34199524 9.2635107040 59.657188416 3.4377610683 5.3804621696
 1755.4954834 2.0000000000 12.174999237 9.6000003815 4.8284139633 0.0114635704 2.0829989910 26.942869186 129.37319946 129.37330627 10.076970100 59.527545929 3.0639569759 5.5281147957
 1755.6479492 2.0000000000 12.175301552 9.6000003815 4.6658930779 0.0127323717 2.0699040890 26.698680878 128.55050659 128.55020142 11.264095306 59.341358185 2.6956110001 5.6680541039
 1755.8002930 2.0000000000 12.175601959 9.6000003815 4.4619464874 0.0144647434 2.0638000965 24.991069794 128.44819641 128.44819641 12.643179893 59.190509796 4.9191589355 5.7828040123
 1755.9527588 2.0000000000 12.187600136 9.6000003815 4.1961660385 0.0149999997 2.0615010262 22.123910904 128.51939392 128.51939392 13.803506851 59.082912445 6.3744630814 5.8519740105
 1756.1051025 2.0000000000 12.184000015 9.6000003815 4.0500316620 0.0098733976 2.0567998886 21.153509140 127.53630066 127.53630066 14.273137093 59.045238495 7.9273719788 5.8593001366
 1756.2575684 2.0000000000 12.200189590 9.6000003815 3.9863414764 0.0058022416 2.0500028133 20.458810806 126.83969879 126.83940887 13.706835747 59.130004883 6.1455020905 5.8021249771
 1756.4099121 2.0000000000 12.228401184 9.6000003815 3.9855492115 0.0028028847 2.0443999767 19.735960007 126.94850159 126.94850159 12.317014694 59.266368866 3.2047660351 5.6828088760
 1756.5623779 2.0000000000 12.253490448 9.6000003815 3.9858849049 0.0027325861 2.0448000431 20.267429352 126.83159637 126.83150482 10.711709023 59.451850891 2.3110859394 5.5035901070
 1756.7147217 2.0000000000 12.300589561 9.6000003815 3.9858925343 0.0037323718 2.0469999313 20.757329941 126.58818817 126.58820343 9.1759262085 59.607162476 2.0357370377 5.2632331848
 1756.8671875 2.0000000000 12.317989349 9.6000003815 4.0464611053 0.0032674139 2.0514969826 20.677850723 126.18379974 126.18360138 7.7055611610 59.851432800 2.3560020924 4.9712629318
 1757.0195313 2.0000000000 12.305300713 9.6000003815 4.4699463844 0.0022676282 2.0579988956 18.998649597 125.77829742 125.77819824 6.2011160851 59.998085022 2.6771299839 4.6295671463
 1757.1719971 2.0000000000 12.299899101 9.6000003815 4.9020409584 0.0012674140 2.0573010445 18.515209198 125.37269592 125.37239838 4.7514209747 60.096843719 3.0375559330 4.2307429314
 1757.3243408 2.0000000000 12.338489532 9.6000003815 4.9322624207 0.0010000000 2.0596990585 19.340480804 124.57859802 124.57840729 3.7002654076 60.212005615 3.1245760918 3.7958099842
 1757.4766846 2.0000000000 12.378199577 9.6000003815 4.9132103920 0.0017317855 2.0708010197 20.179519653 124.11759949 124.11769867 3.0981364250 60.303535461 2.6963009834 3.3723580837
 1757.6291504 2.0000000000 12.387800217 9.6000003815 4.8528037071 0.0020000001 2.0859949589 21.370010376 123.97451019 123.97440338 2.6977472305 60.341182709 1.8796240091 2.9863200188
 1757.7814941 2.0000000000 12.380800247 9.6000003815 4.8513779640 0.0020000001 2.0994000435 21.843830109 121.65380096 121.65390015 2.3522331715 60.399185181 1.7611440420 2.6457879543
 1757.9339600 2.0000000000 12.376500130 9.6000003815 4.8516988754 0.0012674140 2.1073970795 22.742149353 119.00409698 119.00308990 2.0350887775 60.751213074 3.3771350384 2.3591070175
 1758.0863037 2.0000000000 12.394498825 9.6000003815 4.9125447273 0.0010000000 2.1238000393 23.268989563 118.68390656 118.68390656 1.7515270710 61.273773193 3.3617000580 2.1230049133
 1758.2387695 2.0000000000 12.504750252 9.6000003815 4.9140419960 0.0090584466 2.1516869068 24.202880859 118.96560669 118.96579742 1.5280615091 61.338821411 2.6796770096 1.9265849590
 1758.3911133 2.0000000000 12.777480125 9.6000003815 4.9143619537 0.0193237178 2.1787979603 24.215799332 116.51550293 116.51529694 1.3615010977 61.271781921 2.1665399075 1.7586139441
 1758.5435791 2.0000000000 12.948210716 9.6000003815 4.9150109291 0.0146741392 2.1924929619 23.971630096 115.38839722 115.38780975 1.2204707861 61.292572021 1.5736609697 1.6137720346
 1758.6959229 2.0000000000 12.877109528 9.6000003815 5.3367519379 0.0149294874 2.1994988918 25.231809616 113.87239838 113.87220764 1.0979443789 61.327049255 1.9527369738 1.4934170246
 1758.8483887 2.0000000000 12.832030296 9.6000003815 13.439201355 0.0313843079 2.2258849144 27.125200272 114.19120026 114.19139862 1.0073456764 61.411499023 2.1713659763 1.3974540234
 1759.0007324 2.0000000000 12.902190208 9.6000003815 14.475012779 0.0384647436 2.2369980812 29.635370255 121.14791107 121.14939880 0.9422691464 61.476486206 1.6114020348 1.3186160326
 1759.1531982 2.0000000000 12.951069832 9.6000003815 14.535458565 0.0360696577 2.2214102745 33.815208435 121.43608856 121.43630219 0.8870622516 61.514274597 1.3299649954 1.2463450432
 1759.3055420 2.0000000000 13.101260185 9.6000003815 14.537057877 0.0284086540 2.1977059841 35.872138977 121.55819702 121.55819702 0.8419876099 61.525943756 1.0876599550 1.1798180342
 1759.4580078 2.0000000000 13.172349930 9.6000003815 14.537073135 0.0274651721 2.1660220623 37.413311005 124.35330963 124.35530090 0.8113859892 61.671215057 0.9126132727 1.1312340498
 1759.6103516 2.0000000000 12.938879967 9.6000003815 14.537394524 0.0375208333 2.1529049873 38.374679565 126.02459717 126.02510071 0.7893910408 61.911308289 1.1471110582 1.1058080196
 1759.7625732 2.0000000000 12.910300255 9.6000003815 14.557877541 0.0388052873 2.1486034393 36.879405975 129.69905090 129.69905090 0.7690994143 62.039203644 1.1020331383 1.0971070528
 1759.9150391 2.0000000000 13.024149895 9.6000003815 14.598742485 0.0350728594 2.1456034184 37.080360413 129.92712402 129.92721558 0.7488080263 61.972091675 1.0063136816 1.0905082226
 1760.0673828 2.0000000000 13.020999908 9.6000003815 14.519753456 0.0340000018 2.1581900120 38.041797638 125.53921509 125.53910828 0.7285007238 61.740299225 0.8907959461 1.0763123035
 1760.2198486 5.0000000000 12.874070168 9.6000003815 12.204291344 0.0288775023 2.1710836887 40.217647552 119.33636475 119.33356476 0.7084091902 61.560722351 1.0653710365 1.0569089651
 1760.3721924 5.0000000000 12.695219994 9.6000003815 8.2049970627 0.0167580135 2.1741976738 42.880718231 115.27735138 115.27694702 0.6917014718 61.564582825 1.2112680674 1.0364019871
 1760.5246582 5.0000000000 12.558870316 9.6000003815 8.0047569275 0.0130000003 2.1594200134 43.227844238 121.16417694 121.16727448 0.6810055971 61.632171631 1.5154772997 1.0161110163
 1760.6770020 5.0000000000 12.505709648 9.6000003815 8.0628137589 0.0166578516 2.1353232861 43.864887238 126.75582886 126.75672150 0.6741011143 61.727355957 1.3403667212 1.0002030134
 1760.8293457 5.0000000000 12.490910530 9.6000003815 8.0646238327 0.0209239386 2.1171400547 43.984840393 126.07200623 126.07160950 0.6716014743 61.804912567 1.1756548882 0.9929043055
 1760.9818115 5.0000000000 12.524789810 9.6000003815 8.0800018311 0.0146842953 2.1152024269 43.502098083 127.35636902 127.35656738 0.6809979081 61.935333252 0.9195549488 0.9920002222
 1761.1341553 5.0000000000 12.519398689 9.6000003815 8.1258125305 0.0068831067 2.1200890541 43.197288513 124.03702545 124.03492737 0.7041847110 62.115455627 0.8160291910 1.0010939837
 1761.2866211 5.0000000000 12.501110077 9.6000003815 8.1269683838 0.0086578522 2.1282913685 43.013000488 125.72584534 125.72634125 0.7331917286 62.296791077 1.0951839685 1.0171949863
