# LAS format log file from PETREL
# Project units are specified as depth units
#==================================================================
~Version information
VERS.   2.0:
WRAP.   NO:
#==================================================================
~Well
STRT .m      3054.5593262 :
STOP .m      3397.3076172 :
STEP .m     0.00000000 :
NULL .        -999.250000 :
COMP.           : COMPANY
WELL.  25/10-8A  Hanz Appr   : WELL
FLD.            : FIELD
LOC.            : LOCATION
SRVC.           : SERVICE COMPANY
DATE.  2018-09-11 14:48:15   : Log Export Date {yyyy-MM-dd HH:mm:ss}
PROV.           : PROVINCE
UWI.   25/10-8 A   : UNIQUE WELL ID
API.            : API NUMBER
#==================================================================
~Curve
DEPT .m                   : DEPTH
Lithology_geolink ._      : Lithology_geolink
NPHI .m3/m3               : NPHI
RHOB .g/cm3               : RHOB
GR .gAPI                  : GR
RDEP .ohm.m               : RDEP
RSHA .ohm.m               : RSHA
~Parameter
#==================================================================
~Ascii
# ...
 3120.8535156 5.0000000000 0.1714800000 2.3616013527 66.276939392 4.4392523766 5.3276338577
 3121.0058594 5.0000000000 0.1756100059 2.3611035347 71.080162048 4.1329736710 4.4693937302
 3121.1582031 5.0000000000 0.1788900048 2.3637204170 77.501182556 3.9981436729 4.0146183968
 3121.3105469 6.0000000000 0.1811199933 2.3695068359 82.119438171 3.9813101292 3.4993176460
 3121.4631348 6.0000000000 0.1822800040 2.3749091625 84.460533142 4.0905656815 3.1417009830
 3121.6154785 6.0000000000 0.1820400059 2.3768785000 86.640419006 4.0955553055 3.0295279026
 3121.7678223 6.0000000000 0.1805999875 2.3751385212 87.875816345 3.8041191101 3.1586506367
 3121.9201660 6.0000000000 0.1741999984 2.3746311665 88.237106323 3.5272440910 3.1487133503
 3122.0727539 6.0000000000 0.1642799973 2.3816175461 88.254585266 3.3968243599 3.0253839493
 3122.2250977 6.0000000000 0.1449400038 2.4015753269 87.973663330 3.2819457054 2.8975396156
 3122.3774414 6.0000000000 0.1168200001 2.4399271011 87.315132141 3.1814160347 2.7768113613
 3122.5297852 6.0000000000 0.0980099961 2.4838576317 85.629425049 3.0913498402 2.6604316235
 3122.6821289 6.0000000000 0.0881799981 2.5114600658 82.768020630 2.9774243832 2.6391773224
 3122.8347168 6.0000000000 0.0855700001 2.5159633160 78.290168762 2.9123163223 2.6540570259
 3122.9870605 6.0000000000 0.0890799984 2.5008399487 72.960121155 3.0322327614 2.5992696285
 3123.1394043 6.0000000000 0.0960400030 2.4809904099 67.746437073 3.1640038490 2.5893836021
 3123.2917480 6.0000000000 0.1024300009 2.4737808704 63.383190155 3.3395256996 2.6432704926
 3123.4443359 16.000000000 0.1073400006 2.4789071083 60.611415863 3.5687868595 2.6973261833
 3123.5966797 16.000000000 0.1165999994 2.4818611145 59.745719910 3.7807898521 2.8075461388
 3123.7490234 16.000000000 0.1282799989 2.4755790234 60.644447327 4.1178326607 3.0928063393
 3123.9013672 16.000000000 0.1360899955 2.4612417221 62.121673584 4.3418159485 3.7277905941
 3124.0539551 5.0000000000 0.1410299987 2.4346206188 63.350048065 4.2525506020 4.5021185875
 3124.2062988 5.0000000000 0.1472000033 2.4052383900 65.007583618 4.1662611961 5.0891847610
 3124.3586426 5.0000000000 0.1570200026 2.3821959496 66.488357544 4.1974763870 5.5436921120
 3124.5109863 5.0000000000 0.1610499918 2.3672573566 68.012664795 3.9889016151 6.9999976158
 3124.6633301 5.0000000000 0.1612100005 2.3625109196 70.301841736 3.9453980923 6.8160996437
 3124.8159180 5.0000000000 0.1672500074 2.3627722263 73.850837708 3.9302053452 4.7951641083
 3124.9682617 6.0000000000 0.1729899943 2.3636605740 77.170005798 3.7349982262 3.6124916077
 3125.1206055 6.0000000000 0.1737299860 2.3652060032 80.570854187 3.5591390133 3.2844870090
 3125.2729492 6.0000000000 0.1729100049 2.3681209087 83.299682617 3.5006041527 3.0846958160
 3125.4255371 6.0000000000 0.1675099880 2.3734731674 86.070732117 3.5108850002 2.8681051731
 3125.5778809 6.0000000000 0.1561300009 2.3800437450 89.133644104 3.5150775909 2.7101533413
 3125.7302246 6.0000000000 0.1478299946 2.3864269257 90.897537231 3.5441935062 2.6027112007
 3125.8825684 6.0000000000 0.1402300000 2.3881580830 91.730560303 3.5262215137 2.5819616318
 3126.0351563 6.0000000000 0.1341599971 2.3903284073 91.855209351 3.4862136841 2.6148743629
 3126.1875000 6.0000000000 0.1265500039 2.3991434574 91.429878235 3.4180119038 2.8075506687
 3126.3398438 6.0000000000 0.1195699945 2.4051303864 91.072647095 3.3934743404 3.0057110786
 3126.4921875 6.0000000000 0.1082099974 2.4059960842 90.453048706 3.4302325249 3.0812008381
 3126.6445313 6.0000000000 0.0989399999 2.4058685303 89.746162415 3.4260687828 3.1608972549
 3126.7971191 6.0000000000 0.0984300077 2.4047458172 88.210014343 3.4118862152 3.2330038548
 3126.9494629 6.0000000000 0.1009199992 2.4001369476 86.182128906 3.4082632065 3.2940652370
 3127.1018066 6.0000000000 0.1034199968 2.3934249878 84.323455811 3.4181122780 3.3598785400
 3127.2541504 6.0000000000 0.1059000045 2.3889136314 82.027259827 3.6184608936 3.4699001312
 3127.4067383 5.0000000000 0.1083899960 2.3873212337 78.695487976 4.0269823074 3.4714834690
 3127.5590820 5.0000000000 0.1108900011 2.3878383636 73.469131470 4.6258263588 3.7225151062
 3127.7114258 5.0000000000 0.1133800000 2.3891015053 68.876235962 5.0332126617 4.6449823380
 3127.8637695 5.0000000000 0.1158699989 2.3859076500 66.024734497 4.8249840736 5.8141579628
 3128.0163574 5.0000000000 0.1180799976 2.3721055984 61.301422119 4.5748882294 6.5075278282
 3128.1687012 5.0000000000 0.1189999953 2.3606402874 56.396102905 4.5365471840 6.7670087814
 3128.3210449 16.000000000 0.1190999970 2.3586468697 52.879219055 4.5456495285 6.8865594864
 3128.4733887 16.000000000 0.1196300015 2.3612148762 51.740039825 4.5844168663 6.9282813072
 3128.6259766 16.000000000 0.1204399988 2.3696525097 53.649589539 4.7406277657 6.9104871750
 3128.7783203 5.0000000000 0.1233300045 2.3835561275 57.246673584 4.9064521790 6.7583866119
 3128.9306641 5.0000000000 0.1278699934 2.4091420174 60.984603882 4.4356741905 5.9354696274
 3129.0830078 5.0000000000 0.1310200095 2.4460153580 65.417457581 3.9467375278 4.3185014725
 3129.2353516 5.0000000000 0.1320700049 2.4813981056 68.928932190 3.8574626446 3.3787808418
 3129.3879395 5.0000000000 0.1322500110 2.5008435249 72.333427429 3.9331371784 3.0726077557
 3129.5402832 5.0000000000 0.1324999928 2.4955503941 74.213325500 4.1760578156 2.8116915226
 3129.6926270 5.0000000000 0.1354700029 2.4691104889 73.149505615 4.4048247337 2.8334412575
 3129.8449707 5.0000000000 0.1396600008 2.4322774410 71.015998840 4.5889544487 2.9995350838
 3129.9975586 5.0000000000 0.1509300023 2.4030554295 68.358787537 4.6310343742 3.2099936008
 3130.1499023 5.0000000000 0.1586900055 2.3906915188 65.946876526 4.5742220879 3.5874257088
 3130.3022461 5.0000000000 0.1590899974 2.3872272968 65.021545410 4.4074087143 4.2001571655
 3130.4545898 5.0000000000 0.1580000073 2.3881797791 66.805809021 4.2271790504 4.6473884583
 3130.6071777 5.0000000000 0.1530300081 2.3949501514 68.356147766 4.0516824722 5.1776003838
 3130.7595215 5.0000000000 0.1458600014 2.4050564766 69.330871582 3.9695107937 5.7055325508
 3130.9118652 5.0000000000 0.1390600055 2.4178826809 72.441421509 3.9015572071 5.3920431137
 3131.0642090 6.0000000000 0.1360400021 2.4283509254 78.029640198 3.8047513962 4.6788797379
 3131.2165527 6.0000000000 0.1354399920 2.4334201813 84.468093872 3.7735073566 3.9079854488
 3131.3691406 6.0000000000 0.1349800080 2.4317576885 90.730506897 3.8625881672 3.3675353527
 3131.5214844 6.0000000000 0.1350499988 2.4272370338 94.477233887 4.2301054001 3.2181718349
 3131.6738281 6.0000000000 0.1355800033 2.4311079979 94.112640381 4.4326400757 3.9438281059
 3131.8261719 6.0000000000 0.1359599978 2.4488763809 92.239807129 4.3621315956 4.7614388466
 3131.9787598 6.0000000000 0.1199800000 2.4703686237 90.320022583 4.3474459648 4.9914999008
 3132.1311035 6.0000000000 0.1064900011 2.4855952263 88.720306396 4.4098291397 4.9783921242
 3132.2834473 6.0000000000 0.1039099991 2.4817471504 87.104454041 4.4472899437 4.9505310059
 3132.4357910 6.0000000000 0.1040799990 2.4557871819 86.408554077 4.4964518547 5.0168638229
 3132.5883789 6.0000000000 0.1225399971 2.4237778187 86.467758179 4.6281757355 5.1291370392
 3132.7407227 6.0000000000 0.1420000046 2.3959076405 86.076492310 4.7595410347 5.1857347488
 3132.8930664 5.0000000000 0.1567299962 2.3798258305 84.680229187 4.9458942413 5.0754003525
 3133.0454102 5.0000000000 0.1672699898 2.3748350143 81.720260620 5.1528062820 5.0352587700
 3133.1977539 5.0000000000 0.1736499965 2.3749840260 78.608230591 4.9677543640 5.5108785629
 3133.3503418 5.0000000000 0.1766099930 2.3791851997 75.328895569 4.6033277512 6.4523320198
 3133.5026855 5.0000000000 0.1704299897 2.3862621784 74.587669373 4.5524210930 6.2491846085
 3133.6550293 5.0000000000 0.1606399864 2.3960487843 77.173324585 4.6008729935 5.5026254654
 3133.8073730 6.0000000000 0.1540499926 2.4104602337 80.718246460 4.5963048935 4.9574728012
 3133.9599609 6.0000000000 0.1468200088 2.4249701500 85.168304443 4.5953593254 4.4249973297
