# LAS format log file from PETREL
# Project units are specified as depth units
#==================================================================
~Version information
VERS.   2.0:
WRAP.   NO:
#==================================================================
~Well
STRT .m      353.26309204 :
STOP .m      2468.2702637 :
STEP .m     0.00000000 :
NULL .        -999.250000 :
COMP.           : COMPANY
WELL.  25/11-1  Balder   : WELL
FLD.            : FIELD
LOC.            : LOCATION
SRVC.           : SERVICE COMPANY
DATE.  2018-09-11 14:48:15   : Log Export Date {yyyy-MM-dd HH:mm:ss}
PROV.           : PROVINCE
UWI.   25/11-1   : UNIQUE WELL ID
API.            : API NUMBER
#==================================================================
~Curve
DEPT .m                   : DEPTH
Lithology_geolink ._      : Lithology_geolink
CALI .in                  : CALI
MUDWEIGHT ._              : MUDWEIGHT
ROP .m/h                  : ROP
DRHO .g/cm3               : DRHO
RHOB .g/cm3               : RHOB
GR .gAPI                  : GR
DTC .us/ft                : DTC
DTE .us/ft                : DTE
RDEP .ohm.m               : RDEP
SP .mV                    : SP
RSHA .ohm.m               : RSHA
RMED .ohm.m               : RMED
~Parameter
#==================================================================
~Ascii
# ...
 1338.9862061  -999.250000 13.425270081 10.199999809 3.5564363003 0.0484647416 2.0265998840 78.366699219 144.19500732 144.19326782 0.9442870021 56.514286041 0.9758706093 1.2873940468
 1339.1386719  -999.250000 13.376700401 10.199999809 3.5561084747 0.0409415513 2.0271990299 76.738433838 144.65769958 144.65733337 0.9233967066 56.621017456 0.9293972850 1.2780979872
 1339.2910156  -999.250000 13.359399796 10.199999809 3.5557801723 0.0328733958 2.0193951130 76.383712769 144.71730042 144.71771240 0.9057952166 56.582405090 0.9148927927 1.2648919821
 1339.4434814  -999.250000 13.359199524 10.199999809 3.5554521084 0.0229415521 2.0106990337 77.557060242 143.72079468 143.72158813 0.8971996903 56.568618774 0.9019013047 1.2511990070
 1339.5958252  -999.250000 13.362118721 10.199999809 3.5148694515 0.0156057691 2.0011949539 78.367973328 143.74119568 143.74038696 0.8953999281 56.607013702 0.9125205874 1.2394950390
 1339.7482910  -999.250000 13.403510094 10.199999809 2.8036820889 0.0132674146 1.9912998676 79.845970154 145.30059814 145.29925537 0.8952999711 56.620735168 0.9554989934 1.2300989628
 1339.9006348  -999.250000 13.492199898 10.199999809 2.4106719494 0.0203237180 1.9951059818 82.370574951 146.63690186 146.63583374 0.8952007294 56.632026672 0.9386693835 1.2189940214
 1340.0531006  -999.250000 13.488200188 10.199999809 2.2618446350 0.0281281024 2.0095999241 86.324417114 146.61709595 146.61711121 0.8967000246 56.681606293 0.8698002100 1.2056000233
 1340.2054443  -999.250000 13.457599640 10.199999809 2.2347114086 0.0373237170 2.0237040520 86.667167664 146.92640686 146.92636108 0.9035050273 56.736984253 0.7581884861 1.1963000298
 1340.3579102  -999.250000 13.457400322 10.199999809 2.2339298725 0.0421977602 2.0339989662 86.510818481 146.28829956 146.28869629 0.9172989726 56.633274078 0.7274019718 1.1951999664
 1340.5102539  -999.250000 13.471900940 10.199999809 2.2458393574 0.0408028848 2.0396990776 84.989517212 145.64930725 145.64991760 0.9354053736 56.472572327 0.7907091975 1.1991009712
 1340.6625977  -999.250000 13.468850136 10.199999809 2.2457411289 0.0356092900 2.0357959270 81.664772034 145.48880005 145.48886108 0.9532073140 56.489536285 0.8217121959 1.2021030188
 1340.8150635  -999.250000 13.398389816 10.199999809 2.2454128265 0.0318028852 2.0303010941 81.123794556 145.84170532 145.84161377 0.9641001225 56.716228485 0.8401097059 1.2066019773
 1340.9674072  -999.250000 13.374220848 10.199999809 2.2450850010 0.0361266024 2.0332019329 80.584869385 144.89990234 144.90180969 0.9643961191 56.846595764 0.8817219138 1.2153029442
 1341.1198730  -999.250000 13.399600983 10.199999809 2.2573161125 0.0372674130 2.0362989902 80.598915100 144.11639404 144.11712646 0.9579985738 56.855232239 0.9184975028 1.2195990086
 1341.2722168  -999.250000 13.401300430 10.199999809 2.2591559887 0.0318733975 2.0297949314 81.326660156 143.51600647 143.51756287 0.9499958754 56.956836700 0.9044175744 1.2144960165
 1341.4246826  -999.250000 13.408309937 10.199999809 2.2604746819 0.0248718970 2.0206990242 79.558982849 142.39010620 142.39089966 0.9424993992 57.039134979 0.9371984005 1.2072000504
 1341.5770264  -999.250000 13.464440346 10.199999809 2.2621088028 0.0208028834 2.0144979954 77.453086853 143.02589417 143.02499390 0.9371988773 57.186565399 0.9233937263 1.2062029839
 1341.7294922  -999.250000 13.540799141 10.199999809 2.2637493610 0.0207325853 2.0109999180 75.378822327 143.70759583 143.70704651 0.9348000884 57.284019470 0.9104006886 1.2127000093
 1341.8818359  -999.250000 13.634420395 10.199999809 2.2650678158 0.0261266027 2.0143020153 74.671432495 143.57389832 143.57431030 0.9354022145 57.227031708 0.9252541065 1.2196010351
 1342.0343018  -999.250000 13.671400070 10.199999809 2.2667021751 0.0265348293 2.0178000927 75.072082520 142.88749695 142.88804626 0.9406998754 57.113937378 0.8223010898 1.2223000526
 1342.1866455  -999.250000 13.588080406 10.199999809 2.2676985264 0.0223381408 2.0171000957 76.551170349 142.50619507 142.50660706 0.9520037770 56.948390961 0.8106945753 1.2230010033
 1342.3391113  -999.250000 13.517511368 10.199999809 2.2715809345 0.0283258595 2.0160999298 78.058570862 142.10420227 142.10441589 0.9627991915 56.824951172 0.7957010865 1.2244000435
 1342.4914551  -999.250000 13.463479996 10.199999809 2.2793824673 0.0353942327 2.0242021084 77.832839966 143.63459778 143.63328552 0.9633973241 56.761959076 0.7717183828 1.2269999981
 1342.6437988  -999.250000 13.404479980 10.199999809 2.3155670166 0.0348046459 2.0308990479 79.046630859 143.86450195 143.86483765 0.9542915225 56.869537354 0.8368526101 1.2272950411
 1342.7962646  -999.250000 13.379698753 10.199999809 2.4128842354 0.0296057705 2.0299990177 78.565582275 142.77420044 142.77487183 0.9415966868 56.899024963 0.9200034142 1.2200969458
 1342.9486084  -999.250000 13.372489929 10.199999809 2.8619720936 0.0243381411 2.0276000500 76.403381348 143.35960388 143.35876465 0.9275909066 56.694084167 0.9345508218 1.2060920000
 1343.1010742  -999.250000 13.360990524 10.199999809 2.9393289089 0.0237325858 2.0269999504 74.273811340 143.19340515 143.19334412 0.9124974012 56.515342712 0.8560956120 1.1928980350
 1343.2534180  -999.250000 13.321081161 10.199999809 2.9563965797 0.0298589747 2.0289011002 76.714576721 144.22569275 144.22314453 0.8969907165 56.354991913 0.8303006887 1.1822940111
 1343.4058838  -999.250000 13.284598351 10.199999809 2.9563708305 0.0341977589 2.0304999352 78.381896973 145.91920471 145.91773987 0.8797978163 56.296287537 0.8316971064 1.1702990532
 1343.5582275  -999.250000 13.275289536 10.199999809 2.9563648701 0.0306057688 2.0294039249 78.634094238 146.74330139 146.74234009 0.8587906957 56.218971252 0.8044918776 1.1571949720
 1343.7106934  -999.250000 13.258099556 10.199999809 2.9560427666 0.0326629318 2.0380010605 78.407310486 147.29730225 147.29685974 0.8393998146 56.098846436 0.7876995802 1.1466000080
 1343.8630371  -999.250000 13.227799416 10.199999809 2.9557147026 0.0376618616 2.0562050343 76.691535950 147.09019470 147.09066772 0.8348057270 55.917266846 0.7799940705 1.1416009665
 1344.0155029  -999.250000 13.215300560 10.199999809 2.9553866386 0.0375348292 2.0678000450 77.060989380 146.25100708 146.25157166 0.8486996889 55.898571014 0.7660002112 1.1440999508
 1344.1678467  -999.250000 13.215220451 10.199999809 2.9550583363 0.0333381407 2.0689969063 77.725448608 146.55870056 146.55895996 0.8709074855 56.095481873 0.7705084085 1.1535040140
 1344.3203125  -999.250000 13.269601822 10.199999809 2.9550523758 0.0298022423 2.0614008904 81.962753296 145.13259888 145.13354492 0.8926982284 56.123016357 0.7948979735 1.1652990580
 1344.4726563  -999.250000 13.301600456 10.199999809 2.9547305107 0.0238733962 2.0502989292 83.203414917 144.73699951 144.73751831 0.9131057262 56.124446869 0.8482018709 1.1762030125
 1344.6251221  -999.250000 13.284199715 10.199999809 2.9544022083 0.0183370709 2.0462999344 83.269439697 144.24049377 144.24079895 0.9329971075 56.121170044 0.8547989726 1.1852990389
 1344.7774658  -999.250000 13.290209770 10.199999809 2.9543962479 0.0140705137 2.0480990410 79.987144470 143.30929565 143.31004333 0.9525039196 56.122413635 0.8274005055 1.1925020218
 1344.9298096  -999.250000 13.344651222 10.199999809 2.9540743828 0.0100705130 2.0440990925 73.805671692 143.17469788 143.17501831 0.9699077010 56.167362213 0.8295173049 1.2022099495
 1345.0822754  -999.250000 13.421810150 10.199999809 2.9537463188 0.0089999996 2.0430009365 72.222229004 143.04879761 143.04910278 0.9830011725 56.246261597 0.8592020273 1.2189029455
 1345.2346191  -999.250000 13.465551376 10.199999809 2.9534182549 0.0111971153 2.0517060757 72.649459839 141.40789795 141.41181946 0.9903001189 56.354259491 0.8716546297 1.2406100035
 1345.3870850  -999.250000 13.560799599 10.199999809 2.9534120560 0.0098022418 2.0618989468 73.682182312 138.98779297 138.98994446 0.9903991222 56.425457001 0.9809153080 1.2601009607
 1345.5394287  -999.250000 13.586299896 10.199999809 2.9650053978 0.0111971153 2.0576939583 73.721107483 136.36149597 136.36561584 0.9812917113 56.474544525 1.1489590406 1.2694979906
