# LAS format log file from PETREL
# Project units are specified as depth units
#==================================================================
~Version information
VERS.   2.0:
WRAP.   NO:
#==================================================================
~Well
STRT .m      1090.1660156 :
STOP .m      2511.1435547 :
STEP .m     0.00000000 :
NULL .        -999.250000 :
COMP.           : COMPANY
WELL.  25/10-10  Balder Triassic   : WELL
FLD.            : FIELD
LOC.            : LOCATION
SRVC.           : SERVICE COMPANY
DATE.  2018-09-11 14:48:14   : Log Export Date {yyyy-MM-dd HH:mm:ss}
PROV.           : PROVINCE
UWI.   25/10-10   : UNIQUE WELL ID
API.            : API NUMBER
#==================================================================
~Curve
DEPT .m                   : DEPTH
Lithology_geolink ._      : Lithology_geolink
CALI .in                  : CALI
BS .in                    : BS
ROP .m/h                  : ROP
DRHO .g/cm3               : DRHO
THOR .ppm                 : THOR
NPHI .m3/m3               : NPHI
RHOB .g/cm3               : RHOB
PEF .b/e                  : PEF
GR .gAPI                  : GR
URAN .ppm                 : URAN
DTC .us/ft                : DTC
DTS .us/ft                : DTS
RDEP .ohm.m               : RDEP
RSHA .ohm.m               : RSHA
RMED .ohm.m               : RMED
~Parameter
#==================================================================
~Ascii
# ...
 1654.0460205 5.0000000000 12.346299171 12.250000954 154.94720459 0.0060000001  -999.250000 0.4735000134 2.1517000198 4.1881999969 49.017101288  -999.250000 139.11239624  -999.250000 0.4801999927 0.4675999880 0.4587999880
 1654.1984863 5.0000000000 12.344200134 12.250000954 155.31692505 0.0119000003  -999.250000 0.5098000169 2.1747999191 4.1258001328 50.134601593  -999.250000 138.86079407  -999.250000 0.4930999875 0.4772999883 0.4726999998
 1654.3508301 5.0000000000 12.361100197 12.250000954 111.75237274 0.0100999996  -999.250000 0.5044000149 2.1847000122 4.0262999535 51.319099426  -999.250000 138.85040283  -999.250000 0.4959000051 0.4851000011 0.4760999978
 1654.5032959 5.0000000000 12.375300407 12.250000954 118.80781555 0.0076000001  -999.250000 0.5037999749 2.1840000153 3.8645999432 53.710601807  -999.250000 139.17860413  -999.250000 0.4959000051 0.4851000011 0.4760999978
 1654.6556396 5.0000000000 12.325200081 12.250000954 114.76967621 0.0052999998  -999.250000 0.4751000106 2.1812000275 3.8587999344 55.811401367  -999.250000 137.83219910  -999.250000 0.5055000186 0.4900999963 0.4812000096
 1654.8081055 5.0000000000 12.286199570 12.250000954 115.98055267 0.0087000001  -999.250000 0.4456000030 2.1754000187 3.8958001137 54.850399017  -999.250000 138.38420105  -999.250000 0.4979000092 0.4828999937 0.4774000049
 1654.9604492 5.0000000000 12.291600227 12.250000954 117.14911652 0.0108000003  -999.250000 0.4381999969 2.1654000282 3.9974000454 50.134601593  -999.250000 139.25579834  -999.250000 0.4866999984 0.4806999862 0.4693999887
 1655.1127930 5.0000000000 12.294799805 12.250000954 112.85868073 0.0105999997  -999.250000 0.4034000039 2.1554000378 4.0293998718 48.167800903  -999.250000 140.11480713  -999.250000 0.4855000079 0.4745999873 0.4691999853
 1655.2652588 5.0000000000 12.262000084 12.250000954 112.56396484 0.0148000000  -999.250000 0.4005999863 2.1810998917 4.0701999664 50.246299744  -999.250000 138.99830627  -999.250000 0.5077000260 0.4896000028 0.4839999974
 1655.4176025 5.0000000000 12.265399933 12.250000954 113.37437439 0.0085000005  -999.250000 0.3813000023 2.1935999393 4.1206998825 50.179298401  -999.250000 137.46949768  -999.250000 0.5709999800 0.5263000131 0.5293999910
 1655.5700684 5.0000000000 12.271699905 12.250000954 113.84040833 0.0055999998  -999.250000 0.4047000110 2.2098000050 4.3010001183 47.810199738  -999.250000 135.68550110  -999.250000 0.6021000147 0.5680999756 0.5745000243
 1655.7224121 5.0000000000 12.281000137 12.250000954 119.86052704 -0.001400000  -999.250000 0.4304000139 2.1981000900 4.2027001381 46.770999908  -999.250000 135.47810364  -999.250000 0.5303999782 0.5184000134 0.5120999813
 1655.8748779 5.0000000000 12.288599968 12.250000954 196.37823486 -0.003000000  -999.250000 0.4591000080 2.1861999035 4.0669999123 47.519699097  -999.250000 134.61270142  -999.250000 0.5205000043 0.4988999963 0.4968000054
 1656.0272217 5.0000000000 12.302901268 12.250000954 201.65620422 -0.003800000  -999.250000 0.4386000037 2.1786000729 3.7288000584 49.251800537  -999.250000 136.06489563  -999.250000 0.5120000243 0.4964999855 0.4907000065
 1656.1796875 5.0000000000 12.313899994 12.250000954 231.58515930 0.0013000000  -999.250000 0.4426999986 2.1789000034 3.7583999634 54.023498535  -999.250000 138.84030151  -999.250000 0.5059000254 0.4819000065 0.4830999970
 1656.3320313 5.0000000000 12.338000298 12.250000954 222.80126953 0.0077999998  -999.250000 0.4535999894 2.1842000484 3.8422999382 58.314601898  -999.250000 140.54249573  -999.250000 0.5026000142 0.4826999903 0.4796999991
 1656.4844971 5.0000000000 12.353699684 12.250000954 206.54093933 0.0074999998  -999.250000 0.4860000014 2.1689999104 3.9948999882 55.386798859  -999.250000 134.96749878  -999.250000 0.4797999859 0.4747999907 0.4751000106
 1656.6368408 5.0000000000 12.287099838 12.250000954 206.92776489 0.0052999998  -999.250000 0.4747999907 2.2070999146 4.1943001747 50.179298401  -999.250000 132.55859375  -999.250000 0.4797999859 0.4747999907 0.4751000106
 1656.7893066 5.0000000000 12.456000328 12.250000954 233.45005798 -0.008500000  -999.250000 0.4652000070 2.2212998867 4.7788000107 47.519699097  -999.250000 130.98809814  -999.250000 0.5562000275 0.5278000236 0.5274999738
 1656.9416504 5.0000000000 12.588100433 12.250000954 248.56234741 -0.011700000  -999.250000 0.4456000030 2.2262001038 4.8282999992 45.463500977  -999.250000 127.75160217  -999.250000 0.5562000275 0.5278000236 0.5274999738
 1657.0941162 5.0000000000 12.300900459 12.250000954 271.84432983 -0.003500000  -999.250000 0.4693999887 2.1958000660 4.9986000061 46.581001282  -999.250000 131.36189270  -999.250000 0.5734000206 0.5537999868 0.5494999886
 1657.2464600 5.0000000000 12.311300278 12.250000954 259.23056030 0.0159000009  -999.250000 0.4823000133 2.1884999275 4.7139000893 49.531200409  -999.250000 132.12959290  -999.250000 0.5734000206 0.5537999868 0.5494999886
 1657.3988037 5.0000000000 12.332900047 12.250000954 211.65159607 0.0324999988  -999.250000 0.4896000028 2.2074999809 4.9899997711 48.994800568  -999.250000 130.50309753  -999.250000 0.5716999769 0.5570999980 0.5511000156
 1657.5512695 5.0000000000 12.331399918 12.250000954 183.79875183 0.0259000007  -999.250000 0.4625999928 2.2316999435 4.5725998878 47.653800964  -999.250000 131.81109619  -999.250000 0.5716999769 0.5570999980 0.5511000156
 1657.7036133 5.0000000000 12.329000473 12.250000954 166.04652405 0.0080000004  -999.250000 0.4559000134 2.2471001148 4.8741002083 46.983299255  -999.250000 132.13639832  -999.250000 0.5674999952 0.5515000224 0.5515000224
 1657.8560791 5.0000000000 12.326000214 12.250000954 163.50744629 -0.007100000  -999.250000 0.4332000017 2.2671999931 5.2132000923 46.379798889  -999.250000 134.16160583  -999.250000 0.5680999756 0.5619999766 0.5557000041
 1658.0084229 5.0000000000 12.334700584 12.250000954 165.00436401 -0.007100000  -999.250000 0.4264000058 2.2276999950 5.5204000473 47.184398651  -999.250000 136.80569458  -999.250000 0.5354999900 0.5345000029 0.5149000287
 1658.1608887 5.0000000000 12.345801353 12.250000954 161.83891296 0.0093999999  -999.250000 0.4523000121 2.2081000805 5.0336999893 48.011398315  -999.250000 139.37179565  -999.250000 0.5198000073 0.5152000189 0.5004000068
 1658.3132324 5.0000000000 12.360600471 12.250000954 145.07997131 0.0229000002  -999.250000 0.4918000102 2.1921000481 4.6020002365 48.190200806  -999.250000 140.76840210  -999.250000 0.5198000073 0.5152000189 0.5004000068
 1658.4656982 5.0000000000 12.356200218 12.250000954 145.77944946 0.0219000001  -999.250000 0.5166000128 2.1930000782 4.5473999977 48.346599579  -999.250000 142.28630066  -999.250000 0.5076000094 0.4995000064 0.4857000113
 1658.6180420 5.0000000000 12.346699715 12.250000954 130.39212036 0.0103000002  -999.250000 0.4697999954 2.1777999401 4.2708997726 49.531200409  -999.250000 141.42880249  -999.250000 0.5076000094 0.4995000064 0.4857000113
 1658.7705078 5.0000000000 12.347100258 12.250000954 133.32588196 0.0001000000  -999.250000 0.4970000088 2.1609001160 3.8970999718 51.028598785  -999.250000 140.74099731  -999.250000 0.4932000041 0.4801000059 0.4711999893
 1658.9228516 5.0000000000 12.347900391 12.250000954 136.24317932 -0.007200000  -999.250000 0.5494999886 2.1528000832 3.6967999935 50.514499664  -999.250000 141.99240112  -999.250000 0.4846000075 0.4668999910 0.4611000121
 1659.0753174 5.0000000000 12.348501205 12.250000954 133.87257385 -0.007500000  -999.250000 0.5651000142 2.1584999561 3.7360999584 47.318500519  -999.250000 143.25529480  -999.250000 0.4833999872 0.4702000022 0.4595000148
 1659.2276611 5.0000000000 12.328000069 12.250000954 133.80131531 0.0006000000  -999.250000 0.5205000043 2.1591999531 3.9419000149 43.228500366  -999.250000 143.47369385  -999.250000 0.4810999930 0.4708999991 0.4578000009
 1659.3800049 5.0000000000 12.311300278 12.250000954 147.47009277 0.0026000000  -999.250000 0.4801000059 2.1556999683 3.8793001175 42.759201050  -999.250000 143.87570190  -999.250000 0.4783999920 0.4643999934 0.4605999887
 1659.5324707 5.0000000000 12.299200058 12.250000954 148.23805237 -0.004100000  -999.250000 0.5004000068 2.1508998871 3.6823000908 47.497299194  -999.250000 144.71609497  -999.250000 0.4869000018 0.4738999903 0.4607000053
