# LAS format log file from PETREL
# Project units are specified as depth units
#==================================================================
~Version information
VERS.   2.0:
WRAP.   NO:
#==================================================================
~Well
STRT .m      383.59057617 :
STOP .m      2173.8320313 :
STEP .m     0.00000000 :
NULL .        -999.250000 :
COMP.           : COMPANY
WELL.  25/11-5 Balder Appr   : WELL
FLD.            : FIELD
LOC.            : LOCATION
SRVC.           : SERVICE COMPANY
DATE.  2018-09-11 14:48:16   : Log Export Date {yyyy-MM-dd HH:mm:ss}
PROV.           : PROVINCE
UWI.   25/11-5   : UNIQUE WELL ID
API.            : API NUMBER
#==================================================================
~Curve
DEPT .m                   : DEPTH
Lithology_geolink ._      : Lithology_geolink
DCAL .in                  : DCAL
CALI .in                  : CALI
BS .in                    : BS
MUDWEIGHT ._              : MUDWEIGHT
DRHO .g/cm3               : DRHO
NPHI .m3/m3               : NPHI
RHOB .g/cm3               : RHOB
GR .gAPI                  : GR
DTC .us/ft                : DTC
RDEP .ohm.m               : RDEP
SP .mV                    : SP
RMED .ohm.m               : RMED
~Parameter
#==================================================================
~Ascii
# ...
 2046.5782471 3.0000000000 0.1169995964 8.6169996262 8.5000000000 10.500000000 0.0069991997 0.3070999980 2.1669802666 28.503000259 91.618598938 0.2739935815 29.583999634 0.4040088356
 2046.7305908 3.0000000000 0.1049994975 8.6049995422 8.5000000000 10.500000000 0.0079991994 0.3055500090 2.1660096645 31.188999176 91.132690430 0.2929847836 29.704000473 0.4139919877
 2046.8829346 3.0000000000 0.0909996033 8.5909996033 8.5000000000 10.500000000 0.0099967970 0.3009800017 2.1749067307 35.675998688 90.553833008 0.3149647713 30.021999359 0.4569311440
 2047.0354004 3.0000000000 0.0690002367 8.5690002441 8.5000000000 10.500000000 0.0109991990 0.2938899994 2.1928277016 40.931999207 90.324783325 0.3409791589 30.468999863 0.5549215078
 2047.1877441 3.0000000000 0.0340004005 8.5340003967 8.5000000000 10.500000000 0.0109999999 0.2856799960 2.2167506218 48.744998932 89.766998291 0.3799375594 30.966999054 0.7207341790
 2047.3402100 3.0000000000 0.0369996987 8.5369997025 8.5000000000 10.500000000 0.0090016024 0.2767499983 2.2437412739 57.070999146 87.949653625 0.4319583476 31.405002594 0.8608878255
 2047.4925537 5.0000000000 0.0559997633 8.5559997559 8.5000000000 10.500000000 0.0040080068 0.2685500085 2.2707197666 57.888999939 86.073303223 0.4879103303 31.566001892 0.8480207920
 2047.6450195 5.0000000000 0.0740003586 8.5740003586 8.5000000000 10.500000000 0.0010024039 0.2674599886 2.2937796116 51.299999237 84.673820496 0.5469527245 31.429000854 0.7580721378
 2047.7973633 5.0000000000 0.0909996033 8.5909996033 8.5000000000 10.500000000 -0.001997596 0.2789700031 2.3048942089 42.691001892 83.378028870 0.6019559503 31.118999481 0.7330200076
 2047.9498291 5.0000000000 0.1090001985 8.6090002060 8.5000000000 10.500000000 -0.005996798 0.2916899920 2.2931144238 37.286998749 81.250808716 0.6339743733 30.784000397 0.7429919839
 2048.1022949 5.0000000000 0.1140002906 8.6140003204 8.5000000000 10.500000000 -0.009000000 0.2998499870 2.2781319618 34.178001404 83.063598633 0.6169999838 30.423999786 0.6990000010
 2048.2546387 3.0000000000 0.0979995728 8.5979995728 8.5000000000 10.500000000 -0.006000000 0.3043099940 2.2651140690 32.097999573 86.953697205 0.5529999733 29.950000763 0.6069999933
 2048.4069824 3.0000000000 0.0590000190 8.5590000153 8.5000000000 10.500000000 -0.002006400 0.3072099984 2.2363011837 31.198999405 90.978752136 0.4801167846 29.579999924 0.5201391578
 2048.5593262 3.0000000000 -0.001000404 8.4989995956 8.5000000000 10.500000000 -0.000003205 0.3067600131 2.2023534775 30.736999512 93.620475769 0.4240897298 29.458000183 0.4760705233
 2048.7116699 3.0000000000 -0.038000111 8.4619998932 8.5000000000 10.500000000 0.0009983975 0.3028500080 2.1742911339 30.041999817 93.953872681 0.3860608935 29.427000046 0.4779967666
 2048.8642578 3.0000000000 -0.065999977 8.4340000153 8.5000000000 10.500000000 0.0030000000 0.2993899882 2.1660699844 29.128000259 93.268608093 0.3540000021 29.496000290 0.4939999878
 2049.0166016 3.0000000000 -0.083999619 8.4160003662 8.5000000000 10.500000000 0.0039984002 0.2982000113 2.1729280949 27.965999603 91.799758911 0.3250463903 29.690000534 0.5009887815
 2049.1689453 3.0000000000 -0.097999573 8.4020004272 8.5000000000 10.500000000 0.0069951927 0.2990399897 2.1789374352 28.104999542 89.647850037 0.3050320446 29.938999176 0.5099855661
 2049.3212891 3.0000000000 -0.111000106 8.3889999390 8.5000000000 10.500000000 0.0109935896 0.2996900082 2.1839478016 30.672000885 88.047958374 0.2960144281 30.158000946 0.5119968057
 2049.4738770 3.0000000000 -0.123000100 8.3769998550 8.5000000000 10.500000000 0.0149999997 0.2983900011 2.1889560223 33.833999634 88.087898254 0.2949999869 30.110000610 0.4970000088
 2049.6262207 3.0000000000 -0.133000404 8.3669996262 8.5000000000 10.500000000 0.0170000009 0.2958999872 2.1939558983 36.208999634 89.055496216 0.3009999990 30.020000458 0.4860000014
 2049.7785645 3.0000000000 -0.145999894 8.3540000916 8.5000000000 10.500000000 0.0160016008 0.2926799953 2.2009267807 36.324001312 90.136665344 0.3099856079 30.163999557 0.4949856102
 2049.9309082 3.0000000000 -0.116000198 8.3839998245 8.5000000000 10.500000000 0.0150016025 0.2910400033 2.2099065781 35.772998810 90.907463074 0.3209823668 30.290000916 0.5099759698
 2050.0834961 3.0000000000 -0.041000370 8.4589996338 8.5000000000 10.500000000 0.0140000004 0.2929700017 2.2189209461 35.168998718 90.943496704 0.3300000131 30.384000778 0.5189999938
 2050.2358398 3.0000000000 0.0069999690 8.5069999695 8.5000000000 10.500000000 0.0179999992 0.2932899892 2.2239561081 34.194000244 89.881797791 0.3350000083 30.475999832 0.5350000262
 2050.3881836 3.0000000000 0.0329999886 8.5329999924 8.5000000000 10.500000000 0.0130080003 0.2898899913 2.2170729637 34.264999390 87.534660339 0.3379952013 30.469999313 0.5489776134
 2050.5405273 3.0000000000 0.0550003089 8.5550003052 8.5000000000 10.500000000 0.0070096157 0.2889600098 2.2061145306 35.952999115 86.729988098 0.3370016217 30.388999939 0.5290320516
 2050.6931152 3.0000000000 0.0769996569 8.5769996643 8.5000000000 10.500000000 0.0049999999 0.2929500043 2.1941049099 37.081001282 88.398696899 0.3300000131 30.308000565 0.4709999859
 2050.8454590 3.0000000000 0.0889997482 8.5889997482 8.5000000000 10.500000000 0.0049999999 0.3014599979 2.1781411171 36.471000671 91.014999390 0.3210000098 30.225999832 0.4230000079
 2050.9978027 3.0000000000 0.0970001221 8.5970001221 8.5000000000 10.500000000 0.0059984000 0.3123399913 2.1552386284 34.713001251 93.071212769 0.3080208004 30.079000473 0.4309872091
 2051.1501465 3.0000000000 0.1049994975 8.6049995422 8.5000000000 10.500000000 0.0079967957 0.3235000074 2.1401560307 32.786998749 93.627319336 0.2930240631 29.888999939 0.4829166830
 2051.3024902 3.0000000000 0.1129999012 8.6129999161 8.5000000000 10.500000000 0.0089983968 0.3310500085 2.1400003433 31.315999985 92.858840942 0.2770256400 29.761999130 0.5159471035
 2051.4548340 3.0000000000 0.1210003048 8.6210002899 8.5000000000 10.500000000 0.0099983970 0.3293826878 2.1469278336 31.275064468 91.808479309 0.2630224526 29.814916611 0.5070144534
 2051.6071777 3.0000000000 0.1239996180 8.6239995956 8.5000000000 10.500000000 0.0109967999 0.3186771572 2.1529276371 32.153587341 91.568664551 0.2540287971 30.079574585 0.4731087983
 2051.7597656 3.0000000000 0.1239996180 8.6239995956 8.5000000000 10.500000000 0.0119983973 0.3088400066 2.1559681892 34.144001007 91.784843445 0.2520032227 30.347999573 0.4350608885
 2051.9121094 3.0000000000 0.1239996180 8.6239995956 8.5000000000 10.500000000 0.0110016027 0.3046199977 2.1470932961 37.101001740 92.043785095 0.2549951971 30.629999161 0.4210224450
 2052.0644531 5.0000000000 0.1219997033 8.6219997406 8.5000000000 10.500000000 0.0060080127 0.3036715090 2.1331453323 43.048465729 92.538909912 0.2659823596 31.210071564 0.4439631402
 2052.2167969 5.0000000000 0.1099997088 8.6099996567 8.5000000000 10.500000000 0.0030048077 0.3035402000 2.1270627975 49.844108582 92.994270325 0.2899615169 32.073616028 0.4869310856
 2052.3691406 5.0000000000 0.3579998016 8.8579998016 8.5000000000 10.500000000 0.0030000000 0.3039293885 2.1339170933 59.698200226 93.416549683 0.3288751841 33.330986023 0.5697343946
 2052.5217285 6.0000000000 0.7370004058 9.2370004654 8.5000000000 10.500000000 0.0089903846 0.3048099875 2.1518135071 68.828002930 93.853897095 0.3869070411 35.627998352 0.7517083287
 2052.6740723 6.0000000000 0.9309999347 9.4309997559 8.5000000000 10.500000000 0.0169871803 0.3092429042 2.1747612953 74.762489319 94.058174133 0.4898349345 38.849834442 0.9996025562
 2052.8264160 6.0000000000 0.7279996872 9.2279996872 8.5000000000 10.500000000 0.0239887815 0.3231676519 2.1987278461 78.201492310 94.245605469 0.6227868795 42.149711609 1.2495993376
 2052.9787598 6.0000000000 0.3760004044 8.8760004044 8.5000000000 10.500000000 0.0439359993 0.3438368738 2.2335464954 75.818832397 94.043655396 0.7565712333 44.588092804 1.4982031584
 2053.1313477 6.0000000000 0.1840000004 8.6840000153 8.5000000000 10.500000000 0.0689599365 0.3620199859 2.2834322453 72.053001404 89.333557129 0.9237323999 45.719001770 1.7346217632
