# LAS format log file from PETREL
# Project units are specified as depth units
#==================================================================
~Version information
VERS.   2.0:
WRAP.   NO:
#==================================================================
~Well
STRT .m      460.12496948 :
STOP .m      2548.7502441 :
STEP .m     0.00000000 :
NULL .        -999.250000 :
COMP.           : COMPANY
WELL.  25/10-4R  Balder Appr   : WELL
FLD.            : FIELD
LOC.            : LOCATION
SRVC.           : SERVICE COMPANY
DATE.  2018-09-11 14:48:14   : Log Export Date {yyyy-MM-dd HH:mm:ss}
PROV.           : PROVINCE
UWI.   25/10-4 R   : UNIQUE WELL ID
API.            : API NUMBER
#==================================================================
~Curve
DEPT .m                   : DEPTH
Lithology_geolink ._      : Lithology_geolink
CALI .in                  : CALI
MUDWEIGHT ._              : MUDWEIGHT
ROP .m/h                  : ROP
DRHO .g/cm3               : DRHO
NPHI .m3/m3               : NPHI
RHOB .g/cm3               : RHOB
GR .gAPI                  : GR
DTC .us/ft                : DTC
RDEP .ohm.m               : RDEP
SP .mV                    : SP
RSHA .ohm.m               : RSHA
RMED .ohm.m               : RMED
~Parameter
#==================================================================
~Ascii
# ...
 1851.6250000 2.0000000000 8.1700000763 1.1000000238 3.3332514763 0.0900000036 0.2560800016 2.2079999447 21.590000153 99.158996582 0.4199999869 25.378000259 1.8090000153 1.2050000429
 1851.7500000 2.0000000000 8.1750001907 1.1000000238 3.3326776028 0.0890000015 0.2569400072 2.2070000172 22.764999390 99.087997437 0.4289999902 25.179000854 1.8389999866 1.2159999609
 1851.8750000 2.0000000000 8.1770000458 1.1000000238 3.3321030140 0.0890000015 0.2572299838 2.2060000896 24.514999390 99.007995605 0.4410000145 25.819999695 1.8719999790 1.2269999981
 1852.0000000 2.0000000000 8.1759996414 1.1000000238 3.3316926956 0.0879999995 0.2545799911 2.2049999237 26.246000290 98.822998047 0.4539999962 26.896999359 1.9119999409 1.2400000095
 1852.1251221 2.0000000000 8.1730003357 1.1000000238 3.3312828541 0.0850000009 0.2495999932 2.2039999962 27.591999054 98.427001953 0.4679999948 28.215000153 1.9529999495 1.2539999485
 1852.2498779 2.0000000000 8.1700000763 1.1000000238 3.3308730125 0.0829999968 0.2440399975 2.2039999962 28.194000244 97.747001648 0.4810000062 29.566999435 2.0050001144 1.2690000534
 1852.3750000 2.0000000000 8.1669998169 1.1000000238 3.3304624557 0.0820000023 0.2395199984 2.2039999962 27.702999115 96.620002747 0.4930000007 30.684999466 2.1050000191 1.2860000134
 1852.5000000 2.0000000000 8.1639995575 1.1000000238 3.3300523758 0.0839999989 0.2369300127 2.2079999447 26.038999557 95.216003418 0.5000000000 30.540000916 2.2139999866 1.3020000458
 1852.6250000 2.0000000000 8.1590003967 1.1000000238 3.3296422958 0.0860000029 0.2383600026 2.2139999866 24.934999466 93.863998413 0.5009999871 29.566999435 2.2639999390 1.3150000572
 1852.7500000 2.0000000000 8.1490001678 1.1000000238 3.3290681839 0.0890000015 0.2431199998 2.2239999771 24.443000793 92.837997437 0.4979999959 27.990999222 2.2060000896 1.3220000267
 1852.8750000 2.0000000000 8.1339998245 1.1000000238 3.3284943104 0.0930000022 0.2502599955 2.2360000610 24.565999985 92.291000366 0.4909999967 26.069999695 2.0799999237 1.3220000267
 1853.0000000 2.0000000000 8.1169996262 1.1000000238 3.3280839920 0.0970000029 0.2585700154 2.2520000935 25.025999069 92.500000000 0.4819999933 24.246999741 1.9240000248 1.3129999638
 1853.1250000 2.0000000000 8.1020002365 1.1000000238 3.3276741505 0.1010000035 0.2663300037 2.2650001049 24.986999512 93.357002258 0.4699999988 23.471000671 1.7779999971 1.2940000296
 1853.2501221 2.0000000000 8.0920000076 1.1000000238 3.3272635937 0.1030000001 0.2697699964 2.2690000534 24.420999527 94.536003113 0.4569999874 23.861999512 1.6929999590 1.2740000486
 1853.3748779 2.0000000000 8.0830001831 1.1000000238 3.3268539906 0.1030000001 0.2651499808 2.2639999390 23.697999954 95.708999634 0.4440000057 25.007999420 1.6390000582 1.2560000420
 1853.5000000 2.0000000000 8.0719995499 1.1000000238 3.3264436722 0.0979999974 0.2564300001 2.2500000000 23.040000916 96.769996643 0.4320000112 26.674999237 1.6030000448 1.2419999838
 1853.6250000 2.0000000000 8.0590000153 1.1000000238 3.3259513378 0.0900000036 0.2488799989 2.2320001125 22.729999542 97.660003662 0.4230000079 28.349000931 1.5909999609 1.2309999466
 1853.7500000 2.0000000000 8.0450000763 1.1000000238 3.3252949715 0.0839999989 0.2460300028 2.2219998837 23.010999680 98.320999146 0.4149999917 29.334999084 1.6000000238 1.2230000496
 1853.8750000 2.0000000000 8.0310001373 1.1000000238 3.3248851299 0.0799999982 0.2481600046 2.2179999352 23.599000931 98.843002319 0.4110000134 28.701999664 1.5970000029 1.2159999609
 1854.0000000 2.0000000000 8.0179996490 1.1000000238 3.3244748116 0.0790000036 0.2533099949 2.2200000286 24.055999756 99.272003174 0.4070000052 27.136999130 1.5779999495 1.2100000381
 1854.1250000 2.0000000000 8.0069999695 1.1000000238 3.3240652084 0.0799999982 0.2591100037 2.2239999771 24.231000900 99.593002319 0.4059999883 24.945999146 1.5460000038 1.2039999962
 1854.2500000 2.0000000000 8.0050001144 1.1000000238 3.3236551285 0.0829999968 0.2640300095 2.2279999256 23.943000793 99.833999634 0.4050000012 22.700000763 1.5119999647 1.1979999542
 1854.3750000 2.0000000000 8.0089998245 1.1000000238 3.3232448101 0.0829999968 0.2668600082 2.2279999256 23.264999390 100.00900269 0.4050000012 21.070999146 1.4839999676 1.1929999590
 1854.4998779 2.0000000000 8.0159997940 1.1000000238 3.3228352070 0.0810000002 0.2668899894 2.2249999046 22.662000656 100.14499664 0.4050000012 20.813999176 1.4830000401 1.1900000572
 1854.6250000 2.0000000000 8.0220003128 1.1000000238 3.3220963478 0.0759999976 0.2647300065 2.2190001011 22.097000122 100.24900055 0.4050000012 21.631999969 1.4769999981 1.1879999638
 1854.7500000 2.0000000000 8.0270004272 1.1000000238 3.3216862679 0.0689999983 0.2615900040 2.2100000381 21.625000000 100.32800293 0.4050000012 23.010999680 1.4739999771 1.1859999895
 1854.8750000 2.0000000000 8.0319995880 1.1000000238 3.3212764263 0.0630000010 0.2580699921 2.2000000477 21.370000839 100.40200043 0.4050000012 24.406999588 1.4739999771 1.1840000153
 1855.0000000 2.0000000000 8.0450000763 1.1000000238 3.3208661079 0.0599999987 0.2547399998 2.1919999123 21.660999298 100.52400208 0.4059999883 24.961000443 1.4680000544 1.1809999943
 1855.1250000 2.0000000000 8.0710000992 1.1000000238 3.3204560280 0.0590000004 0.2520099878 2.1879999638 22.767999649 100.74198914 0.4059999883 23.992000580 1.4600000381 1.1770000458
 1855.2500000 2.0000000000 8.1070003510 1.1000000238 3.3200459480 0.0610000007 0.2499900013 2.1879999638 24.202999115 101.22399902 0.4070000052 22.104999542 1.4459999800 1.1759999990
 1855.3750000 2.0000000000 8.1389999390 1.1000000238 3.3196361065 0.0640000030 0.2484100014 2.1909999847 25.481000900 101.80400085 0.4070000052 20.097999573 1.4309999943 1.1759999990
 1855.5000000 2.0000000000 8.1660003662 1.1000000238 3.3192257881 0.0680000037 0.2474900037 2.1960000992 26.190000534 102.39800262 0.4070000052 18.648000717 1.4220000505 1.1779999733
 1855.6251221 2.0000000000 8.1850004196 1.1000000238 3.3197183609 0.0710000023 0.2473399937 2.2009999752 26.207000732 102.66000366 0.4070000052 18.573999405 1.4199999571 1.1799999475
 1855.7498779 2.0000000000 8.1990003586 1.1000000238 3.3203737736 0.0740000010 0.2475000024 2.2060000896 25.781000137 102.47799683 0.4059999883 19.948999405 1.4199999571 1.1809999943
 1855.8750000 2.0000000000 8.2100000381 1.1000000238 3.3207843304 0.0759999976 0.2471199930 2.2090001106 25.440000534 102.09200287 0.4050000012 21.938999176 1.4199999571 1.1809999943
 1856.0000000 2.0000000000 8.2150001526 1.1000000238 3.3215224743 0.0780000016 0.2451300025 2.2090001106 25.271999359 101.70700073 0.4050000012 23.877000809 1.4149999619 1.1790000200
 1856.1250000 2.0000000000 8.2159996033 1.1000000238 3.3219325542 0.0799999982 0.2418700010 2.2090001106 25.283000946 101.51998901 0.4040000141 25.172000885 1.4079999924 1.1770000458
 1856.2500000 2.0000000000 8.2159996033 1.1000000238 3.3225064278 0.0820000023 0.2388100028 2.2090001106 25.427999496 101.55999756 0.4040000141 25.007999420 1.4119999409 1.1749999523
 1856.3750000 2.0000000000 8.2209997177 1.1000000238 3.3230805397 0.0839999989 0.2375999987 2.2100000381 25.618000031 101.73200226 0.4029999971 23.628000259 1.4259999990 1.1729999781
 1856.5000000 2.0000000000 8.2329998016 1.1000000238 3.3238189220 0.0850000009 0.2395400107 2.2130000591 25.764999390 101.89900208 0.4029999971 21.884000778 1.4450000525 1.1729999781
 1856.6250000 2.0000000000 8.2530002594 1.1000000238 3.3242287636 0.0860000029 0.2452699989 2.2160000801 25.818000793 102.05000305 0.4020000100 20.454999924 1.4639999866 1.1720000505
 1856.7501221 2.0000000000 8.2799997330 1.1000000238 3.3248033524 0.0860000029 0.2532399893 2.2170000076 25.715000153 102.14700317 0.4009999931 19.833999634 1.4709999561 1.1710000038
 1856.8748779 2.0000000000 8.3109998703 1.1000000238 3.3253769875 0.0860000029 0.2611199915 2.2160000801 25.273000717 102.20400238 0.4009999931 20.225999832 1.4780000448 1.1699999571
 1857.0000000 2.0000000000 8.3360004425 1.1000000238 3.3257875443 0.0869999975 0.2671500146 2.2149999142 24.534999847 102.22899628 0.4000000060 21.222000122 1.4839999676 1.1690000296
