# LAS format log file from PETREL
# Project units are specified as depth units
#==================================================================
~Version information
VERS.   2.0:
WRAP.   NO:
#==================================================================
~Well
STRT .m      1090.1660156 :
STOP .m      2511.1435547 :
STEP .m     0.00000000 :
NULL .        -999.250000 :
COMP.           : COMPANY
WELL.  25/10-10  Balder Triassic   : WELL
FLD.            : FIELD
LOC.            : LOCATION
SRVC.           : SERVICE COMPANY
DATE.  2018-09-11 14:48:14   : Log Export Date {yyyy-MM-dd HH:mm:ss}
PROV.           : PROVINCE
UWI.   25/10-10   : UNIQUE WELL ID
API.            : API NUMBER
#==================================================================
~Curve
DEPT .m                   : DEPTH
Lithology_geolink ._      : Lithology_geolink
CALI .in                  : CALI
BS .in                    : BS
ROP .m/h                  : ROP
DRHO .g/cm3               : DRHO
THOR .ppm                 : THOR
NPHI .m3/m3               : NPHI
RHOB .g/cm3               : RHOB
PEF .b/e                  : PEF
GR .gAPI                  : GR
URAN .ppm                 : URAN
DTC .us/ft                : DTC
DTS .us/ft                : DTS
RDEP .ohm.m               : RDEP
RSHA .ohm.m               : RSHA
RMED .ohm.m               : RMED
~Parameter
#==================================================================
~Ascii
# ...
 1935.9859619 5.0000000000 12.519801140 12.250000954 71.901252747 0.0608999990  -999.250000 0.3270982504 2.3032000065 6.4605998993 60.657600403  -999.250000 124.13870239  -999.250000 0.7128000259 0.7008000016 0.6872000098
 1936.1384277 5.0000000000 12.524900436 12.250000954 74.938323975 0.0603000000  -999.250000 0.3464844525 2.3073000908 6.1971998215 65.358497620  -999.250000 122.17150116  -999.250000 0.7027999759 0.6980000138 0.6786000133
 1936.2907715 5.0000000000 12.595899582 12.250000954 72.806434631 0.0439999998  -999.250000 0.3843393326 2.2915999889 6.1275000572 67.798301697  -999.250000 123.01550293  -999.250000 0.6829000115 0.6801999807 0.6739000082
 1936.4432373 5.0000000000 12.515399933 12.250000954 65.160438538 0.0331999995  -999.250000 0.3860986233 2.2918999195 6.0314002037 67.299201965  -999.250000 124.11070251  -999.250000 0.7677999735 0.7269999981 0.7372000217
 1936.5955811 5.0000000000 12.503298759 12.250000954 66.515419006 0.0351000018  -999.250000 0.3756168187 2.2901000977 6.0947999954 65.846496582  -999.250000 124.49130249  -999.250000 0.7660999894 0.7315999866 0.7305999994
 1936.7480469 5.0000000000 12.467900276 12.250000954 56.689304352 0.0476000011  -999.250000 0.3545168936 2.3057000637 6.1352000237 65.623001099  -999.250000 122.42971039  -999.250000 0.6890000105 0.6693000197 0.6578999758
 1936.9003906 5.0000000000 12.466100693 12.250000954 54.853343964 0.0425000004  -999.250000 0.3619939685 2.2967998981 5.9258999825 66.673400879  -999.250000 123.13519287  -999.250000 0.6668999791 0.6504999995 0.6423000097
 1937.0528564 5.0000000000 12.451399803 12.250000954 53.171585083 0.0432000011  -999.250000 0.3646978140 2.3001000881 5.7326002121 68.483703613  -999.250000 122.67569733  -999.250000 0.7030000091 0.6855000257 0.6819999814
 1937.2052002 5.0000000000 12.517200470 12.250000954 54.607612610 0.0388000049  -999.250000 0.3758910298 2.2932000160 5.6068000793 68.707199097  -999.250000 121.78379059  -999.250000 0.7030000091 0.6855000257 0.6819999814
 1937.3576660 5.0000000000 12.501199722 12.250000954 50.330383301 0.0395000018  -999.250000 0.3650087416 2.2862999439 5.5157999992 68.148498535  -999.250000 122.15029907  -999.250000 0.7317000031 0.7139999866 0.6937999725
 1937.5100098 5.0000000000 12.508099556 12.250000954 57.694557190 0.0322000012  -999.250000 0.3615027964 2.2778000832 5.3024001122 69.310699463  -999.250000 123.63400269  -999.250000 0.7232999802 0.6963999867 0.6791999936
 1937.6624756 5.0000000000 12.501600266 12.250000954 56.526248932 0.0275999997  -999.250000 0.3620995283 2.2716000080 5.3270998001 70.215797424  -999.250000 124.83610535  -999.250000 0.6521999836 0.6272000074 0.6244000196
 1937.8148193 5.0000000000 12.482600212 12.250000954 58.152885437 0.0324999988  -999.250000 0.3695939779 2.2693998814 5.5012998581 69.511802673  -999.250000 127.86409760  -999.250000 0.6855000257 0.6606000066 0.6514999866
 1937.9671631 5.0000000000 12.479100227 12.250000954 59.878604889 0.0383000001  -999.250000 0.3814809620 2.2704000473 5.8224000931 66.997497559  -999.250000 127.80760193  -999.250000 0.6819999814 0.6430000067 0.6384999752
 1938.1196289 5.0000000000 12.444499016 12.250000954 64.331367493 0.0399000011  -999.250000 0.3732066453 2.2811000347 5.7526998520 65.902297974  -999.250000 127.34020233  -999.250000 0.6819999814 0.6430000067 0.6384999752
 1938.2719727 5.0000000000 12.432399750 12.250000954 73.717521667 0.0331999995  -999.250000 0.3552288115 2.2871000767 5.6624999046 70.092903137  -999.250000 128.05290222  -999.250000 0.6628000140 0.6252999902 0.6219999790
 1938.4244385 5.0000000000 12.460100174 12.250000954 67.280838013 0.0287999995  -999.250000 0.3381136954 2.3071000576 5.9949002266 73.624198914  -999.250000 128.30999756  -999.250000 0.5753999949 0.5588999987 0.5439000130
 1938.5767822 5.0000000000 12.440999031 12.250000954 70.332679749 0.0304000005  -999.250000 0.3444897532 2.3299999237 6.3850002289 69.902900696  -999.250000 128.34570313  -999.250000 0.5993000269 0.5637000203 0.5591999888
 1938.7292480 5.0000000000 12.434100151 12.250000954 68.591537476 0.0322000012  -999.250000 0.3433009684 2.3596999645 6.3207001686 63.190601349  -999.250000 127.42900085  -999.250000 0.6732000113 0.6258000135 0.6294999719
 1938.8815918 5.0000000000 12.424000740 12.250000954 72.508857727 0.0436999984  -999.250000 0.3552903831 2.3840000629 6.3218002319 59.674198151  -999.250000 125.33429718  -999.250000 0.6391000152 0.6051999927 0.5961999893
 1939.0340576 5.0000000000 12.422900200 12.250000954 65.456359863 0.0537000000  -999.250000 0.3506037593 2.3922998905 6.3456001282 58.977600098  -999.250000 122.13439941  -999.250000 0.6470999718 0.6223999858 0.6104000211
 1939.1864014 5.0000000000 12.424599648 12.250000954 62.411743164 0.0641999990  -999.250000 0.3582938313 2.3861999512 6.5792999268 59.074501038  -999.250000 121.02189636  -999.250000 0.6818000078 0.6468999982 0.6370999813
 1939.3388672 5.0000000000 12.404700279 12.250000954 59.345806122 0.0560999997  -999.250000 0.3556021750 2.3420000076 6.4187002182 59.856700897  -999.250000 124.42279816  -999.250000 0.7177000046 0.6875000000 0.6851999760
 1939.4912109 5.0000000000 12.425499916 12.250000954 54.610240936 0.0443999991  -999.250000 0.3475064933 2.3004000187 5.9858999252 62.493999481  -999.250000 129.77740479  -999.250000 0.7671999931 0.7373999953 0.7224000096
 1939.6436768 5.0000000000 12.410800934 12.250000954 52.760826111 0.0410000011  -999.250000 0.3599900007 2.2804999352 5.8538999557 68.684898376  -999.250000 131.75340271  -999.250000 0.7121000290 0.7039999962 0.6873999834
 1939.7960205 5.0000000000 12.448800087 12.250000954 51.286746979 0.0355999991  -999.250000 0.3791846335 2.2606000900 5.8401999474 75.613296509  -999.250000 132.56959534  -999.250000 0.6448000073 0.6294000149 0.6140999794
 1939.9484863 5.0000000000 12.446200371 12.250000954 56.586940765 0.0340999998  -999.250000 0.3859945536 2.2456998825 6.0630002022 79.692100525  -999.250000 130.47270203  -999.250000 0.6075999737 0.5993000269 0.5867000222
 1940.1008301 5.0000000000 12.376999855 12.250000954 56.287731171 0.0265999995  -999.250000 0.3643999994 2.1956999302 6.1293001175 79.733100891  -999.250000 125.43440247  -999.250000 0.5475999713 0.5340999961 0.5317000151
 1940.2531738 5.0000000000 12.387399673 12.250000954 56.763118744 0.0350000001  -999.250000 0.3253000081 2.1770000458 6.0686001778 75.164398193  -999.250000 118.87879181  -999.250000 0.5073999763 0.4936999977 0.4957999885
 1940.4056396 5.0000000000 12.416000366 12.250000954 58.186023712 0.0346999988  -999.250000 0.2980999947 2.1461000443 5.8481001854 70.275398254  -999.250000 113.62289429  -999.250000 0.5461999774 0.5139999986 0.5174000263
 1940.5579834 5.0000000000 12.420299530 12.250000954 62.634513855 0.0304000005  -999.250000 0.3027999997 2.1347999573 5.5837998390 62.860900879  -999.250000 115.69850159  -999.250000 0.5516999960 0.5213999748 0.5181999803
 1940.7104492 5.0000000000 12.423700333 12.250000954 70.706367493 0.0142999999  -999.250000 0.3061000109 2.1178998947 5.3200998306 49.482700348  -999.250000 115.52429962  -999.250000 0.5461000204 0.5156999826 0.5167999864
 1940.8627930 5.0000000000 12.417699814 12.250000954 75.766075134 0.0109999999  -999.250000 0.3224999905 2.1135001183 5.4306998253 38.780899048  -999.250000 115.85559845  -999.250000 0.4968000054 0.4792000055 0.4726000130
 1941.0152588 5.0000000000 12.428999901 12.250000954 98.505905151 0.0138999997  -999.250000 0.3116999865 2.1142001152 5.7792000771 35.745098114  -999.250000 113.68370056  -999.250000 0.4361000061 0.4212999940 0.4192999899
 1941.1676025 5.0000000000 12.454899788 12.250000954 109.02494049 0.0209999997  -999.250000 0.3086000085 2.1126999855 6.1073999405 34.463699341  -999.250000 114.10829926  -999.250000 0.4216000140 0.4086999893 0.4054999948
 1941.3200684 5.0000000000 12.429800034 12.250000954 123.99771881 0.0277999993  -999.250000 0.2976000011 2.1164999008 6.3786001205 31.755699158  -999.250000 114.90299988  -999.250000 0.4248999953 0.4068999887 0.4020000100
 1941.4724121 5.0000000000 12.445400238 12.250000954 123.59779358 0.0322999991  -999.250000 0.3050000072 2.1212000847 6.3966999054 32.176601410  -999.250000 114.00279999  -999.250000 0.4151000082 0.4052999914 0.3991999924
