# LAS format log file from PETREL
# Project units are specified as depth units
#==================================================================
~Version information
VERS.   2.0:
WRAP.   NO:
#==================================================================
~Well
STRT .m      3054.5593262 :
STOP .m      3397.3076172 :
STEP .m     0.00000000 :
NULL .        -999.250000 :
COMP.           : COMPANY
WELL.  25/10-8A  Hanz Appr   : WELL
FLD.            : FIELD
LOC.            : LOCATION
SRVC.           : SERVICE COMPANY
DATE.  2018-09-11 14:48:15   : Log Export Date {yyyy-MM-dd HH:mm:ss}
PROV.           : PROVINCE
UWI.   25/10-8 A   : UNIQUE WELL ID
API.            : API NUMBER
#==================================================================
~Curve
DEPT .m                   : DEPTH
Lithology_geolink ._      : Lithology_geolink
NPHI .m3/m3               : NPHI
RHOB .g/cm3               : RHOB
GR .gAPI                  : GR
RDEP .ohm.m               : RDEP
RSHA .ohm.m               : RSHA
~Parameter
#==================================================================
~Ascii
# ...
 3226.9240723 6.0000000000 0.1756699979 2.4200265408 95.939819336 2.4510016441 2.5756151676
 3227.0764160 6.0000000000 0.1765300035 2.4206268787 97.478546143 2.4566531181 2.7180032730
 3227.2287598 6.0000000000 0.1789399981 2.4209868908 99.104782104 2.4674248695 2.7777175903
 3227.3813477 6.0000000000 0.1879299879 2.4205825329 99.937049866 2.5264742374 2.6758859158
 3227.5336914 6.0000000000 0.1954000145 2.4181835651 99.898399353 2.6258563995 2.5541250706
 3227.6860352 6.0000000000 0.1961099952 2.4153795242 99.636856079 2.7693753242 2.5284140110
 3227.8383789 6.0000000000 0.1938199997 2.4147577286 99.082122803 2.9222621918 2.5960431099
 3227.9909668 6.0000000000 0.1897599995 2.4141516685 97.170051575 2.9633212090 2.7467825413
 3228.1433105 6.0000000000 0.1833600104 2.4117994308 94.493019104 2.8884685040 2.8594639301
 3228.2956543 6.0000000000 0.1762199998 2.4091322422 91.866325378 2.8460719585 2.8509571552
 3228.4479980 6.0000000000 0.1715800166 2.4059200287 90.356407166 2.8565678596 2.7391226292
 3228.6003418 6.0000000000 0.1782599986 2.4021975994 90.241081238 2.8821737766 2.5813031197
 3228.7529297 6.0000000000 0.1912200004 2.3989045620 90.543571472 2.9375731945 2.4584822655
 3228.9052734 6.0000000000 0.2012999952 2.3972864151 91.199829102 3.0288400650 2.3972511292
 3229.0576172 6.0000000000 0.1913300008 2.3969998360 91.923080444 3.1956107616 2.3972153664
 3229.2099609 6.0000000000 0.1724999994 2.3971600533 93.026626587 3.5147237778 2.4627857208
 3229.3625488 6.0000000000 0.1598999947 2.4012305737 94.057098389 3.9457848072 2.6614608765
 3229.5148926 6.0000000000 0.1521500051 2.4105300903 95.001541138 4.6851234436 3.3987004757
 3229.6672363 6.0000000000 0.1461699903 2.4274430275 95.834938049 5.1221957207 4.7760105133
 3229.8195801 6.0000000000 0.1428800076 2.4479031563 96.531455994 4.8488740921 6.7033796310
 3229.9721680 6.0000000000 0.1390600055 2.4706060886 95.773994446 4.3685140610 6.5658893585
 3230.1245117 6.0000000000 0.1257999986 2.4867289066 93.630958557 4.1272192001 5.0150566101
 3230.2768555 6.0000000000 0.1128899977 2.4940516949 91.390487671 4.2489819527 5.5960440636
 3230.4291992 6.0000000000 0.1154699996 2.4963891506 87.711235046 4.0872149467 5.7402906418
 3230.5815430 6.0000000000 0.1252599955 2.4914929867 83.320259094 4.1179132462 5.6811532974
 3230.7341309 5.0000000000 0.1350000054 2.4787740707 78.385726929 4.4497985840 6.2224192619
 3230.8864746 5.0000000000 0.1450399905 2.4617838860 74.224731445 4.7751550674 6.7548203468
 3231.0388184 5.0000000000 0.1488500088 2.4449820518 72.525741577 4.9493160248 7.1069884300
 3231.1911621 5.0000000000 0.1464900076 2.4372243881 74.330062866 4.8002538681 7.5538868904
 3231.3437500 5.0000000000 0.1473799944 2.4346148968 76.913330078 4.6202659607 7.8263630867
 3231.4960938 6.0000000000 0.1513599902 2.4312455654 80.788452148 4.2990469933 6.2712802887
 3231.6484375 6.0000000000 0.1601600051 2.4263601303 84.987319946 3.8799240589 3.9898085594
 3231.8007813 6.0000000000 0.1705799997 2.4205582142 88.415580750 3.7069587708 3.1189815998
 3231.9533691 6.0000000000 0.1825900078 2.4155056477 90.335365295 3.6622583866 3.0558607578
 3232.1057129 6.0000000000 0.1976400018 2.4137604237 92.056060791 3.5133042336 2.9480504990
 3232.2580566 6.0000000000 0.2050399929 2.4137144089 93.056381226 3.2853996754 2.7533838749
 3232.4104004 6.0000000000 0.2026199847 2.4132678509 93.358169556 3.0135383606 2.5529193878
 3232.5627441 6.0000000000 0.1975499988 2.4130218029 93.389312744 2.8537662029 2.4422228336
 3232.7153320 6.0000000000 0.1916600019 2.4136502743 92.782905579 2.7731742859 2.4240429401
 3232.8676758 6.0000000000 0.1851799935 2.4166626930 91.976264954 2.7260818481 2.4135630131
 3233.0200195 6.0000000000 0.1787199974 2.4211244583 90.536781311 2.6909861565 2.4251751900
 3233.1723633 6.0000000000 0.1754700094 2.4256575108 89.254341125 2.6520335674 2.4649775028
 3233.3249512 6.0000000000 0.1765500009 2.4270334244 88.328895569 2.6091098785 2.5250995159
 3233.4772949 6.0000000000 0.1800200045 2.4231803417 88.238021851 2.6020612717 2.5662357807
 3233.6296387 6.0000000000 0.1833000034 2.4178514481 89.261116028 2.7045123577 2.4056000710
 3233.7819824 6.0000000000 0.1843799949 2.4148249626 90.083450317 2.8162577152 2.2867805958
 3233.9345703 6.0000000000 0.1698200107 2.4163069725 89.804199219 2.9133288860 2.3073337078
 3234.0869141 6.0000000000 0.1467199922 2.4247965813 88.697898865 3.0029044151 2.3494901657
 3234.2392578 6.0000000000 0.1371399909 2.4416432381 86.315345764 3.1720819473 2.4074761868
 3234.3916016 5.0000000000 0.1327200085 2.4578008652 83.145889282 3.3465020657 2.5810847282
 3234.5441895 5.0000000000 0.1276599914 2.4704487324 80.489471436 3.4042255878 3.0359876156
 3234.6965332 5.0000000000 0.1273999959 2.4806301594 78.703216553 3.4829118252 3.4884178638
 3234.8488770 5.0000000000 0.1295100003 2.4903774261 78.510551453 3.6322181225 3.6370358467
 3235.0012207 5.0000000000 0.1327700019 2.4933087826 80.530242920 3.6414496899 3.8479073048
 3235.1535645 6.0000000000 0.1422200054 2.4858734608 82.511833191 3.6636412144 4.0837802887
 3235.3061523 6.0000000000 0.1563400030 2.4739053249 84.374290466 3.8273472786 4.2457218170
 3235.4584961 6.0000000000 0.1656500101 2.4571342468 85.680084229 3.7688746452 3.6583011150
 3235.6108398 6.0000000000 0.1741500050 2.4381911755 86.552574158 3.7768373489 3.0413403511
 3235.7631836 6.0000000000 0.1835600138 2.4209899902 87.054313660 3.8938744068 2.8961133957
 3235.9157715 6.0000000000 0.1907300055 2.4103064537 87.253479004 3.9779031277 2.8788216114
 3236.0681152 5.0000000000 0.1731500030 2.4118261337 87.150062561 4.0805726051 2.8964231014
 3236.2204590 5.0000000000 0.1539199948 2.4247381687 86.185623169 4.2283773422 2.9573233128
 3236.3728027 5.0000000000 0.1469200104 2.4482781887 84.967903137 4.1625928879 3.2007856369
 3236.5253906 5.0000000000 0.1349599957 2.4718875885 83.577072144 3.8497116566 3.7034862041
 3236.6777344 5.0000000000 0.1287800074 2.4863927364 81.915573120 3.5624213219 4.2129888535
 3236.8300781 5.0000000000 0.1335000098 2.4905052185 80.866027832 3.4145870209 4.3241348267
 3236.9824219 5.0000000000 0.1477899998 2.4836063385 80.384033203 3.3202681541 3.9947752953
 3237.1347656 5.0000000000 0.1611599922 2.4662375450 81.525756836 3.2303934097 3.4419355392
 3237.2873535 5.0000000000 0.1692799926 2.4494090080 83.809906006 3.1924781799 3.1332972050
 3237.4396973 5.0000000000 0.1713999957 2.4341938496 86.776123047 3.1878368855 3.0185728073
 3237.5920410 5.0000000000 0.1687899977 2.4224855900 89.398818970 3.2023079395 2.9099004269
 3237.7443848 6.0000000000 0.1652300060 2.4153609276 90.787536621 3.2591614723 2.7912969589
 3237.8969727 6.0000000000 0.1633400023 2.4140951633 92.306571960 3.3276033401 2.7084503174
 3238.0493164 6.0000000000 0.1615699977 2.4207739830 93.938629150 3.3744685650 2.6589002609
 3238.2016602 6.0000000000 0.1594800055 2.4365098476 95.252571106 3.3442397118 2.6416604519
 3238.3540039 6.0000000000 0.1581099927 2.4553902149 96.973617554 3.3451800346 2.6697037220
 3238.5065918 6.0000000000 0.1570300013 2.4678218365 98.011123657 3.5614528656 2.9860212803
 3238.6589355 6.0000000000 0.1572999954 2.4785959721 98.430496216 3.8365478516 3.4136636257
 3238.8112793 6.0000000000 0.1616300046 2.4870641232 98.829879761 3.8414211273 3.7155902386
 3238.9636230 6.0000000000 0.1741999984 2.4864997864 99.858627319 3.6276986599 4.0558514595
 3239.1159668 6.0000000000 0.1893399954 2.4800474644 101.75824738 3.4478542805 3.9891848564
 3239.2685547 6.0000000000 0.2030200064 2.4711244106 103.96001434 3.3627538681 3.3236765862
 3239.4208984 6.0000000000 0.2105500102 2.4621942043 106.02334595 3.2942421436 2.8017530441
 3239.5732422 6.0000000000 0.2082300037 2.4520356655 107.90883636 3.2075021267 2.6856410503
 3239.7255859 6.0000000000 0.2030899972 2.4417502880 109.67841339 3.1145761013 2.6917309761
 3239.8781738 6.0000000000 0.1931200027 2.4352650642 110.05104065 3.0208685398 2.6978361607
 3240.0305176 6.0000000000 0.1821800023 2.4340264797 108.76070404 2.9279074669 2.7039067745
