# LAS format log file from PETREL
# Project units are specified as depth units
#==================================================================
~Version information
VERS.   2.0:
WRAP.   NO:
#==================================================================
~Well
STRT .m      1090.1660156 :
STOP .m      2511.1435547 :
STEP .m     0.00000000 :
NULL .        -999.250000 :
COMP.           : COMPANY
WELL.  25/10-10  Balder Triassic   : WELL
FLD.            : FIELD
LOC.            : LOCATION
SRVC.           : SERVICE COMPANY
DATE.  2018-09-11 14:48:14   : Log Export Date {yyyy-MM-dd HH:mm:ss}
PROV.           : PROVINCE
UWI.   25/10-10   : UNIQUE WELL ID
API.            : API NUMBER
#==================================================================
~Curve
DEPT .m                   : DEPTH
Lithology_geolink ._      : Lithology_geolink
CALI .in                  : CALI
BS .in                    : BS
ROP .m/h                  : ROP
DRHO .g/cm3               : DRHO
THOR .ppm                 : THOR
NPHI .m3/m3               : NPHI
RHOB .g/cm3               : RHOB
PEF .b/e                  : PEF
GR .gAPI                  : GR
URAN .ppm                 : URAN
DTC .us/ft                : DTC
DTS .us/ft                : DTS
RDEP .ohm.m               : RDEP
RSHA .ohm.m               : RSHA
RMED .ohm.m               : RMED
~Parameter
#==================================================================
~Ascii
# ...
 2398.3674316 5.0000000000 12.351599693 12.250000954 75.266075134 0.0758000016 4.7522997856 0.1266188771 2.5019874573 6.5790233612 79.157379150 1.2617000341 73.563819885 142.69349670 3.9162056446 3.3326611519 3.8269841671
 2398.5200195 5.0000000000 12.362799644 12.250000954 71.650917053 0.0736000016 4.8457999229 0.1247030497 2.5299999714 6.4570999146 76.348503113 1.0412000418 73.246902466 139.85650635 3.8531000614 3.3369998932 3.7537999153
 2398.6723633 5.0000000000 12.370200157 12.250000954 72.008857727 0.0663999990 5.0806999207 0.1193086505 2.5399999619 6.3225002289 77.385803223 0.8440999985 72.206100464 137.99409485 4.1995000839 3.4307000637 4.0781002045
 2398.8247070 5.0000000000 12.407500267 12.250000954 76.526245117 0.0725999996 5.6152000427 0.1214964762 2.5612659454 6.2325439453 79.127105713 0.7418000102 70.816429138 135.65840149 4.1008582115 3.3448376656 3.9864468575
 2398.9770508 5.0000000000 12.407500267 12.250000954 62.206367493 0.0740000010 5.6012997627 0.1196030453 2.5457253456 6.2379908562 79.430618286 0.8137999773 70.666938782 133.58569336 4.1579079628 3.3272280693 4.0465030670
 2399.1293945 5.0000000000 12.422499657 12.250000954 65.398292542 0.0791999996 5.3067002296 0.1221916750 2.5509915352 6.2048535347 76.674125671 0.8061000109 70.262649536 134.06799316 4.9836750031 3.5266797543 4.8318395615
 2399.2819824 5.0000000000 12.370200157 12.250000954 60.066600800 0.0736000016 5.5750999451 0.1153110564 2.5394999981 6.1294999123 76.947196960 0.7206000090 69.489997864 131.58990479 5.2006998062 3.5415999889 5.0473999977
 2399.4343262 5.0000000000 12.355299950 12.250000954 53.485893250 0.0659999996 5.6178002357 0.1132033691 2.5206303596 6.2540006638 77.349258423 0.5916000009 69.050903320 128.19709778 4.6071515083 3.3661811352 4.5136556625
 2399.5866699 5.0000000000 12.347900391 12.250000954 49.409122467 0.0715000033 5.2533998489 0.1086073667 2.5385711193 6.2633852959 80.518409729 0.7657999992 68.218833923 128.76150513 4.6893663406 3.3616068363 4.5993614197
 2399.7390137 5.0000000000 12.333000183 12.250000954 47.632217407 0.0693999976 5.0974998474 0.1021208018 2.5483841896 6.3464665413 79.953018188 0.7576000094 67.258743286 125.43270111 4.6259021759 3.3544113636 4.5495800972
 2399.8916016 5.0000000000 12.317999840 12.250000954 42.610565186 0.0590999983 5.5125999451 0.0977070481 2.5650000572 6.0805001259 79.653099060 0.6413999796 67.186897278 125.26750183 4.4637999535 3.3041999340 4.4267997742
 2400.0439453 5.0000000000 12.317999840 12.250000954 43.867454529 0.0408999994 5.4507999420 0.0968014449 2.5518999100 5.7940998077 77.762001038 0.7922999859 67.922096252 124.80159760 4.6946001053 3.3250999451 4.6736998558
 2400.1962891 5.0000000000 12.340399742 12.250000954 42.498359680 0.0357000008 5.1174998283 0.0999948755 2.5533976555 5.5243325233 78.465873718 0.9624000192 70.145835876 128.59689331 4.5609140396 3.2629995346 4.5812482834
 2400.3486328 5.0000000000 12.317999840 12.250000954 41.246391296 0.0357999988 5.4619002342 0.1047846377 2.5596899986 5.3398952484 80.484367371 0.8118000031 69.805450439 129.08410645 4.4615592957 3.2185709476 4.5098142624
 2400.5012207 5.0000000000 12.317999840 12.250000954 44.196193695 0.0432000011 5.1166000366 0.1074956730 2.5748000145 5.4239001274 80.440299988 1.0393999815 70.791900635 128.73150635 4.4226999283 3.2005000114 4.4889001846
 2400.6535645 5.0000000000 12.306899071 12.250000954 44.136154175 0.0427000001 4.9609999657 0.1102955118 2.5610001087 5.6697998047 82.059402466 1.2331999540 70.939102173 128.74169922 4.2614998817 3.1364998817 4.3225002289
 2400.8059082 5.0000000000 12.295700073 12.250000954 45.558071136 0.0509999990 5.3401999474 0.1147927865 2.5866589546 5.7488732338 80.315093994 1.0349999666 70.359230042 129.80740356 4.1554698944 3.0688085556 4.2040896416
 2400.9582520 5.0000000000 12.317999840 12.250000954 48.544620514 0.0386999995 5.6366000175 0.1206905469 2.5662329197 5.7457051277 82.994194031 1.0274000168 69.750778198 132.17399597 4.1463141441 3.0596146584 4.1892232895
 2401.1105957 5.0000000000 12.295700073 12.250000954 57.408466339 0.0401999988 5.8407998085 0.1263817549 2.5839715004 5.5426263809 80.943992615 1.2131999731 70.230728149 133.23570251 4.5633306503 3.1434652805 4.5591063499
 2401.2631836 5.0000000000 12.303098679 12.250000954 59.362865448 0.0379000008 6.2671999931 0.1274982393 2.5748000145 5.4727001190 82.212997437 1.2010999918 71.226303101 134.18890381 4.8260002136 3.1684999466 4.8109998703
 2401.4155273 5.0000000000 12.310600281 12.250000954 73.402885437 0.0456999987 6.3221001625 0.1252036840 2.5837857723 5.5364980698 78.299468994 1.1559000015 71.766441345 132.78120422 5.1637587547 3.2027451992 5.1259951591
 2401.5678711 5.0000000000 12.303098679 12.250000954 69.827102661 0.0423999988 6.0223999023 0.1202080101 2.5929851532 5.4707059860 75.158927917 0.9664999843 70.867240906 132.15820313 6.7191042900 3.4174554348 6.5317444801
 2401.7202148 5.0000000000 12.280799866 12.250000954 77.139106750 0.0432000011 5.0949997902 0.1119265631 2.5837149620 5.5859150887 65.139572144 0.8923000097 70.531730652 131.75489807 11.324111938 3.7060372829 10.480566025
 2401.8728027 5.0000000000 12.228500366 12.250000954 68.448493958 0.0436999984 5.1184000969 0.1072075292 2.5838000774 5.7006001472 61.219100952 0.7312999964 70.645698547 134.63780212 10.775799751 3.6779999733 9.9720001221
 2402.0251465 5.0000000000 12.265800476 12.250000954 64.154525757 0.0467999987 4.5968999863 0.0995123386 2.5778000355 6.2019000053 60.396099091 1.1737999916 68.447402954 131.63139343 7.4558000565 3.5311000347 7.0893001556
 2402.1774902 5.0000000000 12.273300171 12.250000954 47.399608612 0.0386000015 5.5250000954 0.0863211527 2.6038582325 6.3157172203 68.967765808 1.1504000425 65.344673157 127.14859772 6.4938416481 3.3822386265 6.1826529503
 2402.3298340 5.0000000000 12.243498802 12.250000954 45.025588989 0.0392999984 5.7494997978 0.0783255994 2.6323542595 6.2949337959 71.496261597 1.0678999424 63.721199036 121.23370361 6.0919427872 3.3571398258 5.8308620453
 2402.4824219 5.0000000000 12.265800476 12.250000954 44.028873444 0.0544000007 5.0239000320 0.0806961581 2.6638998985 6.1922001839 72.794898987 1.2962000370 63.496101379 121.46949768 5.9583001137 3.3459000587 5.7182998657
 2402.6347656 5.0000000000 12.288200378 12.250000954 40.901573181 0.0732000023 4.7246999741 0.0933796465 2.6531999111 6.3740000725 71.454399109 1.4965000153 64.254898071 121.96609497 6.4472999573 3.4163000584 6.1919999123
 2402.7871094 5.0000000000 12.280799866 12.250000954 42.792976379 0.0710999966 4.5047001839 0.1087753251 2.6318342686 6.4026541710 74.127609253 1.6706999540 66.772964478 125.30599976 6.6910095215 3.4751057625 6.4693555832
 2402.9394531 5.0000000000 12.280799866 12.250000954 42.513782501 0.0702000037 5.4229998589 0.1199820489 2.6108336449 6.4704914093 74.806213379 1.5175000429 67.101982117 126.75859833 6.8703131676 3.4694092274 6.6862525940
 2403.0917969 5.0000000000 12.280799866 12.250000954 43.789371490 0.0803999975 5.7080998421 0.1269887835 2.6297695637 6.5553641319 76.016365051 1.4031000137 67.159309387 125.14210510 6.8568220139 3.4416446686 6.7177500725
 2403.2443848 5.0000000000 12.273300171 12.250000954 37.504264832 0.0901999995 5.6683998108 0.1272999942 2.6565001011 6.6170001030 76.463699341 1.5462000370 67.694702148 125.72669983 6.1827001572 3.3487999439 6.0977001190
 2403.3967285 5.0000000000 12.288200378 12.250000954 41.319225311 0.0961999968 5.8069000244 0.1299956739 2.6787643433 6.6502466202 79.009117126 1.7802000046 67.698890686 124.61650085 5.7022700310 3.2794110775 5.6650934219
 2403.5490723 5.0000000000 12.295700073 12.250000954 44.839565277 0.0944999978 5.9583997726 0.1276038438 2.6756052971 6.5950884819 81.891677856 1.7405999899 67.220771790 123.34169769 5.5445518494 3.2971713543 5.5108466148
 2403.7014160 5.0000000000 12.306899071 12.250000954 56.929794312 0.0828000009 6.5574998856 0.1277996749 2.6436512470 6.5427837372 83.266700745 1.3163000345 67.415390015 123.90719604 5.4950790405 3.3352389336 5.4820456505
 2403.8540039 5.0000000000 12.306899071 12.250000954 63.331687927 0.0815000013 6.6125001907 0.1287000030 2.6277000904 6.5093002319 83.644401550 1.2735999823 67.682701111 125.84830475 5.4422001839 3.2911999226 5.4594998360
