# LAS format log file from PETREL
# Project units are specified as depth units
#==================================================================
~Version information
VERS.   2.0:
WRAP.   NO:
#==================================================================
~Well
STRT .m      1118.6159668 :
STOP .m      2017.3187256 :
STEP .m     0.00000000 :
NULL .        -999.250000 :
COMP.           : COMPANY
WELL.  25/11-15  Grane   : WELL
FLD.            : FIELD
LOC.            : LOCATION
SRVC.           : SERVICE COMPANY
DATE.  2018-09-11 14:48:15   : Log Export Date {yyyy-MM-dd HH:mm:ss}
PROV.           : PROVINCE
UWI.   25/11-15   : UNIQUE WELL ID
API.            : API NUMBER
#==================================================================
~Curve
DEPT .m                   : DEPTH
Lithology_geolink ._      : Lithology_geolink
CALI .in                  : CALI
BS .in                    : BS
MUDWEIGHT ._              : MUDWEIGHT
ROP .m/h                  : ROP
TGAS ._                   : TGAS
DRHO .g/cm3               : DRHO
THOR .ppm                 : THOR
NPHI .m3/m3               : NPHI
RHOB .g/cm3               : RHOB
GR .gAPI                  : GR
URAN .ppm                 : URAN
DTC .us/ft                : DTC
DTE .us/ft                : DTE
RDEP .ohm.m               : RDEP
SP .mV                    : SP
RSHA .ohm.m               : RSHA
RMED .ohm.m               : RMED
~Parameter
#==================================================================
~Ascii
# ...
 1354.9882813  -999.250000 9.2910175323 8.5000000000 1.1100000143 235241.29688 0.0501124524 -0.108669408 8.2723455429 0.4211026132 2.1446681023 101.81304169 -1.458216071 145.84490967 142.85183716 1.1175016165 16.700801849 1.3776899576 1.1081200838
 1355.1406250  -999.250000 9.3125000000 8.5000000000 1.1100000143 241982.71875 0.0507000014 -0.108323269 8.4133739471 0.4009046853 2.1459538937 105.81319427 -1.275293112 145.96650696 142.98396301 1.1432358027 16.200801849 1.4821038246 1.1596004963
 1355.2930908  -999.250000 9.3125000000 8.5000000000 1.1100000143 248726.18750 0.0507000014 -0.106779367 8.4567661285 0.3878273070 2.1465675831 111.99645233 -1.206554890 146.08390808 143.12765503 1.1451574564 16.699600220 1.4567943811 1.1446050406
 1355.4454346  -999.250000 9.3125000000 8.5000000000 1.1100000143 250138.09375 0.0507000014 -0.107079610 7.9439225197 0.4081082046 2.1398897171 113.93280029 -1.375728607 146.80015564 143.70370483 1.0925253630 18.197599411 1.4211262465 1.1341706514
 1355.5979004  -999.250000 9.3125000000 8.5000000000 1.1100000143 250138.09375 0.0507000014 -0.105794698 8.0340270996 0.4338904023 2.1274359226 112.49954987 -1.208034754 147.39453125 144.25520325 1.0830885172 18.200000763 1.3921611309 1.0923135281
 1355.7502441  -999.250000 9.3125000000 8.5000000000 1.1100000143 251460.29688 0.0507000014 -0.101377830 8.0718402863 0.4576683939 2.1151027679 110.12390900 -1.171059132 148.70458984 145.44754028 1.0415136814 19.697599411 1.1652737856 1.0624548197
 1355.9027100  -999.250000 9.3125028610 8.5000000000 1.1100000143 252000.00000 0.0507000014 -0.101086430 8.2914237976 0.4494999945 2.1192486286 105.31695557 -0.889525712 148.34948730 145.33644104 1.0479068756 20.699199677 1.0807014704 1.0696871281
 1356.0550537  -999.250000 9.3171558380 8.5000000000 1.1100000143 251914.17188 0.0507000014 -0.100965895 7.5402026176 0.4359934032 2.1292896271 106.37404633 -1.140298724 147.63438416 144.74420166 1.0795385838 21.199600220 1.3332175016 1.0576916933
 1356.2075195  -999.250000 9.3744421005 8.5000000000 1.1100000143 249168.57813 0.0507000014 -0.099573679 7.3088850975 0.4154261053 2.1198906898 106.31314850 -1.196155429 147.63470459 144.65205383 1.0749106407 23.198398590 1.3541853428 1.0389280319
 1356.3598633  -999.250000 9.4531021118 8.5000000000 1.1100000143 244138.45313 0.0507000014 -0.095626637 7.0830807686 0.4268271923 2.1171400547 107.43730164 -1.333589792 147.63490295 144.67553711 1.0792346001 23.200000763 1.1816244125 1.0628547668
 1356.5123291  -999.250000 9.4551124573 8.5000000000 1.1100000143 242689.68750 0.0507000014 -0.093973108 7.8837575912 0.4695689082 2.1021549702 108.18639374 -0.917533517 148.82623291 145.65472412 1.0166981220 24.698799133 1.1664340496 1.0346786976
 1356.6646729  -999.250000 9.4824590683 8.5000000000 1.1100000143 242689.68750 0.0507000014 -0.090881966 8.0879373550 0.4925056994 2.0918703079 107.06600189 -0.844458342 150.73207092 147.35565186 0.9893049598 23.700801849 1.0110065937 0.9451795816
 1356.8171387  -999.250000 9.5528268814 8.5000000000 1.1100000143 243989.09375 0.0507000014 -0.088703327 7.9647994041 0.5260586143 2.1032738686 110.12145233 -0.862885177 149.89916992 147.08039856 0.9383901954 22.201202393 0.8784915805 0.9543846250
 1356.9694824  -999.250000 9.6185083389 8.5000000000 1.1100000143 244551.59375 0.0507000014 -0.085723817 7.9168386459 0.5048109293 2.1079211235 107.44165039 -0.957723975 149.30287170 146.44096375 0.9373204112 21.700401306 0.8434445262 0.9349981546
 1357.1218262  -999.250000 9.6281385422 8.5000000000 1.1100000143 244234.65625 0.0507000014 -0.082238935 7.3240509033 0.4919858873 2.1195893288 110.05869293 -1.428944349 148.11241150 145.26501465 0.9617576599 22.199199677 1.1745458841 0.9128250480
 1357.2742920  -999.250000 9.5735645294 8.5000000000 1.1100000143 240030.59375 0.0507000014 -0.084089614 7.2391672134 0.4687123895 2.1196780205 110.43820190 -1.397225976 147.39637756 144.51980591 0.9802154303 22.200000763 0.6862047315 0.9946530461
 1357.4266357  -999.250000 9.5227985382 8.5000000000 1.1100000143 235132.70313 0.0507000014 -0.086595051 7.3347463608 0.4541024864 2.1113734245 111.86830139 -1.431345224 148.10984802 144.97558594 1.0503894091 22.200000763 1.0616363287 1.0213942528
 1357.5791016  -999.250000 9.5221471786 8.5000000000 1.1100000143 233379.35938 0.0507000014 -0.086860724 7.3608789444 0.4431943893 2.1161050797 107.75030518 -1.381140351 147.75219727 144.80020142 1.0238733292 21.200801849 1.4278498888 1.0561630726
 1357.7314453  -999.250000 9.5937986374 8.5000000000 1.1100000143 233379.35938 0.0507000014 -0.095371567 7.9211015701 0.4180167019 2.1201496124 103.06781006 -1.082878232 147.39646912 144.51196289 1.0646905899 19.203203201 0.9705791473 1.0424590111
 1357.8839111  -999.250000 9.5917882919 8.5000000000 1.1100000143 233379.35938 0.0507000014 -0.104363866 7.9050145149 0.4102157056 2.1207835674 100.93930054 -1.043131471 147.99232483 144.87530518 1.0608012676 19.200000763 1.0153875351 1.0793354511
 1358.0362549  -999.250000 9.5703010559 8.5000000000 1.1100000143 232263.68750 0.0507000014 -0.102965117 7.6344170570 0.4240008891 2.1108789444 101.12744904 -1.014522910 148.94444275 145.79577637 1.0506142378 19.200000763 0.8936516047 1.0214713812
 1358.1887207  -999.250000 9.5710048676 8.5000000000 1.1100000143 219453.07813 0.0507000014 -0.098874733 7.6048235893 0.4390982091 2.1111118793 103.87370300 -1.094635725 148.58808899 145.68013000 1.0464993715 18.200801849 1.2039242983 1.0482645035
 1358.3410645  -999.250000 9.5794038773 8.5000000000 1.1100000143 209604.73438 0.0507000014 -0.095890693 7.6662507057 0.4640752971 2.1132843494 105.68854523 -1.148956537 148.34860229 145.40864563 1.0313241482 18.699600220 1.1525323391 1.0224426985
 1358.4935303  -999.250000 9.5831470490 8.5000000000 1.1100000143 207310.32813 0.0507000014 -0.093765669 7.3603448868 0.4636982083 2.1237337589 108.49804688 -1.163388491 147.39596558 144.59228516 1.0277118683 17.201202393 0.9407331944 1.0475628376
 1358.6458740  -999.250000 9.4673891068 8.5000000000 1.1100000143 207310.32813 0.0507000014 -0.093970612 7.5599398613 0.4589988887 2.1212828159 109.24720001 -1.203268051 147.27529907 144.25653076 1.0389889479 18.199199677 1.0901271105 1.0110703707
 1358.7983398  -999.250000 9.4531002045 8.5000000000 1.1100000143 207310.32813 0.0507000014 -0.093657553 7.3912353516 0.4521079957 2.1332285404 106.56445313 -1.259355068 146.32446289 143.48458862 1.0497843027 17.700401306 1.6012184620 1.0619602203
 1358.9506836  -999.250000 9.4531002045 8.5000000000 1.1100000143 207310.32813 0.0507000014 -0.099471830 7.6835660934 0.4552986920 2.1408021450 105.93610382 -2.016592741 145.36886597 142.58061218 1.0580214262 17.700000763 1.4286097288 1.0634437799
 1359.1031494  -999.250000 9.4531002045 8.5000000000 1.1100000143 207310.32813 0.0507000014 -0.106119953 8.2306623459 0.4576902092 2.1431231499 103.43769836 -1.781788588 145.49050903 142.52700806 1.1064152718 18.699199677 1.3908601999 1.1236506701
 1359.2554932  -999.250000 9.4531002045 8.5000000000 1.1100000143 207310.32813 0.0507000014 -0.104309104 7.8286228180 0.4353142977 2.1283149719 98.001815796 -2.209157228 147.63177490 144.23962402 1.1091908216 19.199600220 1.4831589460 1.1213988066
 1359.4078369  -999.250000 9.4531040192 8.5000000000 1.1100000143 207310.32813 0.0507000014 -0.095743410 7.8068342209 0.4245023131 2.1280725002 94.377265930 -2.293265820 147.15956116 144.30827332 1.1025077105 19.699199677 1.5311222076 1.1177728176
 1359.5603027  -999.250000 9.4564285278 8.5000000000 1.1100000143 207310.32813 0.0507000014 -0.089818306 8.3946285248 0.4168192148 2.1217060089 91.068656921 -2.089962959 147.75192261 144.66777039 1.0932893753 21.198799133 1.3547824621 1.0876002312
 1359.7126465  -999.250000 9.5007934570 8.5000000000 1.1100000143 207310.32813 0.0507000014 -0.086593218 8.6151475906 0.4350745976 2.1254911423 96.557289124 -2.060546875 148.11032104 145.06768799 1.0526381731 20.700801849 1.1279625893 1.0507191420
 1359.8651123  -999.250000 9.5938053131 8.5000000000 1.1100000143 207310.32813 0.0507000014 -0.087441377 8.6313877106 0.4276097119 2.1271288395 100.12344360 -2.148729086 148.23040771 145.25193787 0.9888115525 21.699199677 0.8659363985 1.0113105774
