# LAS format log file from PETREL
# Project units are specified as depth units
#==================================================================
~Version information
VERS.   2.0:
WRAP.   NO:
#==================================================================
~Well
STRT .m      984.14562988 :
STOP .m      1996.3865967 :
STEP .m     0.00000000 :
NULL .        -999.250000 :
COMP.           : COMPANY
WELL.  25/11-23  Balder Appr   : WELL
FLD.            : FIELD
LOC.            : LOCATION
SRVC.           : SERVICE COMPANY
DATE.  2018-09-11 14:48:16   : Log Export Date {yyyy-MM-dd HH:mm:ss}
PROV.           : PROVINCE
UWI.   25/11-23   : UNIQUE WELL ID
API.            : API NUMBER
#==================================================================
~Curve
DEPT .m                   : DEPTH
Lithology_geolink ._      : Lithology_geolink
DCAL .in                  : DCAL
CALI .in                  : CALI
BS .in                    : BS
MUDWEIGHT ._              : MUDWEIGHT
ROP .m/h                  : ROP
DRHO .g/cm3               : DRHO
NPHI .m3/m3               : NPHI
RHOB .g/cm3               : RHOB
GR .gAPI                  : GR
DTC .us/ft                : DTC
RDEP .ohm.m               : RDEP
SP .mV                    : SP
RSHA .ohm.m               : RSHA
RMED .ohm.m               : RMED
~Parameter
#==================================================================
~Ascii
# ...
 1316.9871826 6.0000000000 0.2184000015 8.7184000015 8.5000000000 1.3200000525 109769.60938 -0.012600000 0.4557560086 2.1115000248 76.370399475 143.44309998 0.8801000118 0.0000000000 0.8575999737 0.8981999755
 1317.1395264 6.0000000000 0.2315997928 8.7315998077 8.5000000000 1.3200000525 139743.82813 -0.012800000 0.4378955960 2.1145000458 76.730499268 143.37710571 0.9046999812 0.0000000000 0.8669000268 0.9243000150
 1317.2919922 6.0000000000 0.2464999855 8.7465000153 8.5000000000 1.3200000525 176357.82813 -0.011400000 0.4142898917 2.1173000336 76.681396484 143.08290100 0.9045000076 0.0000000000 0.9028000236 0.9243999720
 1317.4443359 6.0000000000 0.2777003944 8.7777004242 8.5000000000 1.3200000525 178710.89063 -0.009100000 0.4135480821 2.1201000214 74.617599487 143.14500427 0.9068999887 0.0000000000 0.8970000148 0.9272999763
 1317.5968018 6.0000000000 0.2336998135 8.7336997986 8.5000000000 1.3200000525 179159.07813 -0.007400000 0.4215976000 2.1189999580 73.541496277 143.29939270 0.9083999991 0.0000000000 0.9006999731 0.9291999936
 1317.7491455 6.0000000000 0.1638001949 8.6638002396 8.5000000000 1.3200000525 179608.85938 -0.007600000 0.4246075749 2.1178998947 73.937797546 143.28300476 0.9178000093 0.0000000000 0.9290999770 0.9394000173
 1317.9016113 6.0000000000 0.1478004009 8.6478004456 8.5000000000 1.3200000525 180060.28125 -0.006400000 0.4260697961 2.1182000637 76.264801025 143.21560669 0.9024999738 0.0000000000 0.8999999762 0.9237999916
 1318.0539551 6.0000000000 0.1612997055 8.6612997055 8.5000000000 1.3200000525 175239.73438 -0.004300000 0.4231902957 2.1231999397 77.237800598 143.07820129 0.9162999988 0.0000000000 0.9014000297 0.9384999871
 1318.2064209 6.0000000000 0.1754998863 8.6754999161 8.5000000000 1.3200000525 149603.75000 -0.004300000 0.4250775278 2.1259000301 77.944198608 142.77569580 0.9312000275 0.0000000000 0.9021000266 0.9545000196
 1318.3587646 6.0000000000 0.1696996987 8.6696996689 8.5000000000 1.3200000525 149603.75000 -0.003600000 0.4291248024 2.1303999424 76.782203674 142.54730225 0.8973000050 0.0000000000 0.8833000064 0.9190999866
 1318.5112305 6.0000000000 0.1560000926 8.6560001373 8.5000000000 1.3200000525 149603.75000 -0.001700000 0.4246086180 2.1342999935 74.673400879 142.26199341 0.8851000071 0.0000000000 0.9078000188 0.9064000249
 1318.6635742 6.0000000000 0.1515998989 8.6515998840 8.5000000000 1.3200000525 149603.75000 -0.001700000 0.4389345050 2.1347999573 72.443496704 142.29280090 0.9563999772 0.0000000000 0.9613000154 0.9815000296
 1318.8160400 6.0000000000 0.1595001072 8.6595001221 8.5000000000 1.3200000525 149603.75000 -0.005100000 0.4465858936 2.1277000904 73.846702576 142.34460449 0.9193999767 0.0000000000 0.8910999894 0.9424999952
 1318.9683838 6.0000000000 0.1667995006 8.6667995453 8.5000000000 1.3200000525 149603.75000 -0.006700000 0.4579088986 2.1236999035 76.887802124 142.45419312 0.8949000239 0.0000000000 0.8830000162 0.9167000055
 1319.1207275 6.0000000000 0.1681994945 8.6681995392 8.5000000000 1.3200000525 140519.84375 -0.008200000 0.4530437887 2.1224999428 77.848800659 142.56509399 0.9120000005 0.0000000000 0.8949000239 0.9345999956
 1319.2731934 6.0000000000 0.1735000908 8.6735000610 8.5000000000 1.3200000525 77721.156250 -0.008600000 0.4584895968 2.1261000633 75.142700195 142.47740173 0.9010999799 0.0000000000 0.8985999823 0.9229999781
 1319.4255371 6.0000000000 0.1790999919 8.6791000366 8.5000000000 1.3200000525 67457.515625 -0.007800000 0.4741269052 2.1312003136 72.214103699 142.16499329 0.9128999710 0.0000000000 0.9090999961 0.9354000092
 1319.5780029 6.0000000000 0.1827002019 8.6827001572 8.5000000000 1.3200000525 67457.515625 -0.006200000 0.4844417870 2.1336998940 71.030197144 140.97740173 0.9322000146 0.0000000000 0.9017000198 0.9553999901
 1319.7303467 6.0000000000 0.1851996779 8.6851997375 8.5000000000 1.3200000525 67457.515625 -0.003900000 0.4635065794 2.1345000267 69.575698853 140.13189697 0.9415000081 0.0000000000 0.9312999845 0.9649999738
 1319.8828125 6.0000000000 0.1948996037 8.6948995590 8.5000000000 1.3200000525 67560.039063 -0.002700000 0.4335449934 2.1328999996 68.784301758 138.86430359 0.9872000217 0.0000000000 0.9519000053 1.0130000114
 1320.0351563 6.0000000000 0.1634998024 8.6634998322 8.5000000000 1.3200000525 96619.710938 -0.002600000 0.4101068079 2.1335999966 68.939102173 138.27380371 1.0024000406 0.0000000000 1.0110000372 1.0286999941
 1320.1876221 6.0000000000 0.1309003979 8.6309003830 8.5000000000 1.3200000525 239512.68750 -0.002200000 0.4223511815 2.1335000992 72.128501892 138.53030396 0.9893000126 0.0000000000 0.9693999887 1.0144000053
 1320.3399658 6.0000000000 0.1521997005 8.6521997452 8.5000000000 1.3200000525 252919.21875 -0.002700000 0.4439667165 2.1317999363 74.556999207 139.05850220 0.9294000268 0.0000000000 0.9149000049 0.9512000084
 1320.4924316 6.0000000000 0.1785002053 8.6785001755 8.5000000000 1.3200000525 253507.96875 -0.006600000 0.4475721121 2.1273999214 74.840499878 139.67970276 0.9128999710 0.0000000000 0.8898000121 0.9336000085
 1320.6447754 6.0000000000 0.1639996022 8.6639995575 8.5000000000 1.3200000525 254097.57813 -0.010100000 0.4389809072 2.1264998913 74.322097778 140.33059692 0.8938999772 0.0000000000 0.8827999830 0.9133999944
 1320.7972412 6.0000000000 0.1513995975 8.6513996124 8.5000000000 1.3200000525 254700.65625 -0.012800000 0.4414479733 2.1270999908 73.949699402 140.29710388 0.8950999975 0.0000000000 0.8633000255 0.9143999815
 1320.9495850 6.0000000000 0.1574001014 8.6574001312 8.5000000000 1.3200000525 229683.26563 -0.016100001 0.4399572015 2.1247999668 75.082603455 139.97120667 0.8941000104 0.0000000000 0.8802000284 0.9131000042
 1321.1019287 6.0000000000 0.1556997001 8.6556997299 8.5000000000 1.3200000525 104162.04688 -0.016600000 0.4143989980 2.1259000301 75.629302979 139.59649658 0.9031000137 0.0000000000 0.8891999722 0.9219999909
 1321.2543945 6.0000000000 0.1511002034 8.6511001587 8.5000000000 1.3200000525 104162.04688 -0.015200000 0.3978752196 2.1271998882 75.117500305 140.49909973 0.9082999825 0.0000000000 0.8931000233 0.9272999763
 1321.4067383 6.0000000000 0.1514997035 8.6514997482 8.5000000000 1.3200000525 104162.04688 -0.012000000 0.4059619904 2.1278998852 75.615303040 141.07940674 0.9350000024 0.0000000000 0.8867999911 0.9548000097
 1321.5592041 6.0000000000 0.1620997936 8.6620998383 8.5000000000 1.3200000525 104162.04688 -0.009800000 0.4331332147 2.1266999245 76.147796631 141.33450317 0.9376000166 0.0000000000 0.8914999962 0.9574000239
 1321.7115479 6.0000000000 0.1588000804 8.6588001251 8.5000000000 1.3200000525 104162.04688 -0.008500000 0.4454801977 2.1238999367 76.489601135 141.57150269 0.9352999926 0.0000000000 0.9047999978 0.9548000097
 1321.8640137 6.0000000000 0.1596003026 8.6596002579 8.5000000000 1.3200000525 104162.04688 -0.008000000 0.4492869973 2.1198000908 76.083702087 141.69430542 0.9214000106 0.0000000000 0.9164000154 0.9402999878
 1322.0163574 6.0000000000 0.1596003026 8.6596002579 8.5000000000 1.3200000525 106658.86719 -0.007700000 0.4494388998 2.1161000729 75.658798218 141.78689575 0.9197000265 0.0000000000 0.8985999823 0.9384999871
 1322.1688232 6.0000000000 0.1437997967 8.6437997818 8.5000000000 1.3200000525 127607.18750 -0.009600000 0.4502173960 2.1170001030 76.099296570 141.69349670 0.9043999910 0.0000000000 0.8939999938 0.9225000143
 1322.3211670 6.0000000000 0.1316003948 8.6316003799 8.5000000000 1.3200000525 131322.25000 -0.011300000 0.4432086051 2.1212000847 75.291198730 141.25869751 0.9106000066 0.0000000000 0.8748999834 0.9290000200
 1322.4736328 6.0000000000 0.1361999959 8.6361999512 8.5000000000 1.3200000525 131322.25000 -0.011300000 0.4321738183 2.1271998882 73.280502319 140.73739624 0.9348000288 0.0000000000 0.8841000199 0.9542999864
 1322.6259766 6.0000000000 0.1473999023 8.6473999023 8.5000000000 1.3200000525 131322.25000 -0.010200000 0.4359059930 2.1307001114 71.746597290 140.53750610 0.9369000196 0.0000000000 0.9243999720 0.9566000104
 1322.7784424 6.0000000000 0.1571999043 8.6571998596 8.5000000000 1.3200000525 131322.25000 -0.009200000 0.4389735162 2.1307001114 69.825500488 140.65049744 0.9097999930 0.0000000000 0.8903999925 0.9283999801
