# LAS format log file from PETREL
# Project units are specified as depth units
#==================================================================
~Version information
VERS.   2.0:
WRAP.   NO:
#==================================================================
~Well
STRT .m      1456.9927979 :
STOP .m      2094.7868652 :
STEP .m     0.00000000 :
NULL .        -999.250000 :
COMP.           : COMPANY
WELL.  25/11-24 Jakob South   : WELL
FLD.            : FIELD
LOC.            : LOCATION
SRVC.           : SERVICE COMPANY
DATE.  2018-09-11 14:48:16   : Log Export Date {yyyy-MM-dd HH:mm:ss}
PROV.           : PROVINCE
UWI.   25/11-24   : UNIQUE WELL ID
API.            : API NUMBER
#==================================================================
~Curve
DEPT .m                   : DEPTH
Lithology_geolink ._      : Lithology_geolink
DCAL .in                  : DCAL
CALI .in                  : CALI
BS .in                    : BS
ROP .m/h                  : ROP
DRHO .g/cm3               : DRHO
NPHI .m3/m3               : NPHI
RHOB .g/cm3               : RHOB
PEF .b/e                  : PEF
GR .gAPI                  : GR
DTC .us/ft                : DTC
DTS .us/ft                : DTS
RDEP .ohm.m               : RDEP
RMIC .ohm.m               : RMIC
RMED .ohm.m               : RMED
~Parameter
#==================================================================
~Ascii
 1456.9927979 6.0000000000 -0.026900290 12.222929001 12.250000954 76.398628235 0.0041999999 0.4514000118 2.1138000488 5.0546998978 188.38560486 126.30629730 364.29483032 1.2848999500 0.5210000277 1.2211881876
 1457.1451416 6.0000000000 -0.351900131 11.898360252 12.250000954 75.862533569 0.0135000004 0.4954000115 2.0894000530 4.9562001228 192.00650024 126.55810547 362.46575928 1.1680999994 0.4117000103 1.1125868559
 1457.2976074 6.0000000000 0.2167997062 12.466344833 12.250000954 61.353015900 0.0251000002 0.5027999878 2.1156001091 4.9338998795 193.80929565 127.87069702 363.55712891 1.1227999926 0.4659999907 1.0691347122
 1457.4499512 6.0000000000 -0.349300414 11.901153564 12.250000954 64.038383484 0.0368000008 0.4997999966 2.1658999920 4.9588999748 190.19760132 129.31399536 366.36422729 1.1000000238 0.5629000068 1.0484166145
 1457.6022949 6.0000000000 -0.161500022 12.088199615 12.250000954 103.84709930 0.0454999991 0.4722999930 2.2107999325 4.9949002266 179.58090210 131.05880737 367.90802002 1.1974999905 0.6277999878 1.1434475183
 1457.7547607 6.0000000000 0.4424000084 12.691916466 12.250000954 141.58000183 0.0478000008 0.4582000077 2.2300000191 5.0100998878 167.93940735 132.66020203 370.72784424 1.2362999916 0.6292999983 1.1795711517
 1457.9071045 6.0000000000 -0.438199967 11.813210487 12.250000954 144.21060181 0.0461000018 0.4546999931 2.2258999348 4.9883999825 159.32640076 134.03010559 370.73846436 1.1904000044 0.6499999762 1.1448556185
 1458.0595703 5.0000000000 -0.341699600 11.908223152 12.250000954 133.87240601 0.0408999994 0.4812999964 2.2060999870 4.9284000397 158.86940002 135.23919678 373.45516968 1.1216000319 0.5989000201 1.0850479603
 1458.2119141 5.0000000000 0.0263996106 12.275809288 12.250000954 128.70080566 0.0339000002 0.4650000036 2.1851000786 4.8211998940 164.77969360 137.31930542 380.96148682 1.1126999855 0.5339999795 1.0751157999
 1458.3643799 5.0000000000 -0.196999505 12.053179741 12.250000954 126.64469910 0.0289999992 0.4848999977 2.1844999790 4.6743001938 167.09989929 139.17779541 391.00183105 1.0898000002 0.4959999919 1.0527180433
 1458.5167236 5.0000000000 0.2523002923 12.501939774 12.250000954 121.49080658 0.0214000009 0.4875999987 2.1842000484 4.5556001663 167.28140259 138.92230225 396.92117310 1.0597000122 0.5019999743 1.0213251114
 1458.6691895 5.0000000000 0.0034999852 12.253698349 12.250000954 123.80220032 0.0194000024 0.5133000016 2.1903998852 4.4987998009 169.13560486 139.75109863 402.72824097 1.0633000135 0.6018000245 1.0236980915
 1458.8215332 5.0000000000 0.0466995202 12.296667099 12.250000954 118.41110229 0.0161000006 0.5103999972 2.1786999702 4.6250000000 171.56959534 142.03779602 405.30706787 1.0299999714 0.7035999894 0.9981204867
 1458.9739990 5.0000000000 -0.072600357 12.177494049 12.250000954 113.02298737 0.0200999994 0.4814999998 2.1717000008 4.9390997887 171.24749756 144.62030029 408.18231201 1.0226000547 0.7254999876 0.9919049740
 1459.1263428 5.0000000000 -0.199600205 12.050500870 12.250000954 109.95639801 0.0256999992 0.4860000014 2.1656999588 5.3453998566 165.44700623 145.10209656 408.70446777 1.0671999454 0.6313999891 1.0334665775
 1459.2788086 5.0000000000 -0.158900321 12.091068268 12.250000954 110.41400146 0.0329999998 0.5094000101 2.1754000187 5.5633997917 162.90840149 144.24259949 410.94369507 1.0667999983 0.5661000013 1.0317014456
 1459.4311523 5.0000000000 -0.204600319 12.045435905 12.250000954 107.60530090 0.0366999991 0.5245000124 2.1877999306 5.4960999489 160.97489929 143.07339478 413.30722046 1.0428999662 0.5837000012 1.0069198608
 1459.5836182 5.0000000000 -0.151300400 12.098656654 12.250000954 97.754257202 0.0342999995 0.5235999823 2.1960000992 5.2121000290 165.26379395 143.17689514 413.96588135 1.0360000134 0.6877999902 0.9993060827
 1459.7359619 5.0000000000 -0.082799911 12.167144775 12.250000954 77.159126282 0.0324999988 0.5012000203 2.2049999237 4.9762997627 168.73390198 143.99510193 409.56704712 1.0447000265 0.6798999906 1.0077931881
 1459.8883057 5.0000000000 -0.037099838 12.212826729 12.250000954 65.455703735 0.0274999999 0.5231000185 2.2165999413 4.9879999161 170.70260620 144.09579468 403.99203491 1.0381000042 0.5996999741 0.9993135929
 1460.0407715 5.0000000000 -0.026900290 12.223091125 12.250000954 70.659446716 0.0348000005 0.5543000102 2.2818000317 5.2364001274 163.53990173 143.03840637 395.79376221 1.0623999834 0.5618000031 1.0207827091
 1460.1931152 5.0000000000 -0.072600357 12.177472115 12.250000954 84.252616882 0.0474000014 0.5314000249 2.3573999405 5.5538001060 153.10830688 141.47549438 392.20712280 1.1224000454 0.7506999969 1.0773093700
 1460.3455811 5.0000000000 -0.088800423 12.161211967 12.250000954 75.755249023 0.0658000037 0.4659000039 2.4219999313 5.6711997986 149.29170227 140.25520325 390.80673218 1.2200000286 1.0599999428 1.1734229326
 1460.4979248 5.0000000000 -0.049799915 12.200138092 12.250000954 64.598426819 0.0623999983 0.4061999917 2.3815999031 5.6592998505 151.07569885 140.87699890 389.02377319 1.0891000032 1.1122000217 1.0502976179
 1460.6503906 5.0000000000 0.0082998276 12.258253098 12.250000954 60.949150085 0.0460000001 0.4404999912 2.3006999493 5.6016998291 158.15989685 140.96359253 385.84024048 1.0439000130 0.8316000104 1.0068347454
 1460.8027344 5.0000000000 0.0873003080 12.337237358 12.250000954 65.404197693 0.0230999999 0.4833000004 2.2162001133 5.6733999252 162.10009766 139.43699646 388.70541382 1.0397000313 0.7089999914 1.0006049871
 1460.9552002 5.0000000000 0.2624998093 12.512360573 12.250000954 90.059707642 0.0147000002 0.5152999759 2.1909000874 5.7660999298 165.15859985 138.74330139 387.88601685 1.0213999748 0.5855000019 0.9879102111
 1461.1075439 5.0000000000 0.0654001236 12.315558434 12.250000954 105.61419678 0.0129000004 0.4833999872 2.1981999874 5.7100000381 164.76449585 138.14199829 386.96572876 1.0233999491 0.5498999953 0.9914971590
 1461.2600098 5.0000000000 0.0466995202 12.296716690 12.250000954 98.331703186 0.0114000002 0.5041999817 2.2063000202 5.3607997894 163.26980591 137.89160156 388.27316284 1.0663000345 0.6011999846 1.0350650549
 1461.4123535 5.0000000000 0.1406002045 12.390524864 12.250000954 86.911743164 0.0088000000 0.4945999980 2.2065999508 4.9201002121 164.39480591 137.27760315 392.96685791 1.0535000563 0.6974999905 1.0223102570
 1461.5648193 5.0000000000 0.1609001160 12.410884857 12.250000954 76.191596985 0.0104999999 0.4990999997 2.2032001019 4.6621999741 162.76690674 136.30000305 406.23004150 1.0371999741 0.7506999969 1.0057132244
 1461.7171631 5.0000000000 0.1203003004 12.370332718 12.250000954 65.470802307 0.0203000009 0.4765999913 2.2130999565 4.6831002235 156.58250427 135.55659485 416.80850220 1.1123000383 0.7343000174 1.0702482462
 1461.8695068 5.0000000000 -0.217300400 12.033239365 12.250000954 51.437011719 0.0275999997 0.4760000110 2.2188999653 4.8180999756 151.02799988 135.17550659 402.29159546 1.1757999659 0.7215999961 1.1266096830
 1462.0219727 5.0000000000 -0.067500107 12.182499886 12.250000954 35.040679932 0.0280000009 0.5047000051 2.2163000107 4.9077000618 150.12710571 134.02090454 385.75845337 1.1232999563 0.7225000262 1.0765402317
 1462.1743164 5.0000000000 0.2117003947 12.461700439 12.250000954 27.283140182 0.0190999992 0.5457999706 2.2153000832 4.9630999565 153.28819275 133.19929504 367.86337280 1.0621000528 0.6952000260 1.0144994259
 1462.3267822 5.0000000000 -0.019300463 12.230699539 12.250000954 30.918960571 0.0132999998 0.5820000172 2.2764000893 4.9969000816 147.76890564 135.68679810 358.37390137 1.0901000500 0.7002999783 1.0413783789
 1462.4791260 5.0000000000 -0.014499660 12.235500336 12.250000954 49.827751160 0.0105999997 0.4781999886 2.3731999397 5.0864000320 137.60589600 140.65809631 333.62808228 1.2087999582 0.8349000216 1.1573140621
 1462.6315918 16.000000000 -0.105600402 12.144399643 12.250000954 82.764762878 0.0096000005 0.3318000138 2.4377999306 5.2090997696 122.24320221 143.84199524 319.21414185 1.7042000294 1.3601000309 1.6230266094
 1462.7839355 16.000000000 -0.250300407 11.999699593 12.250000954 97.483268738 0.0024999999 0.2208999991 2.3756000996 5.2866001129 119.42389679 144.33500671 327.74157715 2.0769000053 1.6024999619 1.9848102331
