# LAS format log file from PETREL
# Project units are specified as depth units
#==================================================================
~Version information
VERS.   2.0:
WRAP.   NO:
#==================================================================
~Well
STRT .m      1090.1660156 :
STOP .m      2511.1435547 :
STEP .m     0.00000000 :
NULL .        -999.250000 :
COMP.           : COMPANY
WELL.  25/10-10  Balder Triassic   : WELL
FLD.            : FIELD
LOC.            : LOCATION
SRVC.           : SERVICE COMPANY
DATE.  2018-09-11 14:48:14   : Log Export Date {yyyy-MM-dd HH:mm:ss}
PROV.           : PROVINCE
UWI.   25/10-10   : UNIQUE WELL ID
API.            : API NUMBER
#==================================================================
~Curve
DEPT .m                   : DEPTH
Lithology_geolink ._      : Lithology_geolink
CALI .in                  : CALI
BS .in                    : BS
ROP .m/h                  : ROP
DRHO .g/cm3               : DRHO
THOR .ppm                 : THOR
NPHI .m3/m3               : NPHI
RHOB .g/cm3               : RHOB
PEF .b/e                  : PEF
GR .gAPI                  : GR
URAN .ppm                 : URAN
DTC .us/ft                : DTC
DTS .us/ft                : DTS
RDEP .ohm.m               : RDEP
RSHA .ohm.m               : RSHA
RMED .ohm.m               : RMED
~Parameter
#==================================================================
~Ascii
# ...
 2122.0664063 5.0000000000 12.094300270 12.250000954 108.68569183 0.0266999993 6.4763998985 0.2978000045 2.3329000473 5.8088998795 90.492401123 2.3118999004 97.574798584 184.13258362 0.8349999785 0.7376999855 0.8083000183
 2122.2187500 5.0000000000 12.034600258 12.250000954 117.00230408 0.0234999992 7.3046998978 0.2978998423 2.3382914066 5.4048476219 91.793815613 2.0539000034 94.265205383 187.02229309 1.3032495975 0.9962856174 1.2314219475
 2122.3710938 5.0000000000 12.083100319 12.250000954 118.16075897 0.0137999998 7.7364993095 0.2831237316 2.3394980431 4.9990506172 94.625663757 2.0195000172 92.011711121 185.87600708 1.4168189764 1.0610966682 1.3421235085
 2122.5234375 5.0000000000 12.101699829 12.250000954 119.91076660 -0.003400000 8.0220003128 0.2812030315 2.3454904556 4.5150756836 101.12866974 2.0882999897 90.717666626 183.61279297 1.4200949669 1.0678892136 1.3432984352
 2122.6760254 5.0000000000 12.101699829 12.250000954 140.37728882 0.0046000001 7.7699995041 0.2815000117 2.3204998970 4.3418998718 99.309600830 2.0353000164 90.829902649 183.67988586 1.3425999880 0.9553999901 1.2710000277
 2122.8283691 5.0000000000 12.060700417 12.250000954 138.53904724 0.0077999998 7.1083002090 0.2900862396 2.2646894455 4.2312774658 95.921630859 2.0125999451 91.810928345 187.94700623 0.5618512034 0.4818588793 0.5578428507
 2122.9807129 5.0000000000 12.057000160 12.250000954 147.51640320 0.0164999999 5.9546999931 0.2954913676 2.2017009258 4.3161635399 85.492530823 1.7756999731 94.394363403 194.10350037 0.5662908554 0.4599339664 0.5689802766
 2123.1330566 5.0000000000 12.060700417 12.250000954 141.87860107 0.0111999996 5.4244999886 0.2917060852 2.1651585102 4.7692728043 82.100814819 1.6220999956 99.145675659 194.72760010 0.5668990612 0.4567051232 0.5696988702
 2123.2856445 5.0000000000 12.064399719 12.250000954 136.24113464 0.0198999997 5.1307997704 0.2851000130 2.1791999340 4.9064998627 79.771797180 1.2569999695 102.02249908 201.83230591 0.5697000027 0.4490999877 0.5737000108
 2123.4379883 5.0000000000 12.079400063 12.250000954 126.52198792 0.0167999994 4.8295001984 0.2942000031 2.1928999424 4.9765000343 79.053298950 1.1687999964 102.34829712 203.89559937 0.5691999793 0.4474000037 0.5738999844
 2123.5903320 5.0000000000 12.057000160 12.250000954 140.58956909 0.0098000001 5.0296998024 0.2960969508 2.2035827637 4.6932539940 78.751083374 0.9208999872 102.23348236 204.58729553 0.5752902031 0.4501955211 0.5815876722
 2123.7426758 5.0000000000 12.057000160 12.250000954 162.14764404 0.0014000000 5.0062999725 0.2909083366 2.2045984268 4.9459939003 79.828765869 0.7957000136 102.68806458 195.52270508 0.6418931484 0.4959265888 0.6481931210
 2123.8952637 5.0000000000 12.060700417 12.250000954 150.09088135 0.0051000002 4.7473998070 0.2741000056 2.2356998920 5.3215999603 78.438903809 0.8005999923 99.753196716 191.07760620 0.6800000072 0.5451999903 0.6707000136
 2124.0476074 5.0000000000 12.094300270 12.250000954 148.74737549 0.0089999996 4.4422001839 0.2691000104 2.2883999348 5.2848000526 77.737800598 0.8499000072 99.462799072 188.09840393 0.7749999762 0.6215000153 0.7486000061
 2124.1999512 5.0000000000 12.071900368 12.250000954 127.53182220 0.0159000009 5.5815000534 0.2683012784 2.3697695732 5.2123165131 78.441467285 0.5832999945 96.899612427 186.32569885 0.7900758386 0.6363761425 0.7580847740
 2124.3522949 5.0000000000 12.086799622 12.250000954 127.95375061 0.0187999997 5.9938001633 0.2584158480 2.4215171337 5.1773557663 85.032722473 0.9078000188 93.807960510 180.94070435 0.8654789925 0.7163715959 0.8215980530
 2124.5046387 5.0000000000 12.131601334 12.250000954 128.72145081 0.0233999994 7.1230001450 0.2270503193 2.4598386288 5.0979270935 89.065643311 0.5703999996 92.852027893 182.75979614 1.4244030714 1.1632828712 1.3129115105
 2124.6572266 5.0000000000 12.150199890 12.250000954 129.48884583 0.0242999997 7.0734000206 0.2028000057 2.4512000084 4.6690001488 87.177398682 0.7050999999 92.108299255 183.78909302 1.2199000120 1.1404999495 1.1428999901
 2124.8095703 5.0000000000 12.131601334 12.250000954 122.33398438 0.0172000006 6.9869999886 0.1934150308 2.4287359715 4.3989329338 85.122299194 0.9221000075 92.400436401 185.44650269 1.0874123573 1.0873850584 1.0128084421
 2124.9619141 5.0000000000 12.131601334 12.250000954 123.35105133 0.0167999994 6.8098998070 0.2045820504 2.4187159538 4.5533514023 87.699859619 1.3286999464 91.737670898 177.90080261 1.3338042498 1.3541716337 1.2513169050
 2125.1142578 5.0000000000 12.127800941 12.250000954 100.87664032 0.0164000001 7.8432993889 0.2156822085 2.4086163044 4.7083516121 92.792037964 1.3964999914 91.073379517 170.35519409 2.1316199303 2.0995042324 1.9723433256
 2125.2668457 5.0000000000 12.138999939 12.250000954 105.31726074 0.0278999992 7.8595004082 0.2261999995 2.4514999390 5.3126997948 94.658096313 1.5657000542 88.343299866 152.76750183 3.8738000393 3.4481999874 3.5620000362
 2125.4191895 5.0000000000 12.265800476 12.250000954 73.336616516 0.0285999998 8.2467002869 0.1942999959 2.4925999641 5.9229998589 94.321800232 1.7276999950 80.566200256 140.46850586 4.5015997887 3.6981999874 4.1774001122
 2125.5715332 5.0000000000 12.303098679 12.250000954 58.093502045 0.0359999985 7.4165000916 0.1325988770 2.5753674507 6.1714019775 93.143493652 2.0371999741 71.002426147 137.02130127 6.5942463875 4.1547684669 6.0504984856
 2125.7238770 5.0000000000 12.243498802 12.250000954 59.938655853 0.0296999998 7.3934998512 0.1017493606 2.5913743973 6.3015913963 89.276504517 1.8949999809 68.533737183 120.72550201 12.368236542 4.9345498085 11.207027435
 2125.8764648 5.0000000000 12.206199646 12.250000954 33.450130463 0.0452000014 5.9302000999 0.0847000033 2.6201000214 6.3241000175 82.863502502 2.0854001045 67.089897156 117.68049622 14.935400009 5.0359001160 13.885700226
 2126.0288086 5.0000000000 12.138999939 12.250000954 30.849739075 0.0478000008 5.7090001106 0.0838999972 2.6335000992 6.0988998413 78.902603149 1.6548000574 69.133102417 124.31771088 9.2220001221 4.3625998497 8.5476999283
 2126.1811523 5.0000000000 12.131601334 12.250000954 27.267389297 0.0340999998 5.0784997940 0.0886923149 2.6154289246 5.5789337158 76.583518982 1.8688000441 67.208282471 123.97989655 2.1407482624 1.8768835068 2.0006921291
 2126.3334961 5.0000000000 12.116700172 12.250000954 24.910104752 0.0190999992 5.5949997902 0.1051735580 2.5707714558 4.9369292259 79.992919922 1.9038000107 64.822624207 136.63870239 1.0745931864 1.0395376682 1.0314389467
 2126.4858398 5.0000000000 12.094300270 12.250000954 26.092847824 0.0171000008 5.8784999847 0.1277637780 2.5014111996 4.6314888000 83.490394592 1.8271000385 74.458930969 150.55419922 0.9623773694 0.9273778796 0.9469331503
 2126.6384277 5.0000000000 12.086799622 12.250000954 25.335958481 0.0162000004 6.0836000443 0.1644999981 2.4277000427 4.6662001610 90.562400818 2.0318999290 92.652900696 164.46969604 0.9537000060 0.9090999961 0.9509999752
 2126.7907715 5.0000000000 12.086799622 12.250000954 28.426181793 0.0244999994 5.7235999107 0.2091284692 2.3998446465 4.6024022102 92.177810669 2.0102999210 94.707702637 177.55200195 0.9038798213 0.8430058956 0.9092668891
 2126.9431152 5.0000000000 12.086799622 12.250000954 31.507871628 0.0186999999 5.9502000809 0.2490360588 2.3483824730 4.2606482506 93.069671631 1.9659998417 88.153228760  -999.250000 0.7998668551 0.7272855639 0.8134536743
 2127.0954590 5.0000000000 12.094300270 12.250000954 30.576774597 0.0179999992 5.3159999847 0.2717636228 2.3025734425 3.9009764194 89.968780518 1.8315999508 89.937118530  -999.250000 0.6674123406 0.5876238942 0.6912958622
 2127.2480469 5.0000000000 12.109199524 12.250000954 35.421916962 0.0175999999 5.2828001976 0.2788999975 2.2581999302 4.0022997856 86.826797485 1.5736000538 92.191703796  -999.250000 0.5709999800 0.5113000274 0.6014000177
 2127.4003906 5.0000000000 12.083100319 12.250000954 50.620079041 0.0151000004 5.1159000397 0.2779000103 2.2267999649 4.3534002304 87.125198364 1.6747000217 95.252700806  -999.250000 0.5554999709 0.5009999871 0.5929999948
 2127.5527344 5.0000000000 12.086799622 12.250000954 88.827430725 0.0309999995 5.7354998589 0.2934750319 2.2410771847 4.7130236626 85.614318848 1.1914000511 97.613716125  -999.250000 0.5633873343 0.4914153516 0.6085750461
