# LAS format log file from PETREL
# Project units are specified as depth units
#==================================================================
~Version information
VERS.   2.0:
WRAP.   NO:
#==================================================================
~Well
STRT .m      353.26309204 :
STOP .m      2468.2702637 :
STEP .m     0.00000000 :
NULL .        -999.250000 :
COMP.           : COMPANY
WELL.  25/11-1  Balder   : WELL
FLD.            : FIELD
LOC.            : LOCATION
SRVC.           : SERVICE COMPANY
DATE.  2018-09-11 14:48:15   : Log Export Date {yyyy-MM-dd HH:mm:ss}
PROV.           : PROVINCE
UWI.   25/11-1   : UNIQUE WELL ID
API.            : API NUMBER
#==================================================================
~Curve
DEPT .m                   : DEPTH
Lithology_geolink ._      : Lithology_geolink
CALI .in                  : CALI
MUDWEIGHT ._              : MUDWEIGHT
ROP .m/h                  : ROP
DRHO .g/cm3               : DRHO
RHOB .g/cm3               : RHOB
GR .gAPI                  : GR
DTC .us/ft                : DTC
DTE .us/ft                : DTE
RDEP .ohm.m               : RDEP
SP .mV                    : SP
RSHA .ohm.m               : RSHA
RMED .ohm.m               : RMED
~Parameter
#==================================================================
~Ascii
# ...
 2311.2983398 5.0000000000 16.249410629 11.300000191 2.2292809486 0.0185913462 2.4761960506 43.725440979 80.934516907 80.934402466 2.5691039562 66.264175415 3.5382010937 2.1903979778
 2311.4506836 5.0000000000 16.194900513 11.300000191 2.2907228470 0.0217311997 2.4888010025 45.764709473 80.575645447 80.576271057 2.5575010777 66.327568054 3.3471941948 2.1956999302
 2311.6030273 5.0000000000 16.154680252 11.300000191 2.2942388058 0.0183461551 2.4936010838 48.367595673 80.163810730 80.164161682 2.5618081093 66.338523865 3.2439332008 2.1967020035
 2311.7553711 6.0000000000 16.120269775 11.300000191 2.5940759182 0.0184615385 2.4956979752 50.407440186 80.774833679 80.773323059 2.5778160095 66.387207031 3.1772139072 2.2010109425
 2311.9079590 6.0000000000 16.087009430 11.300000191 9.6011219025 0.0116762817 2.4940009117 50.656600952 81.383872986 81.384101868 2.5971930027 66.654365540 3.1860969067 2.2139949799
 2312.0603027 6.0000000000 16.085500717 11.300000191 10.460235596 0.0075352564 2.4927000999 49.395019531 81.377113342 81.377098083 2.6238000393 66.802108765 3.3996961117 2.2323989868
 2312.2126465 6.0000000000 16.076089859 11.300000191 10.501910210 0.0055375998 2.4948010445 48.344333649 80.981292725 80.982131958 2.6653211117 66.881111145 3.6614704132 2.2521100044
 2312.3649902 6.0000000000 16.044879913 11.300000191 10.503895760 0.0057307691 2.4963030815 48.486061096 80.491973877 80.493286133 2.7250499725 67.025573730 3.9289052486 2.2794260979
 2312.5175781 6.0000000000 16.010919571 11.300000191 10.505208969 0.0096618589 2.4998979568 48.473709106 79.817222595 79.816902161 2.7953629494 67.109741211 3.9766759872 2.3150820732
 2312.6699219 6.0000000000 15.977510452 11.300000191 10.506840706 0.0131971156 2.5048990250 47.861591339 79.267272949 79.267196655 2.8612899780 67.122528076 3.9692010880 2.3500950336
 2312.8222656 6.0000000000 15.959500313 11.300000191 10.508481026 0.0161936004 2.5097010136 46.392982483 78.888656616 78.889305115 2.9179110527 67.120529175 4.1128997803 2.3809061050
 2312.9746094 5.0000000000 15.955800056 11.300000191 10.495191574 0.0191923082 2.5134010315 44.763393402 78.755676270 78.755813599 2.9654209614 67.141334534 4.2454400063 2.4072129726
 2313.1269531 5.0000000000 15.954990387 11.300000191 10.371534348 0.0229230765 2.5140979290 43.055934906 78.902442932 78.901863098 3.0009200573 67.248878479 4.0044441223 2.4292190075
 2313.2795410 5.0000000000 15.948299408 11.300000191 9.8508691788 0.0203381404 2.5118999481 41.811531067 79.250312805 79.250396729 3.0217950344 67.259994507 3.8584389687 2.4490950108
 2313.4318848 5.0000000000 15.932200432 11.300000191 8.7601242065 0.0175376013 2.5171010494 41.592399597 79.566223145 79.565696716 3.0278999805 67.267921448 4.2147655487 2.4688019753
 2313.5842285 5.0000000000 15.912289619 11.300000191 8.2204647064 0.0221153852 2.5279040337 42.103210449 79.692436218 79.692390442 3.0266020298 67.283561707 4.5969810486 2.4878070354
 2313.7365723 5.0000000000 15.894490242 11.300000191 8.1751585007 0.0298461542 2.5370039940 41.112911224 79.287330627 79.288345337 3.0310139656 67.190055847 4.5844397545 2.5023100376
 2313.8891602 5.0000000000 15.881401062 11.300000191 8.1758041382 0.0356618613 2.5413980484 39.828308105 78.837608337 78.837402344 3.0475940704 67.065994263 4.6064910889 2.5136950016
 2314.0415039 5.0000000000 15.870598793 11.300000191 8.1176424026 0.0326057673 2.5388000011 38.666328430 78.121849060 78.121803284 3.0736989975 66.963386536 4.5248022079 2.5239989758
 2314.1938477 5.0000000000 15.859689713 11.300000191 8.1174020767 0.0266127996 2.5333991051 39.160377502 77.901329041 77.901649475 3.1044108868 66.928443909 4.2710347176 2.5294020176
 2314.3461914 5.0000000000 15.843379974 11.300000191 8.0987186432 0.0264615398 2.5289940834 41.386219025 78.076362610 78.076423645 3.1367220879 67.012390137 4.3527412415 2.5349059105
 2314.4987793 5.0000000000 15.815219879 11.300000191 8.0599260330 0.0189439114 2.5198049545 43.614738464 77.660827637 77.660598755 3.1677839756 67.075630188 4.3152189255 2.5433959961
 2314.6511230 5.0000000000 15.781510353 11.300000191 7.7215476036 0.0130705135 2.5107009411 45.843269348 77.782905579 77.782897949 3.1972959042 67.034034729 4.2327117920 2.5486989021
 2314.8034668 6.0000000000 15.747489929 11.300000191 6.1605067253 0.0046880003 2.5096011162 47.703746796 77.936500549 77.936157227 3.2283029556 66.982635498 4.5784411430 2.5495998859
 2314.9558105 6.0000000000 15.693960190 11.300000191 5.4188580513 0.0020000001 2.5132050514 50.590091705 78.337577820 78.336662292 3.2408819199 67.283622742 4.5564570427 2.5494000912
 2315.1081543 6.0000000000 15.621230125 11.300000191 5.2730979919 0.0078461533 2.5218129158 53.518917084 78.744117737 78.743247986 3.2108399868 68.190620422 4.2616271973 2.5492000580
 2315.2607422 6.0000000000 15.544118881 11.300000191 5.1710557938 0.0158589743 2.5356960297 54.994689941 78.979148865 78.979202271 3.1486170292 68.356628418 4.6480879784 2.5487000942
 2315.4130859 6.0000000000 15.472200394 11.300000191 5.1097679138 0.0253120009 2.5510010719 54.059089661 79.045021057 79.044891357 3.0780940056 67.929031372 4.9428143501 2.5390980244
 2315.5654297 6.0000000000 15.427591324 11.300000191 5.0495038033 0.0331153832 2.5585980415 50.660881042 78.960632324 78.960838318 3.0097689629 67.711555481 4.8156938553 2.5127849579
 2315.7177734 6.0000000000 15.400580406 11.300000191 5.0491604805 0.0350000001 2.5548958778 47.262557983 78.897178650 78.896896362 2.9437460899 67.664634705 4.3792405128 2.4800770283
 2315.8703613 5.0000000000 15.376110077 11.300000191 5.0508031845 0.0276762825 2.5500020981 44.387359619 79.318527222 79.318702698 2.8788259029 67.567527771 3.8584959507 2.4528110027
 2316.0227051 5.0000000000 15.360400200 11.300000191 5.0524435043 0.0213381406 2.5425999165 45.622959137 80.172607422 80.172599792 2.8137021065 67.476158142 3.8092019558 2.4265010357
 2316.1750488 5.0000000000 15.351800919 11.300000191 5.1734933853 0.0185375996 2.5303959846 45.707473755 81.026870728 81.025238037 2.7489790916 67.358634949 3.9922804832 2.3981919289
 2316.3273926 5.0000000000 15.348210335 11.300000191 5.4769601822 0.0223846156 2.5167889595 46.314556122 81.882270813 81.880523682 2.6885619164 67.256439209 3.9165670872 2.3733880520
 2316.4799805 5.0000000000 15.363390923 11.300000191 5.7874755859 0.0247323718 2.5014081001 47.069499969 82.417900085 82.418205261 2.6346280575 67.229789734 3.8388409615 2.3569090366
 2316.6323242 5.0000000000 15.390800476 11.300000191 6.0577530861 0.0206057690 2.4884018898 47.019508362 82.556541443 82.556602478 2.5959060192 67.153236389 3.7884080410 2.3443019390
 2316.7846680 5.0000000000 15.419210434 11.300000191 6.1964726448 0.0211935993 2.4817988873 47.304634094 82.608596802 82.608512878 2.5795989037 67.083335876 3.9687819481 2.3286969662
 2316.9370117 5.0000000000 15.445810318 11.300000191 6.3119363785 0.0227307696 2.4781000614 45.836017609 82.401512146 82.402030945 2.5766000748 67.066528320 4.3214855194 2.3137929440
 2317.0893555 5.0000000000 15.458398819 11.300000191 6.4166035652 0.0237307698 2.4770948887 42.662879944 82.020149231 82.020210266 2.5764000416 67.047637939 4.2389554977 2.3022921085
 2317.2419434 5.0000000000 15.460000038 11.300000191 6.4215378761 0.0181410257 2.4721009731 40.326660156 82.641349792 82.641502380 2.5762000084 66.948318481 3.9554769993 2.2935020924
 2317.3942871 5.0000000000 15.470100403 11.300000191 6.3484263420 0.0094192000 2.4637010098 40.962291718 83.263542175 83.262504578 2.5759999752 66.875282288 3.7608208656 2.2845990658
 2317.5466309 5.0000000000 15.490010262 11.300000191 6.2229056358 0.0157692302 2.4681038857 42.242328644 83.885726929 83.884506226 2.5757999420 66.945587158 3.8694839478 2.2749969959
 2317.6989746 5.0000000000 15.509609222 11.300000191 6.0216221809 0.0175384618 2.4760990143 43.522296906 84.508583069 84.507408142 2.5756020546 67.028877258 3.7800886631 2.2692990303
 2317.8515625 5.0000000000 15.517499924 11.300000191 5.8770389557 0.0111410255 2.4751009941 44.802280426 84.717277527 84.717399597 2.5782990456 67.035491943 3.7133269310 2.2679009438
