# LAS format log file from PETREL
# Project units are specified as depth units
#==================================================================
~Version information
VERS.   2.0:
WRAP.   NO:
#==================================================================
~Well
STRT .m      3054.5593262 :
STOP .m      3397.3076172 :
STEP .m     0.00000000 :
NULL .        -999.250000 :
COMP.           : COMPANY
WELL.  25/10-8A  Hanz Appr   : WELL
FLD.            : FIELD
LOC.            : LOCATION
SRVC.           : SERVICE COMPANY
DATE.  2018-09-11 14:48:15   : Log Export Date {yyyy-MM-dd HH:mm:ss}
PROV.           : PROVINCE
UWI.   25/10-8 A   : UNIQUE WELL ID
API.            : API NUMBER
#==================================================================
~Curve
DEPT .m                   : DEPTH
Lithology_geolink ._      : Lithology_geolink
NPHI .m3/m3               : NPHI
RHOB .g/cm3               : RHOB
GR .gAPI                  : GR
RDEP .ohm.m               : RDEP
RSHA .ohm.m               : RSHA
~Parameter
#==================================================================
~Ascii
# ...
 3147.3710938 6.0000000000 0.1557999998 2.4100444317 85.963081360 3.1292121410 3.4839489460
 3147.5234375 6.0000000000 0.1584399939 2.4105412960 85.954002380 3.1605892181 3.2789165974
 3147.6757813 6.0000000000 0.1633900106 2.4026782513 85.480247498 3.1993832588 3.1524810791
 3147.8283691 6.0000000000 0.1671400070 2.3838467598 84.839195251 3.3271715641 2.9307546616
 3147.9807129 6.0000000000 0.1725099981 2.3641030788 84.433677673 3.5446541309 2.7959992886
 3148.1330566 6.0000000000 0.1766099930 2.3485653400 84.228515625 3.2995152473 3.5758030415
 3148.2854004 6.0000000000 0.1827799976 2.3419437408 84.338455200 2.9417998791 3.8973720074
 3148.4379883 6.0000000000 0.1882200092 2.3450624943 84.987602234 2.7731847763 3.1339468956
 3148.5903320 6.0000000000 0.1910499930 2.3495459557 85.871528625 2.6469740868 2.6686856747
 3148.7426758 6.0000000000 0.1932099909 2.3495388031 86.311706543 2.5251951218 2.5491313934
 3148.8950195 6.0000000000 0.1916399896 2.3472816944 86.166313171 2.4306180477 2.3478589058
 3149.0476074 6.0000000000 0.1892700046 2.3470299244 85.859771729 2.3907809258 2.1671907902
 3149.1999512 6.0000000000 0.1853400022 2.3489868641 85.534141541 2.3701210022 2.0496923923
 3149.3522949 6.0000000000 0.1758300066 2.3544340134 85.201705933 2.3179600239 2.0039150715
 3149.5046387 6.0000000000 0.1653400064 2.3650665283 85.159103394 2.2518577576 2.0267009735
 3149.6569824 6.0000000000 0.1603300124 2.3759040833 85.297309875 2.2237415314 2.0497751236
 3149.8095703 6.0000000000 0.1613999903 2.3774240017 85.616577148 2.2444086075 2.0577256680
 3149.9619141 6.0000000000 0.1666099876 2.3690907955 86.078948975 2.3182072639 2.1056675911
 3150.1142578 6.0000000000 0.1805699915 2.3575730324 86.474197388 2.3820672035 2.2799353600
 3150.2666016 6.0000000000 0.1942099929 2.3512358665 86.706077576 2.2964863777 2.4214785099
 3150.4191895 6.0000000000 0.2033200115 2.3518130779 86.788833618 2.1416115761 2.3765878677
 3150.5715332 6.0000000000 0.2036899924 2.3566026688 86.768608093 2.0749397278 2.2558197975
 3150.7238770 6.0000000000 0.1899200082 2.3662211895 86.478370667 2.1315340996 2.1895887852
 3150.8762207 6.0000000000 0.1808400005 2.3773434162 85.979080200 2.1710207462 2.3379464149
 3151.0288086 6.0000000000 0.1788299978 2.3758816719 85.322677612 2.0650558472 2.6511566639
 3151.1811523 6.0000000000 0.1757099926 2.3595900536 84.642501831 1.9985172749 2.7562136650
 3151.3334961 6.0000000000 0.1735899895 2.3385093212 83.496032715 1.9979687929 2.7204341888
 3151.4858398 6.0000000000 0.1631100029 2.3317768574 81.287277222 1.9365266562 2.7952771187
 3151.6381836 6.0000000000 0.1520899981 2.3408110142 77.790840149 1.8601137400 2.6765284538
 3151.7907715 6.0000000000 0.1416099966 2.3503034115 73.970901489 1.8080182076 2.4849982262
 3151.9431152 5.0000000000 0.1380600035 2.3457634449 68.966247559 1.7844159603 2.3029844761
 3152.0954590 5.0000000000 0.1416500062 2.3278057575 62.892818451 1.8159712553 1.9912939072
 3152.2478027 5.0000000000 0.1420499980 2.3052492142 58.160900116 1.9130529165 1.7230856419
 3152.4003906 16.000000000 0.1423099935 2.2876749039 54.596832275 2.3841402531 1.5187519789
 3152.5527344 16.000000000 0.1473200023 2.2783589363 51.928009033 2.5536546707 2.5003781319
 3152.7050781 16.000000000 0.1585800052 2.2726361752 50.266193390 2.1750590801 11.244250298
 3152.8574219 16.000000000 0.1717600077 2.2676229477 49.251350403 1.8900375366 19.067873001
 3153.0100098 5.0000000000 0.1944099963 2.2632222176 48.898784637 1.7684144974 12.721293449
 3153.1623535 5.0000000000 0.2228700072 2.2643828392 49.547618866 1.6164512634 5.3533754349
 3153.3146973 5.0000000000 0.2304899991 2.2694191933 52.006828308 1.5030090809 3.3079183102
 3153.4670410 5.0000000000 0.2199399918 2.2733592987 56.051223755 1.8550548553 5.4506998062
 3153.6196289 5.0000000000 0.2073300034 2.2789652348 62.577510834 2.1041328907 3.6134228706
 3153.7719727 5.0000000000 0.1974099874 2.2855374813 68.613372803 1.9699757099 1.2441809177
 3153.9243164 5.0000000000 0.1924600005 2.2915692329 74.769210815 1.5684307814 1.4806720018
 3154.0766602 5.0000000000 0.1909099966 2.2962026596 79.125572205 1.5481548309 2.0209360123
 3154.2290039 5.0000000000 0.1902300119 2.3021969795 82.124397278 1.8618674278 2.3553941250
 3154.3815918 6.0000000000 0.1911599934 2.3079686165 84.153549194 2.0205698013 2.4101102352
 3154.5339355 6.0000000000 0.1950900108 2.3131308556 85.002227783 2.0610272884 2.3532240391
 3154.6862793 6.0000000000 0.2003799975 2.3180589676 85.383537292 2.0933115482 2.2754304409
 3154.8386230 6.0000000000 0.1978500038 2.3219780922 85.323242188 2.1221613884 2.2454829216
 3154.9912109 6.0000000000 0.1931100041 2.3250255585 84.706336975 2.1503303051 2.2733385563
 3155.1435547 6.0000000000 0.1940500140 2.3275868893 83.717292786 2.1582276821 2.3672964573
 3155.2958984 6.0000000000 0.1900799870 2.3305025101 83.092613220 2.1430606842 2.4699704647
 3155.4482422 6.0000000000 0.1842200160 2.3334209919 82.830673218 2.1307530403 2.5044295788
 3155.6008301 6.0000000000 0.1796199977 2.3363435268 82.645957947 2.1526889801 2.4002969265
 3155.7531738 6.0000000000 0.1770400107 2.3393929005 82.691230774 2.1462018490 2.2610068321
 3155.9055176 6.0000000000 0.1753000021 2.3423595428 82.577468872 2.0646748543 2.2393574715
 3156.0578613 6.0000000000 0.1730500013 2.3434081078 81.835548401 1.9756423235 2.2374129295
 3156.2102051 6.0000000000 0.1708000004 2.3419766426 80.615661621 1.9073284864 2.2340688705
 3156.3627930 6.0000000000 0.1692499965 2.3394343853 78.401870728 1.8396580219 2.2610864639
 3156.5151367 6.0000000000 0.1686199903 2.3387937546 76.157836914 1.7668862343 2.3862257004
 3156.6674805 6.0000000000 0.1685400009 2.3441905975 74.009063721 1.6804412603 2.7010588646
 3156.8198242 6.0000000000 0.1692900062 2.3513941765 72.177375793 1.4442284107 2.5554990768
 3156.9724121 5.0000000000 0.1703100055 2.3572063446 71.305587769 1.1322997808 1.5994704962
 3157.1247559 5.0000000000 0.1728100032 2.3602445126 71.443428040 1.1437667608 0.7757217288
 3157.2770996 5.0000000000 0.1772300005 2.3584489822 72.658576965 2.8163895607 0.5232468843
 3157.4294434 5.0000000000 0.1773900092 2.3536372185 74.723182678 4.8560891151 0.6490075588
 3157.5820313 5.0000000000 0.1724600047 2.3444199562 76.211845398 3.0901029110 1.2956060171
 3157.7343750 5.0000000000 0.1699399948 2.3326406479 76.940208435 1.3319683075 1.9428942204
 3157.8867188 5.0000000000 0.1712200046 2.3187460899 77.210601807 1.4001744986 1.9344921112
 3158.0390625 5.0000000000 0.1730400026 2.3008127213 76.144760132 1.6505968571 1.5139237642
 3158.1914063 5.0000000000 0.1757200062 2.2892162800 74.747772217 1.9625169039 1.1565904617
 3158.3439941 5.0000000000 0.1790500134 2.2918362617 73.037696838 2.4930453300 1.0240408182
 3158.4963379 5.0000000000 0.1802300066 2.3080749512 72.179328918 2.8051862717 1.2636281252
 3158.6486816 5.0000000000 0.1784400046 2.3326146603 73.345161438 2.3702034950 1.8843020201
 3158.8010254 5.0000000000 0.1770599931 2.3483092785 75.748977661 1.8708405495 2.4042692184
 3158.9536133 5.0000000000 0.1771699935 2.3452203274 78.647781372 1.8246999979 2.5046212673
 3159.1059570 5.0000000000 0.1776300073 2.3322582245 79.939521790 1.9741425514 2.4785280228
 3159.2583008 5.0000000000 0.1780599952 2.3183467388 80.236839294 2.1469032764 2.6015098095
 3159.4106445 6.0000000000 0.1793199927 2.3075997829 80.985641479 2.2502453327 2.5680451393
 3159.5632324 6.0000000000 0.1820400059 2.3088688850 81.569580078 2.2827274799 2.3962261677
 3159.7155762 6.0000000000 0.1843400002 2.3259887695 81.820632935 2.2450053692 2.3693435192
 3159.8679199 6.0000000000 0.1857099980 2.3519141674 82.526626587 2.2186598778 2.3769965172
 3160.0202637 6.0000000000 0.1869499981 2.3705222607 83.692665100 2.2580134869 2.3088173866
 3160.1726074 6.0000000000 0.1857699901 2.3746314049 84.835205078 2.3150458336 2.2581636906
 3160.3251953 6.0000000000 0.1802199930 2.3691043854 85.834335327 2.4114701748 2.2478265762
 3160.4775391 6.0000000000 0.1830199957 2.3605954647 86.613578796 2.5490460396 2.3269519806
