# LAS format log file from PETREL
# Project units are specified as depth units
#==================================================================
~Version information
VERS.   2.0:
WRAP.   NO:
#==================================================================
~Well
STRT .m      206.00000000 :
STOP .m      2655.9824219 :
STEP .m     0.00000000 :
NULL .        -999.250000 :
COMP.           : COMPANY
WELL.  25/10-8  Hanz   : WELL
FLD.            : FIELD
LOC.            : LOCATION
SRVC.           : SERVICE COMPANY
DATE.  2018-09-11 14:48:14   : Log Export Date {yyyy-MM-dd HH:mm:ss}
PROV.           : PROVINCE
UWI.   25/10-8   : UNIQUE WELL ID
API.            : API NUMBER
#==================================================================
~Curve
DEPT .m                   : DEPTH
Lithology_geolink ._      : Lithology_geolink
CALI .in                  : CALI
BS .in                    : BS
THOR .ppm                 : THOR
NPHI .m3/m3               : NPHI
RHOB .g/cm3               : RHOB
GR .gAPI                  : GR
URAN .ppm                 : URAN
DTC .us/ft                : DTC
RDEP .ohm.m               : RDEP
RSHA .ohm.m               : RSHA
RMED .ohm.m               : RMED
~Parameter
#==================================================================
~Ascii
# ...
 1347.1712646  -999.250000 12.229424477 12.250000954 5.9506888390 0.0056043188 2.1543831825 61.443389893 1.7635205984 135.08699036 1.0639600754 0.9865999222 1.0169205666
 1347.3236084  -999.250000 12.253840446 12.250000954 5.1377620697 0.0058527966 2.1344659328 64.086334229 1.9200481176 134.63676453 1.0663704872 0.9994230270 1.0247254372
 1347.4760742  -999.250000 12.235530853 12.250000954 4.5174231529 0.0049752188 2.1373901367 61.936141968 2.0299794674 134.24404907 1.0552887917 1.0013871193 1.0197691917
 1347.6284180  -999.250000 12.266053200 12.250000954 4.2675409317 0.0046028649 2.1568901539 60.758865356 2.0770838261 134.28773499 1.0356516838 0.9911065102 1.0032052994
 1347.7807617  -999.250000 12.266053200 12.250000954 4.4077234268 0.0052641924 2.1415476799 63.982910156 2.0885179043 134.47325134 1.0162820816 0.9747757912 0.9829750061
 1347.9332275  -999.250000 12.278259277 12.250000954 4.7199892998 0.0043809391 2.1405768394 64.734130859 2.0762710571 134.72811890 1.0038204193 0.9606502056 0.9674298763
 1348.0855713  -999.250000 12.259948730 12.250000954 5.0507860184 0.0050309421 2.1621017456 62.418533325 1.9963363409 135.41040039 0.9998872280 0.9533462524 0.9603552818
 1348.2380371  -999.250000 12.229424477 12.250000954 5.4267997742 0.0046251905 2.1751439571 60.415939331 1.8377960920 136.09715271 1.0026702881 0.9529788494 0.9608180523
 1348.3903809  -999.250000 12.235530853 12.250000954 5.7729506493 0.0064637596 2.1624598503 62.474822998 1.6809283495 136.42239380 1.0105013847 0.9576933384 0.9661991596
 1348.5428467  -999.250000 12.235530853 12.250000954 6.0681209564 0.0068234461 2.1530597210 62.585845947 1.5730153322 136.10231018 1.0236744881 0.9668643475 0.9758985043
 1348.6951904  -999.250000 12.235530853 12.250000954 6.4348835945 0.0055628796 2.1703779697 62.198883057 1.4935083389 135.38902283 1.0416002274 0.9811775684 0.9911711216
 1348.8476563  -999.250000 12.259948730 12.250000954 6.8398733139 0.0049184947 2.1646852493 62.941223145 1.4306424856 134.98718262 1.0585460663 0.9988403320 1.0098938942
 1349.0000000  -999.250000 12.235530853 12.250000954 7.1529774666 0.0049293889 2.1375217438 60.785202026 1.3897395134 135.01141357 1.0664291382 1.0131206512 1.0238165855
 1349.1524658  -999.250000 12.235530853 12.250000954 7.3480987549 0.0051804297 2.1320278645 62.405075073 1.3836133480 135.25079346 1.0636429787 1.0176963806 1.0260286331
 1349.3048096  -999.250000 12.253840446 12.250000954 7.4171600342 0.0056600729 2.1360864639 64.480010986 1.3947300911 134.85826111 1.0578312874 1.0140352249 1.0200667381
 1349.4572754  -999.250000 12.235530853 12.250000954 7.3850011826 0.0070689637 2.1385598183 63.585891724 1.3893080950 133.92962646 1.0583076477 1.0103116035 1.0162076950
 1349.6096191  -999.250000 12.235530853 12.250000954 7.3424158096 0.0056546908 2.1387724876 60.871612549 1.3409264088 133.42300415 1.0684280396 1.0135202408 1.0213823318
 1349.7619629  -999.250000 12.247738838 12.250000954 7.3247408867 0.0046366202 2.1295430660 64.945526123 1.2755262852 133.32409668 1.0844779015 1.0245356560 1.0350170135
 1349.9144287  -999.250000 12.247738838 12.250000954 7.3010387421 0.0057202699 2.1281869411 65.854400635 1.2204092741 133.58334351 1.0990934372 1.0386161804 1.0508975983
 1350.0667725  -999.250000 12.253840446 12.250000954 7.2812461853 0.0055808369 2.1381199360 62.907333374 1.1665620804 133.89784241 1.1059632301 1.0490837097 1.0617642403
 1350.2192383  -999.250000 12.235530853 12.250000954 7.3001856804 0.0051916256 2.1355471611 61.691589355 1.1514298916 133.96252441 1.1022353172 1.0512351990 1.0633931160
 1350.3715820  -999.250000 12.259948730 12.250000954 7.2873396873 0.0060751252 2.1442472935 59.217895508 1.2363997698 134.05737305 1.0881428719 1.0436773300 1.0549855232
 1350.5240479  -999.250000 12.253840446 12.250000954 7.1586289406 0.0062052505 2.1640961170 59.340362549 1.4129742384 134.36666870 1.0665779114 1.0276408195 1.0378637314
 1350.6763916  -999.250000 12.235530853 12.250000954 6.9033627510 0.0057679564 2.1506948471 59.963195801 1.6555534601 134.99607849 1.0424261093 1.0069427490 1.0158057213
 1350.8288574  -999.250000 12.253840446 12.250000954 6.5788750648 0.0043164054 2.1524739265 60.782333374 1.9275664091 135.96414185 1.0197424889 0.9865951538 0.9938254356
 1350.9812012  -999.250000 12.235530853 12.250000954 6.2494378090 0.0049698926 2.1554009914 59.225601196 2.1723227501 136.97592163 0.9993629456 0.9694070816 0.9740815163
 1351.1336670  -999.250000 12.253840446 12.250000954 5.9736690521 0.0056577413 2.1494150162 58.409759521 2.3437118530 137.82312012 0.9814779758 0.9548056126 0.9558143616
 1351.2860107  -999.250000 12.241634369 12.250000954 5.9088945389 0.0049155061 2.1327652931 60.151535034 2.4056189060 138.38027954 0.9685616493 0.9424607754 0.9401395321
 1351.4384766  -999.250000 12.241634369 12.250000954 6.1499476433 0.0047971653 2.1144933701 64.914245605 2.3541116714 138.16822815 0.9634320736 0.9341647625 0.9307479858
 1351.5908203  -999.250000 12.241634369 12.250000954 6.5181651115 0.0052785384 2.1136088371 66.580200195 2.2337467670 137.31175232 0.9663572311 0.9317076206 0.9296722412
 1351.7432861  -999.250000 12.266053200 12.250000954 6.8625197411 0.0057491916 2.1368515491 63.236236572 2.0818126202 136.39381409 0.9753847122 0.9350903034 0.9357657433
 1351.8956299  -999.250000 12.266053200 12.250000954 7.1916933060 0.0047034374 2.1409261227 64.654144287 1.9019054174 135.45915222 0.9880981445 0.9433131218 0.9467201233
 1352.0479736  -999.250000 12.247738838 12.250000954 7.4741182327 0.0053004185 2.1556103230 66.121307373 1.7306275368 134.73199463 1.0019035339 0.9548928738 0.9602987766
 1352.2004395  -999.250000 12.266053200 12.250000954 7.6242055893 0.0048726560 2.1625151634 64.552398682 1.6617094278 134.57360840 1.0135045052 0.9672026634 0.9735662937
 1352.3527832  -999.250000 12.266053200 12.250000954 7.5577168465 0.0043669469 2.1501643658 62.913619995 1.7530596256 134.72477722 1.0204005241 0.9766247272 0.9829149246
 1352.5052490  -999.250000 12.259948730 12.250000954 7.3337264061 0.0041666068 2.1585240364 61.440383911 1.9316253662 134.91410828 1.0230774879 0.9810044765 0.9867844582
 1352.6575928  -999.250000 12.253840446 12.250000954 7.0635929108 0.0053094425 2.1732614040 61.754089355 2.1224441528 134.95623779 1.0246076584 0.9815909863 0.9874298573
 1352.8100586  -999.250000 12.259948730 12.250000954 6.7159695625 0.0057655820 2.1783041954 62.785369873 2.3513514996 134.41238403 1.0273485184 0.9816536903 0.9884207249
 1352.9624023  -999.250000 12.253840446 12.250000954 6.2380990982 0.0052836780 2.1593225002 62.316833496 2.6218366623 133.58012390 1.0303983688 0.9831693172 0.9909303188
 1353.1148682  -999.250000 12.259948730 12.250000954 5.7639951706 0.0051376973 2.1627144814 62.934585571 2.8342931271 133.17807007 1.0303959846 0.9850482941 0.9925007820
 1353.2672119  -999.250000 12.259948730 12.250000954 5.4170384407 0.0059848563 2.1592559814 63.496459961 2.9232435226 133.40974426 1.0257968903 0.9846322536 0.9896204472
 1353.4196777  -999.250000 12.259948730 12.250000954 5.1062521935 0.0054577356 2.1646873951 59.257019043 2.9285492897 134.02728271 1.0209012032 0.9817905426 0.9830162525
 1353.5720215  -999.250000 12.272154808 12.250000954 4.7818613052 0.0063698310 2.1939570904 60.831588745 2.8448593616 134.31781006 1.0242528915 0.9814355373 0.9798929691
 1353.7244873  -999.250000 12.266053200 12.250000954 4.5951642990 0.0057635335 2.1817901134 66.391235352 2.6581504345 133.88275146 1.0410976410 0.9901714325 0.9888515472
 1353.8768311  -999.250000 12.266053200 12.250000954 4.6854734421 0.0054682069 2.1530778408 64.590179443 2.3829445839 133.21713257 1.0660572052 1.0088000298 1.0110545158
 1354.0291748  -999.250000 12.266053200 12.250000954 4.9716567993 0.0102694426 2.1649267673 61.490493774 2.0853095055 133.05598450 1.0846648216 1.0281939507 1.0354394913
 1354.1816406  -999.250000 12.247738838 12.250000954 5.3879570961 0.0079463748 2.1813619137 61.272659302 1.8593091965 133.28074646 1.0853290558 1.0353755951 1.0460500717
 1354.3339844  -999.250000 12.253840446 12.250000954 5.9862899780 0.0072194953 2.1660001278 62.843872070 1.6744620800 133.23912048 1.0693788528 1.0256757736 1.0371499062
