# LAS format log file from PETREL
# Project units are specified as depth units
#==================================================================
~Version information
VERS.   2.0:
WRAP.   NO:
#==================================================================
~Well
STRT .m      1456.9927979 :
STOP .m      2094.7868652 :
STEP .m     0.00000000 :
NULL .        -999.250000 :
COMP.           : COMPANY
WELL.  25/11-24 Jakob South   : WELL
FLD.            : FIELD
LOC.            : LOCATION
SRVC.           : SERVICE COMPANY
DATE.  2018-09-11 14:48:16   : Log Export Date {yyyy-MM-dd HH:mm:ss}
PROV.           : PROVINCE
UWI.   25/11-24   : UNIQUE WELL ID
API.            : API NUMBER
#==================================================================
~Curve
DEPT .m                   : DEPTH
Lithology_geolink ._      : Lithology_geolink
DCAL .in                  : DCAL
CALI .in                  : CALI
BS .in                    : BS
ROP .m/h                  : ROP
DRHO .g/cm3               : DRHO
NPHI .m3/m3               : NPHI
RHOB .g/cm3               : RHOB
PEF .b/e                  : PEF
GR .gAPI                  : GR
DTC .us/ft                : DTC
DTS .us/ft                : DTS
RDEP .ohm.m               : RDEP
RMIC .ohm.m               : RMIC
RMED .ohm.m               : RMED
~Parameter
#==================================================================
~Ascii
# ...
 1665.0189209 6.0000000000 0.2353001088 8.7353000641 8.5000000000 45.548561096 -0.009800000 0.6181002259 2.1547000408 3.5785000324 180.95460510 148.03042603 449.27270508 0.6976947188 0.7732999921 0.6927999854
 1665.1712646 6.0000000000 0.2124996036 8.7124996185 8.5000000000 45.548561096 -0.009100000 0.6806063056 2.1486999989 3.5861999989 185.48039246 147.85835266 448.35549927 0.6944062114 0.7732999921 0.6888999939
 1665.3237305 6.0000000000 0.2124996036 8.7124996185 8.5000000000 45.548561096 -0.007300000 0.6884855628 2.1552000046 3.4983000755 190.12150574 147.91917419 448.00000000 0.7021294236 0.7781999707 0.6940000057
 1665.4760742 6.0000000000 0.2124996036 8.7124996185 8.5000000000 45.548561096 -0.006000000 0.6794956326 2.1308999062 3.4662001133 186.89360046 147.59602356 447.21371460 0.7205119133 0.6532999873 0.7139000297
 1665.6284180 6.0000000000 0.1971998066 8.6971998215 8.5000000000 45.550281525 -0.005300000 0.6741195917 2.1451001167 3.4688999653 186.56329346 147.37390137 447.04013062 0.7353892922 0.7143999934 0.7286000252
 1665.7808838 6.0000000000 0.2047996968 8.7047996521 8.5000000000 47.698818207 -0.006300000 0.6986334324 2.1521000862 3.4488000870 189.82760620 146.86930847 440.53909302 0.7219923735 0.7803000212 0.7153999805
 1665.9332275 6.0000000000 0.2098999023 8.7098999023 8.5000000000 47.698818207 -0.006100000 0.7403036952 2.1591999531 3.4842000008 195.65119934 145.76881409 434.85513306 0.7125295997 0.7615000010 0.7050999999
 1666.0856934 6.0000000000 0.2074003071 8.7074003220 8.5000000000 47.698818207 -0.003100000 0.7448434830 2.1730000973 3.4453001022 195.34930420 144.40817261 433.37429810 0.7495388985 0.7685999870 0.7426999807
 1666.2380371 6.0000000000 0.2174996734 8.7174997330 8.5000000000 47.698818207 0.0131999999 0.6743777394 2.1872999668 3.3854000568 193.52420044 143.74569702 432.42764282 0.7980992198 0.6359999776 0.7907999754
 1666.3905029 5.0000000000 0.2505998909 8.7505998611 8.5000000000 47.698818207 0.0458000004 0.6465868950 2.0827999115 3.5725998878 186.71780396 144.36903381 429.78549194 0.7969815135 0.3364999890 0.7911000252
 1666.5428467 5.0000000000 0.5478001237 9.0478000641 8.5000000000 47.698818207 0.0794999972 0.6302625537 1.9709000587 4.1669001579 184.47290039 145.03952026 421.98791504 0.6492177844 0.2407000065 0.6441000104
 1666.6953125 5.0000000000 0.5630999207 9.0630998611 8.5000000000 47.688972473 0.0878000036 0.7081381679 2.0641000271 4.2843999863 175.80769348 145.81811523 416.99920654 0.6714754105 0.3195999861 0.6626999974
 1666.8476563 5.0000000000 0.3605003059 8.8605003357 8.5000000000 41.549869537 0.0644000024 0.6696284413 2.2413001060 4.0079998970 167.10809326 145.76254272 418.86871338 0.7184944749 0.5449000001 0.7098000050
 1667.0001221 5.0000000000 0.3344002068 8.8344001770 8.5000000000 41.549869537 0.0307000000 0.7049869299 2.1972999573 3.7902998924 164.30180359 145.56512451 423.82369995 0.7116426229 0.4295000136 0.7038000226
 1667.1524658 5.0000000000 0.3633002341 8.8633003235 8.5000000000 41.549869537 0.0275999997 0.6344955564 2.1624000072 3.9626998901 167.81469727 145.45410156 425.61300659 0.7382111549 0.4225000143 0.7310000062
 1667.3049316 5.0000000000 0.2023000866 8.7023000717 8.5000000000 41.549869537 0.0447999984 0.6288517714 2.1809999943 4.2712001801 171.88540649 144.95326233 424.84820557 0.7520985603 0.5242000222 0.7434999943
 1667.4572754 5.0000000000 0.1947001964 8.6947002411 8.5000000000 41.549869537 0.0821999982 0.5988368392 2.1275000572 4.4836001396 167.46560669 144.37329102 419.58920288 0.7511423230 0.3054000139 0.7426999807
 1667.6096191 5.0000000000 0.1286001056 8.6286001205 8.5000000000 41.551990509 0.1018999964 0.6447728872 1.9800000191 4.2687001228 166.33549500 143.74125671 415.68368530 0.6792252064 0.3249000013 0.6714000106
 1667.7620850 5.0000000000 0.1337004006 8.6337003708 8.5000000000 44.199470520 0.1059999987 0.6108872294 2.0824000835 4.2850999832 170.34930420 142.93225098 417.13668823 0.7106855512 0.2811999917 0.6999999881
 1667.9144287 5.0000000000 0.0956001282 8.5956001282 8.5000000000 44.199470520 0.0904999971 0.5949994922 2.0425000191 4.4444999695 174.60499573 142.49655151 414.20001221 0.6927083731 0.2748000026 0.6816999912
 1668.0668945 5.0000000000 0.1870002896 8.6870002747 8.5000000000 44.199470520 0.0693999976 0.5943334699 2.1310000420 4.6900000572 171.10699463 143.18167114 411.41690063 0.7031573057 0.6827999949 0.6930999756
 1668.2192383 5.0000000000 0.1667003930 8.6667003632 8.5000000000 44.199470520 0.0515000001 0.6361320019 2.2005000114 4.0770998001 169.19520569 143.02084351 408.28833008 0.7745836973 0.4857999980 0.7657999992
 1668.3717041 5.0000000000 0.1489000022 8.6489000320 8.5000000000 44.199470520 0.0335999988 0.6760818362 2.1867001057 3.9971001148 175.49699402 142.45458984 409.76251221 0.7541949153 0.5576999784 0.7477999926
 1668.5240479 5.0000000000 0.2719002068 8.7719001770 8.5000000000 44.194919586 0.0266999993 0.6533708572 2.1575999260 3.8626999855 183.52059937 142.57536316 413.08590698 0.7478749156 0.3659999967 0.7427999973
 1668.6765137 5.0000000000 0.0917997435 8.5917997360 8.5000000000 38.520339966 0.0366000012 0.6170158386 2.1120998859 3.8143000603 186.81970215 143.14144897 414.26208496 0.7165573835 0.2955999970 0.7117999792
 1668.8288574 5.0000000000 0.0904998854 8.5904998779 8.5000000000 38.520339966 0.0626000017 0.6269098520 2.1435000896 3.9319000244 182.17089844 143.79743958 416.72229004 0.6899920702 0.3327000141 0.6841999888
 1668.9813232 5.0000000000 0.2603997886 8.7603998184 8.5000000000 38.520339966 0.0781000033 0.6392028332 1.9709999561 4.3067002296 175.38699341 144.46482849 418.29150391 0.6800375581 0.2689000070 0.6746000051
 1669.1336670 5.0000000000 0.1774998009 8.6774997711 8.5000000000 38.520339966 0.0803999975 0.6410007477 1.9991999865 4.2171998024 169.32159424 144.97912598 418.15231323 0.6410728097 0.1486999989 0.6340000033
 1669.2861328 5.0000000000 0.1056994945 8.6056995392 8.5000000000 38.520339966 0.0491999984 0.6419527531 1.9860999584 4.2980999947 163.13229370 145.50445557 412.75851440 0.6074983478 0.1327999979 0.6006000042
 1669.4384766 5.0000000000 0.0158996601 8.5158996582 8.5000000000 38.520339966 0.0209999997 0.6124787927 2.1572999954 3.6609001160 164.99189758 144.98130798 410.72729492 0.7934970260 0.2506999969 0.7846999764
 1669.5908203 5.0000000000 0.0173997898 8.5173997879 8.5000000000 38.518257141 -0.002300000 0.5859695077 2.1672000885 3.5564000607 176.60040283 143.61628723 412.16870117 0.7897913456 0.7236999869 0.7810000181
 1669.7432861 5.0000000000 0.0600004196 8.5600004196 8.5000000000 35.921260834 -0.001700000 0.5479192734 2.1946001053 3.5355999470 182.75520325 143.60583496 412.46520996 0.7790231705 0.7695999742 0.7717000246
 1669.8956299 5.0000000000 0.0904998854 8.5904998779 8.5000000000 35.921260834 0.0097000012 0.5719153285 2.1875998974 3.5292000771 182.16979980 143.77803040 407.51528931 0.8077576756 0.8342999816 0.8015999794
 1670.0480957 5.0000000000 0.0777997971 8.5777997971 8.5000000000 35.921260834 0.0282000005 0.5910537839 2.0615999699 3.9454998970 172.93739319 143.81736755 404.45700073 0.6300642490 0.2698999941 0.6233000159
 1670.2004395 5.0000000000 0.2889995873 8.7889995575 8.5000000000 35.921260834 0.0465999991 0.6581633687 2.1164000034 4.0809998512 172.95469666 144.41445923 404.91720581 0.5855734944 0.2138999999 0.5782999992
 1670.3529053 5.0000000000 0.5234003067 9.0234003067 8.5000000000 35.921260834 0.0637999997 0.7372081876 2.1954998970 4.1286001205 171.37060547 144.49386597 409.51651001 0.6772927046 0.6123999953 0.6665999889
 1670.5052490 5.0000000000 0.1260996014 8.6260995865 8.5000000000 35.920570374 0.0724999979 0.7474361658 2.0864999294 4.1705999374 173.06140137 145.09162903 414.83010864 0.6683096290 0.4081999958 0.6592000127
 1670.6577148 5.0000000000 0.0746002197 8.5746002197 8.5000000000 35.059379578 0.0811000019 0.7925500274 2.1752998829 4.4313998222 173.38850403 144.39387512 418.61068726 0.8050022721 0.4420000017 0.7944999933
 1670.8100586 5.0000000000 0.0143003501 8.5143003464 8.5000000000 35.059379578 0.0706000030 0.7302806973 1.9321999550 4.3213000298 176.83200073 143.85980225 420.13970947 0.6831048727 0.3743999898 0.6768000126
