# LAS format log file from PETREL
# Project units are specified as depth units
#==================================================================
~Version information
VERS.   2.0:
WRAP.   NO:
#==================================================================
~Well
STRT .m      1332.7867432 :
STOP .m      2972.7631836 :
STEP .m     0.00000000 :
NULL .        -999.250000 :
COMP.           : COMPANY
WELL.  25/10-9 Aegis   : WELL
FLD.            : FIELD
LOC.            : LOCATION
SRVC.           : SERVICE COMPANY
DATE.  2018-09-11 14:48:15   : Log Export Date {yyyy-MM-dd HH:mm:ss}
PROV.           : PROVINCE
UWI.   25/10-9   : UNIQUE WELL ID
API.            : API NUMBER
#==================================================================
~Curve
DEPT .m                   : DEPTH
Lithology_geolink ._      : Lithology_geolink
CALI .in                  : CALI
BS .in                    : BS
ROP .m/h                  : ROP
DRHO .g/cm3               : DRHO
NPHI .m3/m3               : NPHI
RHOB .g/cm3               : RHOB
PEF .b/e                  : PEF
GR .gAPI                  : GR
DTC .us/ft                : DTC
DTS .us/ft                : DTS
RDEP .ohm.m               : RDEP
RMED .ohm.m               : RMED
~Parameter
#==================================================================
~Ascii
# ...
 1768.6507568 5.0000000000 12.296299934 12.250000954 110.96358490 0.0303000007 0.4065000117 2.1881000996 4.2020998001 47.196998596 144.11230469 333.24130249 0.5418908596 0.5268915296
 1768.8032227 5.0000000000 12.318900108 12.250000954 97.304138184 0.0255999994 0.3975999951 2.1798999310 4.0011000633 43.001899719 144.38879395 332.90798950 0.5450974107 0.5264004469
 1768.9555664 5.0000000000 12.313500404 12.250000954 82.157814026 0.0252999999 0.4192000031 2.1744000912 4.0689997673 43.305400848 144.09719849 332.55398560 0.5349081755 0.5198053122
 1769.1080322 5.0000000000 12.360199928 12.250000954 72.604003906 0.0318999998 0.4406999946 2.1842000484 4.1698999405 49.826599121 143.57949829 331.80639648 0.5296042562 0.5169023275
 1769.2603760 5.0000000000 12.359399796 12.250000954 77.852035522 0.0344000012 0.4347000122 2.1881999969 4.1904997826 52.097499847 143.44279480 336.17834473 0.5261027813 0.5040103197
 1769.4128418 5.0000000000 12.329400063 12.250000954 84.261810303 0.0324000008 0.4185999930 2.1849000454 4.2003998756 46.193599701 143.81640625 338.47360229 0.5159081817 0.4988041818
 1769.5651855 5.0000000000 12.315500259 12.250000954 68.051841736 0.0304000005 0.4169000089 2.1807999611 4.3024997711 43.824401855 143.49130249 340.85769653 0.5129023790 0.4957024753
 1769.7175293 5.0000000000 12.265999794 12.250000954 49.354328156 0.0362000018 0.4377000034 2.2019999027 4.5310001373 44.009101868 142.57569885 341.67089844 0.5162945986 0.4882120192
 1769.8699951 5.0000000000 12.282898903 12.250000954 31.653215408 0.0310999993 0.4505000114 2.1900000572 4.2575998306 41.279701233 141.60200500 337.50878906 0.4961161911 0.4776085019
 1770.0223389 5.0000000000 12.318800926 12.250000954 23.873359680 0.0311999992 0.4532999992 2.1889998913 4.1638998985 43.284301758 141.95210266 332.33139038 0.4930049777 0.4779993594
 1770.1748047 5.0000000000 12.333499908 12.250000954 29.599739075 0.0329999998 0.4171999991 2.1958000660 4.2139000893 51.728500366 142.04200745 330.41424561 0.4827082455 0.4769009054
 1770.3271484 5.0000000000 12.332200050 12.250000954 50.401905060 0.0284000002 0.4201999903 2.1823999882 4.2662000656 51.656600952 142.52659607 330.84252930 0.4789060652 0.4548353851
 1770.4796143 5.0000000000 12.321399689 12.250000954 65.500984192 0.0302000009 0.4266999960 2.1809000969 4.2797999382 54.527301788 141.27279663 328.96090698 0.4704068303 0.4735849500
 1770.6319580 5.0000000000 12.297800064 12.250000954 71.322181702 0.0340000018 0.4237999916 2.1991999149 4.2951998711 49.701698303 138.52690125 318.51651001 0.4781937301 0.4742994308
 1770.7844238 5.0000000000 12.322500229 12.250000954 80.344818115 0.0282000005 0.4178999960 2.1932001114 4.3509998322 48.021800995 136.35220337 316.34188843 0.4825964868 0.4741001427
 1770.9367676 5.0000000000 12.418000221 12.250000954 81.329399109 0.0326999985 0.4221000075 2.1988999844 4.3454999924 46.175300598 131.28489685 301.63919067 0.4909932613 0.4790959954
 1771.0892334 5.0000000000 12.433400154 12.250000954 74.570869446 0.0388999991 0.4059999883 2.2051000595 4.5120000839 47.725299835 128.68319702 286.49539185 0.5034999847 0.4954000115
 1771.2415771 5.0000000000 12.408800125 12.250000954 65.524932861 0.0388000049 0.3998999894 2.2012999058 4.6923999786 46.465198517 129.72099304 276.64739990 0.5264000297 0.5328999758
 1771.3940430 5.0000000000 12.498199463 12.250000954 60.465545654 0.0434999987 0.3977999985 2.2151999474 4.9906001091 41.520599365 134.05670166 277.53311157 0.6391000152 0.6657000184
 1771.5463867 16.000000000 12.867899895 12.250000954 63.447505951 0.0700000003 0.3932999969 2.2855999470 6.0195999146 31.629499435 137.94630432 280.66018677 0.8036999702 0.8582000136
 1771.6987305 16.000000000 12.693900108 12.250000954 66.274932861 0.1165999994 0.3819999993 2.4318997860 7.2273998260 25.996000290 140.67680359 291.71200562 0.8611999750 0.8414000273
 1771.8511963 16.000000000 12.524999619 12.250000954 60.449146271 0.0812000036 0.3763000071 2.5051000118 7.5746002197 25.415700912 141.63589478 300.98568726 0.7896000147 0.7547000051
 1772.0035400 16.000000000 13.039699554 12.250000954 50.464893341 0.0603000000 0.3833000064 2.4072000980 6.1490998268 31.945600510 141.74850464 306.70788574 0.5523999929 0.5782999992
 1772.1560059 5.0000000000 12.868101120 12.250000954 43.041664124 0.0502000004 0.3847999871 2.2901999950 5.0742998123 40.973400116 142.33580017 305.84588623 0.4988999963 0.5174000263
 1772.3083496 5.0000000000 12.527899742 12.250000954 40.985565186 0.0452999994 0.4065000117 2.2107999325 4.3949999809 42.283298492 142.43960571 312.03179932 0.4963000119 0.5109999776
 1772.4608154 5.0000000000 12.418399811 12.250000954 40.251316071 0.0423000008 0.4124000072 2.1967000961 4.2385001183 43.580200195 142.11560059 317.37704468 0.5266000032 0.5180000067
 1772.6131592 5.0000000000 12.445300102 12.250000954 38.895668030 0.0447999984 0.3959999979 2.2083001137 4.5777997971 44.001800537 141.64630127 323.99539185 0.5394999981 0.5436999798
 1772.7656250 5.0000000000 12.455400467 12.250000954 39.871391296 0.0454999991 0.4070999920 2.2100000381 4.6045999527 46.646598816 141.35009766 325.25723267 0.5652999878 0.5390999913
 1772.9179688 5.0000000000 12.455400467 12.250000954 44.249343872 0.0452000014 0.4111999869 2.2072999477 4.6599998474 45.678298950 140.80830383 320.58840942 0.5604000092 0.5590999722
 1773.0704346 5.0000000000 12.459199905 12.250000954 49.608596802 0.0485999994 0.4379999936 2.2186000347 4.7435002327 45.408298492 140.06809998 319.05731201 0.5583000183 0.5401999950
 1773.2227783 5.0000000000 12.403900146 12.250000954 52.808071136 0.0406000018 0.4498000145 2.1965000629 4.7431001663 43.125900269 138.53439331 315.99508667 0.5625000000 0.5483000278
 1773.3752441 5.0000000000 12.465800285 12.250000954 49.143699646 0.0425000004 0.4483999908 2.2035000324 4.7466001511 46.289699554 138.37019348 324.49990845 0.5421000123 0.5329999924
 1773.5275879 5.0000000000 12.411101341 12.250000954 49.981956482 0.0489000008 0.4348999858 2.2179000378 4.6793999672 48.954898834 137.48179626 330.68307495 0.5407999754 0.5540000200
 1773.6799316 5.0000000000 12.447999001 12.250000954 57.691600800 0.0397999994 0.4366999865 2.2009999752 4.6414999962 44.265899658 134.79719543 325.19970703 0.5478000045 0.5433999896
 1773.8323975 5.0000000000 12.463701248 12.250000954 55.565288544 0.0447000004 0.4322000146 2.2014000416 4.5598998070 43.474601746 133.49060059 315.56451416 0.5418999791 0.5529000163
 1773.9847412 5.0000000000 12.506798744 12.250000954 49.992126465 0.0465999991 0.4429000020 2.2039999962 4.6701002121 44.550399780 133.06149292 307.49169922 0.5666000247 0.5343999863
 1774.1372070 5.0000000000 12.472499847 12.250000954 45.509513855 0.0491999984 0.4510000050 2.2058999538 4.9362998009 42.556198120 133.60650635 292.62500000 0.5471000075 0.5509999990
 1774.2895508 5.0000000000 12.563699722 12.250000954 46.979331970 0.0553999990 0.4589999914 2.2458000183 5.6609001160 43.644901276 135.65280151 283.60281372 0.5791000128 0.5586000085
 1774.4420166 5.0000000000 12.498700142 12.250000954 50.817260742 0.0762000009 0.4379000068 2.3768000603 6.3249001503 34.143001556 137.08850098 289.78570557 0.6103000045 0.5990999937
 1774.5943604 5.0000000000 12.925200462 12.250000954 53.460628510 0.0482000001 0.4460999966 2.3826000690 6.6761999130 39.247600555 138.67439270 291.76239014 0.6571999788 0.6348999739
 1774.7468262 5.0000000000 13.123700142 12.250000954 57.187667847 0.0471000001 0.4573999941 2.3099999428 5.4688000679 43.063301086 140.65440369 300.07879639 0.6491000056 0.6327999830
 1774.8991699 5.0000000000 12.763799667 12.250000954 57.572181702 0.0463999994 0.4569000006 2.2443997860 4.7052998543 47.812500000 141.30760193 301.24609375 0.5957000256 0.5746999979
 1775.0516357 5.0000000000 12.418101311 12.250000954 56.672897339 0.0408000015 0.4648999870 2.2140998840 4.4563999176 48.180198669 141.80529785 306.95889282 0.5727000237 0.5612000227
 1775.2039795 5.0000000000 12.398500443 12.250000954 53.688980103 0.0414999984 0.4708000124 2.2130999565 4.5145998001 47.359100342 141.66729736 308.95910645 0.5666000247 0.5442000031
