# LAS format log file from PETREL
# Project units are specified as depth units
#==================================================================
~Version information
VERS.   2.0:
WRAP.   NO:
#==================================================================
~Well
STRT .m      1332.7867432 :
STOP .m      2972.7631836 :
STEP .m     0.00000000 :
NULL .        -999.250000 :
COMP.           : COMPANY
WELL.  25/10-9 Aegis   : WELL
FLD.            : FIELD
LOC.            : LOCATION
SRVC.           : SERVICE COMPANY
DATE.  2018-09-11 14:48:15   : Log Export Date {yyyy-MM-dd HH:mm:ss}
PROV.           : PROVINCE
UWI.   25/10-9   : UNIQUE WELL ID
API.            : API NUMBER
#==================================================================
~Curve
DEPT .m                   : DEPTH
Lithology_geolink ._      : Lithology_geolink
CALI .in                  : CALI
BS .in                    : BS
ROP .m/h                  : ROP
DRHO .g/cm3               : DRHO
NPHI .m3/m3               : NPHI
RHOB .g/cm3               : RHOB
PEF .b/e                  : PEF
GR .gAPI                  : GR
DTC .us/ft                : DTC
DTS .us/ft                : DTS
RDEP .ohm.m               : RDEP
RMED .ohm.m               : RMED
~Parameter
#==================================================================
~Ascii
# ...
 1554.0716553 5.0000000000 12.359900475 12.250000954 74.534782410 0.0472000018 0.4862999916 2.2077999115 4.3956999779 59.414001465 147.16510010 386.62799072 0.5928000212 0.5837000012
 1554.2239990 5.0000000000 12.206800461 12.250000954 74.957351685 0.0348999985 0.5281999707 2.2151000500 4.3534998894 56.848300934 147.09700012 385.62521362 0.6132000089 0.6054999828
 1554.3763428 5.0000000000 12.177300453 12.250000954 85.999671936 0.0264999997 0.4884000123 2.2400000095 4.3180999756 52.015499115 148.39930725 369.89010620 0.6323999763 0.6161000133
 1554.5288086 5.0000000000 12.252900124 12.250000954 102.08825684 0.0225000009 0.4968000054 2.2486999035 4.6445999146 47.651000977 149.93240356 349.06860352 0.6363999844 0.6147000194
 1554.6811523 5.0000000000 12.367600441 12.250000954 96.334320068 0.0298999995 0.5084999800 2.2516999245 4.8087000847 55.438999176 149.80529785 351.27529907 0.6402999759 0.6112999916
 1554.8336182 5.0000000000 12.397800446 12.250000954 76.727691650 0.0313000008 0.5217999816 2.2298998833 4.2302999496 62.613601685 149.20219421 356.03741455 0.6345000267 0.6051999927
 1554.9859619 5.0000000000 12.358201027 12.250000954 63.784122467 0.0350000001 0.5505999923 2.2105998993 4.1838998795 66.222702026 149.58790588 375.89520264 0.6322000027 0.6064000130
 1555.1384277 5.0000000000 12.350600243 12.250000954 57.920280457 0.0328000002 0.4830999970 2.1993999481 3.9173998833 57.019500732 149.72340393 381.42309570 0.6341999769 0.6047999859
 1555.2907715 5.0000000000 12.212900162 12.250000954 55.817588806 0.0383000001 0.5213000178 2.2314999104 4.1135001183 43.816001892 149.20060730 381.66711426 0.6312999725 0.6019999981
 1555.4432373 5.0000000000 12.319999695 12.250000954 58.431434631 0.0255999994 0.4961999953 2.2323999405 4.3661999702 51.612800598 149.91009521 380.13580322 0.6309999824 0.6100999713
 1555.5955811 5.0000000000 12.422800064 12.250000954 68.972442627 0.0401000008 0.4483000040 2.2611000538 4.8503999710 52.128200531 149.95539856 368.86828613 0.6345000267 0.6015999913
 1555.7480469 5.0000000000 12.486901283 12.250000954 76.090225220 0.0392000005 0.4203999937 2.2379000187 4.6090998650 54.363700867 150.34359741 365.89328003 0.6068999767 0.5726000071
 1555.9003906 5.0000000000 12.454001427 12.250000954 75.598426819 0.0335000008 0.4503999949 2.1940999031 3.8492999077 53.964698792 150.25210571 373.95474243 0.5881000161 0.5598000288
 1556.0528564 5.0000000000 12.423200607 12.250000954 73.593177795 0.0340999998 0.4871000051 2.1686999798 3.9077999592 51.699501038 149.90531921 376.91049194 0.5819000006 0.5620999932
 1556.2052002 5.0000000000 12.555999756 12.250000954 74.141731262 0.0375999995 0.5235999823 2.1642000675 4.0652999878 53.801898956 149.27479553 383.49639893 0.5763000250 0.5722000003
 1556.3575439 5.0000000000 12.590299606 12.250000954 80.538063049 0.0568000004 0.5325999856 2.1933999062 4.6682000160 60.735000610 150.09669495 384.38949585 0.5824000239 0.5730999708
 1556.5100098 5.0000000000 12.661100388 12.250000954 82.264770508 0.0584999993 0.5529000163 2.1944999695 4.8396000862 65.612396240 150.70759583 383.80239868 0.5957000256 0.6007999778
 1556.6623535 5.0000000000 12.585598946 12.250000954 79.727035522 0.0610000007 0.5684999824 2.1989998817 4.7494997978 62.483001709 151.60940552 381.57659912 0.6183000207 0.5964999795
 1556.8148193 5.0000000000 12.395199776 12.250000954 57.526569366 0.0511999987 0.5317999721 2.1865999699 4.6121001244 58.299800873 153.17320251 370.02139282 0.6238999963 0.5940999985
 1556.9671631 5.0000000000 12.350099564 12.250000954 11.959974289 0.0324000008 0.5433999896 2.1663000584 3.9172999859 58.592498779 153.75929260 370.35040283 0.6162999868 0.5982999802
 1557.1196289 5.0000000000 12.385499954 12.250000954 3.3894357681 0.0310999993 0.4731999934 2.1661000252 3.7362999916 61.640899658 153.57650757 375.73071289 0.6190999746 0.5957999825
 1557.2719727 5.0000000000 12.379599571 12.250000954 8.2342519760 0.0364999995 0.4945000112 2.1693999767 4.1793999672 60.579101563 153.07189941 382.19927979 0.6169000268 0.5759000182
 1557.4244385 5.0000000000 12.432600021 12.250000954 18.607284546 0.0386999995 0.5198000073 2.1689000130 4.3049998283 69.216102600 151.96780396 389.16659546 0.6057000160 0.5834000111
 1557.5767822 5.0000000000 12.465000153 12.250000954 44.333988190 0.0406999998 0.5680999756 2.1695001125 4.2842998505 63.731899261 152.20361328 384.80169678 0.5949000120 0.5957000256
 1557.7292480 5.0000000000 12.479700089 12.250000954 61.977031708 0.0427000001 0.5773000121 2.1707003117 4.2093000412 64.403396606 152.98959351 375.78741455 0.6072000265 0.5867000222
 1557.8815918 5.0000000000 12.382999420 12.250000954 66.847770691 0.0405000001 0.5167000294 2.1698000431 3.9978001118 57.903301239 152.78840637 363.59259033 0.6075000167 0.5680999756
 1558.0340576 5.0000000000 12.309598923 12.250000954 61.503936768 0.0362999998 0.4952999949 2.1668000221 3.9960999489 60.048999786 152.78671265 366.79190063 0.5950000286 0.5604000092
 1558.1864014 5.0000000000 12.216199875 12.250000954 57.499015808 0.0245999992 0.5160999894 2.1588997841 3.8606998920 60.892700195 152.17820740 372.91757202 0.5914999843 0.5879999995
 1558.3388672 5.0000000000 12.354400635 12.250000954 59.962928772 0.0223999992 0.5442000031 2.1607000828 3.6881000996 58.514400482 151.82189941 376.24169922 0.6093999743 0.5900999904
 1558.4912109 5.0000000000 12.406599998 12.250000954 67.266731262 0.0315999985 0.5277000070 2.1654999256 3.8296000957 56.938999176 151.51930237 376.35650635 0.6266000271 0.5764999986
 1558.6435547 5.0000000000 12.340399742 12.250000954 75.187667847 0.0364999995 0.5266000032 2.1651999950 3.9019000530 61.488098145 151.18190002 378.32699585 0.6090000272 0.5868999958
 1558.7960205 5.0000000000 12.369999886 12.250000954 77.566596985 0.0276999995 0.5491999984 2.1635000706 3.7393000126 64.982200623 149.83839417 378.60791016 0.6103000045 0.6047000289
 1558.9483643 5.0000000000 12.313399315 12.250000954 78.521003723 0.0254999995 0.5453000069 2.1648001671 3.7732000351 60.900299072 151.75109863 369.42678833 0.6161999702 0.6069999933
 1559.1008301 5.0000000000 12.314399719 12.250000954 78.786087036 0.0263999999 0.5267999768 2.1649999619 3.8838999271 58.568199158 151.91629028 365.27053833 0.6237999797 0.5953000188
 1559.2531738 5.0000000000 12.420998573 12.250000954 78.453086853 0.0315000005 0.5328999758 2.1663999557 4.2160000801 60.821300507 153.01190186 366.88839722 0.6262999773 0.5902000070
 1559.4056396 5.0000000000 12.398401260 12.250000954 78.372375488 0.0417000018 0.5798000097 2.1879999638 4.5008001328 54.970500946 153.12719727 364.77600098 0.6201999784 0.6126000285
 1559.5579834 5.0000000000 12.370900154 12.250000954 76.703086853 0.0381000005 0.5370000005 2.1898999214 4.4986000061 56.045398712 152.66569519 358.14981079 0.6427999735 0.6108999848
 1559.7104492 5.0000000000 12.410400391 12.250000954 75.503936768 0.0364000015 0.5471000075 2.1889998913 4.6687998772 51.739101410 151.81939697 356.53988647 0.6525999904 0.6143000126
 1559.8627930 5.0000000000 12.310400009 12.250000954 76.383529663 0.0331999995 0.5688999891 2.1821000576 4.5626997948 51.172901154 152.49949646 352.92160034 0.6450999975 0.6308000088
 1560.0152588 5.0000000000 12.319899559 12.250000954 74.264434814 0.0326999985 0.5230000019 2.1851999760 4.5264000893 58.194499969 152.61909485 354.80490112 0.6460999846 0.6179999709
 1560.1676025 5.0000000000 12.385299683 12.250000954 70.850395203 0.0351000018 0.5309000015 2.1967999935 4.5645999908 58.767700195 153.40100098 358.66619873 0.6423000097 0.6139000058
 1560.3200684 5.0000000000 12.348299980 12.250000954 72.458992004 0.0359000005 0.5059000254 2.1935000420 4.5882000923 56.350200653 153.83560181 364.46160889 0.6250000000 0.6183000207
 1560.4724121 5.0000000000 12.334700584 12.250000954 73.898956299 0.0326999985 0.4810999930 2.1796998978 4.5022997856 55.746601105 154.00000000 368.86053467 0.6327999830 0.5885999799
 1560.6247559 5.0000000000 12.353199959 12.250000954 72.079399109 0.0331999995 0.4745000005 2.1774001122 4.5085000992 47.972698212 154.00000000 376.29031372 0.6191999912 0.5952000022
