# LAS format log file from PETREL
# Project units are specified as depth units
#==================================================================
~Version information
VERS.   2.0:
WRAP.   NO:
#==================================================================
~Well
STRT .m      460.12496948 :
STOP .m      2548.7502441 :
STEP .m     0.00000000 :
NULL .        -999.250000 :
COMP.           : COMPANY
WELL.  25/10-4R  Balder Appr   : WELL
FLD.            : FIELD
LOC.            : LOCATION
SRVC.           : SERVICE COMPANY
DATE.  2018-09-11 14:48:14   : Log Export Date {yyyy-MM-dd HH:mm:ss}
PROV.           : PROVINCE
UWI.   25/10-4 R   : UNIQUE WELL ID
API.            : API NUMBER
#==================================================================
~Curve
DEPT .m                   : DEPTH
Lithology_geolink ._      : Lithology_geolink
CALI .in                  : CALI
MUDWEIGHT ._              : MUDWEIGHT
ROP .m/h                  : ROP
DRHO .g/cm3               : DRHO
NPHI .m3/m3               : NPHI
RHOB .g/cm3               : RHOB
GR .gAPI                  : GR
DTC .us/ft                : DTC
RDEP .ohm.m               : RDEP
SP .mV                    : SP
RSHA .ohm.m               : RSHA
RMED .ohm.m               : RMED
~Parameter
#==================================================================
~Ascii
# ...
 2544.6250000  -999.250000 4.1640000343  -999.250000  -999.250000 0.3280000091 0.1242500022 2.3180000782 69.867996216 76.353996277 1.3289999962 37.238998413  -999.250000 2.6419999599
 2544.7500000  -999.250000 4.1459999084  -999.250000  -999.250000 0.3310000002 0.1238899976 2.3239998817 69.860000610 76.336997986 1.3309999704 37.287998199  -999.250000 2.6380000114
 2544.8750000  -999.250000 4.1290001869  -999.250000  -999.250000 0.3269999921 0.1239899993 2.3229999542 69.851997375 76.351997375 1.3309999704 37.305999756  -999.250000 2.6389999390
 2545.0000000  -999.250000 4.1250000000  -999.250000  -999.250000 0.3219999969 0.1240699962 2.3169999123 69.843002319 79.246994019 1.3320000172 37.278999329  -999.250000 2.6400001049
 2545.1250000  -999.250000 4.1259999275  -999.250000  -999.250000 0.3120000064 0.1240999997 2.3050000668 69.834999084 105.61699677 1.3320000172 37.266998291  -999.250000 2.6410000324
 2545.2500000  -999.250000 4.1290001869  -999.250000  -999.250000 0.3000000119 0.1241100058 2.2899999619 69.827003479 148.13299561 1.3300000429 37.254001617  -999.250000 2.6419999599
 2545.3750000  -999.250000 4.1319999695  -999.250000  -999.250000 0.2930000126 0.1241199970 2.2839999199 69.818000793 204.17597961 1.3270000219 37.242000580  -999.250000 2.6419999599
 2545.5000000  -999.250000 4.1350002289  -999.250000  -999.250000 0.2969999909 0.1241199970 2.2909998894 69.809997559 237.42300415 1.3229999542 37.229000092  -999.250000 2.6429998875
 2545.6250000  -999.250000 4.1380000114  -999.250000  -999.250000 0.3079999983 0.1241300032 2.3059999943 69.802001953 239.61300659 1.3200000525 37.215999603  -999.250000 2.6440000534
 2545.7500000  -999.250000 4.1409997940  -999.250000  -999.250000 0.3269999921 0.1241399944 2.3210000992 69.792999268 239.61300659 1.3190000057 37.205001831  -999.250000 2.6449999809
 2545.8750000  -999.250000 4.1440000534  -999.250000  -999.250000 0.3400000036 0.1241399944 2.3310000896 69.785003662 239.61199951 1.3200000525 37.192001343  -999.250000 2.6459999084
 2546.0000000  -999.250000 4.1469998360  -999.250000  -999.250000 0.3350000083 0.1241500005 2.3269999027 69.777000427 239.61099243 1.3200000525 37.179000854  -999.250000 2.6459999084
 2546.1250000  -999.250000 4.1500000954  -999.250000  -999.250000 0.3240000010 0.1241600066 2.3150000572 69.767997742 239.61099243 1.3209999800 37.166999817  -999.250000 2.6470000744
 2546.2500000  -999.250000 4.1519999504  -999.250000  -999.250000 0.3129999936 0.1241699979 2.3059999943 69.760002136 202.07600403 1.3209999800 37.154998779  -999.250000 2.6480000019
 2546.3752441  -999.250000 4.1550002098  -999.250000  -999.250000 0.3089999855 0.1241699979 2.3039999008 69.751998901 102.41700745 1.3220000267 37.141998291  -999.250000 2.6500000954
 2546.4997559  -999.250000 4.1570000648  -999.250000  -999.250000 0.3160000145 0.1241800040 2.3090000153 69.742996216 48.964996338 1.3229999542 37.126998901  -999.250000 2.6510000229
 2546.6247559  -999.250000 4.1579999924  -999.250000  -999.250000 0.3240000010 0.1241300032 2.3190000057 69.735000610 39.978996277 1.3229999542 37.061000824  -999.250000 2.6519999504
 2546.7500000  -999.250000 4.1579999924  -999.250000  -999.250000 0.3300000131 0.1239700019 2.3299999237 69.726997375 39.983001709 1.3240000010 36.922000885  -999.250000 2.6530001163
 2546.8750000  -999.250000 4.1579999924  -999.250000  -999.250000 0.3350000083 0.1237699986 2.3359999657 69.718002319 39.987998962 1.3250000477 36.779998779  -999.250000 2.6549999714
 2547.0000000  -999.250000 4.1579999924  -999.250000  -999.250000 0.3379999995 0.1236699969 2.3369998932 69.709999084 39.992004395 1.3250000477 36.637001038  -999.250000 2.6559998989
 2547.1250000  -999.250000 4.1579999924  -999.250000  -999.250000 0.3389999866 0.1236499995 2.3340001106 69.702003479 39.995998383 1.3259999752 36.497001648  -999.250000 2.6579999924
 2547.2500000  -999.250000 4.1570000648  -999.250000  -999.250000 0.3379999995 0.1236599982 2.3289999962 69.693000793 40.000999451 1.3270000219 36.362998962  -999.250000 2.6659998894
 2547.3750000  -999.250000 4.1570000648  -999.250000  -999.250000 0.3370000124 0.1236599982 2.3239998817 69.684997559 40.005004883 1.3279999495 36.223999023  -999.250000 2.6719999313
 2547.5000000  -999.250000 4.1570000648  -999.250000  -999.250000 0.3359999955 0.1236699969 2.3210000992 69.677001953 40.009998322 1.3279999495 36.195999146  -999.250000 2.6689999104
 2547.6250000  -999.250000 4.1570000648  -999.250000  -999.250000 0.3339999914 0.1236800030 2.3210000992 69.667999268 40.013999939 1.3289999962 36.294998169  -999.250000 2.6619999409
 2547.7500000  -999.250000 4.1570000648  -999.250000  -999.250000 0.3300000131 0.1236800030 2.3180000782 69.660003662 40.018001556 1.3300000429 36.398998260  -999.250000 2.6630001068
 2547.8750000  -999.250000 4.1560001373  -999.250000  -999.250000 0.3219999969 0.1236900017 2.3120000362 69.653999329 40.022998810 1.3300000429 36.502998352  -999.250000 2.6640000343
 2548.0000000  -999.250000 4.1560001373  -999.250000  -999.250000 0.3140000105 0.1237000003 2.3050000668 69.656997681 40.026996613 1.3309999704 36.567001343  -999.250000 2.6659998894
 2548.1250000  -999.250000 4.1560001373  -999.250000  -999.250000 0.3109999895 0.1236699969 2.2999999523 69.662002563 40.032001495 1.3320000172 36.597999573  -999.250000 2.6679999828
 2548.2500000  -999.250000 4.1560001373  -999.250000  -999.250000 0.3129999936 0.1236200035 2.2980000973 69.667999268 40.035999298 1.3320000172 36.627998352  -999.250000 2.6830000877
 2548.3750000  -999.250000 4.1560001373  -999.250000  -999.250000 0.3170000017 0.1235599965 2.2999999523 69.672996521 40.041000366 1.3329999447 36.657001495  -999.250000 2.6940000057
 2548.5000000  -999.250000 4.1550002098  -999.250000  -999.250000 0.3199999928 0.1234899983 2.3059999943 69.678001404 40.044998169 1.3339999914 36.687000275  -999.250000 2.6949999332
 2548.6252441  -999.250000 4.1550002098  -999.250000  -999.250000 0.3240000010 0.1234300062 2.3129999638 69.682998657 40.048999786 1.3339999914 36.715999603  -999.250000 2.6960000992
 2548.7502441  -999.250000 4.1550002098  -999.250000  -999.250000 0.3269999921 0.1233600080 2.3180000782 69.688003540 40.054000854 1.3350000381 36.744998932  -999.250000 2.6979999542
