# LAS format log file from PETREL
# Project units are specified as depth units
#==================================================================
~Version information
VERS.   2.0:
WRAP.   NO:
#==================================================================
~Well
STRT .m      460.12496948 :
STOP .m      2548.7502441 :
STEP .m     0.00000000 :
NULL .        -999.250000 :
COMP.           : COMPANY
WELL.  25/10-4R  Balder Appr   : WELL
FLD.            : FIELD
LOC.            : LOCATION
SRVC.           : SERVICE COMPANY
DATE.  2018-09-11 14:48:14   : Log Export Date {yyyy-MM-dd HH:mm:ss}
PROV.           : PROVINCE
UWI.   25/10-4 R   : UNIQUE WELL ID
API.            : API NUMBER
#==================================================================
~Curve
DEPT .m                   : DEPTH
Lithology_geolink ._      : Lithology_geolink
CALI .in                  : CALI
MUDWEIGHT ._              : MUDWEIGHT
ROP .m/h                  : ROP
DRHO .g/cm3               : DRHO
NPHI .m3/m3               : NPHI
RHOB .g/cm3               : RHOB
GR .gAPI                  : GR
DTC .us/ft                : DTC
RDEP .ohm.m               : RDEP
SP .mV                    : SP
RSHA .ohm.m               : RSHA
RMED .ohm.m               : RMED
~Parameter
#==================================================================
~Ascii
# ...
 1433.6250000  -999.250000 8.9149999619 1.1299999952 1.6390259266 0.0570000000 0.3334899843 2.0769999027 28.860000610 120.60700226 0.3379999995 25.558000565  -999.250000 0.9589999914
 1433.7501221  -999.250000 8.9020004272 1.1299999952 1.6386152506 0.0579999983 0.3254999816 2.0810000896 30.121999741 121.51200104 0.3370000124 23.697999954  -999.250000 0.9589999914
 1433.8748779  -999.250000 8.8889999390 1.1299999952 1.6384514570 0.0560000017 0.3145999908 2.0869998932 31.687999725 122.39199829 0.3359999955 21.195999146  -999.250000 0.9599999785
 1434.0000000  -999.250000 8.8769998550 1.1299999952 1.6384514570 0.0540000014 0.3055700064 2.0940001011 32.501998901 122.85900116 0.3359999955 19.422000885  -999.250000 0.9589999914
 1434.1250000  -999.250000 8.8669996262 1.1299999952 1.6285252571 0.0529999994 0.3000600040 2.1010000706 32.668998718 122.61399841 0.3359999955 18.811000824  -999.250000 0.9589999914
 1434.2500000  -999.250000 8.8549995422 1.1299999952 1.6243438721 0.0549999997 0.2977199852 2.1080000401 32.433998108 121.94200897 0.3359999955 19.299999237  -999.250000 0.9589999914
 1434.3750000  -999.250000 8.8529996872 1.1299999952 1.6243438721 0.0579999983 0.2979999781 2.1110000610 32.056999207 120.98999786 0.3370000124 20.711000443  -999.250000 0.9599999785
 1434.5000000  -999.250000 8.8669996262 1.1299999952 1.6243438721 0.0619999990 0.3005500138 2.1110000610 31.731000900 120.02100372 0.3379999995 22.795999527  -999.250000 0.9599999785
 1434.6250000  -999.250000 8.8830003738 1.1299999952 1.6243438721 0.0659999996 0.3053799868 2.1119999886 31.593000412 119.32900238 0.3389999866 24.923999786  -999.250000 0.9599999785
 1434.7500000  -999.250000 8.9090003967 1.1299999952 1.6243438721 0.0700000003 0.3113099933 2.1140000820 31.187000275 119.41500092 0.3400000036 26.381000519  -999.250000 0.9620000124
 1434.8751221  -999.250000 8.9390001297 1.1299999952 1.6243438721 0.0740000010 0.3150600195 2.1189999580 30.624000549 119.91600037 0.3400000036 27.048000336  -999.250000 0.9660000205
 1434.9998779  -999.250000 8.9359998703 1.1299999952 1.6099082232 0.0790000036 0.3149400055 2.1280000210 30.040000916 120.86700439 0.3409999907 26.801000595  -999.250000 0.9710000157
 1435.1250000  -999.250000 8.8999996185 1.1299999952 1.6099082232 0.0839999989 0.3116900027 2.1370000839 29.726999283 121.97200012 0.3420000076 25.580999374  -999.250000 0.9729999900
 1435.2500000  -999.250000 8.8669996262 1.1299999952 1.6099082232 0.0829999968 0.3078500032 2.1429998875 30.186000824 122.76699066 0.3429999948 23.315000534  -999.250000 0.9700000286
 1435.3750000  -999.250000 8.8280000687 1.1299999952 1.6099082232 0.0790000036 0.3081200123 2.1449999809 30.961000443 122.74800110 0.3429999948 21.024000168  -999.250000 0.9689999819
 1435.5000000  -999.250000 8.7849998474 1.1299999952 1.6099082232 0.0750000030 0.3156200051 2.1410000324 31.337999344 122.22199249 0.3440000117 19.233999252  -999.250000 0.9670000076
 1435.6250000  -999.250000 8.7430000305 1.1299999952 1.6099082232 0.0719999969 0.3268800080 2.1280000210 31.173000336 121.37000275 0.3440000117 18.100999832  -999.250000 0.9639999866
 1435.7500000  -999.250000 8.7100000381 1.1299999952 1.6099082232 0.0680000037 0.3356299996 2.1110000610 30.476999283 120.52799988 0.3449999988 17.698999405  -999.250000 0.9629999995
 1435.8750000  -999.250000 8.6859998703 1.1299999952 1.6099082232 0.0659999996 0.3369699717 2.0929999352 29.478000641 120.08399963 0.3449999988 17.952999115  -999.250000 0.9660000205
 1436.0000000  -999.250000 8.6649999619 1.1299999952 1.6099082232 0.0659999996 0.3289699852 2.0850000381 28.972999573 120.08799744 0.3449999988 18.436000824  -999.250000 0.9670000076
 1436.1251221  -999.250000 8.6850004196 1.1299999952 1.6099082232 0.0680000037 0.3134300113 2.0840001106 28.968000412 120.51799774 0.3449999988 18.879999161  -999.250000 0.9689999819
 1436.2500000  -999.250000 8.7189998627 1.1299999952 1.6105651855 0.0700000003 0.3004699945 2.0869998932 29.381000519 121.24199677 0.3449999988 19.284999847  -999.250000 0.9739999771
 1436.3750000  -999.250000 8.7559995651 1.1299999952 1.6210750341 0.0710000023 0.2948499918 2.0920000076 30.148000717 122.10600281 0.3449999988 19.673999786  -999.250000 0.9819999933
 1436.5000000  -999.250000 8.7969999313 1.1299999952 1.6243438721 0.0680000037 0.2978599966 2.0969998837 30.993999481 122.78399658 0.3459999859 20.066999435  -999.250000 0.9900000095
 1436.6250000  -999.250000 8.8450002670 1.1299999952 1.6243438721 0.0659999996 0.3082399964 2.1029999256 31.437000275 123.02600861 0.3459999859 20.447999954  -999.250000 0.9950000048
 1436.7500000  -999.250000 8.9040002823 1.1299999952 1.6243438721 0.0640000030 0.3207499981 2.1099998951 31.172000885 122.48101044 0.3459999859 20.563999176  -999.250000 0.9980000257
 1436.8750000  -999.250000 8.9420003891 1.1299999952 1.6243438721 0.0640000030 0.3280099928 2.1150000095 30.559000015 121.72100067 0.3459999859 20.290000916  -999.250000 1.0010000467
 1437.0000000  -999.250000 8.9589996338 1.1299999952 1.6243438721 0.0689999983 0.3309400082 2.1180000305 29.809999466 120.89599609 0.3459999859 19.482000351  -999.250000 1.0010000467
 1437.1250000  -999.250000 8.9650001526 1.1299999952 1.6243438721 0.0759999976 0.3310900033 2.1170001030 29.270000458 120.47299957 0.3459999859 17.781000137  -999.250000 1.0000000000
 1437.2501221  -999.250000 8.9650001526 1.1299999952 1.6243438721 0.0790000036 0.3292300105 2.1129999161 29.193000793 120.75299835 0.3449999988 15.057999611  -999.250000 0.9980000257
 1437.3748779  -999.250000 8.9639997482 1.1299999952 1.6243438721 0.0780000016 0.3257600069 2.1080000401 29.506000519 121.37699127 0.3449999988 12.010000229  -999.250000 0.9959999919
 1437.5000000  -999.250000 8.9580001831 1.1299999952 1.6243438721 0.0729999989 0.3215299845 2.1019999981 29.957000732 121.96900177 0.3449999988 9.5380001068  -999.250000 0.9940000176
 1437.6250000  -999.250000 8.9429998398 1.1299999952 1.6243438721 0.0630000010 0.3203499913 2.0959999561 30.386999130 122.19899750 0.3449999988 8.1280002594  -999.250000 0.9919999838
 1437.7500000  -999.250000 8.9239997864 1.1299999952 1.6243438721 0.0509999990 0.3236299753 2.0920000076 30.652999878 121.81099701 0.3440000117 8.4899997711  -999.250000 0.9879999757
 1437.8750000  -999.250000 8.9099998474 1.1299999952 1.6243438721 0.0419999994 0.3294599950 2.0910000801 30.631000519 120.93499756 0.3440000117 10.416999817  -999.250000 0.9840000272
 1438.0000000  -999.250000 8.9060001373 1.1299999952 1.6243438721 0.0439999998 0.3340599835 2.0929999352 30.231000900 120.10600281 0.3440000117 12.890000343  -999.250000 0.9819999933
 1438.1250000  -999.250000 8.9119997025 1.1299999952 1.6243438721 0.0509999990 0.3324800134 2.0950000286 29.385999680 119.51399994 0.3440000117 15.291999817  -999.250000 0.9829999804
 1438.2500000  -999.250000 8.9239997864 1.1299999952 1.6243438721 0.0599999987 0.3235300183 2.0940001011 28.308000565 119.40499878 0.3440000117 17.368000031  -999.250000 0.9840000272
 1438.3751221  -999.250000 8.9379997253 1.1299999952 1.6243438721 0.0649999976 0.3154999912 2.0920000076 27.350999832 119.55899048 0.3440000117 19.089000702  -999.250000 0.9860000014
 1438.4998779  -999.250000 8.9519996643 1.1299999952 1.6243438721 0.0670000017 0.3111099899 2.0910000801 27.156999588 119.74099731 0.3440000117 20.382999420  -999.250000 0.9900000095
 1438.6250000  -999.250000 8.9659996033 1.1299999952 1.6243438721 0.0689999983 0.3127499819 2.0940001011 28.003000259 119.72599792 0.3449999988 21.176000595  -999.250000 0.9929999709
 1438.7500000  -999.250000 8.9799995422 1.1299999952 1.6243438721 0.0719999969 0.3232799768 2.1059999466 29.288000107 119.41200256 0.3449999988 21.295999527  -999.250000 0.9959999919
 1438.8750000  -999.250000 8.9949998856 1.1299999952 1.6243438721 0.0810000002 0.3404600024 2.1250000000 30.330999374 118.91300201 0.3449999988 20.711999893  -999.250000 0.9980000257
 1439.0000000  -999.250000 9.0089998245 1.1299999952 10.016404152 0.0890000015 0.3570699990 2.1410000324 30.222000122 118.30200195 0.3459999859 19.558000565  -999.250000 0.9990000129
