# LAS format log file from PETREL
# Project units are specified as depth units
#==================================================================
~Version information
VERS.   2.0:
WRAP.   NO:
#==================================================================
~Well
STRT .m      206.00000000 :
STOP .m      2655.9824219 :
STEP .m     0.00000000 :
NULL .        -999.250000 :
COMP.           : COMPANY
WELL.  25/10-8  Hanz   : WELL
FLD.            : FIELD
LOC.            : LOCATION
SRVC.           : SERVICE COMPANY
DATE.  2018-09-11 14:48:14   : Log Export Date {yyyy-MM-dd HH:mm:ss}
PROV.           : PROVINCE
UWI.   25/10-8   : UNIQUE WELL ID
API.            : API NUMBER
#==================================================================
~Curve
DEPT .m                   : DEPTH
Lithology_geolink ._      : Lithology_geolink
CALI .in                  : CALI
BS .in                    : BS
THOR .ppm                 : THOR
NPHI .m3/m3               : NPHI
RHOB .g/cm3               : RHOB
GR .gAPI                  : GR
URAN .ppm                 : URAN
DTC .us/ft                : DTC
RDEP .ohm.m               : RDEP
RSHA .ohm.m               : RSHA
RMED .ohm.m               : RMED
~Parameter
#==================================================================
~Ascii
# ...
 2641.9616699  -999.250000  -999.250000 12.250000954  -999.250000  -999.250000 2.5384600163  -999.250000  -999.250000 58.045528412 153.00878906 310.43078613 230.99884033
 2642.1140137  -999.250000  -999.250000 12.250000954  -999.250000  -999.250000 2.5384600163  -999.250000  -999.250000 58.045528412 150.73175049 292.84960938 221.21282959
 2642.2663574  -999.250000  -999.250000 12.250000954  -999.250000  -999.250000 2.5384600163  -999.250000  -999.250000 58.045528412 147.38330078 286.20251465 202.52593994
 2642.4189453  -999.250000  -999.250000 12.250000954  -999.250000  -999.250000 2.5384600163  -999.250000  -999.250000 58.045528412 144.13256836 284.90087891 176.76330566
 2642.5712891  -999.250000  -999.250000 12.250000954  -999.250000  -999.250000 2.5384600163  -999.250000  -999.250000 58.045528412 145.85888672 287.29272461 153.76019287
 2642.7236328  -999.250000  -999.250000 12.250000954  -999.250000  -999.250000 2.5384600163  -999.250000  -999.250000 58.045528412 160.67962646 298.67431641 141.90924072
 2642.8759766  -999.250000  -999.250000 12.250000954  -999.250000  -999.250000 2.5384600163  -999.250000  -999.250000 58.045528412 198.22717285 323.31018066 145.91149902
 2643.0285645  -999.250000  -999.250000 12.250000954  -999.250000  -999.250000 2.5384600163  -999.250000  -999.250000 58.045528412 243.51000977 340.07275391 167.59674072
 2643.1809082  -999.250000  -999.250000 12.250000954  -999.250000  -999.250000 2.5384600163  -999.250000  -999.250000 58.045528412 226.15228271 297.44018555 188.32452393
 2643.3332520  -999.250000  -999.250000 12.250000954  -999.250000  -999.250000 2.5384600163  -999.250000  -999.250000 58.045528412 145.25518799 202.40533447 157.26611328
 2643.4855957  -999.250000  -999.250000 12.250000954  -999.250000  -999.250000 2.5384600163  -999.250000  -999.250000 58.045528412 80.614624023 128.35211182 99.665863037
 2643.6381836  -999.250000  -999.250000 12.250000954  -999.250000  -999.250000 2.5384600163  -999.250000  -999.250000 58.045528412 50.286621094 92.704864502 63.084579468
 2643.7905273  -999.250000  -999.250000 12.250000954  -999.250000  -999.250000 2.5384600163  -999.250000  -999.250000 58.045528412 36.866149902 80.015533447 45.018981934
 2643.9428711  -999.250000  -999.250000 12.250000954  -999.250000  -999.250000 2.5384600163  -999.250000  -999.250000 58.045528412 30.966293335 79.480590820 36.491439819
 2644.0952148  -999.250000  -999.250000 12.250000954  -999.250000  -999.250000 2.5384600163  -999.250000  -999.250000 58.045528412 29.184204102 85.123687744 33.044982910
 2644.2478027  -999.250000  -999.250000 12.250000954  -999.250000  -999.250000 2.5384600163  -999.250000  -999.250000 58.045528412 30.581153870 93.625518799 33.112258911
 2644.4001465  -999.250000  -999.250000 12.250000954  -999.250000  -999.250000 2.5384600163  -999.250000  -999.250000 58.045528412 35.377761841 104.27664185 36.577514648
 2644.5524902  -999.250000  -999.250000 12.250000954  -999.250000  -999.250000 2.5384600163  -999.250000  -999.250000 58.045528412 44.445419312 115.29861450 43.916198730
 2644.7048340  -999.250000  -999.250000 12.250000954  -999.250000  -999.250000 2.5384600163  -999.250000  -999.250000 58.045528412 59.976425171 121.64810181 55.690704346
 2644.8571777  -999.250000  -999.250000 12.250000954  -999.250000  -999.250000 2.5384600163  -999.250000  -999.250000 58.045528412 88.813812256 123.64526367 73.489837646
 2645.0097656  -999.250000  -999.250000 12.250000954  -999.250000  -999.250000 2.5384600163  -999.250000  -999.250000 58.045528412 151.06848145 133.14807129 103.43600464
 2645.1621094  -999.250000  -999.250000 12.250000954  -999.250000  -999.250000 2.5384600163  -999.250000  -999.250000 58.045528412 267.71191406 165.31207275 156.84515381
 2645.3144531  -999.250000  -999.250000 12.250000954  -999.250000  -999.250000 2.5384600163  -999.250000  -999.250000 58.045528412 337.85668945 225.63226318 216.15405273
 2645.4667969  -999.250000  -999.250000 12.250000954  -999.250000  -999.250000 2.5384600163  -999.250000  -999.250000 58.045528412 278.55700684 282.48547363 203.95129395
 2645.6193848  -999.250000  -999.250000 12.250000954  -999.250000  -999.250000 2.5384600163  -999.250000  -999.250000 58.045528412 194.84039307 281.15039063 155.91528320
 2645.7717285  -999.250000  -999.250000 12.250000954  -999.250000  -999.250000 2.5384600163  -999.250000  -999.250000 58.045528412 155.66992188 236.28851318 127.03561401
 2645.9240723  -999.250000  -999.250000 12.250000954  -999.250000  -999.250000 2.5384600163  -999.250000  -999.250000 58.045528412 139.31372070 195.38818359 114.82278442
 2646.0764160  -999.250000  -999.250000 12.250000954  -999.250000  -999.250000 2.5384600163  -999.250000  -999.250000 58.045528412 129.12322998 168.36981201 109.05645752
 2646.2290039  -999.250000  -999.250000 12.250000954  -999.250000  -999.250000 2.5384600163  -999.250000  -999.250000 58.045528412 119.74215698 151.19415283 103.95458984
 2646.3813477  -999.250000  -999.250000 12.250000954  -999.250000  -999.250000 2.5384600163  -999.250000  -999.250000 58.045528412 112.80871582 140.31829834 99.634399414
 2646.5336914  -999.250000  -999.250000 12.250000954  -999.250000  -999.250000 2.5384600163  -999.250000  -999.250000 58.045528412 111.01605225 134.09985352 99.129577637
 2646.6860352  -999.250000  -999.250000 12.250000954  -999.250000  -999.250000 2.5384600163  -999.250000  -999.250000 58.045528412 115.05175781 132.02563477 104.61956787
 2646.8383789  -999.250000  -999.250000 12.250000954  -999.250000  -999.250000 2.5384600163  -999.250000  -999.250000 58.045528412 123.86267090 135.07348633 117.27267456
 2646.9909668  -999.250000  -999.250000 12.250000954  -999.250000  -999.250000 2.5384600163  -999.250000  -999.250000 58.045528412 133.49462891 144.93933105 137.53417969
 2647.1433105  -999.250000  -999.250000 12.250000954  -999.250000  -999.250000 2.5384600163  -999.250000  -999.250000 58.045528412 136.74353027 158.74456787 160.29882813
 2647.2956543  -999.250000  -999.250000 12.250000954  -999.250000  -999.250000 2.5384600163  -999.250000  -999.250000 58.045528412 130.69268799 165.58264160 171.81335449
 2647.4479980  -999.250000  -999.250000 12.250000954  -999.250000  -999.250000 2.5384600163  -999.250000  -999.250000 58.045528412 121.24041748 157.90429688 168.12280273
 2647.6005859  -999.250000  -999.250000 12.250000954  -999.250000  -999.250000 2.5384600163  -999.250000  -999.250000 58.045528412 115.21832275 144.42712402 162.64208984
 2647.7529297  -999.250000  -999.250000 12.250000954  -999.250000  -999.250000 2.5384600163  -999.250000  -999.250000 58.045528412 113.67663574 137.14483643 164.89715576
 2647.9052734  -999.250000  -999.250000 12.250000954  -999.250000  -999.250000 2.5384600163  -999.250000  -999.250000 58.045528412 113.36209106 139.10876465 172.76544189
 2648.0576172  -999.250000  -999.250000 12.250000954  -999.250000  -999.250000 2.5384600163  -999.250000  -999.250000 58.045528412 111.10830688 146.95550537 176.93585205
 2648.2102051  -999.250000  -999.250000 12.250000954  -999.250000  -999.250000 2.5384600163  -999.250000  -999.250000 58.045528412 106.85763550 154.35852051 171.75274658
 2648.3625488  -999.250000  -999.250000 12.250000954  -999.250000  -999.250000 2.5384600163  -999.250000  -999.250000 58.045528412 103.05535889 156.20080566 161.88647461
 2648.5148926  -999.250000  -999.250000 12.250000954  -999.250000  -999.250000 2.5384600163  -999.250000  -999.250000 58.045528412 102.20150757 153.36230469 155.37530518
 2648.6672363  -999.250000  -999.250000 12.250000954  -999.250000  -999.250000 2.5384600163  -999.250000  -999.250000 58.045528412 105.05227661 151.53643799 157.02459717
 2648.8195801  -999.250000  -999.250000 12.250000954  -999.250000  -999.250000 2.5384600163  -999.250000  -999.250000 58.045528412 109.74975586 153.93322754 166.50427246
 2648.9721680  -999.250000  -999.250000 12.250000954  -999.250000  -999.250000 2.5384600163  -999.250000  -999.250000 58.045528412 112.75872803 157.36779785 176.73321533
 2649.1245117  -999.250000  -999.250000 12.250000954  -999.250000  -999.250000 2.5384600163  -999.250000  -999.250000 58.045528412 112.56546021 156.39862061 178.60510254
