# LAS format log file from PETREL
# Project units are specified as depth units
#==================================================================
~Version information
VERS.   2.0:
WRAP.   NO:
#==================================================================
~Well
STRT .m      1456.9927979 :
STOP .m      2094.7868652 :
STEP .m     0.00000000 :
NULL .        -999.250000 :
COMP.           : COMPANY
WELL.  25/11-24 Jakob South   : WELL
FLD.            : FIELD
LOC.            : LOCATION
SRVC.           : SERVICE COMPANY
DATE.  2018-09-11 14:48:16   : Log Export Date {yyyy-MM-dd HH:mm:ss}
PROV.           : PROVINCE
UWI.   25/11-24   : UNIQUE WELL ID
API.            : API NUMBER
#==================================================================
~Curve
DEPT .m                   : DEPTH
Lithology_geolink ._      : Lithology_geolink
DCAL .in                  : DCAL
CALI .in                  : CALI
BS .in                    : BS
ROP .m/h                  : ROP
DRHO .g/cm3               : DRHO
NPHI .m3/m3               : NPHI
RHOB .g/cm3               : RHOB
PEF .b/e                  : PEF
GR .gAPI                  : GR
DTC .us/ft                : DTC
DTS .us/ft                : DTS
RDEP .ohm.m               : RDEP
RMIC .ohm.m               : RMIC
RMED .ohm.m               : RMED
~Parameter
#==================================================================
~Ascii
# ...
 1837.3831787 1.0000000000 -0.006099702 8.4939126968 8.5000000000 70.688003540 -0.004000000 0.3350999951 2.0864999294 2.3348999023 113.01869965 108.18179321 225.99998474 0.3346000016 0.1650000066 0.3095036149
 1837.5355225 1.0000000000 -0.008799553 8.4912052155 8.5000000000 70.688003540 -0.004700000 0.3366000056 2.0773999691 2.3631999493 112.16539764 108.18179321 225.99998474 0.3300000131 0.1526000053 0.3049073517
 1837.6879883 1.0000000000 0.0116996812 8.5116834641 8.5000000000 70.688003540 -0.005600000 0.3404000103 2.1252000332 2.2421000004 110.61579895 108.18179321 225.73811340 0.3398999870 0.1497000009 0.3137928843
 1837.8403320 1.0000000000 0.0650997236 8.5650138855 8.5000000000 70.688003540 -0.006400000 0.3269000053 2.1031999588 2.1817998886 108.61849976 108.18179321 225.24409485 0.3411000073 0.1473000050 0.3141993880
 1837.9927979 1.0000000000 0.0243997592 8.5244321823 8.5000000000 70.688003540 -0.004600000 0.3345000148 2.1092998981 2.2627999783 108.95529938 108.14169312 224.82913208 0.3375000060 0.1492000073 0.3105029464
 1838.1451416 1.0000000000 -0.034000400 8.4660463333 8.5000000000 70.688003540 -0.002700000 0.3307999969 2.0711998940 2.4056999683 110.91809845 107.91970062 224.46548462 0.3375000060 0.1483000070 0.3106998503
 1838.2976074 1.0000000000 -0.059399601 8.4406204224 8.5000000000 38.136810303 -0.001100000 0.3325000107 2.0968999863 2.4107999802 113.66079712 107.59619141 224.36367798 0.3413999975 0.1562999934 0.3146968186
 1838.4499512 1.0000000000 -0.059399601 8.4406003952 8.5000000000 38.136810303 -0.002300000 0.3088000119 2.1122999191 2.4444000721 111.42250061 107.47460175 224.10180664 0.3438000083 0.1694000065 0.3171980083
 1838.6024170 1.0000000000 -0.040900227 8.4590845108 8.5000000000 38.136810303 -0.003700000 0.3093999922 2.1110999584 2.3956999779 111.66349792 107.56549835 224.26197815 0.3452999890 0.1801999956 0.3184989691
 1838.7547607 1.0000000000 -0.022600170 8.4773855209 8.5000000000 38.136810303 -0.005800000 0.3041999936 2.0908000469 2.3166000843 113.01869965 107.71659851 224.62541199 0.3388000131 0.1578000039 0.3122050464
 1838.9072266 1.0000000000 0.0232000407 8.5231637955 8.5000000000 38.136810303 -0.007300000 0.3242000043 2.0943999290 2.1989998817 115.23799896 107.99999237 224.98901367 0.3316000104 0.1529999971 0.3059050441
 1839.0595703 1.0000000000 0.0523996428 8.5523757935 8.5000000000 38.136810303 -0.008500000 0.3208999932 2.0911002159 2.2153000832 115.30690002 107.95989990 225.61459351 0.3312999904 0.1556999981 0.3059000075
 1839.2119141 1.0000000000 0.0370998383 8.5371246338 8.5000000000 38.136810303 -0.008700000 0.3327000141 2.0843000412 2.2112998962 114.41159821 107.77799988 225.94866943 0.3314000070 0.1504999995 0.3061995208
 1839.3643799 1.0000000000 0.0066995621 8.5067243576 8.5000000000 38.136810303 -0.007800000 0.3206999898 2.1073000431 2.2395000458 114.05180359 107.63639832 225.99993896 0.3352000117 0.1528999954 0.3096972108
 1839.5167236 1.0000000000 0.0193996392 8.5193796158 8.5000000000 57.447185516 -0.006900000 0.3219999969 2.1033999920 2.2265999317 113.84519958 107.59619141 225.60752869 0.3291000128 0.1627999991 0.3038094342
 1839.6691895 1.0000000000 0.0066995621 8.5067100525 8.5000000000 57.447185516 -0.007400000 0.3242000043 2.0845000744 2.2693998814 112.53659821 107.49469757 225.45462036 0.3368000090 0.1553999931 0.3109942079
 1839.8215332 1.0000000000 -0.013699528 8.4863328934 8.5000000000 57.447185516 -0.007600000 0.3203999996 2.0905001163 2.2939999104 111.64129639 107.63639832 225.45449829 0.3391000032 0.1486999989 0.3132963181
 1839.9739990 1.0000000000 0.0066995621 8.5066833496 8.5000000000 57.447185516 -0.007800000 0.3249999881 2.0848999023 2.2049000263 108.18779755 107.75669861 225.84738159 0.3260999918 0.1477999985 0.3017092943
 1840.1263428 1.0000000000 0.0092000961 8.5091981888 8.5000000000 57.447185516 -0.006600000 0.3192999959 2.0645000935 2.2237999439 108.53209686 108.18179321 225.99986267 0.3285999894 0.1457999945 0.3032987118
 1840.2788086 1.0000000000 -0.016200069 8.4838199615 8.5000000000 57.447185516 -0.005800000 0.3267999887 2.0831000805 2.3129999638 110.21949768 108.26210022 226.39277649 0.3301999867 0.1488000005 0.3044990599
 1840.4311523 1.0000000000 -0.034000400 8.4660139084 8.5000000000 69.688972473 -0.005500000 0.3307000101 2.0799999237 2.3466999531 113.46630096 108.58560181 226.54527283 0.3298999965 0.1543000042 0.3038005531
 1840.5836182 1.0000000000 -0.082300194 8.4177389145 8.5000000000 69.688972473 -0.005800000 0.3380999863 2.0827999115 2.3322999477 113.01869965 108.72730255 226.54539490 0.3287999928 0.1481000036 0.3031005561
 1840.7359619 1.0000000000 -0.089900017 8.4101057053 8.5000000000 69.688972473 -0.006100000 0.3490999937 2.0897998810 2.3169999123 112.77760315 108.72730255 226.41450500 0.3352999985 0.1615999937 0.3085955977
 1840.8884277 1.0000000000 -0.117899902 8.3821229935 8.5000000000 69.688972473 -0.005800000 0.3409999907 2.0924999714 2.3389000893 113.05310059 108.72730255 226.10183716 0.3332000077 0.1755000055 0.3069013655
 1841.0407715 1.0000000000 -0.028900150 8.4710283279 8.5000000000 69.688972473 -0.004600000 0.3391999900 2.0818998814 2.4137001038 115.25700378 108.68710327 225.73818970 0.3249999881 0.1586000025 0.2999055982
 1841.1932373 1.0000000000 -0.041600231 8.4584102631 8.5000000000 69.688972473 -0.004200000 0.3237999976 2.0841000080 2.4188001156 115.01860046 108.46520233 225.50547791 0.3337000012 0.1527000070 0.3078936040
 1841.3455811 1.0000000000 -0.067000389 8.4330196381 8.5000000000 69.688972473 -0.005000000 0.3233999908 2.1024000645 2.3843998909 116.05169678 108.18179321 225.71643066 0.3312000036 0.1702000052 0.3044027984
 1841.4979248 1.0000000000 -0.067000389 8.4329996109 8.5000000000 74.082336426 -0.007000000 0.3251000047 2.0838999748 2.2923998833 116.05169678 108.18179321 225.68714905 0.3262999952 0.1756999940 0.2996076941
 1841.6503906 1.0000000000 -0.061400410 8.4385948181 8.5000000000 74.082336426 -0.008200000 0.3341000080 2.0910000801 2.3397998810 117.65370178 108.18179321 226.16012573 0.3310999870 0.1607999951 0.3035967946
 1841.8027344 1.0000000000 -0.093500137 8.4065513611 8.5000000000 74.082336426 -0.008900000 0.3183999956 2.0796000957 2.3085000515 116.37950134 108.22189331 226.62495422 0.3271999955 0.1517000049 0.3001056015
 1841.9552002 1.0000000000 -0.051799767 8.4481668472 8.5000000000 74.082336426 -0.008700000 0.3240000010 2.0792000294 2.2544000149 114.24449921 108.42379761 226.98901367 0.3271000087 0.1537999958 0.3000999987
 1842.1075439 1.0000000000 0.0116996812 8.5115976334 8.5000000000 74.082336426 -0.008600000 0.3190999925 2.0857000351 2.2334001064 110.07250214 108.71659851 226.82905579 0.3289000094 0.1521999985 0.3008987308
 1842.2600098 1.0000000000 0.0143003501 8.5142984390 8.5000000000 74.082336426 -0.008200000 0.3255999982 2.0950000286 2.3036999702 108.97049713 108.95989990 226.20359802 0.3116999865 0.1567000002 0.2847130001
 1842.4123535 1.0000000000 0.0143003501 8.5143003464 8.5000000000 77.143699646 -0.008200000 0.3179999888 2.0998001099 2.3705999851 114.37699890 108.85829163 226.39294434 0.3170000017 0.1858000010 0.2900956869
 1842.5648193 1.0000000000 -0.163599998 8.3364000320 8.5000000000 77.143699646 -0.008100000 0.3151000142 2.1087000370 2.6960999966 120.31909943 109.10031128 226.41438293 0.3454999924 0.2228000015 0.3164788783
 1842.7171631 1.0000000000 -0.064499862 8.4355001450 8.5000000000 77.143699646 -0.009000000 0.3244999945 2.0973000526 2.6498000622 119.59590149 109.57490540 226.36364746 0.3233000040 0.2083999962 0.2961163223
 1842.8696289 1.0000000000 -0.051199909 8.4488000870 8.5000000000 77.143699646 -0.009800000 0.3271999955 2.0843000412 2.4446001053 116.01460266 109.85949707 226.62548828 0.3181000054 0.1665000021 0.2909041643
 1843.0219727 1.0000000000 -0.023799900 8.4762001038 8.5000000000 77.143699646 -0.009200000 0.3298999965 2.0681002140 2.3415000439 114.70610046 109.44389343 227.12002563 0.3267000020 0.1553000063 0.2987936735
 1843.1744385 1.0000000000 0.0116996812 8.5116996765 8.5000000000 77.143699646 -0.007600000 0.3210999966 2.0648999214 2.2894999981 116.39340210 109.60690308 227.53446960 0.3257000148 0.1597000062 0.2986001372
