# LAS format log file from PETREL
# Project units are specified as depth units
#==================================================================
~Version information
VERS.   2.0:
WRAP.   NO:
#==================================================================
~Well
STRT .m      1456.9927979 :
STOP .m      2094.7868652 :
STEP .m     0.00000000 :
NULL .        -999.250000 :
COMP.           : COMPANY
WELL.  25/11-24 Jakob South   : WELL
FLD.            : FIELD
LOC.            : LOCATION
SRVC.           : SERVICE COMPANY
DATE.  2018-09-11 14:48:16   : Log Export Date {yyyy-MM-dd HH:mm:ss}
PROV.           : PROVINCE
UWI.   25/11-24   : UNIQUE WELL ID
API.            : API NUMBER
#==================================================================
~Curve
DEPT .m                   : DEPTH
Lithology_geolink ._      : Lithology_geolink
DCAL .in                  : DCAL
CALI .in                  : CALI
BS .in                    : BS
ROP .m/h                  : ROP
DRHO .g/cm3               : DRHO
NPHI .m3/m3               : NPHI
RHOB .g/cm3               : RHOB
PEF .b/e                  : PEF
GR .gAPI                  : GR
DTC .us/ft                : DTC
DTS .us/ft                : DTS
RDEP .ohm.m               : RDEP
RMIC .ohm.m               : RMIC
RMED .ohm.m               : RMED
~Parameter
#==================================================================
~Ascii
# ...
 2045.4093018 6.0000000000 -0.171199799 8.3288002014 8.5000000000 64.552497864 0.0219999999 0.4813908637 2.3724000454 4.0932998657 232.34140015 108.14151764 215.83950806 1.4609916210 0.6909999847 1.4364999533
 2045.5616455 6.0000000000 -0.122900002 8.3770999908 8.5000000000 64.552497864 0.0140000004 0.4699631631 2.4144001007 4.6989002228 232.58639526 107.91941071 215.89840698 1.5756231546 0.7530000210 1.5699000359
 2045.7141113 6.0000000000 -0.041600231 8.4583997726 8.5000000000 64.552497864 0.0175999999 0.4239895046 2.5581998825 5.4951000214 218.34930420 107.55569458 212.33099365 1.9789559841 1.1370999813 2.0034000874
 2045.8664551 6.0000000000 -0.006099702 8.4939002991 8.5000000000 64.552497864 0.0227000006 0.4109044075 2.7367999554 6.5699000359 188.06069946 107.05086517 203.57099915 2.0481369495 1.6088000536 2.1092998981
 2046.0189209 6.0000000000 -0.019700050 8.4802999496 8.5000000000 64.544326782 0.0093999999 0.4164325297 2.5645999908 6.4258999825 176.68559265 105.62814331 196.40299988 1.2205882072 0.5920000076 1.2624000311
 2046.1712646 6.0000000000 -0.021300321 8.4786996841 8.5000000000 54.351375580 -0.007900000 0.4569854140 2.4549999237 6.0465998650 179.22079468 102.43747711 191.05819702 0.9563696384 0.4835999906 0.9786000252
 2046.3237305 6.0000000000 -0.069600113 8.4303998947 8.5000000000 54.351375580 -0.015400000 0.4386987984 2.3275001049 5.3099999428 187.94560242 98.415191650 186.75349426 0.9193233848 0.4577000141 0.9370999932
 2046.4760742 6.0000000000 0.0163001996 8.5163002014 8.5000000000 54.351375580 -0.013400000 0.3755826354 2.4758000374 5.5345001221 180.38049316 95.787704468 183.27769470 1.4334011078 0.9584000111 1.4591000080
 2046.6285400 6.0000000000 0.1351995021 8.6351995468 8.5000000000 54.351375580 -0.005200000 0.3539590836 2.7158999443 6.3148999214 169.09159851 96.039909363 178.30149841 2.3057985306 1.2210999727 2.3687000275
 2046.7808838 6.0000000000 0.0956001282 8.5956001282 8.5000000000 54.321784973 -0.004400000 0.3908250034 2.4395000935 6.1112999916 176.49760437 95.919937134 174.76170349 1.1824909449 0.6667000055 1.2233999968
 2046.9333496 6.0000000000 -0.021300321 8.4786996841 8.5000000000 17.421920776 -0.001700000 0.4219819009 2.4100999832 5.8463997841 186.85209656 94.595626831 171.64129639 1.0469322205 0.5339999795 1.0801999569
 2047.0856934 5.0000000000 0.0016002660 8.5016002655 8.5000000000 17.421920776 0.0094999997 0.4105910957 2.5436000824 5.9278001785 191.69459534 92.678688049 165.22369385 1.3810243607 0.7256000042 1.4199999571
 2047.2380371 5.0000000000 0.1083002016 8.6083002090 8.5000000000 17.421920776 0.0320999995 0.2747322023 2.7144000530 5.5313000679 170.38969421 90.801811218 155.49079895 4.1578221321 2.2286999226 4.1201000214
 2047.3905029 5.0000000000 -0.082300194 8.4176998138 8.5000000000 17.421920776 0.0527000017 0.1900621057 2.7883999348 4.6852002144 148.87550354 90.562858582 149.26950073 7.9445209503 18.378599167 7.7006998062
 2047.5428467 3.0000000000 -0.054599758 8.4454002380 8.5000000000 17.421920776 0.0458999984 0.1428194642 2.6807999611 3.9547998905 135.58320618 91.509712219 146.55859375 26.531341553 17.578599930 24.395799637
 2047.6953125 3.0000000000 -0.056900021 8.4430999756 8.5000000000 17.421920776 0.0238000005 0.1671369374 2.4128000736 3.7063999176 136.22579956 93.267059326 150.06208801 1.7460823059 0.6646000147 1.6490000486
 2047.8476563 3.0000000000 -0.109499902 8.3905000687 8.5000000000 17.443937302 -0.002100000 0.2132526785 2.1988999844 2.9258999825 145.53089905 93.960739136 159.49859619 0.6017526388 0.2761000097 0.5820000172
 2048.0000000 3.0000000000 -0.088899620 8.4111003876 8.5000000000 44.919620514 -0.010400000 0.2790000141 2.1914999485 2.7690000534 156.78259277 95.880294800 171.06289673 0.5425999761 0.2642000020 0.5303000212
 2048.1525879 3.0000000000 -0.082300194 8.4176998138 8.5000000000 44.919620514 -0.012700000 0.2842811048 2.1979000568 2.6791999340 164.09039307 100.43487549 181.04649353 0.5740504861 0.2430000007 0.5759000182
 2048.3049316 5.0000000000 -0.003499985 8.4965000153 8.5000000000 44.919620514 -0.014200000 0.3347693980 2.1875000000 2.5581998825 167.66960144 101.48416138 190.18820190 0.5433142781 0.2569000125 0.5579000115
 2048.4572754 5.0000000000 -0.007900238 8.4920997620 8.5000000000 44.919620514 -0.013000000 0.3156983852 2.2288999557 2.7227001190 171.42329407 103.14109039 194.43081665 0.6146543622 0.3301999867 0.6358000040
 2048.6096191 5.0000000000 -0.086299904 8.4137001038 8.5000000000 44.919620514 -0.007700000 0.3147000074 2.2743000984 2.9175999165 179.67019653 102.75919342 195.74609375 0.7110000253 0.3808000088 0.7433000207
 2048.7622070 6.0000000000 -0.087400444 8.4125995636 8.5000000000 44.919620514 -0.001800000 0.3047168255 2.3635001183 3.2212998867 185.85879517 101.66661072 194.68960571 0.8345246911 0.4172999859 0.8795999885
 2048.9145508 6.0000000000 -0.131999999 8.3680000305 8.5000000000 44.954887390 -0.000200000 0.3151902258 2.3143999577 3.0510001183 189.40960693 100.61624146 190.90588379 0.8497778773 0.4546000063 0.8894000053
 2049.0668945 6.0000000000 -0.125499696 8.3745002747 8.5000000000 66.926513672 -0.001400000 0.3090977669 2.2732999325 3.0088999271 189.95039368 99.827949524 189.37429810 0.7738990188 0.4347999990 0.7713999748
 2049.2192383 6.0000000000 -0.112400100 8.3875999451 8.5000000000 66.926513672 -0.004500000 0.3077000082 2.2458000183 2.9656999111 194.65100098 99.304702759 190.45211792 0.8981000185 0.3467999995 0.8436999917
 2049.3715820 6.0000000000 -0.092399590 8.4076004028 8.5000000000 66.926513672 -0.003900000 0.3116999865 2.3213000298 3.0448000431 195.73320007 98.394302368 189.59869385 0.9459999800 0.4352000058 0.8758000135
 2049.5241699 6.0000000000 -0.067000389 8.4329996109 8.5000000000 66.926513672 -0.004400000 0.3005780280 2.3313999176 2.9375000000 197.11140442 98.020423889 189.74609375 0.9470740557 0.4925000072 0.8658000231
 2049.6765137 6.0000000000 -0.018799780 8.4812002182 8.5000000000 66.926513672 -0.004300000 0.2868988812 2.3464999199 2.9577999115 198.46780396 97.474525452 190.26210022 0.9932406545 0.5404999852 0.8909999728
 2049.8288574 6.0000000000 -0.041600231 8.4583997726 8.5000000000 66.926513672 -0.004300000 0.2861999869 2.3125998974 2.9312999249 203.97999573 97.425102234 189.18429565 1.0185999870 0.5260000229 0.9038000107
 2049.9812012 6.0000000000 -0.051799767 8.4482002258 8.5000000000 62.008529663 -0.003000000 0.2951999903 2.3538999557 3.0668001175 208.07719421 96.859489441 187.41690063 1.0190999508 0.5469999909 0.8999000192
 2050.1337891 6.0000000000 -0.064499862 8.4355001450 8.5000000000 62.008529663 -0.000500000 0.3031128049 2.3905999660 3.1215999126 212.83599854 96.202095032 186.51600647 1.2097904682 0.6952000260 1.0523999929
 2050.2861328 6.0000000000 -0.072099693 8.4279003143 8.5000000000 62.008529663 0.0018000000 0.3111182749 2.3564999104 3.2530999184 217.97619629 95.575508118 184.92219543 1.3285720348 0.7024999857 1.1375000477
 2050.4384766 6.0000000000 -0.084799759 8.4152002335 8.5000000000 62.008529663 0.0038999999 0.3225121498 2.3619000912 3.2915999889 217.03030396 95.141654968 184.10159302 1.3735041618 0.7143999934 1.1675000191
 2050.5908203 6.0000000000 -0.095000267 8.4049997330 8.5000000000 62.008529663 0.0041000000 0.3300999999 2.3889999390 3.2518000603 214.09399414 94.363601685 184.52409363 1.4385000467 0.8658000231 1.2216000557
 2050.7434082 6.0000000000 -0.079700470 8.4202995300 8.5000000000 62.002323151 0.0024999999 0.3238686025 2.3972001076 3.2311000824 211.37269592 94.363601685 184.72729492 1.4668647051 0.9355999827 1.2483999729
 2050.8957520 6.0000000000 0.0346002616 8.5346002579 8.5000000000 58.136150360 0.0001000000 0.3042793274 2.4030001163 3.1675999165 211.61289978 94.363601685 183.02380371 1.5070688725 0.8486999869 1.2897000313
 2051.0480957 6.0000000000 0.0346002616 8.5346002579 8.5000000000 58.136150360 -0.001000000 0.2914009392 2.3856000900 3.1754999161 212.01429749 94.363601685 182.88780212 1.4252161980 0.8173000216 1.2272000313
 2051.2004395 6.0000000000 0.0094003677 8.5094003677 8.5000000000 58.136150360 -0.001300000 0.2919999957 2.3763999939 3.1199998856 208.88519287 94.363601685 184.92539978 1.3105000257 0.7037000060 1.1574000120
