# LAS format log file from PETREL
# Project units are specified as depth units
#==================================================================
~Version information
VERS.   2.0:
WRAP.   NO:
#==================================================================
~Well
STRT .m      1332.7867432 :
STOP .m      2972.7631836 :
STEP .m     0.00000000 :
NULL .        -999.250000 :
COMP.           : COMPANY
WELL.  25/10-9 Aegis   : WELL
FLD.            : FIELD
LOC.            : LOCATION
SRVC.           : SERVICE COMPANY
DATE.  2018-09-11 14:48:15   : Log Export Date {yyyy-MM-dd HH:mm:ss}
PROV.           : PROVINCE
UWI.   25/10-9   : UNIQUE WELL ID
API.            : API NUMBER
#==================================================================
~Curve
DEPT .m                   : DEPTH
Lithology_geolink ._      : Lithology_geolink
CALI .in                  : CALI
BS .in                    : BS
ROP .m/h                  : ROP
DRHO .g/cm3               : DRHO
NPHI .m3/m3               : NPHI
RHOB .g/cm3               : RHOB
PEF .b/e                  : PEF
GR .gAPI                  : GR
DTC .us/ft                : DTC
DTS .us/ft                : DTS
RDEP .ohm.m               : RDEP
RMED .ohm.m               : RMED
~Parameter
#==================================================================
~Ascii
# ...
 2425.7995605 5.0000000000 12.075099945 12.250000954 27.891622543 0.0016000000 0.1637420803 2.4964001179 5.0989999771 76.334503174 107.91725922 222.59907532 1.3672132492 1.3513331413
 2425.9519043 6.0000000000 12.257499695 12.250000954 29.055852890 0.0131999999 0.1970464736 2.4964001179 4.8555998802 87.857498169 117.79965210 223.13507080 0.8248670101 0.7476647496
 2426.1042480 6.0000000000 12.048500061 12.250000954 43.191226959 -0.004200000 0.2664886415 2.3756000996 4.6820998192 94.234596252 122.79800415 235.58769226 0.7429301143 0.6768121719
 2426.2568359 7.0000000000 12.021100044 12.250000954 65.796913147 -0.017000001 0.3276999891 2.3289000988 4.3628997803 99.324699402 124.24140167 250.95880127 0.7192999721 0.6642000079
 2426.4091797 7.0000000000 12.052200317 12.250000954 73.570549011 -0.018400000 0.3308948874 2.3194000721 4.2554001808 103.64759827 122.65583801 258.01101685 0.7101147175 0.6429340839
 2426.5615234 7.0000000000 12.029100418 12.250000954 69.521934509 -0.003000000 0.3225134611 2.3351998329 4.2582001686 108.74919891 122.31015015 256.65289307 0.7194849253 0.6233314276
 2426.7138672 7.0000000000 12.005700111 12.250000954 64.634147644 -0.005100000 0.3297882974 2.3433001041 4.2045001984 105.06860352 121.21227264 246.05889893 0.6937413812 0.6057282090
 2426.8664551 7.0000000000 12.065400124 12.250000954 61.727695465 -0.004300000 0.3147000074 2.3664000034 4.4918999672 105.45030212 119.18039703 238.42320251 0.6876000166 0.6190000176
 2427.0187988 7.0000000000 12.057000160 12.250000954 58.958663940 -0.003800000 0.2978999913 2.3640000820 4.3053998947 103.69419861 117.95320129 234.62370300 0.7720000148 0.7236999869
 2427.1711426 7.0000000000 12.019300461 12.250000954 52.160827637 -0.001700000 0.3106795251 2.3647999763 4.0125999451 92.922096252 117.09328461 227.72425842 0.8196237087 0.8241390586
 2427.3234863 7.0000000000 12.103599548 12.250000954 46.058334351 -0.005200000 0.3003166616 2.4038000107 4.6216001511 98.878997803 114.01293945 230.65817261 0.7151677608 0.7185696959
 2427.4760742 7.0000000000 12.257599831 12.250000954 44.703411102 -0.007000000 0.3037999868 2.3952999115 5.1209001541 101.61340332 115.90039825 235.53430176 0.6690000296 0.6535999775
 2427.6284180 7.0000000000 12.067600250 12.250000954 47.155185699 0.0066999998 0.3014999926 2.3677000999 4.6163997650 102.43430328 118.42479706 233.51339722 0.6822999716 0.6676999927
 2427.7807617 7.0000000000 12.021199226 12.250000954 51.292911530 -0.000700000 0.3317515254 2.3566999435 4.5268001556 93.092399597 120.06546783 231.81941223 0.6675236821 0.6606113911
 2427.9331055 7.0000000000 12.030799866 12.250000954 52.747016907 -0.007600000 0.3380898833 2.3580999374 4.4169001579 94.229103088 118.85604095 228.76869202 0.6416414976 0.6114788651
 2428.0854492 7.0000000000 12.050800323 12.250000954 51.789268494 -0.004500000 0.3184315562 2.3571999073 4.2350997925 91.446899414 116.68138885 215.33753967 0.7141834497 0.6456450224
 2428.2380371 7.0000000000 12.028300285 12.250000954 48.102691650 -0.003400000 0.3102000058 2.3559999466 4.2399001122 90.150596619 113.35659790 201.10762024 0.8618999720 0.7752000093
 2428.3903809 6.0000000000 12.032999992 12.250000954 41.914775848 0.0011000000 0.3108988702 2.3908998966 4.5322999954 81.771499634 108.64604187 191.12979126 1.0302302837 0.9715852737
 2428.5427246 6.0000000000 12.026901245 12.250000954 33.766670227 0.0048000002 0.2728610635 2.4261999130 5.2319002151 77.664497375 104.70561218 187.88488770 1.1017855406 1.0752341747
 2428.6950684 6.0000000000 12.084900856 12.250000954 27.581428528 0.0043000001 0.2462426275 2.4544000626 5.0276999474 75.504203796 101.81782532 190.52055359 1.1071915627 1.0875804424
 2428.8476563 6.0000000000 12.105999947 12.250000954 25.085630417 0.0092000002 0.2347999960 2.4630999565 5.0485000610 78.081398010 99.337303162 189.87570190 1.1325000525 1.1016000509
 2429.0000000 5.0000000000 12.075900078 12.250000954 24.994422913 -0.000200000 0.2436999977 2.4433000088 4.9503998756 75.518699646 97.927200317 188.89540100 1.3319000006 1.2288999557
 2429.1523438 5.0000000000 12.108799934 12.250000954 26.114675522 0.0085000005 0.2359124869 2.4583001137 4.8379001617 64.643402100 94.364707947 187.49584961 1.7709963322 1.6014029980
 2429.3046875 5.0000000000 12.093299866 12.250000954 26.430271149 0.0200999994 0.2205246836 2.4943997860 4.8390998840 60.298801422 92.218536377 186.63877869 2.0811033249 1.9320702553
 2429.4572754 5.0000000000 12.053799629 12.250000954 24.601051331 0.0086000003 0.1984000057 2.5153999329 5.2757000923 58.191898346 93.419998169 178.27308655 2.0608999729 2.0838000774
 2429.6096191 5.0000000000 12.133799553 12.250000954 22.044946671 -0.007200000 0.1888999939 2.4932000637 5.6030998230 61.997798920 98.002403259 185.48500061 1.6202000380 1.7289999723
 2429.7619629 5.0000000000 12.197401047 12.250000954 20.864753723 -0.000900000 0.1674344093 2.4512999058 4.5781998634 65.277198792 103.58775330 197.29527283 1.1114153862 1.1517250538
 2429.9143066 5.0000000000 12.172699928 12.250000954 24.627487183 0.0092000002 0.1729910225 2.4036002159 4.5612998009 77.298400879 108.00262451 214.38600159 0.9159125090 0.8988044858
 2430.0666504 6.0000000000 12.087100029 12.250000954 34.763919830 0.0085000005 0.2186267674 2.3831000328 4.6030001640 82.039703369 110.40884399 227.45414734 0.8754644394 0.8405928016
 2430.2192383 6.0000000000 12.031100273 12.250000954 40.304134369 -0.001200000 0.2588999867 2.3657000065 4.6156001091 86.694000244 113.00389862 225.68449402 0.8729000092 0.8220999837
 2430.3715820 6.0000000000 12.017600060 12.250000954 38.992259979 -0.008300000 0.3135124743 2.3675999641 4.3229999542 88.132102966 112.58227539 221.47554016 0.8637146950 0.8063252568
 2430.5239258 6.0000000000 12.104100227 12.250000954 36.624530792 -0.006900000 0.3153971136 2.3715999126 4.4110999107 84.047798157 112.09178925 216.18278503 0.8320508003 0.7715557814
 2430.6762695 6.0000000000 12.233900070 12.250000954 35.137550354 0.0135000004 0.2956317365 2.3868000507 4.8710999489 78.736701965 108.67987823 209.77256775 0.7933620214 0.7292677760
 2430.8288574 6.0000000000 12.209800720 12.250000954 33.963909149 0.0248000007 0.2912000120 2.3949000835 5.0166001320 80.513496399 105.26280212 197.08309937 0.7846999764 0.7555999756
 2430.9812012 5.0000000000 12.189700127 12.250000954 31.857612610 0.0098000001 0.2962999940 2.3810999393 4.7649002075 82.749198914 105.78910065 192.82800293 0.7969999909 0.7784000039
 2431.1335449 5.0000000000 12.251500130 12.250000954 29.139526367 0.0190999992 0.2957009673 2.3891000748 4.8575000763 78.100402832 106.62246704 200.35781860 0.8206620812 0.8066546917
 2431.2858887 5.0000000000 12.228199959 12.250000954 26.096740723 0.0295000002 0.2922056019 2.4000000954 4.8708000183 74.191001892 107.47243500 206.48519897 0.8142104149 0.7830379605
 2431.4384766 5.0000000000 12.105098724 12.250000954 23.956693649 0.0194000024 0.3027999997 2.3905999660 4.4969000816 69.427200317 106.57849884 215.34930420 0.8151999712 0.7609999776
 2431.5908203 5.0000000000 12.036700249 12.250000954 23.026247025 0.0048000002 0.2948000133 2.3831000328 4.0914998055 67.802497864 107.14849854 209.01849365 0.8325999975 0.7597000003
 2431.7431641 5.0000000000 12.019200325 12.250000954 22.000331879 -0.011300000 0.2902073562 2.3615000248 4.1224999428 74.089797974 109.79315948 204.18595886 0.9156668782 0.8187054396
 2431.8955078 5.0000000000 12.033200264 12.250000954 20.434925079 -0.002600000 0.2729277015 2.3812999725 4.1922001839 75.106597900 111.03181458 206.33483887 0.9583317637 0.8527455330
 2432.0478516 6.0000000000 12.046400070 12.250000954 21.035778046 -0.006400000 0.2809869945 2.3724999428 4.3565001488 79.333602905 111.95172882 209.95230103 0.9383322001 0.8460109234
 2432.2004395 6.0000000000 12.052801132 12.250000954 24.723098755 -0.001600000 0.2773000002 2.3731999397 4.0345001221 86.086196899 113.53829956 212.68150330 0.8805999756 0.8047000170
 2432.3527832 6.0000000000 12.031900406 12.250000954 28.148052216 -0.004300000 0.2957704067 2.3633999825 4.0560002327 80.269500732 110.97430420 214.37718201 0.8082159758 0.7294206619
