# LAS format log file from PETREL
# Project units are specified as depth units
#==================================================================
~Version information
VERS.   2.0:
WRAP.   NO:
#==================================================================
~Well
STRT .m      460.12496948 :
STOP .m      2548.7502441 :
STEP .m     0.00000000 :
NULL .        -999.250000 :
COMP.           : COMPANY
WELL.  25/10-4R  Balder Appr   : WELL
FLD.            : FIELD
LOC.            : LOCATION
SRVC.           : SERVICE COMPANY
DATE.  2018-09-11 14:48:14   : Log Export Date {yyyy-MM-dd HH:mm:ss}
PROV.           : PROVINCE
UWI.   25/10-4 R   : UNIQUE WELL ID
API.            : API NUMBER
#==================================================================
~Curve
DEPT .m                   : DEPTH
Lithology_geolink ._      : Lithology_geolink
CALI .in                  : CALI
MUDWEIGHT ._              : MUDWEIGHT
ROP .m/h                  : ROP
DRHO .g/cm3               : DRHO
NPHI .m3/m3               : NPHI
RHOB .g/cm3               : RHOB
GR .gAPI                  : GR
DTC .us/ft                : DTC
RDEP .ohm.m               : RDEP
SP .mV                    : SP
RSHA .ohm.m               : RSHA
RMED .ohm.m               : RMED
~Parameter
#==================================================================
~Ascii
# ...
 2264.1250000 5.0000000000 9.8719997406 1.1499999762  -999.250000 0.1110000014 0.1845000088 2.5030000210 57.345001221 77.888000488 2.1270000935 53.558998108  -999.250000 3.2400000095
 2264.2500000 5.0000000000 9.8489999771 1.1499999762  -999.250000 0.1140000001 0.1876600087 2.4900000095 56.493999481 78.277000427 2.0799999237 52.804000854  -999.250000 3.1559998989
 2264.3750000 5.0000000000 9.8330001831 1.1499999762  -999.250000 0.1049999967 0.1942999959 2.4790000916 55.918998718 78.509002686 2.0380001068 51.708999634  -999.250000 3.0789999962
 2264.5000000 5.0000000000 9.8219995499 1.1499999762  -999.250000 0.0890000015 0.2019700110 2.4760000706 55.888999939 78.630996704 1.9969999790 50.360000610  -999.250000 3.0179998875
 2264.6250000 5.0000000000 9.8109998703 1.1499999762  -999.250000 0.0839999989 0.2086300105 2.4830000401 56.622001648 78.667999268 1.9550000429 48.745998383  -999.250000 2.9670000076
 2264.7500000 5.0000000000 9.8009996414 1.1499999762  -999.250000 0.0879999995 0.2136500031 2.4939999580 57.784999847 78.064002991 1.9090000391 47.160999298  -999.250000 2.9040000439
 2264.8750000 5.0000000000 9.7910003662 1.1499999762  -999.250000 0.0970000029 0.2180999964 2.4949998856 58.880001068 77.449996948 1.8580000401 46.043998718  -999.250000 2.8380000591
 2265.0000000 5.0000000000 9.7829999924 1.1499999762  -999.250000 0.1070000008 0.2255999893 2.4709999561 59.016998291 77.487998962 1.8070000410 45.379001617  -999.250000 2.7509999275
 2265.1250000 5.0000000000 9.7770004272 1.1499999762  -999.250000 0.1199999973 0.2393099964 2.4210000038 58.622001648 79.167999268 1.7560000420 45.358001709  -999.250000 2.6519999504
 2265.2500000 5.0000000000 9.7720003128 1.1499999762  -999.250000 0.1360000074 0.2571499944 2.3589999676 58.546001434 82.448997498 1.6970000267 45.921001434  -999.250000 2.5559999943
 2265.3750000 5.0000000000 9.7720003128 1.1499999762  -999.250000 0.1430000067 0.2740800083 2.3020000458 59.762001038 86.230003357 1.6160000563 46.727001190  -999.250000 2.4709999561
 2265.5000000 5.0000000000 9.7869997025 1.1499999762  -999.250000 0.1400000006 0.2852100134 2.2709999084 64.216003418 89.894996643 1.5340000391 48.151000977  -999.250000 2.3949999809
 2265.6250000 5.0000000000 9.8090000153 1.1499999762  -999.250000 0.1289999932 0.2894600034 2.2709999084 69.079002380 92.072998047 1.4520000219 49.609001160  -999.250000 2.3389999866
 2265.7500000 5.0000000000 9.8339996338 1.1499999762  -999.250000 0.1150000021 0.2868300080 2.2960000038 74.035003662 92.867996216 1.3680000305 50.945999146  -999.250000 2.3010001183
 2265.8750000 6.0000000000 9.8620004654 1.1499999762  -999.250000 0.1030000001 0.2784200013 2.3369998932 76.914001465 92.864997864 1.2840000391 51.955001831  -999.250000 2.2780001163
 2266.0000000 6.0000000000 9.8789997101 1.1499999762  -999.250000 0.0939999968 0.2662099898 2.3740000725 75.681999207 92.516998291 1.2029999495 52.227001190  -999.250000 2.2709999084
 2266.1250000 6.0000000000 9.8859996796 1.1499999762  -999.250000 0.0850000009 0.2524600029 2.3819999695 71.084999084 91.685989380 1.1399999857 50.472999573  -999.250000 2.2929999828
 2266.2500000 5.0000000000 9.8830003738 1.1499999762  -999.250000 0.0780000016 0.2370200008 2.3759999275 64.970001221 90.320999146 1.0989999771 46.152999878  -999.250000 2.3220000267
 2266.3750000 5.0000000000 9.8730001450 1.1499999762  -999.250000 0.0750000030 0.2202599943 2.3719999790 57.662998199 88.864997864 1.0759999752 41.657001495  -999.250000 2.3519999981
 2266.5000000 5.0000000000 9.8579988480 1.1499999762  -999.250000 0.0750000030 0.2084099948 2.3750000000 50.556999207 86.926002502 1.0609999895 37.990001678  -999.250000 2.3800001144
 2266.6250000 3.0000000000 9.8389997482 1.1499999762  -999.250000 0.0759999976 0.2037599981 2.3889999390 45.238998413 84.603996277 1.0440000296 35.244998932  -999.250000 2.4049999714
 2266.7500000 3.0000000000 9.8149995804 1.1499999762  -999.250000 0.0790000036 0.2047999948 2.4059998989 42.980998993 82.324996948 1.0230000019 32.980998993  -999.250000 2.4200000763
 2266.8750000 3.0000000000 9.7899999619 1.1499999762  -999.250000 0.0820000023 0.2079499960 2.4149999619 43.709999084 80.552009583 0.9929999709 32.444999695  -999.250000 2.4159998894
 2267.0000000 3.0000000000 9.7650003433 1.1499999762  -999.250000 0.0820000023 0.2126500010 2.4179999828 45.075000763 79.971000671 0.9629999995 32.624000549  -999.250000 2.4019999504
 2267.1250000 3.0000000000 9.7440004349 1.1499999762  -999.250000 0.0829999968 0.2197999954 2.4170000553 48.442001343 81.054000854 0.9229999781 33.076999664  -999.250000 2.3670001030
 2267.2500000 3.0000000000 9.7299995422 1.1499999762  -999.250000 0.0860000029 0.2291500121 2.4130001068 53.076999664 82.801002502 0.8750000000 33.497001648  -999.250000 2.3090000153
 2267.3750000 3.0000000000 9.7189998627 1.1499999762  -999.250000 0.0930000022 0.2389999926 2.4079999924 56.925998688 84.412994385 0.8249999881 33.729999542  -999.250000 2.2339999676
 2267.5000000 3.0000000000 9.7180004120 1.1499999762  -999.250000 0.0989999995 0.2465699911 2.3940000534 57.080001831 85.864997864 0.7749999762 33.724998474  -999.250000 2.1540000439
 2267.6250000 3.0000000000 9.7290000916 1.1499999762  -999.250000 0.1019999981 0.2479299903 2.3770000935 55.048999786 87.316001892 0.7260000110 33.335998535  -999.250000 2.0820000172
 2267.7500000 3.0000000000 9.7370004654 1.1499999762  -999.250000 0.1000000015 0.2405999899 2.3580000401 52.132999420 88.710990906 0.6759999990 32.901000977  -999.250000 2.0269999504
 2267.8750000 3.0000000000 9.7340002060 1.1499999762  -999.250000 0.0920000002 0.2294699997 2.3380000591 49.078998566 89.630996704 0.6389999986 32.178001404  -999.250000 1.9880000353
 2268.0000000 3.0000000000 9.7279996872 1.1499999762  -999.250000 0.0810000002 0.2193899900 2.3199999332 46.308998108 89.890991211 0.6140000224 31.302001953  -999.250000 1.9600000381
 2268.1250000 3.0000000000 9.7220001221 1.1499999762  -999.250000 0.0710000023 0.2131599933 2.3159999847 43.936000824 89.890991211 0.5910000205 30.714000702  -999.250000 1.9359999895
 2268.2500000 3.0000000000 9.7170000076 1.1499999762  -999.250000 0.0659999996 0.2109199911 2.3199999332 42.069000244 89.342994690 0.5839999914 30.215000153  -999.250000 1.9179999828
 2268.3750000 3.0000000000 9.7139997482 1.1499999762  -999.250000 0.0710000023 0.2123500109 2.3310000896 40.381999969 88.920997620 0.5839999914 29.826999664  -999.250000 1.9079999924
 2268.5000000 3.0000000000 9.7139997482 1.1499999762  -999.250000 0.0820000023 0.2153500021 2.3440001011 39.210998535 88.851997375 0.5889999866 29.513000488  -999.250000 1.9049999714
 2268.6250000 3.0000000000 9.7139997482 1.1499999762  -999.250000 0.0920000002 0.2190700024 2.3570001125 38.568000793 88.609001160 0.5970000029 29.306999207  -999.250000 1.9079999924
 2268.7500000 3.0000000000 9.7150001526 1.1499999762  -999.250000 0.0939999968 0.2229899913 2.3680000305 38.044998169 87.870002747 0.6100000143 29.326000214  -999.250000 1.9240000248
 2268.8750000 3.0000000000 9.7150001526 1.1499999762  -999.250000 0.0909999982 0.2263699919 2.3770000935 36.777999878 87.065002441 0.6349999905 29.822000504  -999.250000 1.9809999466
 2269.0000000 3.0000000000 9.7150001526 1.1499999762  -999.250000 0.0860000029 0.2273299992 2.3859999180 35.414001465 86.130996704 0.6800000072 30.610000610  -999.250000 2.0450000763
 2269.1250000 3.0000000000 9.7170000076 1.1499999762  -999.250000 0.0829999968 0.2249599993 2.3980000019 34.048999786 85.115997314 0.7239999771 32.040000916  -999.250000 2.0969998837
 2269.2500000 3.0000000000 9.7200002670 1.1499999762  -999.250000 0.0850000009 0.2208700031 2.4159998894 33.094001770 84.091003418 0.8019999862 33.708999634  -999.250000 2.1970000267
 2269.3750000 3.0000000000 9.7290000916 1.1499999762  -999.250000 0.0930000022 0.2162000090 2.4370000362 33.312999725 83.066001892 0.9179999828 35.397998810  -999.250000 2.3450000286
 2269.5000000 3.0000000000 9.7379999161 1.1499999762  -999.250000 0.1089999974 0.2115800083 2.4649999142 35.426998138 82.041007996 1.0520000458 37.097000122  -999.250000 2.4990000725
