# LAS format log file from PETREL
# Project units are specified as depth units
#==================================================================
~Version information
VERS.   2.0:
WRAP.   NO:
#==================================================================
~Well
STRT .m      3054.5593262 :
STOP .m      3397.3076172 :
STEP .m     0.00000000 :
NULL .        -999.250000 :
COMP.           : COMPANY
WELL.  25/10-8A  Hanz Appr   : WELL
FLD.            : FIELD
LOC.            : LOCATION
SRVC.           : SERVICE COMPANY
DATE.  2018-09-11 14:48:15   : Log Export Date {yyyy-MM-dd HH:mm:ss}
PROV.           : PROVINCE
UWI.   25/10-8 A   : UNIQUE WELL ID
API.            : API NUMBER
#==================================================================
~Curve
DEPT .m                   : DEPTH
Lithology_geolink ._      : Lithology_geolink
NPHI .m3/m3               : NPHI
RHOB .g/cm3               : RHOB
GR .gAPI                  : GR
RDEP .ohm.m               : RDEP
RSHA .ohm.m               : RSHA
~Parameter
#==================================================================
~Ascii
# ...
 3359.5122070 5.0000000000 0.1532099992 2.4228146076 50.673290253 1.0251417160 1.1098203659
 3359.6647949 5.0000000000 0.1457500011 2.4304711819 47.478103638 0.9007722735 1.0185251236
 3359.8171387 2.0000000000 0.1416199952 2.4374394417 45.867088318 0.7913674712 1.0971583128
 3359.9694824 2.0000000000 0.1348100007 2.4435446262 44.941051483 0.7135711908 1.2535024881
 3360.1218262 2.0000000000 0.1290999949 2.4450697899 43.426570892 0.6988170743 1.3774980307
 3360.2744141 2.0000000000 0.1253699958 2.4377541542 41.986671448 0.8552890420 1.0723625422
 3360.4267578 2.0000000000 0.1227000058 2.4293582439 40.944229126 1.0534560680 0.7902297974
 3360.5791016 2.0000000000 0.1189199984 2.4225637913 40.371257782 1.4095097780 0.8043248057
 3360.7314453 2.0000000000 0.1129499972 2.4123554230 40.402183533 1.9682571888 1.2867945433
 3360.8840332 2.0000000000 0.1062600017 2.4052059650 40.566986084 1.6258383989 2.7045283318
 3361.0363770 2.0000000000 0.1054899991 2.4065852165 41.000350952 0.9967120290 4.4718618393
 3361.1887207 2.0000000000 0.1105799973 2.4088134766 41.681568146 0.6507696509 3.4157295227
 3361.3410645 2.0000000000 0.1170899943 2.3924031258 42.335868835 0.4604423642 1.3740227222
 3361.4934082 2.0000000000 0.1240999997 2.3457710743 42.777709961 0.4111892879 0.5971769691
 3361.6459961 2.0000000000 0.1374600083 2.2796864510 43.285362244 0.4086042345 0.5382190943
 3361.7983398 2.0000000000 0.1509899944 2.2223265171 43.892120361 0.3854615688 0.5391715765
 3361.9506836 2.0000000000 0.1708299965 2.1766793728 44.330860138 0.3554897308 0.4738879204
 3362.1030273 2.0000000000 0.1913100034 2.1488711834 44.907806396 0.3274146616 0.3936280608
 3362.2556152 2.0000000000 0.2032399923 2.1327409744 45.276142120 0.2991639376 0.3288867176
 3362.4079590 2.0000000000 0.2079599947 2.1229968071 45.044013977 0.2741203010 0.2934383452
 3362.5603027 2.0000000000 0.2105599940 2.1181533337 44.620918274 0.2639630735 0.2863802016
 3362.7126465 2.0000000000 0.2198299915 2.1174883842 44.268798828 0.2654281557 0.2902152538
 3362.8652344 2.0000000000 0.2305600047 2.1218564510 43.919807434 0.2695100904 0.2953939736
 3363.0175781 2.0000000000 0.2342600077 2.1265349388 43.648078918 0.2727538049 0.2996324599
 3363.1699219 2.0000000000 0.2344499975 2.1304512024 43.515499115 0.2752965987 0.3048670888
 3363.3222656 2.0000000000 0.2339800000 2.1345427036 43.675243378 0.2768174410 0.3081048727
 3363.4746094 2.0000000000 0.2366899997 2.1403660774 43.958686829 0.2783932090 0.3094792664
 3363.6271973 2.0000000000 0.2490600049 2.1449022293 44.178741455 0.2809570730 0.3100000024
 3363.7795410 2.0000000000 0.2599300146 2.1477415562 44.381832123 0.2839461863 0.3099730611
 3363.9318848 2.0000000000 0.2713199854 2.1521356106 44.211837769 0.2862248421 0.3094534874
 3364.0842285 2.0000000000 0.2820400000 2.1560230255 43.767604828 0.2858506739 0.3107923567
 3364.2368164 2.0000000000 0.2926200032 2.1577067375 43.375099182 0.2820786238 0.3147614598
 3364.3891602 2.0000000000 0.2997500002 2.1588137150 43.100788116 0.2818744183 0.3143412471
 3364.5415039 2.0000000000 0.3041500151 2.1604835987 42.985534668 0.2844539881 0.3131971359
 3364.6938477 2.0000000000 0.3075799942 2.1625561714 43.145755768 0.2879193723 0.3146642745
 3364.8464355 2.0000000000 0.3071999848 2.1645102501 43.426235199 0.2965733707 0.3218891621
 3364.9987793 2.0000000000 0.2921699882 2.1657006741 43.752239227 0.3062168062 0.3268381059
 3365.1511230 2.0000000000 0.2801199853 2.1660203934 43.844440460 0.3101547062 0.3283096254
 3365.3034668 2.0000000000 0.2771100104 2.1665844917 43.838069916 0.3128716350 0.3319282830
 3365.4558105 2.0000000000 0.2759700119 2.1694605350 43.920936584 0.3147581816 0.3365143239
 3365.6083984 2.0000000000 0.2756099999 2.1738605499 44.035285950 0.3161021769 0.3398591876
 3365.7607422 2.0000000000 0.2708799839 2.1787929535 44.049068451 0.3188412786 0.3376707137
 3365.9130859 2.0000000000 0.2625399828 2.1821002960 44.052104950 0.3217210174 0.3364247680
 3366.0654297 2.0000000000 0.2582300007 2.1843719482 43.948928833 0.3255592585 0.3395468593
 3366.2180176 2.0000000000 0.2532300055 2.1876506805 43.488143921 0.3342133164 0.3494629860
 3366.3703613 2.0000000000 0.2475900054 2.1938815117 42.845378876 0.3448696136 0.3605044782
 3366.5227051 2.0000000000 0.2539899945 2.2014312744 42.165477753 0.3556252718 0.3762768805
 3366.6750488 2.0000000000 0.2624300122 2.2115781307 41.586723328 0.3600138426 0.3893321157
 3366.8276367 2.0000000000 0.2575500011 2.2211375237 40.979274750 0.3561853170 0.3703533411
 3366.9799805 2.0000000000 0.2463100106 2.2291040421 40.693233490 0.3754330873 0.3675966859
 3367.1323242 2.0000000000 0.2350900024 2.2390990257 40.748554230 0.4009031653 0.3949317634
 3367.2846680 2.0000000000 0.2262299955 2.2468128204 41.194301605 0.4121834338 0.4126411378
 3367.4372559 2.0000000000 0.2211599946 2.2524819374 41.523784637 0.4190936387 0.4381528199
 3367.5895996 2.0000000000 0.2160000056 2.2591807842 41.165969849 0.4168778956 0.4573903978
 3367.7419434 2.0000000000 0.2089599967 2.2667183876 40.773052216 0.4180476069 0.4456316531
 3367.8942871 2.0000000000 0.2024700046 2.2728619576 40.463329315 0.4342890382 0.4429893494
 3368.0466309 2.0000000000 0.2020700127 2.2782454491 40.068550110 0.4511557221 0.4559874535
 3368.1992188 2.0000000000 0.2057200074 2.2820873260 39.402488708 0.4713379741 0.4801717997
 3368.3515625 2.0000000000 0.2086300105 2.2843117714 38.853107452 0.4834444523 0.4963394403
 3368.5039063 2.0000000000 0.2105100006 2.2849998474 38.393054962 0.4881041646 0.4968699515
 3368.6562500 2.0000000000 0.2116400003 2.2850217819 38.148284912 0.4909006953 0.4901397526
 3368.8088379 2.0000000000 0.2105599940 2.2855842113 37.897541046 0.4991157055 0.4881192148
 3368.9611816 2.0000000000 0.2104499936 2.2876472473 38.077346802 0.5037891865 0.5226820707
 3369.1135254 2.0000000000 0.2129500061 2.2894694805 38.569805145 0.4896029532 0.5273381472
 3369.2658691 2.0000000000 0.2181699872 2.2891104221 39.015876770 0.4848900735 0.5003206730
 3369.4184570 2.0000000000 0.2315500081 2.2882587910 39.267715454 0.5052036047 0.4789400697
 3369.5708008 2.0000000000 0.2349299937 2.2886412144 39.069396973 0.5307716727 0.4674076438
 3369.7231445 2.0000000000 0.2317900062 2.2890126705 38.687957764 0.6043321490 0.4518000484
 3369.8754883 2.0000000000 0.2276799977 2.2893071175 38.377323151 0.7575744390 0.5312739611
 3370.0278320 2.0000000000 0.2179500014 2.2898187637 38.165691376 0.9141951203 0.6609713435
 3370.1804199 2.0000000000 0.2262299955 2.2903952599 38.122810364 0.9147117734 0.8312877417
 3370.3327637 2.0000000000 0.2376099974 2.2922418118 38.162490845 0.7222953439 0.7568237185
 3370.4851074 2.0000000000 0.2385199964 2.2954301834 38.302749634 0.6313576102 0.5759949088
 3370.6374512 2.0000000000 0.2343399972 2.2981593609 38.466182709 0.7394885421 0.5707325339
 3370.7900391 2.0000000000 0.2300399989 2.2990033627 38.424446106 0.8845883608 0.7871782780
 3370.9423828 2.0000000000 0.2255800068 2.2990860939 38.569046021 0.8895509839 0.9032875896
 3371.0947266 2.0000000000 0.2197800130 2.2992000580 38.880397797 0.7792599797 0.7979459167
 3371.2470703 2.0000000000 0.2111300081 2.2977118492 39.169700623 0.6914262772 0.7097761035
 3371.3996582 2.0000000000 0.2002799958 2.2963383198 39.370628357 0.6473918557 0.6875135303
 3371.5520020 2.0000000000 0.1894800067 2.2970516682 39.364459991 0.6100964546 0.6780880690
 3371.7043457 2.0000000000 0.1809000075 2.3007922173 39.137062073 0.5996079445 0.6039946675
 3371.8566895 2.0000000000 0.1738400012 2.3125610352 38.916538239 0.6795621514 0.5616587996
 3372.0090332 2.0000000000 0.1695299894 2.3295059204 38.610557556 0.7900536656 0.6436910033
 3372.1616211 2.0000000000 0.1669000089 2.3494873047 38.179054260 0.8664619923 0.9177332520
 3372.3139648 2.0000000000 0.1660799980 2.3679273129 37.654308319 0.8747891784 1.3918778896
 3372.4663086 2.0000000000 0.1672500074 2.3801808357 37.351203918 0.9162772894 1.9227379560
 3372.6186523 2.0000000000 0.1686100066 2.3805875778 37.257946014 0.8933253884 1.5242075920
