# LAS format log file from PETREL
# Project units are specified as depth units
#==================================================================
~Version information
VERS.   2.0:
WRAP.   NO:
#==================================================================
~Well
STRT .m      206.00000000 :
STOP .m      2655.9824219 :
STEP .m     0.00000000 :
NULL .        -999.250000 :
COMP.           : COMPANY
WELL.  25/10-8  Hanz   : WELL
FLD.            : FIELD
LOC.            : LOCATION
SRVC.           : SERVICE COMPANY
DATE.  2018-09-11 14:48:14   : Log Export Date {yyyy-MM-dd HH:mm:ss}
PROV.           : PROVINCE
UWI.   25/10-8   : UNIQUE WELL ID
API.            : API NUMBER
#==================================================================
~Curve
DEPT .m                   : DEPTH
Lithology_geolink ._      : Lithology_geolink
CALI .in                  : CALI
BS .in                    : BS
THOR .ppm                 : THOR
NPHI .m3/m3               : NPHI
RHOB .g/cm3               : RHOB
GR .gAPI                  : GR
URAN .ppm                 : URAN
DTC .us/ft                : DTC
RDEP .ohm.m               : RDEP
RSHA .ohm.m               : RSHA
RMED .ohm.m               : RMED
~Parameter
#==================================================================
~Ascii
# ...
 1669.0400391  -999.250000 12.748298645 12.250000954 5.8136544228 0.0065115388 2.2304871082 64.823211670 1.5997385979 140.35218811 0.5842051506 0.5959486961 0.5773098469
 1669.1925049  -999.250000 12.833759308 12.250000954 5.5082097054 0.0061198846 2.2014238834 64.976715088 1.7811057568 141.86228943 0.5804736614 0.5963780880 0.5788285732
 1669.3448486  -999.250000 12.858177185 12.250000954 5.3945503235 0.0081017083 2.1822047234 58.559463501 1.7303471565 142.79797363 0.5710196495 0.5878968239 0.5716834068
 1669.4973145  -999.250000 12.845966339 12.250000954 5.4569854736 0.0082985256 2.1809539795 53.620971680 1.5189417601 143.11459351 0.5607378483 0.5766966343 0.5621712208
 1669.6496582  -999.250000 12.839862823 12.250000954 5.6284680367 0.0104678627 2.1855576038 54.571273804 1.3123264313 142.78483582 0.5503070354 0.5666084290 0.5533664227
 1669.8021240  -999.250000 12.766613007 12.250000954 5.8276982307 0.0073296363 2.1681687832 57.541488647 1.1467207670 142.49407959 0.5376548767 0.5566709042 0.5433688164
 1669.9544678  -999.250000 12.717777252 12.250000954 5.9846830368 0.0049170014 2.1632180214 57.651977539 1.0486199856 143.23359680 0.5229370594 0.5444839001 0.5298652649
 1670.1068115  -999.250000 12.736087799 12.250000954 6.0402541161 0.0066663846 2.1602747440 56.600479126 1.0475543737 144.75677490 0.5103170872 0.5310425758 0.5153095722
 1670.2592773  -999.250000 12.705566406 12.250000954 5.9490199089 0.0092480145 2.1749594212 54.670791626 1.1287938356 146.46871948 0.5041098595 0.5209357738 0.5056035519
 1670.4116211  -999.250000 12.711669922 12.250000954 5.7382302284 0.0074506253 2.1604759693 49.351089478 1.2391936779 147.51412964 0.5043196678 0.5176122189 0.5036635399
 1670.5640869  -999.250000 12.736087799 12.250000954 5.5316457748 0.0116658248 2.1299653053 52.809402466 1.2712582350 147.57569885 0.5072298050 0.5199549198 0.5067286491
 1670.7164307  -999.250000 12.736087799 12.250000954 5.3833584785 0.0082896827 2.1500027180 57.510101318 1.2116137743 146.76541138 0.5094890594 0.5242314339 0.5101516247
 1670.8688965  -999.250000 12.711669922 12.250000954 5.2970809937 0.0045439112 2.1599624157 55.625671387 1.1256343126 145.12010193 0.5102093220 0.5277299881 0.5118641853
 1671.0212402  -999.250000 12.748298645 12.250000954 5.2668638229 0.0059901588 2.1510741711 53.346099854 1.0594384670 142.85029602 0.5097084045 0.5296673775 0.5122122765
 1671.1737061  -999.250000 12.729984283 12.250000954 5.2765111923 0.0067417757 2.1656279564 52.653930664 1.0492790937 140.65397644 0.5081818104 0.5300765038 0.5116131306
 1671.3260498  -999.250000 12.717777252 12.250000954 5.3331975937 0.0062000542 2.1763098240 52.804046631 1.0828078985 139.67926025 0.5059540272 0.5292370319 0.5101220608
 1671.4785156  -999.250000 12.723880768 12.250000954 5.4536867142 0.0054839919 2.1726520061 51.710678101 1.1221518517 140.43029785 0.5039060116 0.5279278755 0.5083010197
 1671.6308594  -999.250000 12.717777252 12.250000954 5.6572928429 0.0070696929 2.1600091457 51.869918823 1.1452714205 142.40588379 0.5030627251 0.5272831917 0.5072512627
 1671.7833252  -999.250000 12.699462891 12.250000954 5.9166941643 0.0065864325 2.1543538570 53.575653076 1.1342700720 143.92063904 0.5039122105 0.5281565189 0.5077600479
 1671.9356689  -999.250000 12.699462891 12.250000954 6.1640877724 0.0065816524 2.1669359207 53.037872314 1.0753611326 144.09909058 0.5063123703 0.5307159424 0.5098507404
 1672.0880127  -999.250000 12.668941498 12.250000954 6.4125709534 0.0094147976 2.1983609200 54.910507202 0.9576641917 143.53294373 0.5096714497 0.5345664024 0.5130820274
 1672.2404785  -999.250000 12.668941498 12.250000954 6.6647415161 0.0067167855 2.1892783642 55.974197388 0.8028776050 142.72302246 0.5128715038 0.5388543606 0.5166552067
 1672.3928223  -999.250000 12.681148529 12.250000954 6.8638610840 0.0084672207 2.1844224930 51.849349976 0.6506930590 141.99436951 0.5144274235 0.5420970917 0.5191471577
 1672.5452881  -999.250000 12.693359375 12.250000954 6.9876050949 0.0139574185 2.1937894821 51.499313354 0.5372190475 141.39262390 0.5134937763 0.5427327156 0.5191087723
 1672.6976318  -999.250000 12.693359375 12.250000954 7.0653324127 0.0091869319 2.2015898228 54.037414551 0.4744977355 141.52836609 0.5106852055 0.5403909683 0.5164504051
 1672.8500977  -999.250000 12.687255859 12.250000954 7.1263284683 0.0070302244 2.1935257912 54.418518066 0.4554156065 142.74913025 0.5076541901 0.5363914967 0.5126724243
 1673.0024414  -999.250000 12.662837982 12.250000954 7.1522946358 0.0070923991 2.1769278049 54.083740234 0.4957263768 143.78446960 0.5061802864 0.5328762531 0.5097379684
 1673.1549072  -999.250000 12.791026115 12.250000954 7.1522574425 0.0058857510 2.1538076401 58.685592651 0.5803444386 142.98803711 0.5077788830 0.5318052769 0.5092637539
 1673.3072510  -999.250000 12.907012939 12.250000954 7.1379227638 0.0043860720 2.1487917900 61.180023193 0.6750515103 138.99534607 0.5137128830 0.5346817970 0.5125813484
 1673.4597168  -999.250000 12.931430817 12.250000954 7.1032943726 0.0076554399 2.1681110859 57.983596802 0.7644775510 133.00036621 0.5246551037 0.5424497128 0.5207638741
 1673.6120605  -999.250000 12.913116455 12.250000954 7.1026067734 0.0093929693 2.1624665260 57.552215576 0.8258906007 128.44090271 0.5396814346 0.5551109314 0.5339550972
 1673.7645264  -999.250000 12.980262756 12.250000954 7.1716609001 0.0069229794 2.1548693180 56.809020996 0.8410118222 127.50584412 0.5554480553 0.5709221363 0.5501589775
 1673.9168701  -999.250000 12.839862823 12.250000954 7.2224721909 0.0075853406 2.1608986855 56.351287842 0.8160395026 130.55964661 0.5670173168 0.5864262581 0.5647363663
 1674.0693359  -999.250000 12.772716522 12.250000954 7.1547594070 0.0102373455 2.1684067249 55.677246094 0.7670124769 134.59692383 0.5714592934 0.5983977318 0.5726885796
 1674.2216797  -999.250000 12.675045013 12.250000954 7.0031580925 0.0076314262 2.1500799656 55.175247192 0.7055230141 135.40028381 0.5711612701 0.6074614525 0.5733129978
 1674.3740234  -999.250000 12.504123688 12.250000954 6.8453516960 0.0050712693 2.1612539291 55.339599609 0.6368319988 131.99064636 0.5728449821 0.6193470955 0.5722455978
 1674.5264893  -999.250000 12.473602295 12.250000954 6.4914941788 0.0042669680 2.1878321171 53.648529053 0.5674452782 127.29408264 0.5818994045 0.6411881447 0.5773491859
 1674.6788330  -999.250000 12.504123688 12.250000954 5.7901382446 0.0055621299 2.1788561344 46.304962158 0.4867018461 125.88088226 0.5968599319 0.6737072468 0.5914874077
 1674.8312988  -999.250000 12.522433281 12.250000954 5.2586531639 0.0058307960 2.1474647522 38.245849609 0.4156698883 128.63792419 0.6104676723 0.7056879997 0.6086127758
 1674.9836426  -999.250000 12.675045013 12.250000954 5.3204827309 0.0052528800 2.1502940655 39.450744629 0.3783164322 131.91958618 0.6177687645 0.7204055786 0.6194949150
 1675.1361084  -999.250000 12.907012939 12.250000954 5.6399207115 0.0047275359 2.2635891438 43.476089478 0.3666748703 132.74694824 0.6208679676 0.7129943371 0.6228754520
 1675.2884521  -999.250000 13.004680634 12.250000954 5.8701148033 0.0069782836 2.3533666134 44.265426636 0.3743888736 131.61312866 0.6224203110 0.6941068172 0.6243236065
 1675.4409180  -999.250000 13.138977051 12.250000954 6.0298247337 0.0062948563 2.3258466721 46.211120605 0.4105011225 130.66963196 0.6191344261 0.6733565331 0.6242167950
 1675.5932617  -999.250000 13.157291412 12.250000954 6.1969437599 0.0058671120 2.1844518185 49.135757446 0.4801625907 132.28767395 0.6068794727 0.6509366035 0.6161251068
 1675.7457275  -999.250000 13.242752075 12.250000954 6.3750977516 0.0087462803 2.1363697052 50.161880493 0.5336825848 136.68580627 0.5886855125 0.6260056496 0.5984482765
 1675.8980713  -999.250000 13.267169952 12.250000954 6.5916757584 0.0084728263 2.1405091286 53.323867798 0.5285517573 140.64375305 0.5723268986 0.6027054787 0.5788626671
 1676.0505371  -999.250000 13.285484314 12.250000954 6.8192815781 0.0059343339 2.1347115040 51.882766724 0.4798893631 142.09312439 0.5628464222 0.5861337185 0.5651810169
 1676.2028809  -999.250000 13.297692299 12.250000954 7.0094904900 0.0072142552 2.1339535713 49.602722168 0.4248621762 141.71670532 0.5607185364 0.5776152611 0.5595235825
