# LAS format log file from PETREL
# Project units are specified as depth units
#==================================================================
~Version information
VERS.   2.0:
WRAP.   NO:
#==================================================================
~Well
STRT .m      1118.6159668 :
STOP .m      2017.3187256 :
STEP .m     0.00000000 :
NULL .        -999.250000 :
COMP.           : COMPANY
WELL.  25/11-15  Grane   : WELL
FLD.            : FIELD
LOC.            : LOCATION
SRVC.           : SERVICE COMPANY
DATE.  2018-09-11 14:48:15   : Log Export Date {yyyy-MM-dd HH:mm:ss}
PROV.           : PROVINCE
UWI.   25/11-15   : UNIQUE WELL ID
API.            : API NUMBER
#==================================================================
~Curve
DEPT .m                   : DEPTH
Lithology_geolink ._      : Lithology_geolink
CALI .in                  : CALI
BS .in                    : BS
MUDWEIGHT ._              : MUDWEIGHT
ROP .m/h                  : ROP
TGAS ._                   : TGAS
DRHO .g/cm3               : DRHO
THOR .ppm                 : THOR
NPHI .m3/m3               : NPHI
RHOB .g/cm3               : RHOB
GR .gAPI                  : GR
URAN .ppm                 : URAN
DTC .us/ft                : DTC
DTE .us/ft                : DTE
RDEP .ohm.m               : RDEP
SP .mV                    : SP
RSHA .ohm.m               : RSHA
RMED .ohm.m               : RMED
~Parameter
#==================================================================
~Ascii
# ...
 1777.4411621 2.0000000000 8.1946887970 8.5000000000 1.1499999762 211136.84375 0.0598589741 -0.009695427 2.8062999249 0.2872081995 2.1496999264 67.999023438 -4.213600159 102.43769836 99.075378418 10.997420311 51.700000763 0.9376490116 7.2335081100
 1777.5936279 2.0000000000 8.1841526031 8.5000000000 1.1499999762 212428.25000 0.0597999990 -0.011705092 2.7816998959 0.2897818983 2.1498010159 67.062232971 -4.248099804 102.75830078 99.719955444 10.819490433 51.200000763 0.8903744221 7.0537657738
 1777.7459717 2.0000000000 8.1504182816 8.5000000000 1.1499999762 212896.43750 0.0597000010 -0.014710742 2.7676000595 0.2806133032 2.1503028870 66.870796204 -4.258399963 102.87740326 99.815917969 10.637680054 50.700000763 0.8724536896 6.9599418640
 1777.8984375 2.0000000000 8.1691608429 8.5000000000 1.1499999762 212896.43750 0.0596015863 -0.019403037 3.1456999779 0.2759073079 2.1531000137 62.626010895 -4.078599930 102.79440308 99.804130554 10.262069702 50.700000763 0.8269439936 6.8018498421
 1778.0507813 2.0000000000 8.1406002045 8.5000000000 1.1499999762 209645.51563 0.0594985373 -0.023933828 3.3900001049 0.2744942904 2.1526949406 63.373840332 -3.938800097 102.31790161 99.448188782 9.5752229691 51.200000763 0.8599702716 6.5485420227
 1778.2031250 2.0000000000 8.1406011581 8.5000000000 1.1499999762 196848.06250 0.0572450571 -0.023569761 2.7869000435 0.2653213143 2.1476998329 62.125560760 -4.091199875 102.07890320 99.120361328 9.0282154083 51.200000763 0.8282170296 6.0711622238
 1778.3555908 2.0000000000 8.1413059235 8.5000000000 1.1499999762 192413.87500 0.0544999987 -0.020381544 2.7399001122 0.2678993940 2.1473946571 62.563201904 -4.058100224 101.56468964 98.644065857 8.1113700867 53.200000763 0.6981468797 5.3194179535
 1778.5079346 2.0000000000 8.1477918625 8.5000000000 1.1499999762 192413.87500 0.0518593416 -0.017851427 2.7042000294 0.2730902135 2.1415989399 63.380760193 -4.033299923 101.60250854 98.636024475 7.4199171066 54.200000763 0.6392167807 5.0035009384
 1778.6604004 2.0000000000 8.1406002045 8.5000000000 1.1499999762 192413.87500 0.0489936508 -0.015689898 2.8020999432 0.2734006941 2.1411008835 68.061798096 -3.940799952 101.56468964 98.563964844 7.0769519806 54.700000763 0.6531065702 5.0866971016
 1778.8127441 2.0000000000 8.1406002045 8.5000000000 1.1499999762 192413.87500 0.0454348400 -0.013600209 2.6589999199 0.2750078142 2.1426019669 67.185462952 -3.964200020 101.60208893 98.588203430 7.0557618141 55.200000763 0.8010131121 5.2100219727
 1778.9652100 2.0000000000 8.1406002045 8.5000000000 1.1499999762 192413.87500 0.0406179503 -0.012646640 2.9558000565 0.2843958139 2.1442000866 65.434623718 -3.736200094 101.20700073 98.343872070 7.1612739563 55.700000763 0.8122844100 5.3163299561
 1779.1175537 2.0000000000 8.1406002045 8.5000000000 1.1499999762 205395.68750 0.0394000001 -0.013157007 2.9419000149 0.3035683036 2.1438980103 61.536029816 -3.735599995 101.72229004 98.631843567 7.2716240883 56.700000763 0.7913340926 5.3573880196
 1779.2700195 2.0000000000 8.1406002045 8.5000000000 1.1499999762 211034.51563 0.0394699648 -0.013028978 2.9900000095 0.3087913990 2.1420989037 65.812667847 -3.681999922 102.16110992 99.040618896 7.3069491386 57.700000763 0.8228110075 5.3467988968
 1779.4223633 2.0000000000 8.1406002045 8.5000000000 1.1499999762 211034.51563 0.0395223200 -0.011894947 2.8492000103 0.3110916018 2.1403009892 66.063217163 -3.703900099 101.72090149 98.735649109 7.3341999054 59.200000763 0.8392950296 5.3455810547
 1779.5748291 2.0000000000 8.1406002045 8.5000000000 1.1499999762 211034.51563 0.0395999998 -0.012297085 2.5771000385 0.3052124083 2.1410982609 66.746383667 -3.813199997 100.84830475 98.047271729 7.3601408005 60.700000763 0.8345205784 5.3269729614
 1779.7271729 2.0000000000 8.1406011581 8.5000000000 1.1499999762 211034.51563 0.0397000015 -0.014165654 2.4323000908 0.3098815978 2.1398010254 64.185569763 -3.914099932 100.61060333 97.691497803 7.3362479210 61.700000763 0.8492376208 5.3082900047
 1779.8796387 2.0000000000 8.1413154602 8.5000000000 1.1499999762 211034.51563 0.0397794880 -0.015874196 3.2585000992 0.2958168089 2.1408970356 62.217998505 -3.378799915 101.28379822 98.200553894 7.2594118118 61.200000763 0.8883934021 5.2987699509
 1780.0319824 2.0000000000 8.1523466110 8.5000000000 1.1499999762 211034.51563 0.0398319885 -0.018860994 2.8452000618 0.2980925143 2.1384890079 61.624488831 -3.538700104 101.92350006 98.868125916 7.0675859451 60.700000763 0.8834229112 5.2763891220
 1780.1844482 2.0000000000 8.2033109665 8.5000000000 1.1499999762 211034.51563 0.0399000011 -0.020490972 2.8828999996 0.2923107147 2.1270909309 61.066761017 -3.515399933 102.79720306 99.624221802 6.8512129784 60.700000763 0.8032667041 5.1566209793
 1780.3367920 2.0000000000 8.2891006470 8.5000000000 1.1499999762 209753.65625 0.0399999991 -0.019323274 2.8854999542 0.2961913049 2.1197979450 64.374786377 -3.497499943 104.42989349 101.15644073 6.5480651855 61.200000763 0.7777510881 4.9444580078
 1780.4891357 2.0000000000 8.2890977859 8.5000000000 1.1499999762 209172.59375 0.0400891341 -0.017074456 2.5915000439 0.2904993892 2.1177060604 64.125381470 -3.602699995 105.41950226 102.26802063 6.2833290100 61.200000763 0.7225788236 4.6696667671
 1780.6416016 2.0000000000 8.2870769501 8.5000000000 1.1499999762 209071.28125 0.0401415154 -0.015190549 2.7571001053 0.2855004072 2.1223020554 64.435302734 -3.511499882 106.09989929 102.97232819 5.9411082268 60.700000763 0.7054929137 4.4052100182
 1780.7939453 2.0000000000 8.2576103210 8.5000000000 1.1499999762 207780.93750 0.0401999988 -0.013233841 2.6466999054 0.2799136937 2.1254079342 61.658908844 -3.506599903 106.13480377 103.17987823 5.5414090157 61.700000763 0.6966258287 4.1713099480
 1780.9464111 2.0000000000 8.1803674698 8.5000000000 1.1499999762 207569.35938 0.0402462743 -0.012068400 2.7639000416 0.2869961858 2.1324019432 63.906818390 -3.436100006 106.69660187 103.53614807 5.1422162056 61.200000763 0.7191848755 3.9294750690
 1781.0987549 2.0000000000 8.2707643509 8.5000000000 1.1499999762 211488.75000 0.0403000005 -0.012408906 2.7386000156 0.2912997901 2.1351959705 64.629798889 -3.390700102 106.61070251 103.60421753 4.9082708359 60.200000763 0.6987190843 3.7614428997
 1781.2512207 2.0000000000 8.2375669479 8.5000000000 1.1499999762 223652.43750 0.0415146351 -0.013685170 2.3884999752 0.2949965894 2.1318950653 68.999168396 -3.491199970 106.21929932 103.29549408 4.7673850060 59.200000763 0.7163158059 3.7096970081
 1781.4035645 2.0000000000 8.1874961853 8.5000000000 1.1499999762 230527.40625 0.0438601971 -0.014449256 2.2980999947 0.2952939868 2.1246969700 67.751548767 -3.508100033 106.25270844 103.23590851 4.5437197685 60.700000763 0.7405313253 3.7045969963
 1781.5560303 2.0000000000 8.1841497421 8.5000000000 1.1499999762 231555.76563 0.0465075597 -0.013044100 2.7009000778 0.2898054123 2.1215090752 69.248947144 -3.314399958 105.62100220 102.79190826 4.3558778763 62.700004578 0.7713277936 3.5132219791
 1781.7083740 2.0000000000 8.1484079361 8.5000000000 1.1499999762 232854.82813 0.0492660552 -0.011519319 2.7646999359 0.2897953987 2.1281049252 68.499092102 -3.395400047 104.58460236 101.81499481 4.2115941048 63.699996948 0.7216055989 3.3884680271
 1781.8608398 2.0000000000 8.1564083099 8.5000000000 1.1499999762 233379.35938 0.0523161180 -0.007983048 2.7758998871 0.2851020098 2.1329009533 67.559646606 -3.406599998 105.29889679 102.17696381 4.0632300377 63.200004578 0.7274791002 3.3561480045
 1782.0131836 2.0000000000 8.2369346619 8.5000000000 1.1499999762 233997.23438 0.0554221012 -0.002233486 2.6133000851 0.2831974030 2.1338009834 65.437728882 -3.533400059 104.90650177 102.04790497 3.8352890015 63.699996948 0.7888358235 3.2450449467
 1782.1656494 2.0000000000 8.1643972397 8.5000000000 1.1499999762 244783.17188 0.0577523820 0.0023483848 2.7428998947 0.2782982886 2.1346960068 65.687263489 -3.507100105 104.94159698 101.96391296 3.4852170944 65.199996948 0.7212632895 3.0786380768
 1782.3179932 2.0000000000 8.0052509308 8.5000000000 1.1499999762 254761.56250 0.0582000017 0.0041224132 2.7311999798 0.2731992006 2.1319050789 65.503860474 -3.522399902 104.90529633 101.89673615 3.1679329872 65.699996948 0.6929602027 2.8799579144
