# LAS format log file from PETREL
# Project units are specified as depth units
#==================================================================
~Version information
VERS.   2.0:
WRAP.   NO:
#==================================================================
~Well
STRT .m      206.00000000 :
STOP .m      2655.9824219 :
STEP .m     0.00000000 :
NULL .        -999.250000 :
COMP.           : COMPANY
WELL.  25/10-8  Hanz   : WELL
FLD.            : FIELD
LOC.            : LOCATION
SRVC.           : SERVICE COMPANY
DATE.  2018-09-11 14:48:14   : Log Export Date {yyyy-MM-dd HH:mm:ss}
PROV.           : PROVINCE
UWI.   25/10-8   : UNIQUE WELL ID
API.            : API NUMBER
#==================================================================
~Curve
DEPT .m                   : DEPTH
Lithology_geolink ._      : Lithology_geolink
CALI .in                  : CALI
BS .in                    : BS
THOR .ppm                 : THOR
NPHI .m3/m3               : NPHI
RHOB .g/cm3               : RHOB
GR .gAPI                  : GR
URAN .ppm                 : URAN
DTC .us/ft                : DTC
RDEP .ohm.m               : RDEP
RSHA .ohm.m               : RSHA
RMED .ohm.m               : RMED
~Parameter
#==================================================================
~Ascii
# ...
 2429.8208008 6.0000000000 8.2554702759 12.250000954 9.8126487732 0.0011317520 2.3582458496 107.11279297 5.1391258240 100.78060913 2.3286857605 2.1937274933 2.4999380112
 2429.9733887 6.0000000000 8.2676811218 12.250000954 9.9496679306 0.0016272083 2.3535919189 105.00442505 5.1977734566 104.51621246 2.1336450577 2.1237726212 2.3408432007
 2430.1257324 6.0000000000 8.2859916687 12.250000954 9.9890108109 0.0021953334 2.3580522537 113.94653320 5.2131905556 104.72270966 1.9026026726 2.0692481995 2.0862989426
 2430.2780762 6.0000000000 8.3043060303 12.250000954 9.9681692123 0.0024971666 2.3585143089 116.78646851 5.1519365311 101.47824097 1.7591300011 2.0284919739 1.8649640083
 2430.4304199 7.0000000000 8.2920951843 12.250000954 9.9327726364 0.0025731439 2.4037435055 111.05847168 4.9683332443 97.621307373 1.7649288177 2.0950002670 1.8036422729
 2430.5830078 7.0000000000 8.2859916687 12.250000954 9.7221002579 0.0024536250 2.4462788105 106.61749268 4.5544056892 94.983833313 1.8533501625 2.3195428848 1.9076166153
 2430.7353516 7.0000000000 8.2554702759 12.250000954 8.7815647125 0.0028829582 2.4732434750 97.200775146 3.8382549286 94.547424316 1.8290629387 2.5660219193 2.0255126953
 2430.8874512 7.0000000000 8.2920951843 12.250000954 6.8831248283 0.0024187933 2.4988753796 66.969604492 2.9788751602 96.307624817 1.5698776245 2.4887666702 1.8561372757
 2431.0400391 7.0000000000 8.2920951843 12.250000954 5.2556409836 0.0016645184 2.5525105000 46.268127441 2.3911781311 98.593147278 1.2234816551 1.9935131073 1.4292645454
 2431.1923828 2.0000000000 8.2615737915 12.250000954 4.7712039948 0.0014243029 2.5692105293 51.260131836 2.1712424755 100.51090240 0.9856724739 1.4914598465 1.0780458450
 2431.3447266 2.0000000000 8.2737846375 12.250000954 5.0506205559 0.0012126490 2.4112806320 61.448104858 2.0445628166 102.00529480 0.9016072750 1.2301020622 0.9069857597
 2431.4970703 2.0000000000 8.2554702759 12.250000954 5.9400935173 0.0011334135 2.2728955746 78.089630127 2.1586487293 103.71061707 0.9521758556 1.1869344711 0.8860509396
 2431.6496582 2.0000000000 8.2554702759 12.250000954 7.0235581398 0.0014364583 2.2489476204 94.356079102 3.0461878777 105.29542542 1.1169047356 1.3020687103 0.9884343147
 2431.8020020 2.0000000000 8.2615737915 12.250000954 7.6728177071 0.0025135984 2.2931187153 110.10128784 4.5279769897 105.41072845 1.3565883636 1.5052442551 1.1916308403
 2431.9543457 7.0000000000 8.2615737915 12.250000954 7.8784623146 0.0034090721 2.3070135117 118.98413086 5.5558037758 104.78744507 1.6005139351 1.6972265244 1.4393062592
 2432.1066895 7.0000000000 8.2859916687 12.250000954 8.0507869720 0.0032897836 2.3182370663 116.86218262 5.8703689575 104.63374329 1.7824435234 1.8173222542 1.6527657509
 2432.2592773 7.0000000000 8.2920951843 12.250000954 8.3988847733 0.0032800834 2.3646848202 110.64031982 5.9825925827 105.10502625 1.8849606514 1.8847308159 1.7890691757
 2432.4116211 7.0000000000 8.2554702759 12.250000954 8.7655830383 0.0031863167 2.3784182072 112.98223877 6.0431461334 105.10949707 1.9485764503 1.9359483719 1.8563313484
 2432.5639648 7.0000000000 8.2798881531 12.250000954 9.0862321854 0.0032949084 2.3543877602 115.66699219 5.9605832100 102.57702637 2.0417394638 2.0025386810 1.9170427322
 2432.7163086 7.0000000000 8.2676811218 12.250000954 9.5455589294 0.0030391971 2.3711991310 107.89434814 5.6238179207 98.753295898 2.1854972839 2.1118669510 2.0340194702
 2432.8686523 7.0000000000 8.2920951843 12.250000954 9.8906650543 0.0026396827 2.4179852009 100.25726318 5.2059321404 96.292320251 2.3120136261 2.2396221161 2.1832370758
 2433.0212402 7.0000000000 8.2982025146 12.250000954 9.9114170074 0.0024861537 2.4927561283 94.208740234 4.9808907509 96.313743591 2.3469324112 2.3086996078 2.2642526627
 2433.1735840 6.0000000000 8.2676811218 12.250000954 9.9038467407 0.0024616395 2.4310469627 92.135772705 4.8690152168 98.395843506 2.3108005524 2.2833404541 2.2422733307
 2433.3259277 6.0000000000 8.2737846375 12.250000954 9.9940233231 0.0023119999 2.4188752174 101.11740112 4.7295770645 99.104095459 2.2803516388 2.2221813202 2.1944332123
 2433.4782715 6.0000000000 8.2920951843 12.250000954 10.164437294 0.0025760962 2.4187495708 106.84106445 4.5521759987 97.813796997 2.2877845764 2.1993589401 2.1880674362
 2433.6308594 6.0000000000 8.2676811218 12.250000954 10.553466797 0.0029164166 2.3842587471 101.22918701 4.2451891899 96.560356140 2.2995786667 2.2321147919 2.2147169113
 2433.7832031 7.0000000000 8.2859916687 12.250000954 10.995163918 0.0027209488 2.3888058662 93.014801025 3.9065320492 96.160400391 2.2751150131 2.2843027115 2.2173051834
 2433.9355469 7.0000000000 8.2920951843 12.250000954 11.302906036 0.0025958125 2.4035964012 93.932952881 3.6730923653 97.282920837 2.2316741943 2.3179349899 2.1720533371
 2434.0878906 6.0000000000 8.2554702759 12.250000954 11.535632133 0.0024930579 2.4235920906 103.19815063 3.4854283333 97.153312683 2.2389621735 2.3464164734 2.1312465668
 2434.2404785 6.0000000000 8.2859916687 12.250000954 11.667555809 0.0024937917 2.4594886303 104.57287598 3.3579525948 92.839714050 2.3637828827 2.4213581085 2.1701622009
 2434.3928223 6.0000000000 8.2554702759 12.250000954 11.407930374 0.0027033582 2.4619748592 97.515625000 3.3587665558 87.477668762 2.6201066971 2.5679101944 2.3322992325
 2434.5451660 6.0000000000 8.2798881531 12.250000954 10.629632950 0.0026133845 2.4234499931 86.420745850 3.4674859047 84.939613342 2.9048461914 2.7241859436 2.5855979919
 2434.6975098 6.0000000000 8.2737846375 12.250000954 9.9746885300 0.0028157982 2.4117600918 76.396667480 3.5411345959 87.211265564 2.9988384247 2.7475318909 2.7644205093
 2434.8498535 6.0000000000 8.2798881531 12.250000954 9.9681749344 0.0025537261 2.4084281921 81.808380127 3.6957888603 94.202697754 2.7958679199 2.5531387329 2.6711587906
 2435.0024414 6.0000000000 8.2920951843 12.250000954 10.421501160 0.0019171040 2.4307193756 102.00210571 4.1068296432 100.63900757 2.4601278305 2.2430458069 2.3723888397
 2435.1547852 6.0000000000 8.2859916687 12.250000954 10.793441772 0.0024325047 2.4094364643 112.85961914 4.4575705528 102.34938812 2.1855173111 1.9909806252 2.1029376984
 2435.3071289 6.0000000000 8.2920951843 12.250000954 10.713996887 0.0027381873 2.4193961620 106.88851929 4.4881935120 100.12122345 1.9669232368 1.8636236191 1.9484634399
 2435.4594727 7.0000000000 8.2920951843 12.250000954 9.8294954300 0.0028670914 2.4089083672 95.304626465 4.2420859337 96.538146973 1.6818461418 1.7959837914 1.8035664558
 2435.6120605 7.0000000000 8.2554702759 12.250000954 8.1151380539 0.0025329583 2.3403177261 76.463256836 3.4961612225 93.996719360 1.3106102943 1.6574926376 1.5191254616
 2435.7644043 7.0000000000 8.2859916687 12.250000954 6.4674549103 0.0028626751 2.3815796375 60.279571533 2.3687911034 93.638183594 0.9737291336 1.3972430229 1.1540956497
 2435.9167480 5.0000000000 8.2920951843 12.250000954 5.5482730865 0.0029413220 2.4258220196 55.919631958 1.6347321272 95.547355652 0.7548210621 1.1218085289 0.8723497391
 2436.0690918 5.0000000000 8.2798881531 12.250000954 5.0780692101 0.0026984762 2.3441720009 56.735961914 1.5145307779 98.379714966 0.6452629566 0.9370448589 0.7154588699
 2436.2216797 2.0000000000 8.2676811218 12.250000954 4.6455860138 0.0026827501 2.2372264862 57.359298706 1.6065164804 101.20520782 0.6081521511 0.8570604324 0.6523182392
 2436.3740234 2.0000000000 8.2920951843 12.250000954 4.2235155106 0.0023971249 2.2027378082 58.315795898 1.7533358335 103.88822174 0.6148943901 0.8564999104 0.6480414867
 2436.5263672 5.0000000000 8.2493667603 12.250000954 4.0239486694 0.0024736586 2.2908287048 61.440612793 1.9508872032 103.74652863 0.6514525414 0.9135072231 0.6794860363
 2436.6787109 5.0000000000 8.3409309387 12.250000954 4.2028498650 0.0023646492 2.4306581020 60.004714966 2.1281948090 98.665351868 0.7176680565 1.0244822502 0.7396490574
 2436.8310547 5.0000000000 8.2982025146 12.250000954 4.5828561783 0.0020451250 2.4434785843 59.139205933 2.2474448681 90.882720947 0.8183460236 1.1988234520 0.8344781399
 2436.9836426 5.0000000000 8.2920951843 12.250000954 4.9603743553 0.0021666463 2.3583753109 59.909423828 2.3057460785 84.177032471 0.9560403824 1.4305467606 0.9681961536
