# LAS format log file from PETREL
# Project units are specified as depth units
#==================================================================
~Version information
VERS.   2.0:
WRAP.   NO:
#==================================================================
~Well
STRT .m      3054.5593262 :
STOP .m      3397.3076172 :
STEP .m     0.00000000 :
NULL .        -999.250000 :
COMP.           : COMPANY
WELL.  25/10-8A  Hanz Appr   : WELL
FLD.            : FIELD
LOC.            : LOCATION
SRVC.           : SERVICE COMPANY
DATE.  2018-09-11 14:48:15   : Log Export Date {yyyy-MM-dd HH:mm:ss}
PROV.           : PROVINCE
UWI.   25/10-8 A   : UNIQUE WELL ID
API.            : API NUMBER
#==================================================================
~Curve
DEPT .m                   : DEPTH
Lithology_geolink ._      : Lithology_geolink
NPHI .m3/m3               : NPHI
RHOB .g/cm3               : RHOB
GR .gAPI                  : GR
RDEP .ohm.m               : RDEP
RSHA .ohm.m               : RSHA
~Parameter
#==================================================================
~Ascii
# ...
 3160.6298828 6.0000000000 0.1965900064 2.3502490520 87.254295349 2.5581498146 2.4799799919
 3160.7822266 6.0000000000 0.2084800005 2.3422200680 87.592857361 2.3499722481 2.6321153641
 3160.9348145 6.0000000000 0.2091400027 2.3394451141 87.682174683 2.2015655041 2.6138899326
 3161.0871582 6.0000000000 0.2028000057 2.3404326439 87.693466187 2.2452740669 2.5066897869
 3161.2395020 6.0000000000 0.1930100024 2.3430240154 87.745521545 2.2616651058 2.4508650303
 3161.3918457 6.0000000000 0.1858200133 2.3451161385 87.507469177 2.2484991550 2.4043488503
 3161.5444336 6.0000000000 0.1796900034 2.3474502563 86.797897339 2.2794170380 2.3528892994
 3161.6967773 6.0000000000 0.1744599938 2.3526430130 85.915946960 2.3943219185 2.2858769894
 3161.8491211 6.0000000000 0.1695199907 2.3636999130 84.745849609 2.4880163670 2.2655124664
 3162.0014648 6.0000000000 0.1645700037 2.3782823086 83.957420349 2.5182030201 2.2925226688
 3162.1538086 6.0000000000 0.1631999910 2.3919651508 83.304924011 2.5425405502 2.3549737930
 3162.3063965 6.0000000000 0.1672500074 2.3939580917 83.047988892 2.5154123306 2.4929566383
 3162.4587402 6.0000000000 0.1802400053 2.3821637630 83.274833679 2.4404790401 2.6039004326
 3162.6110840 6.0000000000 0.1898100078 2.3668527603 83.944953918 2.3763444424 2.6492936611
 3162.7634277 6.0000000000 0.1912499964 2.3500206470 84.305603027 2.3272323608 2.6809170246
 3162.9160156 6.0000000000 0.1908999979 2.3360123634 83.678863525 2.2895600796 2.7015695572
 3163.0683594 6.0000000000 0.1860600114 2.3303956985 82.883293152 2.2523751259 2.6824531555
 3163.2207031 6.0000000000 0.1710199863 2.3332471848 82.027610779 2.1645166874 2.5838046074
 3163.3730469 6.0000000000 0.1629099995 2.3504559994 81.049484253 2.0681278706 2.4378848076
 3163.5256348 6.0000000000 0.1628099978 2.3733038902 80.866279602 1.9181891680 1.9174512625
 3163.6779785 6.0000000000 0.1607999951 2.3866860867 81.977157593 1.9035495520 1.4182024002
 3163.8303223 6.0000000000 0.1588200033 2.3879659176 83.434402466 1.9382987022 1.7901647091
 3163.9826660 6.0000000000 0.1604800075 2.3829476833 85.542907715 1.9458004236 2.3488771915
 3164.1350098 6.0000000000 0.1660699993 2.3758015633 88.201972961 2.0870482922 2.7268028259
 3164.2875977 6.0000000000 0.1718299985 2.3705520630 90.484573364 2.1756148338 2.8893442154
 3164.4399414 6.0000000000 0.1736800075 2.3672232628 91.033508301 2.1783349514 2.8840231895
 3164.5922852 6.0000000000 0.1728599966 2.3656375408 90.531349182 2.1818010807 2.8741641045
 3164.7446289 6.0000000000 0.1722299904 2.3661754131 90.130447388 2.2508649826 2.7421700954
 3164.8972168 6.0000000000 0.1712599993 2.3699188232 89.552253723 2.4114356041 2.4951546192
 3165.0495605 6.0000000000 0.1678100079 2.3765883446 89.888931274 2.6798577309 2.2734258175
 3165.2019043 6.0000000000 0.1637400091 2.3791060448 92.038673401 2.8201251030 2.3309295177
 3165.3542480 6.0000000000 0.1605800092 2.3746068478 94.695526123 2.8649623394 2.4228570461
 3165.5068359 6.0000000000 0.1580300033 2.3696255684 96.212257385 2.6950867176 2.6027534008
 3165.6591797 6.0000000000 0.1586000025 2.3672406673 96.547088623 2.4717237949 2.7561547756
 3165.8115234 6.0000000000 0.1633999944 2.3656637669 96.065452576 2.2493696213 2.7543582916
 3165.9638672 6.0000000000 0.1714500040 2.3628122807 95.056541443 1.9602770805 2.5685808659
 3166.1162109 6.0000000000 0.1728100032 2.3575139046 93.562370300 1.7513725758 2.3163418770
 3166.2687988 6.0000000000 0.1666399986 2.3469371796 92.206520081 1.5903326273 2.0823254585
 3166.4211426 6.0000000000 0.1635700017 2.3326838017 90.060104370 1.5118553638 1.9724199772
 3166.5734863 6.0000000000 0.1480500102 2.3146793842 86.943016052 1.3998535872 1.8635007143
 3166.7258301 6.0000000000 0.1269000024 2.2978451252 82.138153076 1.1775599718 1.0442831516
 3166.8784180 6.0000000000 0.1049299985 2.2880444527 75.884208679 1.6486530304 0.3899591863
 3167.0307617 6.0000000000 0.0898400024 2.2848994732 70.363922119 1.8940869570 0.3350730538
 3167.1831055 6.0000000000 0.0845400020 2.2914309502 63.457324982 2.6673915386 0.7579473257
 3167.3354492 5.0000000000 0.0828799978 2.3095276356 56.830322266 2.0948450565 2.1155221462
 3167.4880371 5.0000000000 0.0811699927 2.3286643028 51.307666779 1.5987522602 3.0399506092
 3167.6403809 5.0000000000 0.0792399943 2.3347649574 47.594005585 1.3068392277 13.216154099
 3167.7927246 5.0000000000 0.0763100013 2.3338341713 45.941070557 1.1419237852 98.807838440
 3167.9450684 5.0000000000 0.0714600012 2.3470017910 44.795211792 1.3551418781 210.17669678
 3168.0976563 5.0000000000 0.0694900006 2.3722109795 43.843265533 1.5410071611 221.12713623
 3168.2500000 5.0000000000 0.0801299959 2.3872089386 43.313163757 1.9332451820 174.51805115
 3168.4023438 5.0000000000 0.0955799967 2.3727128506 43.399749756 2.2884161472 127.90163422
 3168.5546875 5.0000000000 0.1076799929 2.3256919384 44.124595642 1.9408289194 81.303916931
 3168.7070313 5.0000000000 0.1171699986 2.2732732296 45.620693207 1.1133620739 35.599491119
 3168.8596191 5.0000000000 0.1352400035 2.2399036884 47.416961670 0.6464458704 8.1083583832
 3169.0119629 5.0000000000 0.1533100009 2.2327136993 52.278545380 2.6633684635 1.0564403534
 3169.1643066 5.0000000000 0.1704199910 2.2525303364 62.328041077 2.8704345226 0.5538171530
 3169.3166504 5.0000000000 0.1832000017 2.2818880081 72.706077576 1.5147916079 1.3790473938
 3169.4692383 5.0000000000 0.1929800063 2.3100388050 77.120971680 1.4647392035 2.4533817768
 3169.6215820 5.0000000000 0.2007600069 2.3312373161 78.013580322 1.9378697872 2.8542969227
 3169.7739258 5.0000000000 0.2003700137 2.3451721668 78.669097900 2.5801370144 2.8227627277
 3169.9262695 5.0000000000 0.1915900111 2.3535692692 79.187446594 3.1314644814 2.9272687435
 3170.0788574 5.0000000000 0.1915999949 2.3565850258 79.439918518 3.2743034363 3.0810194016
 3170.2312012 5.0000000000 0.1962800026 2.3571259975 79.846366882 3.1240694523 3.0676002502
 3170.3835449 6.0000000000 0.1977300048 2.3597803116 80.532089233 2.8676428795 2.9025838375
 3170.5358887 6.0000000000 0.1876399964 2.3656938076 82.555229187 2.7396008968 2.7971019745
 3170.6882324 6.0000000000 0.1775799990 2.3723082542 85.141654968 2.7430052757 2.7823691368
 3170.8408203 6.0000000000 0.1751399934 2.3792116642 87.334846497 2.6860759258 2.8113579750
 3170.9931641 6.0000000000 0.1746999919 2.3813350201 88.332572937 2.6290080547 2.6468760967
 3171.1455078 6.0000000000 0.1781800091 2.3776485920 88.639511108 2.7090504169 2.3786020279
 3171.2978516 6.0000000000 0.1852799952 2.3737580776 88.847740173 2.7622909546 2.2891354561
 3171.4504395 6.0000000000 0.1884000003 2.3719959259 88.950630188 2.7550137043 2.3006894588
 3171.6027832 6.0000000000 0.1866700053 2.3745262623 89.002075195 2.7499356270 2.3060193062
 3171.7551270 6.0000000000 0.1807099879 2.3835151196 88.787811279 2.7472028732 2.3040206432
 3171.9074707 6.0000000000 0.1730899960 2.3964047432 88.303237915 2.7450211048 2.3000142574
 3172.0600586 6.0000000000 0.1642099917 2.4095451832 87.769905090 2.7426486015 2.2966058254
 3172.2124023 6.0000000000 0.1616200060 2.4158782959 87.568374634 2.7369916439 2.3005356789
 3172.3647461 6.0000000000 0.1680400074 2.4099638462 90.487297058 2.7250273228 2.3131427765
 3172.5170898 6.0000000000 0.1732999980 2.3975350857 95.630844116 2.7104079723 2.3283832073
 3172.6694336 6.0000000000 0.1821999997 2.3841993809 100.12982941 2.6963651180 2.3435177803
 3172.8220215 6.0000000000 0.1868799925 2.3741011620 101.66789246 2.6840145588 2.3566305637
 3172.9743652 6.0000000000 0.1835199893 2.3667514324 100.83990479 2.6794998646 2.3583188057
 3173.1267090 6.0000000000 0.1825600117 2.3608334064 99.783813477 2.6797912121 2.3530972004
 3173.2790527 6.0000000000 0.1839299947 2.3544130325 98.890876770 2.6802828312 2.3482494354
 3173.4316406 6.0000000000 0.1832600087 2.3449659348 98.153381348 2.6874103546 2.3389563560
 3173.5839844 6.0000000000 0.1813900024 2.3374564648 98.590393066 2.7017543316 2.3238940239
 3173.7363281 6.0000000000 0.1784799993 2.3354625702 99.365295410 2.7179038525 2.3072526455
