# LAS format log file from PETREL
# Project units are specified as depth units
#==================================================================
~Version information
VERS.   2.0:
WRAP.   NO:
#==================================================================
~Well
STRT .m      1332.7867432 :
STOP .m      2972.7631836 :
STEP .m     0.00000000 :
NULL .        -999.250000 :
COMP.           : COMPANY
WELL.  25/10-9 Aegis   : WELL
FLD.            : FIELD
LOC.            : LOCATION
SRVC.           : SERVICE COMPANY
DATE.  2018-09-11 14:48:15   : Log Export Date {yyyy-MM-dd HH:mm:ss}
PROV.           : PROVINCE
UWI.   25/10-9   : UNIQUE WELL ID
API.            : API NUMBER
#==================================================================
~Curve
DEPT .m                   : DEPTH
Lithology_geolink ._      : Lithology_geolink
CALI .in                  : CALI
BS .in                    : BS
ROP .m/h                  : ROP
DRHO .g/cm3               : DRHO
NPHI .m3/m3               : NPHI
RHOB .g/cm3               : RHOB
PEF .b/e                  : PEF
GR .gAPI                  : GR
DTC .us/ft                : DTC
DTS .us/ft                : DTS
RDEP .ohm.m               : RDEP
RMED .ohm.m               : RMED
~Parameter
#==================================================================
~Ascii
# ...
 1440.0764160 5.0000000000 12.558100700 12.250000954 69.986877441 0.0588000007 0.4492999911 2.1361000538 4.6510000229 58.271701813 147.96229553 346.02969360 0.6938999891 0.6765999794
 1440.2288818 5.0000000000 12.497200012 12.250000954 63.140090942 0.0498999991 0.4151999950 2.1570000648 4.7987999916 60.422199249 147.86219788 346.01660156 0.6816999912 0.6780999899
 1440.3812256 5.0000000000 13.038800240 12.250000954 37.922901154 0.0496000014 0.4104999900 2.1796998978 4.5788998604 58.446300507 147.06430054 348.22418213 0.6776999831 0.6274999976
 1440.5336914 5.0000000000 13.529999733 12.250000954 23.755905151 0.0601999983 0.4165999889 2.1856999397 4.1394000053 56.013301849 146.92849731 347.11291504 0.6485000253 0.6593000293
 1440.6860352 4.0000000000 12.664500237 12.250000954 20.125328064 0.0504000001 0.4151000082 2.1357998848 3.9033999443 55.747299194 146.46249390 344.53021240 0.6644999981 0.6791999936
 1440.8385010 4.0000000000 12.495400429 12.250000954 19.919618607 0.0417999998 0.3770000041 2.1103000641 3.9080998898 54.978698730 145.18490601 341.19229126 0.7132999897 0.7247999907
 1440.9908447 4.0000000000 12.516699791 12.250000954 28.843835831 0.0416000001 0.3831999898 2.1101000309 3.6401000023 48.964099884 144.91610718 338.94131470 0.7200999856 0.7146000266
 1441.1433105 4.0000000000 12.459900856 12.250000954 41.937007904 0.0395000018 0.3842000067 2.1092998981 3.6054999828 48.427898407 145.17630005 337.74819946 0.6808000207 0.6583999991
 1441.2956543 4.0000000000 12.601000786 12.250000954 54.748035431 0.0461000018 0.3847000003 2.1228001118 3.7567999363 52.307800293 146.55130005 334.35110474 0.6931999922 0.6452000141
 1441.4481201 4.0000000000 12.507699966 12.250000954 49.521656036 0.0454999991 0.3912000060 2.1224999428 3.6089999676 53.939701080 147.02969360 329.96029663 0.6719999909 0.6697000265
 1441.6004639 4.0000000000 12.472499847 12.250000954 37.560695648 0.0384999998 0.3977000117 2.1127998829 3.2386000156 53.289398193 147.18519592 337.66308594 0.6895999908 0.6879000068
 1441.7529297 4.0000000000 12.427801132 12.250000954 30.202098846 0.0364999995 0.4002000093 2.1054000854 3.1740999222 54.843700409 146.79769897 346.79031372 0.7080000043 0.6880000234
 1441.9052734 4.0000000000 12.450999260 12.250000954 25.323163986 0.0355999991 0.4180999994 2.1050999165 3.3369998932 56.777400970 146.18190002 348.95120239 0.6837000251 0.7013000250
 1442.0576172 4.0000000000 12.495800972 12.250000954 29.666341782 0.0379000008 0.4203000069 2.1119000912 3.4877998829 55.136001587 146.07839966 354.96148682 0.7037000060 0.6952999830
 1442.2100830 4.0000000000 12.482600212 12.250000954 42.136810303 0.0414999984 0.4049000144 2.1177999973 3.3573000431 54.243099213 146.30299377 354.54141235 0.7214999795 0.6880999804
 1442.3624268 4.0000000000 12.481100082 12.250000954 63.172245026 0.0397000015 0.3743000031 2.1087999344 3.3620998859 48.873901367 146.76440430 354.57159424 0.6794000268 0.6134999990
 1442.5148926 4.0000000000 12.474100113 12.250000954 72.865814209 0.0379999988 0.3716000021 2.1006000042 3.3756000996 47.436698914 146.90029907 354.26528931 0.6467000246 0.5828999877
 1442.6672363 4.0000000000 12.516599655 12.250000954 77.789367676 0.0416000001 0.3928000033 2.1115000248 3.5397000313 52.789398193 147.93269348 350.35281372 0.6263999939 0.5691000223
 1442.8197021 4.0000000000 12.495900154 12.250000954 69.435691833 0.0445000008 0.3882000148 2.1228001118 3.4797999859 52.208000183 147.81719971 351.86358643 0.5986999869 0.5795999765
 1442.9720459 4.0000000000 12.367600441 12.250000954 54.277885437 0.0460000001 0.3973000050 2.1428000927 3.5436999798 48.517501831 147.46369934 351.34494019 0.6556000113 0.6284000278
 1443.1245117 4.0000000000 12.639900208 12.250000954 51.503280640 0.0504000001 0.3996999860 2.2242999077 4.5921998024 50.742801666 147.22109985 356.00119019 0.6848999858 0.6452000141
 1443.2768555 4.0000000000 13.090499878 12.250000954 54.311027527 0.0515000001 0.4052000046 2.2356998920 5.0394001007 42.295200348 145.87089539 348.27590942 0.6991999745 0.6789000034
 1443.4293213 4.0000000000 12.843800545 12.250000954 63.157478333 0.0603000000 0.3749000132 2.1642999649 3.8914000988 38.533657074 144.64990234 338.67620850 0.7149999738 0.6848999858
 1443.5816650 4.0000000000 12.649200439 12.250000954 69.878936768 0.0494000018 0.3626999855 2.1136000156 3.9460000992 34.897174835 143.94760132 334.37249756 0.6589999795 0.6384000182
 1443.7341309 4.0000000000 12.441100121 12.250000954 77.777885437 0.0465000011 0.3901999891 2.1056001186 3.8524000645 43.850242615 144.25689697 330.94061279 0.6528999805 0.6150000095
 1443.8864746 4.0000000000 12.374699593 12.250000954 80.012466431 0.0394000001 0.3892999887 2.1015999317 3.5991001129 47.369491577 144.43690491 332.80389404 0.6748999953 0.6255000234
 1444.0388184 4.0000000000 12.390500069 12.250000954 70.007873535 0.0308999997 0.3828999996 2.0968000889 3.3262999058 48.853878021 144.70060730 337.78170776 0.6837999821 0.6044999957
 1444.1912842 5.0000000000 12.412899971 12.250000954 67.013450623 0.0322000012 0.4043000042 2.0999999046 3.3984000683 47.835281372 145.80619812 338.21209717 0.6294999719 0.6061999798
 1444.3436279 5.0000000000 12.491499901 12.250000954 66.027557373 0.0401000008 0.3961000144 2.1147000790 3.8791000843 51.928077698 147.10679626 352.63320923 0.6292999983 0.5938000083
 1444.4960938 5.0000000000 12.579000473 12.250000954 62.047904968 0.0469000004 0.4005999863 2.1147000790 3.9458999634 54.400749207 148.29910278 360.69018555 0.6108999848 0.6018000245
 1444.6484375 5.0000000000 12.299799919 12.250000954 55.860893250 0.0463000014 0.4088000059 2.1140000820 3.8773000240 60.439723969 149.20599365 360.30661011 0.6101999879 0.6040999889
 1444.8009033 5.0000000000 12.214098930 12.250000954 57.091537476 0.0096000005 0.4165999889 2.0662999153 3.0690999031 53.476055145 150.12390137 354.69061279 0.6195999980 0.5999000072
 1444.9532471 5.0000000000 12.407099724 12.250000954 65.979660034 0.0043000001 0.4347999990 2.0627000332 2.9052000046 51.298782349 150.48860168 361.01998901 0.6187000275 0.5795999765
 1445.1057129 5.0000000000 12.487799644 12.250000954 73.373687744 0.0335999988 0.4277000129 2.0989000797 3.5994000435 47.293518066 150.71359253 373.74301147 0.5827999711 0.5882999897
 1445.2580566 5.0000000000 12.316899300 12.250000954 76.424873352 0.0299999993 0.4323999882 2.0938000679 3.5057001114 50.427593231 150.72210693 386.25985718 0.5778999925 0.5618000031
 1445.4105225 5.0000000000 12.450499535 12.250000954 72.104660034 0.0160000008 0.4167000055 2.0764000416 3.1847000122 59.253761292 150.65310669 386.53640747 0.5903000236 0.5605000257
 1445.5628662 5.0000000000 12.408699989 12.250000954 69.646652222 0.0302000009 0.4113000035 2.0857000351 3.8057000637 48.693969727 150.39990234 376.90130615 0.5866000056 0.5860000253
 1445.7153320 4.0000000000 12.289699554 12.250000954 77.398948669 0.0214000009 0.3885000050 2.0676999092 3.3619000912 49.525180817 149.51849365 377.21890259 0.6274999976 0.6229000092
 1445.8676758 4.0000000000 12.394901276 12.250000954 85.479988098 0.0183000006 0.4142000079 2.0566000938 3.1912999153 44.336898804 148.63519287 376.13861084 0.6848999858 0.6299999952
 1446.0200195 4.0000000000 12.253999710 12.250000954 85.586288452 0.0214000009 0.4311999977 2.0520999432 3.2037000656 42.341571808 149.08239746 379.20721436 0.6858000159 0.6245999932
 1446.1724854 4.0000000000 12.225500107 12.250000954 76.808395386 0.0229000002 0.4239000082 2.0622000694 3.0736000538 42.933757782 149.62271118 372.77590942 0.6251000166 0.6182000041
 1446.3248291 4.0000000000 12.330699921 12.250000954 74.076446533 0.0230000000 0.4208999872 2.0690000057 3.1572999954 46.995510101 150.29748535 381.71240234 0.5814999938 0.6026999950
 1446.4772949 4.0000000000 12.347100258 12.250000954 80.450454712 0.0214000009 0.3923000097 2.0641999245 3.1726000309 48.756397247 150.44348145 393.34408569 0.6050999761 0.5598999858
 1446.6296387 4.0000000000 12.279898643 12.250000954 81.363845825 0.0221999995 0.3885000050 2.0650999546 3.2353000641 47.630470276 150.43060303 398.29669189 0.5658000112 0.5407999754
