# LAS format log file from PETREL
# Project units are specified as depth units
#==================================================================
~Version information
VERS.   2.0:
WRAP.   NO:
#==================================================================
~Well
STRT .m      1118.6159668 :
STOP .m      2017.3187256 :
STEP .m     0.00000000 :
NULL .        -999.250000 :
COMP.           : COMPANY
WELL.  25/11-15  Grane   : WELL
FLD.            : FIELD
LOC.            : LOCATION
SRVC.           : SERVICE COMPANY
DATE.  2018-09-11 14:48:15   : Log Export Date {yyyy-MM-dd HH:mm:ss}
PROV.           : PROVINCE
UWI.   25/11-15   : UNIQUE WELL ID
API.            : API NUMBER
#==================================================================
~Curve
DEPT .m                   : DEPTH
Lithology_geolink ._      : Lithology_geolink
CALI .in                  : CALI
BS .in                    : BS
MUDWEIGHT ._              : MUDWEIGHT
ROP .m/h                  : ROP
TGAS ._                   : TGAS
DRHO .g/cm3               : DRHO
THOR .ppm                 : THOR
NPHI .m3/m3               : NPHI
RHOB .g/cm3               : RHOB
GR .gAPI                  : GR
URAN .ppm                 : URAN
DTC .us/ft                : DTC
DTE .us/ft                : DTE
RDEP .ohm.m               : RDEP
SP .mV                    : SP
RSHA .ohm.m               : RSHA
RMED .ohm.m               : RMED
~Parameter
#==================================================================
~Ascii
# ...
 1656.7402344 5.0000000000 9.7834892273 8.5000000000 1.1499999762 145861.92188 0.0292000007 -0.069625072 6.1423110962 0.4850780964 2.0518980026 90.442771912 -2.845740557 148.69813538 145.12992859 0.7052375078 28.700801849 1.0558618307 0.7644192576
 1656.8927002 5.0000000000 10.232521057 8.5000000000 1.1499999762 145861.92188 0.0292000007 -0.061317734 6.0411810875 0.4767172039 2.0917019844 90.875877380 -2.844501019 144.77444458 142.55255127 0.6926193833 29.199600220 0.5638715029 0.7514158487
 1657.0450439 5.0000000000 9.3540306091 8.5000000000 1.1499999762 114639.37500 0.0292000007 -0.056886785 6.1478285789 0.4904893935 2.0962200165 92.749931335 -2.811452866 144.17456055 141.29725647 0.6881049871 28.700801849 0.5284280777 0.7597668767
 1657.1975098 5.0000000000 9.2857303619 8.5000000000 1.1499999762 101172.60156 0.0292000007 -0.063042231 6.6737785339 0.4932982028 2.1170103550 95.624519348 -2.404726267 142.27372742 139.62905884 0.6817034483 28.700000763 0.3470610976 0.7408043146
 1657.3498535 5.0000000000 9.1680498123 8.5000000000 1.1499999762 101172.60156 0.0292000007 -0.061494693 6.7695469856 0.4948677123 2.1317873001 98.684150696 -2.373349905 141.55335999 138.59973145 0.6684188843 29.199199677 0.6087262034 0.7224920392
 1657.5023193 5.0000000000 9.2201585770 8.5000000000 1.1499999762 101172.60156 0.0292000007 -0.060859382 6.9301714897 0.4629299045 2.1308517456 100.31299591 -2.302057266 141.79449463 138.74488831 0.6526233554 29.200000763 0.7815893292 0.6846424341
 1657.6546631 5.0000000000 9.3294830322 8.5000000000 1.1499999762 101172.60156 0.0292000007 -0.075385377 7.2263627052 0.4604001939 2.1577255726 103.62064362 -2.179298401 139.28781128 136.83747864 0.6438183188 29.699600220 1.0633530617 0.7077828050
 1657.8071289 6.0000000000 9.4217596054 8.5000000000 1.1499999762 101172.60156 0.0292070732 -0.091743276 7.7863512039 0.4579103887 2.1655917168 101.68994904 -1.834975839 138.93717957 136.00376892 0.6467938423 29.200401306 0.9369958639 0.7094032168
 1657.9594727 6.0000000000 9.3332738876 8.5000000000 1.1499999762 101654.70313 0.0294188261 -0.094365753 7.6543064117 0.4750922024 2.1627633572 103.56520081 -1.800727248 140.12155151 136.89462280 0.6448926330 30.698799133 0.5858561397 0.7189792991
 1658.1119385 6.0000000000 9.3013906479 8.5000000000 1.1499999762 146047.50000 0.0304076932 -0.094061233 8.8692264557 0.4858866930 2.1419336796 108.56269836 -0.954078376 142.03387451 138.62651062 0.6322223544 31.699199677 0.5558722019 0.7037014961
 1658.2642822 6.0000000000 9.2787065506 8.5000000000 1.1499999762 164482.92188 0.0318426825 -0.097351588 9.1338882446 0.4791170061 2.1357359886 119.07297516 5.2070598602 144.65309143 141.17304993 0.6317022443 32.699199677 0.4418451190 0.6777271032
 1658.4167480 6.0000000000 9.4159841537 8.5000000000 1.1499999762 164482.92188 0.0332505517 -0.098125853 9.6124162674 0.4924776852 2.1049556732 143.48933411 5.5327429771 148.10903931 144.44013977 0.6334027052 33.199600220 0.3858474791 0.6859061718
 1658.5690918 7.0000000000 9.3686504364 8.5000000000 1.1499999762 164482.92188 0.0347592719 -0.089129724 10.055644989 0.4653179944 2.1012768745 169.62484741 11.836944580 149.30035400 146.11314392 0.6504032612 34.698799133 0.3939189017 0.7242627144
 1658.7214355 7.0000000000 9.5792818069 8.5000000000 1.1499999762 164482.92188 0.0362350419 -0.076672040 10.403142929 0.4532895088 2.1446163654 198.84996033 17.132116318 145.97064209 143.54545593 0.6992906928 34.700000763 0.6164790392 0.7151588798
 1658.8739014 7.0000000000 9.8397560120 8.5000000000 1.1499999762 164482.92188 0.0379853658 -0.065981872 10.395007133 0.4327225089 2.1638855934 219.12637329 17.179269791 144.77166748 141.99295044 0.7152931690 34.200401306 0.8786582947 0.7572504878
 1659.0262451 7.0000000000 9.7719697952 8.5000000000 1.1499999762 158095.28125 0.0396396816 -0.054903831 10.001031876 0.4364204109 2.1801788807 246.36344910 23.812162399 143.10496521 140.45265198 0.7491156459 35.697597504 0.4913356602 0.7334753275
 1659.1787109 7.0000000000 9.5451602936 8.5000000000 1.1499999762 155172.59375 0.0423320308 -0.042031266 9.8638095856 0.4599750042 2.1710374355 277.98266602 23.765745163 143.22570801 140.19996643 0.7520955801 34.201202393 0.3382885158 0.7709060311
 1659.3310547 7.0000000000 9.9891433716 8.5000000000 1.1499999762 155172.59375 0.0468164831 -0.035709314 9.6893796921 0.4565902948 2.1706764698 291.71063232 23.624227524 142.98327637 140.09269714 0.7533744574 33.700801849 0.4726705551 0.8349769115
 1659.4835205 7.0000000000 9.5106582642 8.5000000000 1.1499999762 155172.59375 0.0525571406 -0.040235925 9.8790473938 0.4429017901 2.1684358120 273.49050903 13.389107704 142.87059021 139.94657898 0.7304157019 33.200401306 0.4587558210 0.8139702082
 1659.6358643 7.0000000000 10.195730209 8.5000000000 1.1499999762 153893.40625 0.0592134148 -0.040645514 9.0455684662 0.4207600057 2.1338376999 227.25135803 9.1406993866 146.67825317 142.90919495 0.6836649179 31.701202393 0.5526098013 0.7292030454
 1659.7883301 7.0000000000 9.8918342590 8.5000000000 1.1499999762 153310.32813 0.0665139258 -0.044926737 9.0088281631 0.4637832046 2.1008064747 187.14480591 3.9512555599 148.34785461 145.05158997 0.6634255052 31.700000763 0.9856215715 0.6598409414
 1659.9406738 7.0000000000 9.3124847412 8.5000000000 1.1499999762 153310.32813 0.0749147534 -0.062898189 8.6443920135 0.5187684298 2.1100885868 160.38743591 3.7595503330 147.39405823 144.64970398 0.6410980821 30.201202393 0.4744903743 0.6287566423
 1660.0931396 7.0000000000 9.2933988571 8.5000000000 1.1499999762 153310.32813 0.0841615424 -0.075149976 7.4057922363 0.5454586744 2.1281783581 149.50410461 1.1846630573 145.01440430 142.46138000 0.7155023217 29.700401306 0.3495517671 0.6683820486
 1660.2454834 7.0000000000 9.0379829407 8.5000000000 1.1499999762 153221.75000 0.0920507312 -0.075507738 6.8970069885 0.5069165826 2.1273157597 137.87452698 -1.373150468 143.10212708 140.48995972 0.8087617755 29.700000763 0.5090090036 0.7041371465
 1660.3979492 7.0000000000 8.4925060272 8.5000000000 1.1499999762 151918.70313 0.0943020806 -0.082842074 6.6779751778 0.4793120027 2.1408352852 125.00769806 -1.467625976 140.96321106 138.37712097 0.9938173890 29.200401306 1.2086474895 0.9576692581
 1660.5502930 7.0000000000 8.2087450027 8.5000000000 1.1499999762 150125.15625 0.0939993933 -0.096036389 6.2635321617 0.4346179962 2.1505942345 117.25190735 -1.682827473 139.63606262 136.88510132 1.1437119246 28.700401306 0.9629638791 1.2014485598
 1660.7027588 7.0000000000 7.8444032669 8.5000000000 1.1499999762 149566.82813 0.0936919376 -0.103479430 5.9186758995 0.3980323970 2.1661076546 111.19174957 -2.002244234 137.38760376 134.85835266 1.1137300730 29.199600220 1.2311209440 1.2658315897
 1660.8551025 6.0000000000 7.8542160988 8.5000000000 1.1499999762 146027.15625 0.0932898670 -0.103946254 5.8415613174 0.3857136965 2.2122380733 108.87145233 -2.063650846 131.89401245 130.03892517 1.0301979780 29.200000763 1.0158767700 1.2051696777
 1661.0074463 6.0000000000 7.8788518906 8.5000000000 1.1499999762 79290.656250 0.0929851234 -0.103010930 5.6963329315 0.3884072006 2.2512886524 100.44830322 -2.132389784 127.36854553 125.30977631 0.9536625743 29.200000763 0.8763995767 1.0883044004
 1661.1599121 6.0000000000 7.8310756683 8.5000000000 1.1499999762 52758.718750 0.0926205143 -0.102132089 5.6299529076 0.3981935978 2.2461669445 97.748222351 -2.180961132 127.73570251 124.68797302 0.9195485115 29.200000763 0.8529135585 1.0084888935
 1661.3122559 5.0000000000 7.7892341614 8.5000000000 1.1499999762 52758.718750 0.0923878029 -0.096190095 5.8473515511 0.4036088884 2.2391412258 90.947875977 -2.040525198 128.43737793 125.26972961 0.7451327443 30.198398590 0.8438286185 0.8868709803
 1661.4647217 5.0000000000 7.9308819771 8.5000000000 1.1499999762 52758.718750 0.0922999978 -0.083752565 5.8549942970 0.4185967147 2.2013294697 90.375000000 -1.997434258 132.97845459 129.01219177 0.7263272405 30.699600220 0.5901000500 0.7649647593
 1661.6170654 5.0000000000 8.0886983871 8.5000000000 1.1499999762 52758.718750 0.0922999978 -0.075465985 6.6011033058 0.4407123029 2.1350142956 89.509941101 -1.298620701 139.99705505 135.60836792 0.7155948877 31.698398590 0.5833386779 0.7036001086
