# LAS format log file from PETREL
# Project units are specified as depth units
#==================================================================
~Version information
VERS.   2.0:
WRAP.   NO:
#==================================================================
~Well
STRT .m      1118.6159668 :
STOP .m      2017.3187256 :
STEP .m     0.00000000 :
NULL .        -999.250000 :
COMP.           : COMPANY
WELL.  25/11-15  Grane   : WELL
FLD.            : FIELD
LOC.            : LOCATION
SRVC.           : SERVICE COMPANY
DATE.  2018-09-11 14:48:15   : Log Export Date {yyyy-MM-dd HH:mm:ss}
PROV.           : PROVINCE
UWI.   25/11-15   : UNIQUE WELL ID
API.            : API NUMBER
#==================================================================
~Curve
DEPT .m                   : DEPTH
Lithology_geolink ._      : Lithology_geolink
CALI .in                  : CALI
BS .in                    : BS
MUDWEIGHT ._              : MUDWEIGHT
ROP .m/h                  : ROP
TGAS ._                   : TGAS
DRHO .g/cm3               : DRHO
THOR .ppm                 : THOR
NPHI .m3/m3               : NPHI
RHOB .g/cm3               : RHOB
GR .gAPI                  : GR
URAN .ppm                 : URAN
DTC .us/ft                : DTC
DTE .us/ft                : DTE
RDEP .ohm.m               : RDEP
SP .mV                    : SP
RSHA .ohm.m               : RSHA
RMED .ohm.m               : RMED
~Parameter
#==================================================================
~Ascii
 1118.6159668  -999.250000 8.5298824310 36.000000000  -999.250000 229096.78125  -999.250000 -1.066595435 6.3095002174 0.6440994740 2.1810929775 67.060653687 -2.311399937 144.17140198 142.02806091 1.1144969463 41.000000000  -999.250000 1.3571740389
 1118.7683105  -999.250000 8.5122776031 36.000000000  -999.250000 229655.15625  -999.250000 -1.068858862 6.2284650803 0.6325091124 2.2144072056 65.253936768 -2.459281445 140.13262939 137.94494629 1.1298797131 41.000000000  -999.250000 1.4317142963
 1118.9207764  -999.250000 8.4732666016 36.000000000  -999.250000 228103.56250  -999.250000 -1.060689449 6.4576997757 0.6285592914 2.2003610134 69.500419617 -2.467499971 142.74589539 139.23837280 1.1422929764 41.000000000  -999.250000 1.3876639605
 1119.0731201  -999.250000 8.4382085800 36.000000000  -999.250000 207219.07813  -999.250000 -1.050237536 6.2425727844 0.5820453167 2.1868927479 69.939056396 -2.545537472 144.29725647 140.97511292 1.1480293274 41.499599457  -999.250000 1.3510643244
 1119.2255859  -999.250000 8.4446954727 36.000000000  -999.250000 194042.43750  -999.250000 -1.036728144 6.1785001755 0.5818777084 2.1893498898 71.374656677 -2.438899994 144.41380310 141.39250183 1.1031969786 41.500000000  -999.250000 1.3029999733
 1119.3779297  -999.250000 8.4388170242 36.000000000  -999.250000 190551.59375  -999.250000 -1.034795880 6.1383318901 0.5567982793 2.1905200481 70.997863770 -2.572992563 144.18267822 141.21128845 1.0515803099 41.999599457  -999.250000 1.3034166098
 1119.5302734  -999.250000 8.4524936676 36.000000000  -999.250000 190551.59375  -999.250000 -1.033366799 6.0443754196 0.5360291004 2.1604380608 69.063011169 -2.547420502 146.80110168 143.33259583 1.0420886278 42.499599457  -999.250000 1.3168731928
 1119.6827393  -999.250000 8.4446916580 36.000000000  -999.250000 190551.59375  -999.250000 -1.033829451 5.7501354218 0.5465821028 2.1066310406 67.809387207 -2.684689999 151.80850220 147.87574768 1.0089565516 42.999599457  -999.250000 1.2973755598
 1119.8350830  -999.250000 8.4375009537 36.000000000  -999.250000 190551.59375  -999.250000 -1.032873631 5.9305548668 0.5403283238 2.0322806835 64.377082825 -2.566295147 157.88473511 153.69311523 1.0070005655 43.000000000  -999.250000 1.1855716705
 1119.9875488  -999.250000 8.4388141632 36.000000000  -999.250000 190551.59375  -999.250000 -1.024716973 5.5970997810 0.5690652132 2.0276310444 63.497161865 -2.720499992 158.11810303 154.96376038 1.0035990477 43.000000000  -999.250000 1.0417770147
 1120.1398926  -999.250000 8.4517927170 36.000000000  -999.250000 194829.79688  -999.250000 -1.023568630 6.3955602646 0.5632252097 2.0458514690 61.002708435 -2.147259474 155.98080444 153.36605835 0.9995088577 43.000000000  -999.250000 1.1115200520
 1120.2923584  -999.250000 8.4408388138 36.000000000  -999.250000 201705.17188  -999.250000 -1.033376932 6.2516999245 0.5907827020 2.0840990543 62.000869751 -2.053699970 152.64010620 150.35368347 1.0017880201 43.000000000  -999.250000 1.2245190144
 1120.4447021  -999.250000 8.4765996933 36.000000000  -999.250000 203586.12500  -999.250000 -1.042988539 6.3113522530 0.5997735262 2.1083874702 62.812110901 -1.949883223 150.49382019 147.97473145 0.9931200743 43.000000000  -999.250000 1.2419930696
 1120.5971680  -999.250000 8.4752902985 36.000000000  -999.250000 203586.12500  -999.250000 -1.056596279 6.2214999199 0.5722224116 2.1477229595 63.222938538 -1.926699996 146.67810059 144.46907043 1.0003490448 43.000000000  -999.250000 1.2533010244
 1120.7495117  -999.250000 8.4655275345 36.000000000  -999.250000 203586.12500  -999.250000 -1.071700573 6.2316918373 0.5677083731 2.1572234631 67.311256409 -1.945185184 146.68159485 143.69999695 1.0575252771 43.000000000  -999.250000 1.2539085150
 1120.9019775  -999.250000 8.5149946213 36.000000000  -999.250000 203884.84375  -999.250000 -1.072691917 6.2590999603 0.5745009184 2.1648612022 70.811256409 -1.878600001 146.79930115 143.77973938 1.1057909727 43.000000000  -999.250000 1.2699069977
 1121.0543213  -999.250000 8.5085029602 36.000000000  -999.250000 231815.40625  -999.250000 -1.067252517 5.7132372856 0.5823801160 2.1591255665 69.499855042 -2.024183512 147.03840637 144.05598450 1.1461336613 43.000000000  -999.250000 1.2768924236
 1121.2067871  -999.250000 8.5142879486 36.000000000  -999.250000 242689.68750  -999.250000 -1.069095373 5.6199002266 0.5587220788 2.1604919434 67.186119080 -1.919800043 146.32060242 143.54519653 1.1570899487 43.000000000  -999.250000 1.2723209858
 1121.3591309  -999.250000 8.5007095337 36.000000000  -999.250000 242689.68750  -999.250000 -1.073655009 5.8042521477 0.5575842857 2.1718020439 65.634162903 -1.753932953 144.77543640 142.05696106 1.1574417353 43.000000000  -999.250000 1.2957162857
 1121.5115967  -999.250000 8.5091085434 36.000000000  -999.250000 242760.51563  -999.250000 -1.073343754 5.5889000893 0.5442343950 2.1929600239 71.939559937 -1.823899984 144.17550659 141.32028198 1.1127079725 43.500000000  -999.250000 1.3237940073
 1121.6639404  -999.250000 8.5201625824 36.000000000  -999.250000 244099.89063  -999.250000 -1.081751347 5.3776693344 0.5700488091 2.1994566917 74.434982300 -1.965786099 144.18389893 141.23468018 1.0701590776 43.000400543  -999.250000 1.4434291124
 1121.8162842  -999.250000 8.4883346558 36.000000000  -999.250000 244551.59375  -999.250000 -1.083690524 5.3821959496 0.5483332872 2.1603083611 73.996498108 -1.941919327 148.11054993 144.32464600 1.0566238165 43.000000000  -999.250000 1.4640305042
 1121.9687500  -999.250000 8.5332241058 36.000000000  -999.250000 244551.59375  -999.250000 -1.088201404 5.4357571602 0.5640696287 2.1081647873 68.935317993 -1.924613714 151.92214966 148.17109680 1.0559115410 43.000000000  -999.250000 1.1666063070
 1122.1210938  -999.250000 8.5539941788 36.000000000  -999.250000 243717.71875  -999.250000 -1.084398270 5.3226904869 0.5508216023 2.0871310234 63.409439087 -1.900419474 152.64062500 149.48437500 1.0647819042 42.500400543  -999.250000 0.9785538912
 1122.2735596  -999.250000 8.5461940765 36.000000000  -999.250000 232554.84375  -999.250000 -1.081963539 5.5296001434 0.5630651116 2.1005558968 61.565158844 -1.826300025 150.96990967 148.32568359 1.0609990358 42.500000000  -999.250000 0.9832698107
 1122.4259033  -999.250000 8.5404090881 36.000000000  -999.250000 229655.15625  -999.250000 -1.075278759 5.8363542557 0.5416244268 2.1340670586 64.061767578 -1.695404887 148.23100281 145.84254456 1.0569891930 42.500000000  -999.250000 1.1559516191
 1122.5783691  -999.250000 8.5533866882 36.000000000  -999.250000 229655.15625  -999.250000 -1.077622056 5.8414998055 0.5469977260 2.1658129692 66.064002991 -1.679000020 145.48469543 143.07670593 1.0297249556 42.500000000  -999.250000 1.3075159788
 1122.7307129  -999.250000 8.5404090881 36.000000000  -999.250000 229655.15625  -999.250000 -1.070618510 5.5471358299 0.5499035716 2.1681861877 67.562728882 -1.837672830 145.60899353 142.50415039 1.0284290314 42.500000000  -999.250000 1.3232823610
 1122.8831787  -999.250000 8.5546998978 36.000000000  -999.250000 229655.15625  -999.250000 -1.068003893 5.5480999947 0.5611885786 2.1743690968 70.067382813 -1.723099947 145.60859680 142.56283569 1.0767649412 42.500000000  -999.250000 1.3137810230
 1123.0355225  -999.250000 8.5546989441 36.000000000  -999.250000 224916.53125  -999.250000 -1.066865563 4.9481806755 0.5607995987 2.1659986973 75.247276306 -1.986588955 147.87217712 144.43415833 1.0897796154 42.999599457  -999.250000 1.2935081720
 1123.1879883  -999.250000 8.5533914566 36.000000000  -999.250000 212926.12500  -999.250000 -1.069091916 4.6796998978 0.5592260957 2.1551430225 78.059700012 -2.069200039 149.78109741 146.38685608 1.0944060087 43.500000000  -999.250000 1.2784019709
 1123.3403320  -999.250000 8.5423440933 36.000000000  -999.250000 206598.35938  -999.250000 -1.067796826 4.7347555161 0.5871291757 2.1374390125 74.869064331 -1.984867692 150.61163330 147.43196106 1.1063774824 43.500000000  -999.250000 1.2811707258
 1123.4927979  -999.250000 8.5774946213 36.000000000  -999.250000 205448.40625  -999.250000 -1.060636759 5.2199001312 0.5523406267 2.1304020882 68.060409546 -1.747699976 149.54069519 146.81611633 1.1050959826 44.000000000  -999.250000 1.2593890429
