# LAS format log file from PETREL
# Project units are specified as depth units
#==================================================================
~Version information
VERS.   2.0:
WRAP.   NO:
#==================================================================
~Well
STRT .m      3054.5593262 :
STOP .m      3397.3076172 :
STEP .m     0.00000000 :
NULL .        -999.250000 :
COMP.           : COMPANY
WELL.  25/10-8A  Hanz Appr   : WELL
FLD.            : FIELD
LOC.            : LOCATION
SRVC.           : SERVICE COMPANY
DATE.  2018-09-11 14:48:15   : Log Export Date {yyyy-MM-dd HH:mm:ss}
PROV.           : PROVINCE
UWI.   25/10-8 A   : UNIQUE WELL ID
API.            : API NUMBER
#==================================================================
~Curve
DEPT .m                   : DEPTH
Lithology_geolink ._      : Lithology_geolink
NPHI .m3/m3               : NPHI
RHOB .g/cm3               : RHOB
GR .gAPI                  : GR
RDEP .ohm.m               : RDEP
RSHA .ohm.m               : RSHA
~Parameter
#==================================================================
~Ascii
# ...
 3386.0300293 2.0000000000 0.2372899950 2.2241494656 37.405719757 0.3367685378 0.3605639338
 3386.1823730 2.0000000000 0.2294500023 2.2266373634 37.987945557 0.3459038138 0.3736411631
 3386.3347168 2.0000000000 0.2249200046 2.2277982235 38.530338287 0.3715364039 0.4077637196
 3386.4870605 2.0000000000 0.2207899988 2.2272789478 39.169147491 0.3945231736 0.4649946392
 3386.6396484 2.0000000000 0.2174299955 2.2273356915 39.532161713 0.4031563997 0.5322434306
 3386.7919922 2.0000000000 0.2216399908 2.2321164608 39.731468201 0.4153143167 0.5691444874
 3386.9443359 2.0000000000 0.2233099937 2.2413055897 39.594654083 0.4238355160 0.5722078681
 3387.0966797 2.0000000000 0.2199200094 2.2516920567 39.187149048 0.4350230992 0.5658141375
 3387.2492676 2.0000000000 0.2098999918 2.2635567188 38.929172516 0.4491442442 0.5393941998
 3387.4016113 2.0000000000 0.1949999928 2.2729539871 38.786243439 0.5448449850 0.4897068739
 3387.5539551 2.0000000000 0.1826799959 2.2775840759 38.601043701 0.8183134794 0.7728846669
 3387.7062988 2.0000000000 0.1803099960 2.2778792381 38.462062836 0.9091034532 2.3174614906
 3387.8588867 2.0000000000 0.1810799986 2.2797100544 38.289775848 0.9999880791 5.4520835876
 3388.0112305 2.0000000000 0.1796900034 2.2864778042 37.882839203 1.3488868475 4.4549207687
 3388.1635742 2.0000000000 0.1773499995 2.2985191345 37.264884949 1.6364458799 2.2934484482
 3388.3159180 2.0000000000 0.1697299927 2.3143169880 36.392539978 1.9113997221 2.3330497742
 3388.4682617 2.0000000000 0.1603100002 2.3346233368 35.743103027 2.1823265553 4.3257565498
 3388.6208496 2.0000000000 0.1403599977 2.3557202816 35.289875031 2.3820559978 6.3872404099
 3388.7731934 2.0000000000 0.1231800020 2.3811461926 35.030349731 2.3254420757 5.2675647736
 3388.9255371 2.0000000000 0.1041899994 2.4083507061 35.144401550 2.0585145950 3.0935924053
 3389.0778809 2.0000000000 0.0894299969 2.4443738461 35.513332367 2.0040316582 2.3092875481
 3389.2304688 2.0000000000 0.0786000043 2.4835467339 35.954288483 2.2459104061 2.2301521301
 3389.3828125 2.0000000000 0.0703499988 2.5195915699 36.706291199 2.4929294586 2.2747073174
 3389.5351563 2.0000000000 0.0654599965 2.5581994057 39.434604645 2.6093833447 2.2884218693
 3389.6875000 2.0000000000 0.0677900016 2.5838296413 44.207382202 2.8021821976 2.1043109894
 3389.8400879 2.0000000000 0.0727199987 2.5942935944 48.720188141 3.1479458809 1.8422036171
 3389.9924316 2.0000000000 0.0742899999 2.5936419964 58.749935150 3.2273607254 1.9314904213
 3390.1447754 2.0000000000 0.0893299952 2.5794553757 71.431869507 2.9486505985 2.2835848331
 3390.2971191 2.0000000000 0.1110600010 2.5567426682 80.713302612 2.8796012402 2.4010987282
 3390.4494629 7.0000000000 0.1223299950 2.5293011665 91.701263428 3.0038871765 2.3191120625
 3390.6020508 7.0000000000 0.1466300040 2.5088574886 103.21530914 2.9017925262 2.3753573895
 3390.7543945 7.0000000000 0.1767300069 2.4950053692 110.05128479 2.6971440315 2.5707764626
 3390.9067383 7.0000000000 0.1982000023 2.4845390320 114.45399475 2.5766532421 2.7445425987
 3391.0590820 7.0000000000 0.2127599865 2.4787781239 116.60650635 2.5443220139 2.8041393757
 3391.2116699 7.0000000000 0.2174099982 2.4775860310 117.54035950 2.5475294590 2.7736711502
 3391.3640137 7.0000000000 0.2161799967 2.4740509987 117.93493652 2.5742387772 2.7157571316
 3391.5163574 7.0000000000 0.2145500034 2.4658968449 117.70558929 2.5990252495 2.6935884953
 3391.6687012 7.0000000000 0.2184900045 2.4578063488 117.08676910 2.6356709003 2.6387224197
 3391.8212891 7.0000000000 0.2213999927 2.4532206059 115.77002716 2.7544667721 2.5087461472
 3391.9736328 7.0000000000 0.2194899917 2.4511241913 114.47948456 2.8583378792 2.4239835739
 3392.1259766 6.0000000000 0.2162000090 2.4502005577 113.58857727 2.8415846825 2.5179858208
 3392.2783203 6.0000000000 0.2131900042 2.4499998093 112.53797913 2.7841844559 2.6822388172
 3392.4306641 6.0000000000 0.2077300102 2.4500148296 111.81279755 2.7231643200 2.8165798187
 3392.5832520 6.0000000000 0.2042700052 2.4503571987 110.96634674 2.6852290630 2.8699057102
 3392.7355957 6.0000000000 0.2033299953 2.4508957863 109.81774902 2.6932232380 2.8206956387
 3392.8879395 6.0000000000 0.2026600093 2.4516601563 109.47387695 2.7054593563 2.7528698444
 3393.0402832 6.0000000000 0.2022500038 2.4518907070 110.40186310 2.7023048401 2.7086508274
 3393.1928711 6.0000000000 0.2019700110 2.4509370327 111.76915741 2.6995000839 2.6773922443
 3393.3452148 6.0000000000 0.2071400136 2.4509160519 112.55297089 2.7071990967 2.6527459621
 3393.4975586 6.0000000000 0.2148199975 2.4522027969 112.71839142 2.7196569443 2.6481230259
 3393.6499023 7.0000000000 0.2184499949 2.4543199539 112.72602844 2.7367060184 2.6548597813
 3393.8024902 7.0000000000 0.2192399949 2.4556808472 112.77420807 2.7872147560 2.6534943581
 3393.9548340 7.0000000000 0.2201000005 2.4551949501 112.89949036 2.8522973061 2.5924654007
 3394.1071777 7.0000000000 0.2249200046 2.4548163414 113.21750641 2.8233804703 2.6412494183
 3394.2595215 7.0000000000 0.2286199927 2.4560077190 113.45079041 2.7774777412 2.7293958664
 3394.4121094 7.0000000000 0.2307099849 2.4579548836 113.56576538 2.7754983902 2.7800085545
 3394.5644531 7.0000000000 0.2318000048 2.4569895267 113.85352325 2.7765269279 2.8099956512
 3394.7167969 7.0000000000 0.2317799926 2.4517192841 114.30934906 2.7691595554 2.8466830254
 3394.8691406 7.0000000000 0.2336700112 2.4445638657 114.37686157 2.7045466900 2.9242334366
 3395.0214844 7.0000000000 0.2399999946 2.4389090538 114.24697113 2.6614029408 2.8306465149
 3395.1740723 7.0000000000 0.2467000037 2.4373881817 114.36717224 2.6721589565 2.6395654678
 3395.3264160 7.0000000000 0.2461300045 2.4383530617 114.17864990 2.7230849266 2.4463102818
 3395.4787598 7.0000000000 0.2385399938 2.4361133575 113.16452789 2.7427711487 2.4039711952
 3395.6311035 7.0000000000 0.2309499979  -999.250000 111.47187805 2.6987664700 2.4495134354
 3395.7836914 6.0000000000 0.2307199985  -999.250000 109.85201263 2.6344304085 2.4908332825
 3395.9360352 6.0000000000 0.2332699895  -999.250000 107.71439362 2.5799956322 2.5276908875
 3396.0883789 6.0000000000 0.2286099941  -999.250000 105.19573212 2.5848462582 2.5481538773
 3396.2407227 6.0000000000 0.2215500027  -999.250000 102.98611450 2.6080467701 2.5780212879
 3396.3933105 6.0000000000 0.2172699869  -999.250000 100.49194336 2.6340029240 2.5762777328
 3396.5456543 6.0000000000 0.2138199955  -999.250000 98.557868958 2.6703593731 2.5393767357
 3396.6979980 6.0000000000 0.2100900114  -999.250000 97.210716248 2.7175350189 2.4731485844
 3396.8503418 6.0000000000 0.2034099996  -999.250000 96.719192505 2.6195647717 2.6286382675
 3397.0026855 6.0000000000 0.1963400096  -999.250000 96.915916443 2.5471982956 2.7383322716
 3397.1552734 6.0000000000 0.1898800135  -999.250000 97.276725769 2.5776393414 2.6582274437
 3397.3076172 6.0000000000 0.1860899925  -999.250000 98.167495728 2.6093056202 2.5436596870
