# LAS format log file from PETREL
# Project units are specified as depth units
#==================================================================
~Version information
VERS.   2.0:
WRAP.   NO:
#==================================================================
~Well
STRT .m      1118.6159668 :
STOP .m      2017.3187256 :
STEP .m     0.00000000 :
NULL .        -999.250000 :
COMP.           : COMPANY
WELL.  25/11-15  Grane   : WELL
FLD.            : FIELD
LOC.            : LOCATION
SRVC.           : SERVICE COMPANY
DATE.  2018-09-11 14:48:15   : Log Export Date {yyyy-MM-dd HH:mm:ss}
PROV.           : PROVINCE
UWI.   25/11-15   : UNIQUE WELL ID
API.            : API NUMBER
#==================================================================
~Curve
DEPT .m                   : DEPTH
Lithology_geolink ._      : Lithology_geolink
CALI .in                  : CALI
BS .in                    : BS
MUDWEIGHT ._              : MUDWEIGHT
ROP .m/h                  : ROP
TGAS ._                   : TGAS
DRHO .g/cm3               : DRHO
THOR .ppm                 : THOR
NPHI .m3/m3               : NPHI
RHOB .g/cm3               : RHOB
GR .gAPI                  : GR
URAN .ppm                 : URAN
DTC .us/ft                : DTC
DTE .us/ft                : DTE
RDEP .ohm.m               : RDEP
SP .mV                    : SP
RSHA .ohm.m               : RSHA
RMED .ohm.m               : RMED
~Parameter
#==================================================================
~Ascii
# ...
 2013.8134766  -999.250000 8.2891006470 8.5000000000 1.1599999666 15750.000000 0.0303000007 -0.076575145 21.395599365  -999.250000  -999.250000 119.04531097 19.016103745  -999.250000  -999.250000 3.6956419945  -999.250000 3.3085999489 3.8354036808
 2013.9658203  -999.250000 8.2891006470 8.5000000000 1.1599999666 15750.000000 0.0303000007 -0.076575175 21.396598816  -999.250000  -999.250000 120.00546265 19.010807037  -999.250000  -999.250000 3.7750725746  -999.250000 3.3085999489 3.9112575054
 2014.1182861  -999.250000 8.2891006470 8.5000000000 1.1599999666 23041.710938 0.0303000007 -0.076575175 21.397399902  -999.250000  -999.250000 120.22053528 19.006103516  -999.250000  -999.250000 3.8420913219  -999.250000 3.3085999489 3.9792497158
 2014.2706299  -999.250000 8.2891006470 8.5000000000 1.1599999666 26243.281250 0.0303000007 -0.076575175 21.398199081  -999.250000  -999.250000 114.53466034 19.002004623  -999.250000  -999.250000 3.8554403782  -999.250000 3.3085999489 3.9845557213
 2014.4230957  -999.250000 8.2891006470 8.5000000000 1.1599999666 26253.998047 0.0302770454 -0.076575175 21.397300720  -999.250000  -999.250000 110.13721466 18.999002457  -999.250000  -999.250000 3.7352643013  -999.250000 3.3085999489 3.8611488342
 2014.5754395  -999.250000 8.2891006470 8.5000000000 1.1599999666 26393.490234 0.0302000009 -0.076575242 0.0171452723  -999.250000  -999.250000 106.61442566 0.0152235581  -999.250000  -999.250000 3.2589058876  -999.250000 3.3085999489 3.3828744888
 2014.7279053  -999.250000 8.2891006470 8.5000000000 1.1599999666 26427.240234 0.0302000009 -0.076575279 0.0000000000  -999.250000  -999.250000 107.23500061 0.0000000000  -999.250000  -999.250000 2.7832686901  -999.250000 3.3085999489 2.9326975346
 2014.8802490  -999.250000 8.2891006470 8.5000000000 1.1599999666 26427.240234 0.0302000009 -0.076575279 0.0000000000  -999.250000  -999.250000 107.69762421 0.0000000000  -999.250000  -999.250000 2.5133311749  -999.250000 3.3085999489 2.6814632416
 2015.0327148  -999.250000 8.2891006470 8.5000000000 1.1599999666 40972.140625 0.0302000009 -0.076575279 0.0000000000  -999.250000  -999.250000 105.84687805 0.0000000000  -999.250000  -999.250000 2.2754235268  -999.250000 3.3085999489 2.4511873722
 2015.1850586  -999.250000 8.2891006470 8.5000000000 1.1599999666 64770.496094 0.0302000009 -0.076575339 0.0000000000  -999.250000  -999.250000 103.90265656 0.0000000000  -999.250000  -999.250000 2.1049046516  -999.250000 3.3085999489 2.2832415104
 2015.3375244  -999.250000 8.2891006470 8.5000000000 1.1599999666 71379.359375 0.0302000009 -0.076575369 0.0000000000  -999.250000  -999.250000 106.38990784 0.0000000000  -999.250000  -999.250000 2.1068403721  -999.250000 3.3085999489 2.2902462482
 2015.4898682  -999.250000 8.2891006470 8.5000000000 1.1599999666 71379.359375 0.0302000009 -0.076575369 0.0000000000  -999.250000  -999.250000 108.29917145 0.0000000000  -999.250000  -999.250000 2.1983335018  -999.250000 3.3085999489 2.3985371590
 2015.6422119  -999.250000 8.2891006470 8.5000000000 1.1599999666 70087.390625 0.0302000009 -0.076575369 0.0000000000  -999.250000  -999.250000 111.26264954 0.0000000000  -999.250000  -999.250000 2.3122904301  -999.250000 3.3085999489 2.5457470417
 2015.7946777  -999.250000 8.2891006470 8.5000000000 1.1599999666 69517.085938 0.0302000009 -0.076575436 0.0000000000  -999.250000  -999.250000 113.11971283 0.0000000000  -999.250000  -999.250000 2.3811149597  -999.250000 3.3085999489 2.6135799885
 2015.9470215  -999.250000 8.2891006470 8.5000000000 1.1599999666 78207.421875 0.0302000009 -0.076575473 0.0000000000  -999.250000  -999.250000 113.47842407 0.0000000000  -999.250000  -999.250000 1.8693000078  -999.250000 3.3085999489 2.0938427448
 2016.0994873  -999.250000 8.2891006470 8.5000000000 1.1599999666 215560.51563 0.0302000009 -0.076575473 0.0000000000  -999.250000  -999.250000 113.61968231 0.0000000000  -999.250000  -999.250000 1.3437807560  -999.250000 3.3085999489 1.5162955523
 2016.2518311  -999.250000 8.2891006470 8.5000000000 1.1599999666 266363.93750 0.0302000009 -0.076575533 0.0000000000  -999.250000  -999.250000 99.639778137 0.0000000000  -999.250000  -999.250000 0.9414266348  -999.250000 3.3085999489 1.0928851366
 2016.4042969  -999.250000 8.2891006470 8.5000000000 1.1599999666 266925.46875 0.0302000009 -0.076575562 0.0000000000  -999.250000  -999.250000 88.075981140 0.0000000000  -999.250000  -999.250000 0.6489868760  -999.250000 3.3085999489 0.7516298890
 2016.5566406  -999.250000 8.2891006470 8.5000000000 1.1599999666 268287.09375 0.0302000009 -0.076575562 0.0000000000  -999.250000  -999.250000 93.730957031 0.0000000000  -999.250000  -999.250000 0.6018987298  -999.250000 3.3085999489 0.6900636554
 2016.7091064  -999.250000 8.2891006470 8.5000000000 1.1599999666 270092.43750 0.0301910881 -0.076575562 0.0000000000  -999.250000  -999.250000 100.60809326 0.0000000000  -999.250000  -999.250000 0.6169769764  -999.250000 3.3085999489 0.7039932013
 2016.8614502  -999.250000 8.2891006470 8.5000000000 1.1599999666 270620.65625 0.0300999992 -0.076575562 0.0000000000  -999.250000  -999.250000 107.54244232 0.0000000000  -999.250000  -999.250000 0.6234927177  -999.250000 3.3085999489 0.7111968994
 2017.0139160  -999.250000 8.2891006470 8.5000000000 1.1599999666 258826.07813 0.0300999992 -0.076575622 0.0000000000  -999.250000  -999.250000 114.72055817 0.0000000000  -999.250000  -999.250000 0.6277953386  -999.250000 3.3085999489 0.7140008211
 2017.1662598  -999.250000 8.2891006470 8.5000000000 1.1599999666 147420.46875 0.0300999992 -0.076575652 0.0000000000  -999.250000  -999.250000 120.22559357 0.0000000000  -999.250000  -999.250000 0.6331936717  -999.250000 3.3085999489 0.7197012901
 2017.3187256  -999.250000 8.2891006470 8.5000000000 1.1599999666 112344.83594 0.0300999992  -999.250000 0.0000000000  -999.250000  -999.250000 124.14176178 0.0000000000  -999.250000  -999.250000 0.6367954612  -999.250000 3.3085999489 0.7261980176
