# LAS format log file from PETREL
# Project units are specified as depth units
#==================================================================
~Version information
VERS.   2.0:
WRAP.   NO:
#==================================================================
~Well
STRT .m      1332.7867432 :
STOP .m      2972.7631836 :
STEP .m     0.00000000 :
NULL .        -999.250000 :
COMP.           : COMPANY
WELL.  25/10-9 Aegis   : WELL
FLD.            : FIELD
LOC.            : LOCATION
SRVC.           : SERVICE COMPANY
DATE.  2018-09-11 14:48:15   : Log Export Date {yyyy-MM-dd HH:mm:ss}
PROV.           : PROVINCE
UWI.   25/10-9   : UNIQUE WELL ID
API.            : API NUMBER
#==================================================================
~Curve
DEPT .m                   : DEPTH
Lithology_geolink ._      : Lithology_geolink
CALI .in                  : CALI
BS .in                    : BS
ROP .m/h                  : ROP
DRHO .g/cm3               : DRHO
NPHI .m3/m3               : NPHI
RHOB .g/cm3               : RHOB
PEF .b/e                  : PEF
GR .gAPI                  : GR
DTC .us/ft                : DTC
DTS .us/ft                : DTS
RDEP .ohm.m               : RDEP
RMED .ohm.m               : RMED
~Parameter
#==================================================================
~Ascii
# ...
 1661.3612061 5.0000000000 12.238300323 12.250000954 48.317256927 0.0262000002 0.5163999796 2.1712000370 3.9920001030 48.326198578 152.35400391 405.13821411 0.4101999998 0.3971000016
 1661.5136719 5.0000000000 12.038399696 12.250000954 46.478347778 0.0077000000 0.4675000012 2.1542999744 3.1652998924 49.125099182 152.44279480 403.89990234 0.4086999893 0.4137000144
 1661.6660156 5.0000000000 12.078000069 12.250000954 51.699478149 -0.001200000 0.4690999985 2.1368999481 2.8938000202 48.778598785 154.38240051 395.30679321 0.4158999920 0.4196999967
 1661.8184814 5.0000000000 12.123700142 12.250000954 60.868114471 0.0066000000 0.4851000011 2.1461000443 3.2374000549 46.818199158 155.73890686 393.68218994 0.4266000092 0.4050999880
 1661.9708252 5.0000000000 12.106499672 12.250000954 65.898292542 0.0104000000 0.5030999780 2.1531000137 3.4161999226 49.025798798 155.93899536 389.90521240 0.4174999893 0.4068000019
 1662.1232910 5.0000000000 12.164200783 12.250000954 65.862861633 0.0148999998 0.4957000017 2.1726000309 3.4421000481 57.034500122 155.71139526 391.77810669 0.4079999924 0.4093999863
 1662.2756348 5.0000000000 12.306599617 12.250000954 61.757217407 0.0148999998 0.5137000084 2.1519000530 3.4405999184 46.683898926 156.80740356 385.38821411 0.4178999960 0.4196000099
 1662.4281006 5.0000000000 12.461499214 12.250000954 60.145011902 0.0222999994 0.4485000074 2.1500999928 3.6307001114 47.155101776 157.17831421 384.74304199 0.4260999858 0.4262000024
 1662.5804443 5.0000000000 12.411499977 12.250000954 67.271980286 0.0355999991 0.4505000114 2.1575999260 4.1462001801 48.996799469 157.12980652 383.83590698 0.4426999986 0.4307000041
 1662.7329102 5.0000000000 12.319499969 12.250000954 81.265747070 0.0320000015 0.4724000096 2.1572000980 4.1125998497 48.011100769 156.75331116 380.40930176 0.4478000104 0.4318000078
 1662.8852539 5.0000000000 12.305700302 12.250000954 91.116142273 0.0294000003 0.4927000105 2.1621999741 3.9662001133 49.525501251 156.26629639 385.88461304 0.4386999905 0.4135999978
 1663.0377197 5.0000000000 12.329999924 12.250000954 98.554138184 0.0254999995 0.5005999804 2.1496999264 3.8024001122 50.776798248 155.01509094 400.27191162 0.4160000086 0.4081000090
 1663.1900635 5.0000000000 12.349399567 12.250000954 105.76706696 0.0260000005 0.4598999918 2.1449999809 3.8429999352 47.118499756 153.78399658 401.48181152 0.4144000113 0.4040000141
 1663.3424072 5.0000000000 12.317600250 12.250000954 107.45734406 0.0331000015 0.4507000148 2.1572999954 4.0528998375 50.870899200 153.14500427 389.32550049 0.4185000062 0.4099999964
 1663.4948730 5.0000000000 12.241299629 12.250000954 109.83660889 0.0300999992 0.4605999887 2.1568000317 3.8383998871 46.096401215 151.26820374 384.15252686 0.4242999852 0.4178999960
 1663.6472168 5.0000000000 12.298399925 12.250000954 110.98097229 0.0248000007 0.4753000140 2.1565001011 3.9216001034 45.057399750 150.33320618 387.78100586 0.4332999885 0.4253000021
 1663.7996826 5.0000000000 12.296799660 12.250000954 110.86023712 0.0254999995 0.4896000028 2.1589999199 3.8503999710 49.419300079 152.86050415 398.49798584 0.4395999908 0.4343000054
 1663.9520264 5.0000000000 12.353400230 12.250000954 112.63549042 0.0271000005 0.5022000074 2.1659998894 4.0665998459 55.715599060 154.56919861 401.82650757 0.4474999905 0.4413000047
 1664.1044922 5.0000000000 12.273799896 12.250000954 111.45046234 0.0226000007 0.5141999722 2.1551001072 3.8821001053 49.855098724 155.15939331 395.25399780 0.4481999874 0.4375999868
 1664.2568359 5.0000000000 12.228500366 12.250000954 103.18504333 0.0207000002 0.4636999965 2.1522998810 3.7219998837 49.154899597 154.56880188 387.95028687 0.4453000128 0.4320000112
 1664.4093018 5.0000000000 12.217300415 12.250000954 89.807083130 0.0190999992 0.4539000094 2.1526000500 3.3798999786 54.738899231 154.54859924 393.14910889 0.4427999854 0.4313000143
 1664.5616455 5.0000000000 12.257599831 12.250000954 77.042320251 0.0188999996 0.4929000139 2.1531999111 3.3052999973 57.529201508 155.03540039 395.58590698 0.4388999939 0.4309999943
 1664.7141113 5.0000000000 12.279500008 12.250000954 70.857940674 0.0209999997 0.4767999947 2.1524000168 3.5508999825 49.940299988 155.70060730 389.45541382 0.4392000139 0.4316999912
 1664.8664551 5.0000000000 12.237000465 12.250000954 69.302825928 0.0197999999 0.4824999869 2.1491999626 3.5922999382 51.772701263 155.26872253 394.50170898 0.4426999986 0.4239000082
 1665.0189209 5.0000000000 12.278200150 12.250000954 71.020011902 0.0229000002 0.4918999970 2.1545000076 3.6867001057 55.309898376 155.51669312 387.18109131 0.4352000058 0.4289999902
 1665.1712646 5.0000000000 12.328801155 12.250000954 73.601707458 0.0269000009 0.4894999862 2.1610000134 3.8052999973 48.842300415 154.88369751 387.65209961 0.4410000145 0.4286000133
 1665.3237305 5.0000000000 12.311699867 12.250000954 80.428146362 0.0283000004 0.4817000031 2.1603000164 3.8466000557 43.580699921 154.81559753 390.96350098 0.4449999928 0.4329999983
 1665.4760742 5.0000000000 12.327300072 12.250000954 93.052818298 0.0287999995 0.4941000044 2.1596999168 3.7407999039 46.562000275 155.39219666 387.51470947 0.4480000138 0.4345999956
 1665.6284180 5.0000000000 12.309200287 12.250000954 99.138786316 0.0275999997 0.5253000259 2.1602001190 3.6770000458 46.264598846 154.74580383 391.37170410 0.4505999982 0.4350999892
 1665.7808838 5.0000000000 12.366700172 12.250000954 101.78839111 0.0223999992 0.5195000172 2.1568000317 3.4904999733 44.839000702 154.38529968 399.85659790 0.4465999901 0.4309999943
 1665.9332275 5.0000000000 12.285099983 12.250000954 99.878608704 0.0232999995 0.5242999792 2.1535000801 3.3631999493 51.845085144 155.52209473 404.58770752 0.4426000118 0.4350000024
 1666.0856934 5.0000000000 12.307600021 12.250000954 94.192588806 0.0259000007 0.5381000042 2.1607999802 3.3155000210 56.317768097 156.60830688 404.69070435 0.4442000091 0.4322000146
 1666.2380371 5.0000000000 12.312100410 12.250000954 93.672569275 0.0264999997 0.5503000021 2.1621999741 3.3059999943 52.287860870 157.38458252 401.73669434 0.4530000091 0.4408000112
 1666.3905029 5.0000000000 12.360300064 12.250000954 96.129592896 0.0348999985 0.5336999893 2.1953001022 3.5724000931 52.479568481 155.90699768 403.25970459 0.4605000019 0.4388000071
 1666.5428467 5.0000000000 12.373800278 12.250000954 101.34481812 0.0315000005 0.5217000246 2.1851000786 3.6554000378 42.349685669 155.44560242 400.84799194 0.4490000010 0.4133000076
 1666.6953125 5.0000000000 12.384799957 12.250000954 100.90255737 0.0286999997 0.5479000211 2.1768000126 3.7228000164 55.172889709 155.44270325 388.34878540 0.4088000059 0.4023999870
 1666.8476563 5.0000000000 12.173399925 12.250000954 95.817588806 0.0157999992 0.5134000182 2.1468000412 3.6682999134 54.231014252 155.62338257 380.97229004 0.4097000062 0.4022000134
 1667.0001221 5.0000000000 12.233699799 12.250000954 94.027557373 0.0159000009 0.5070000291 2.1501998901 3.6391000748 53.871234894 156.14070129 383.48318481 0.4189999998 0.4203000069
 1667.1524658 5.0000000000 12.276398659 12.250000954 93.881568909 0.0253999997 0.4878999889 2.1612999439 3.6210000515 53.209056854 155.34930420 403.87869263 0.4291000068 0.4307000041
 1667.3049316 5.0000000000 12.324799538 12.250000954 101.49540710 0.0294000003 0.4878999889 2.1631999016 3.6923000813 56.138217926 152.95889282 410.19662476 0.4381000102 0.4291000068
 1667.4572754 5.0000000000 12.386099815 12.250000954 111.13320923 0.0318999998 0.5300999880 2.1651000977 3.7718999386 50.039180756 156.50630188 399.55191040 0.4363999963 0.4316000044
 1667.6096191 5.0000000000 12.278800011 12.250000954 108.43798828 0.0280000009 0.5206000209 2.1579000950 3.8810999393 49.267536163 158.15150452 403.66751099 0.4341999888 0.4061999917
 1667.7620850 5.0000000000 12.298300743 12.250000954 103.60137939 0.0284000002 0.5102000237 2.1638998985 3.8733999729 45.569087982 157.66870117 405.84588623 0.4237999916 0.4023999870
 1667.9144287 5.0000000000 12.322999954 12.250000954 101.76410675 0.0287999995 0.5224000216 2.1714999676 3.8635001183 46.301872253 156.26918030 405.99530029 0.4106000066 0.4181999862
