# LAS format log file from PETREL
# Project units are specified as depth units
#==================================================================
~Version information
VERS.   2.0:
WRAP.   NO:
#==================================================================
~Well
STRT .m      1090.1660156 :
STOP .m      2511.1435547 :
STEP .m     0.00000000 :
NULL .        -999.250000 :
COMP.           : COMPANY
WELL.  25/10-10  Balder Triassic   : WELL
FLD.            : FIELD
LOC.            : LOCATION
SRVC.           : SERVICE COMPANY
DATE.  2018-09-11 14:48:14   : Log Export Date {yyyy-MM-dd HH:mm:ss}
PROV.           : PROVINCE
UWI.   25/10-10   : UNIQUE WELL ID
API.            : API NUMBER
#==================================================================
~Curve
DEPT .m                   : DEPTH
Lithology_geolink ._      : Lithology_geolink
CALI .in                  : CALI
BS .in                    : BS
ROP .m/h                  : ROP
DRHO .g/cm3               : DRHO
THOR .ppm                 : THOR
NPHI .m3/m3               : NPHI
RHOB .g/cm3               : RHOB
PEF .b/e                  : PEF
GR .gAPI                  : GR
URAN .ppm                 : URAN
DTC .us/ft                : DTC
DTS .us/ft                : DTS
RDEP .ohm.m               : RDEP
RSHA .ohm.m               : RSHA
RMED .ohm.m               : RMED
~Parameter
#==================================================================
~Ascii
# ...
 1377.7447510 5.0000000000 12.300000191 12.250000954 123.14173126 0.0038984774  -999.250000 0.4473793209 2.1217961311 2.8553795815 67.455955505  -999.250000 135.54728699  -999.250000 0.7698146105 0.7554927468 0.7435028553
 1377.8970947 5.0000000000 12.288700104 12.250000954 120.17224121 0.0006052842  -999.250000 0.4022724032 2.1121153831 2.8316380978 64.755630493  -999.250000 135.89015198  -999.250000 0.7973558307 0.7512069345 0.7554808259
 1378.0495605 5.0000000000 12.277499199 12.250000954 121.39994812 0.0018989583  -999.250000 0.3908091486 2.1228914261 2.9424111843 62.250106812  -999.250000 134.71934509  -999.250000 0.8134871125 0.7673870325 0.7701882124
 1378.2019043 5.0000000000 12.339799881 12.250000954 123.53805542 0.0027985587  -999.250000 0.3800172806 2.1248970032 3.0109901428 63.274551392  -999.250000 136.36126709  -999.250000 0.7967268825 0.7628073692 0.7562224269
 1378.3543701 5.0000000000 12.303500175 12.250000954 138.12992859 0.0030997598  -999.250000 0.4023820460 2.1253995895 3.0451726913 66.648300171  -999.250000 139.85789490  -999.250000 0.7967000008 0.7627999783 0.7562000155
 1378.5067139 5.0000000000 12.298300743 12.250000954 144.20965576 -0.001396394  -999.250000 0.4282792509 2.1349923611 3.2163627148 66.740432739  -999.250000 140.16995239  -999.250000 0.7613283992 0.7362213135 0.7264239192
 1378.6591797 5.0000000000 12.287499428 12.250000954 156.44422913 0.0059940754  -999.250000 0.4287995994 2.1982491016 3.4043495655 64.574241638  -999.250000 137.72166443  -999.250000 0.6994495392 0.6972312331 0.6901291013
 1378.8115234 5.0000000000 12.298199654 12.250000954 193.69651794 -0.009087901  -999.250000 0.3997232914 2.2142870426 4.1094346046 60.262454987  -999.250000 138.52345276  -999.250000 0.6994000077 0.6972000003 0.6901000142
 1378.9639893 5.0000000000 12.317299843 12.250000954 193.33891296 -0.006102402  -999.250000 0.3575337827 2.2004113197 3.9026660919 53.291484833  -999.250000 139.38810730  -999.250000 0.7460626364 0.7121880054 0.7058873773
 1379.1163330 5.0000000000 12.364898682 12.250000954 176.04724121 -0.013693910  -999.250000 0.3625959158 2.1365511417 3.8337550163 47.769924164  -999.250000 136.22463989  -999.250000 1.1608674526 1.0721113682 1.0611151457
 1379.2687988 5.0000000000 12.378899574 12.250000954 117.98886108 0.0051848679  -999.250000 0.3961730897 2.1343016624 3.3862586021 43.701156616  -999.250000 137.02946472  -999.250000 1.1612000465 1.0723999739 1.0614000559
 1379.4211426 5.0000000000 12.388699532 12.250000954 112.95504761 0.0041008815  -999.250000 0.4181823432 2.1331009865 3.4476504326 42.938610077  -999.250000 138.24072266  -999.250000 0.7444341779 0.7535557151 0.7176756263
 1379.5734863 5.0000000000 12.486901283 12.250000954 113.95471954 0.0100903921  -999.250000 0.4258876741 2.1424849033 3.5477395058 45.481819153  -999.250000 137.04042053  -999.250000 0.7440999746 0.7533000112 0.7174000144
 1379.7259521 5.0000000000 12.419799805 12.250000954 117.42487335 0.0087011224  -999.250000 0.4403883815 2.1384034157 3.5726802349 49.438629150  -999.250000 136.78540039  -999.250000 0.7727770209 0.7422088981 0.7581673265
 1379.8782959 5.0000000000 12.503298759 12.250000954 115.74246979 0.0118948761  -999.250000 0.4654597938 2.1392986774 3.5655114651 57.787212372  -999.250000 136.32244873  -999.250000 0.8015538454 0.7643644810 0.7662870288
 1380.0307617 5.0000000000 12.435000420 12.250000954 120.72376251 0.0089024035  -999.250000 0.4493129849 2.1330049038 3.5339252949 66.822669983  -999.250000 135.34817505  -999.250000 0.8015999794 0.7644000053 0.7663000226
 1380.1831055 5.0000000000 12.375900269 12.250000954 118.83957672 0.0085006412  -999.250000 0.3985813260 2.1229162216 3.6330409050 70.176925659  -999.250000 135.50964355  -999.250000 0.7961088419 0.7459295988 0.7479294538
 1380.3355713 5.0000000000 12.338100433 12.250000954 114.15058899 0.0087997597  -999.250000 0.3904064894 2.1227002144 3.8873960972 68.328788757  -999.250000 137.05526733  -999.250000 0.7772151232 0.7498967648 0.7401062846
 1380.4879150 5.0000000000 12.421799660 12.250000954 118.43339539 0.0083004003  -999.250000 0.4002920687 2.1130077839 4.0462727547 64.307525635  -999.250000 136.14152527  -999.250000 0.7515205741 0.7227218151 0.7257115841
 1380.6403809 5.0000000000 12.486499786 12.250000954 122.31758118 0.0094990386  -999.250000 0.4340729415 2.1131000519 4.1153445244 62.171607971  -999.250000 136.79438782  -999.250000 0.7295176387 0.7058135271 0.6971228719
 1380.7927246 5.0000000000 12.357100487 12.250000954 191.21228027 0.0057030451  -999.250000 0.4098194540 2.0985116959 4.0754318237 63.543296814  -999.250000 136.59965515  -999.250000 0.7273017764 0.7030022740 0.6994981170
 1380.9451904 5.0000000000 12.333800316 12.250000954 213.29922485 0.0071987989  -999.250000 0.4166944921 2.0819132328 4.2642488480 66.101448059  -999.250000 136.03425598  -999.250000 0.7616724372 0.7328760624 0.7278773189
 1381.0975342 5.0000000000 12.462699890 12.250000954 200.25984192 0.0073998398  -999.250000 0.4016121030 2.0633149147 4.3918981552 67.901161194  -999.250000 131.71536255  -999.250000 0.7913762331 0.7541829348 0.7595745921
 1381.2500000 5.0000000000 12.503298759 12.250000954 154.24868774 0.0143943951  -999.250000 0.4075951874 2.0625007153 4.8140621185 67.679275513  -999.250000 131.27444458  -999.250000 0.7914000154 0.7541999817 0.7595999837
 1381.4023438 5.0000000000 12.415499687 12.250000954 129.42716980 0.0234927069  -999.250000 0.3769245744 2.0813846588 5.1226530075 66.071289063  -999.250000 132.64109802  -999.250000 0.8480545878 0.7992638946 0.7993680835
 1381.5548096 5.0000000000 12.404700279 12.250000954 107.68962860 0.0255983174  -999.250000 0.3781989515 2.0838980675 5.3738989830 63.546421051  -999.250000 134.79017639  -999.250000 0.8436999917 0.8251000047 0.7994999886
 1381.7071533 5.0000000000 12.380900383 12.250000954 107.76148224 0.0327942297  -999.250000 0.4080760479 2.0929925442 5.3707027435 59.971363068  -999.250000 137.63172913  -999.250000 0.7641000152 0.7541000247 0.7361000180
 1381.8594971 5.0000000000 12.370300293 12.250000954 110.66174316 0.0257113688  -999.250000 0.4196814299 2.0860111713 5.2153491974 59.789985657  -999.250000 137.58798218  -999.250000 0.7743999958 0.7547000051 0.7516999841
 1382.0119629 5.0000000000 12.402999878 12.250000954 107.36351776 0.0286975950  -999.250000 0.4316903651 2.1049847603 5.1705355644 65.685272217  -999.250000 135.65834045  -999.250000 0.8004000187 0.7493000031 0.7533000112
 1382.1643066 5.0000000000 12.393099785 12.250000954 104.18340302 0.0118270619  -999.250000 0.3865723908 2.0925199986 4.8639917374 70.688385010  -999.250000 134.46520996  -999.250000 0.7831000090 0.7495999932 0.7480000257
 1382.3167725 5.0000000000 12.388299942 12.250000954 97.395019531 0.0125993593  -999.250000 0.3813041747 2.1098861694 4.6583642960 68.373863220  -999.250000 136.95410156  -999.250000 0.7767999768 0.7421000004 0.7437000275
 1382.4691162 5.0000000000 12.374401093 12.250000954 96.037078857 0.0075081661  -999.250000 0.3687201738 2.1099996567 4.4584202766 63.797634125  -999.250000 138.30873108  -999.250000 0.7754999995 0.7490000129 0.7324000001
 1382.6215820 5.0000000000 12.456600189 12.250000954 97.097770691 0.0092985574  -999.250000 0.3977766931 2.1206912994 4.2789435387 60.820178986  -999.250000 138.64512634  -999.250000 0.7850999832 0.7548000216 0.7484999895
 1382.7739258 5.0000000000 12.467000008 12.250000954 104.81889343 0.0078012017  -999.250000 0.4120885432 2.1187016964 4.1074371338 56.708694458  -999.250000 137.83195496  -999.250000 0.7850999832 0.7548000216 0.7484999895
 1382.9263916 5.0000000000 12.495500565 12.250000954 119.44322968 0.0082995994  -999.250000 0.4215924144 2.1302907467 3.9837989807 54.382961273  -999.250000 136.35089111  -999.250000 0.7883999944 0.7548999786 0.7572000027
 1383.0787354 5.0000000000 12.487799644 12.250000954 140.75721741 0.0125965541  -999.250000 0.4288941622 2.1525821686 3.9554226398 56.301559448  -999.250000 135.04185486  -999.250000 0.7960000038 0.7638000250 0.7551000118
 1383.2312012 5.0000000000 12.465299606 12.250000954 149.82546997 0.0130995996  -999.250000 0.4406905472 2.1596941948 3.9219267368 59.809192657  -999.250000 132.00314331  -999.250000 0.7828999758 0.7584000230 0.7585999966
