# LAS format log file from PETREL
# Project units are specified as depth units
#==================================================================
~Version information
VERS.   2.0:
WRAP.   NO:
#==================================================================
~Well
STRT .m      1456.9927979 :
STOP .m      2094.7868652 :
STEP .m     0.00000000 :
NULL .        -999.250000 :
COMP.           : COMPANY
WELL.  25/11-24 Jakob South   : WELL
FLD.            : FIELD
LOC.            : LOCATION
SRVC.           : SERVICE COMPANY
DATE.  2018-09-11 14:48:16   : Log Export Date {yyyy-MM-dd HH:mm:ss}
PROV.           : PROVINCE
UWI.   25/11-24   : UNIQUE WELL ID
API.            : API NUMBER
#==================================================================
~Curve
DEPT .m                   : DEPTH
Lithology_geolink ._      : Lithology_geolink
DCAL .in                  : DCAL
CALI .in                  : CALI
BS .in                    : BS
ROP .m/h                  : ROP
DRHO .g/cm3               : DRHO
NPHI .m3/m3               : NPHI
RHOB .g/cm3               : RHOB
PEF .b/e                  : PEF
GR .gAPI                  : GR
DTC .us/ft                : DTC
DTS .us/ft                : DTS
RDEP .ohm.m               : RDEP
RMIC .ohm.m               : RMIC
RMED .ohm.m               : RMED
~Parameter
#==================================================================
~Ascii
# ...
 1623.4135742 5.0000000000 1.2956999540 13.545700073 12.250000954 89.667976379 0.1005999967 0.5152000189 2.1013998985 4.5755000114 143.64669800 140.28390503 371.37478638 0.7389000058 0.2725000083 0.7222999930
 1623.5660400 5.0000000000 2.7701001167 15.020099640 12.250000954 113.80639648 0.1010000035 0.4731000066 2.1110000610 4.7402000427 146.79939270 140.30140686 379.79757690 0.6955999732 0.2486999929 0.6503999829
 1623.7183838 5.0000000000 2.8977003098 15.147700310 12.250000954 122.93138885 0.0991000012 0.4686999917 2.1105999947 4.7739000320 150.32580566 140.97270203 379.51074219 0.6733999848 0.2090000063 0.6520000100
 1623.8708496 5.0000000000 1.5763000250 13.826299667 12.250000954 122.88680267 0.0982000083 0.4941000044 2.1210999489 4.7074999809 147.45140076 142.15449524 383.03497314 0.6762999892 0.2058999985 0.6769999862
 1624.0231934 5.0000000000 2.4358999729 14.685898781 12.250000954 122.31690216 0.0939999968 0.5382000208 2.1417000294 4.6360001564 149.30569458 143.17689514 384.29550171 0.6776000261 0.2442000061 0.6622999907
 1624.1755371 5.0000000000 1.5620000362 13.812000275 12.250000954 120.33560181 0.0856999978 0.5719000101 2.1696999073 4.5707001686 151.63679504 144.07479858 385.21524048 0.6014999747 0.3416999876 0.5992000103
 1624.3280029 5.0000000000 1.5343999863 13.784399986 12.250000954 114.87399292 0.0753000006 0.6089000106 2.1744000912 4.5773000717 154.25019836 143.99859619 386.29568481 0.6225000024 0.4797999859 0.6176999807
 1624.4803467 5.0000000000 1.1164000034 13.366400719 12.250000954 101.87039948 0.0709000006 0.5692999959 2.1621000767 4.6407999992 155.44920349 142.54400635 384.48959351 0.6100999713 0.5098999739 0.5834000111
 1624.6328125 5.0000000000 1.3449000120 13.594899178 12.250000954 82.676513672 0.0696000010 0.5194000006 2.1352000237 4.7024998665 153.54010010 141.36849976 383.68173218 0.6395999789 0.4153999984 0.6175000072
 1624.7851563 5.0000000000 1.0621999502 13.312201500 12.250000954 67.978019714 0.0715999976 0.4632000029 2.1184999943 4.7129998207 154.15420532 140.74960327 383.63647461 0.6423000097 0.2935000062 0.6101999879
 1624.9376221 5.0000000000 1.6918001175 13.941800117 12.250000954 59.260505676 0.0731000006 0.4826999903 2.1096000671 4.6996998787 150.94819641 140.74479675 387.04626465 0.6230000257 0.3097999990 0.6050000191
 1625.0899658 5.0000000000 1.6447999477 13.894800186 12.250000954 55.671257019 0.0764999986 0.5059000254 2.1136000156 4.7129001617 152.06779480 141.43850708 385.05609131 0.6531999707 0.3215999901 0.6452000141
 1625.2424316 5.0000000000 1.3846000433 13.634598732 12.250000954 51.629261017 0.0788000003 0.5102999806 2.1210000515 4.8105001450 149.16720581 142.00000000 385.25024414 0.6836000085 0.3258999884 0.6588000059
 1625.3947754 5.0000000000 1.2525999546 13.502598763 12.250000954 47.320541382 0.0746000037 0.5365999937 2.1103999615 5.0222997665 148.00140381 141.80070496 387.14816284 0.6401000023 0.2428999990 0.6144000292
 1625.5472412 5.0000000000 1.8761999607 14.126199722 12.250000954 43.276901245 0.0685999990 0.5217000246 2.0973999500 5.3392000198 150.85079956 141.38600159 386.42016602 0.5702999830 0.1946000010 0.5464000106
 1625.6995850 5.0000000000 1.4191999435 13.669200897 12.250000954 47.648948669 0.0623000003 0.5213999748 2.0896000862 5.6637997627 150.56520081 141.26150513 386.02261353 0.5985000134 0.2435999960 0.6055999994
 1625.8520508 5.0000000000 1.5991001129 13.849100113 12.250000954 70.992446899 0.0617000014 0.5099999905 2.1108999252 5.8856000900 149.99499512 141.36360168 385.48852539 0.6618999839 0.2667999864 0.5828999877
 1626.0043945 5.0000000000 1.7629001141 14.012900352 12.250000954 117.27558899 0.0617000014 0.5275999904 2.1319999695 6.0520000458 147.04240417 141.20419312 385.96600342 0.5860000253 0.3892000020 0.6187999845
 1626.1567383 5.0000000000 1.2164000273 13.466400146 12.250000954 148.51440430 0.0590999983 0.5388000011 2.1456999779 6.2369999886 150.85809326 140.84049988 387.53311157 0.6078000069 0.3903000057 0.6165999770
 1626.3092041 5.0000000000 1.0190000534 13.269001007 12.250000954 146.14700317 0.0555999987 0.5304999948 2.1521000862 6.4471998215 154.33000183 140.35729980 388.65927124 0.6772999763  -999.250000 0.6114000082
 1626.4615479 5.0000000000 1.2734999657 13.523500443 12.250000954 138.19850159 0.0562000014 0.5342000127 2.1717998981 6.5285000801 157.53469849 140.15939331 388.38641357 0.6523000002  -999.250000 0.5843999982
 1626.6140137 5.0000000000 1.8694999218 14.119500160 12.250000954 128.95539856 0.0590999983 0.5544999838 2.1816000938 6.3951997757 156.76260376 140.44340515 388.70465088 0.5831000209  -999.250000 0.5842000246
 1626.7663574 5.0000000000 1.7223001719 13.972300529 12.250000954 119.67549896 0.0603000000 0.5928000212 2.1756999493 6.1473999023 153.91850281 140.53480530 387.71401978 0.5800999999  -999.250000 0.5580999851
 1626.9188232 5.0000000000 1.6384999752 13.888500214 12.250000954 100.64700317 0.0592000000 0.5938000083 2.1584999561 5.9832000732 148.60679626 140.91850281 388.22695923 0.5533999801  -999.250000 0.5241000056
 1627.0711670 5.0000000000 0.9378004670 13.187799454 12.250000954 81.170928955 0.0566999987 0.5634999871 2.1500000954 5.9317002296 150.01029968 141.43319702 386.28384399 0.5788999796  -999.250000 0.5243999958
 1627.2236328 5.0000000000 1.4048999548 13.654899597 12.250000954 70.575126648 0.0570000000 0.5357000232 2.1510999203 5.8502001762 148.88639832 142.18060303 386.74813843 0.5623999834  -999.250000 0.5371999741
 1627.3759766 5.0000000000 0.7904996872 13.040499687 12.250000954 65.482276917 0.0577000007 0.5159000158 2.1505000591 5.7822999954 153.59300232 142.75799561 381.50640869 0.5401999950  -999.250000 0.5378999710
 1627.5284424 5.0000000000 0.7574996948 13.007499695 12.250000954 66.974082947 0.0600999966 0.5249999762 2.1528999805 6.0019998550 152.36250305 142.38490295 375.50210571 0.6291000247  -999.250000 0.6104000211
 1627.6807861 5.0000000000 0.8667001724 13.116700172 12.250000954 81.075462341 0.0713000000 0.4821000099 2.1831998825 6.6841001511 155.58050537 141.67770386 374.55316162 0.6621000171  -999.250000 0.6493999958
 1627.8332520 5.0000000000 1.0470000505 13.296999931 12.250000954 116.21689606 0.0913999975 0.4771000147 2.2392001152 7.4633002281 154.09629822 141.20190430 369.42022705 0.6629999876  -999.250000 0.5867000222
 1627.9855957 5.0000000000 1.6689000130 13.918900490 12.250000954 149.81860352 0.1023000032 0.4661000073 2.2685999870 7.9499998093 157.41769409 141.31280518 368.20388794 0.5957999825  -999.250000 0.5830000043
 1628.1379395 5.0000000000 1.6562001705 13.906200409 12.250000954 167.64759827 0.0943000019 0.4860000014 2.2476000786 7.8825001717 156.05549622 141.49470520 368.32937622 0.5601000190  -999.250000 0.5404999852
 1628.2904053 5.0000000000 1.3592001200 13.609200478 12.250000954 164.42909241 0.0691000000 0.5005000234 2.1839001179 7.4516000748 154.86570740 141.71659851 377.50598145 0.5755000114  -999.250000 0.5756999850
 1628.4427490 5.0000000000 1.3312999010 13.581300735 12.250000954 168.63450623 0.0489999987 0.4979999959 2.1419000626 6.9295001030 151.31219482 141.95989990 380.83822632 0.5663999915  -999.250000 0.6168000102
 1628.5952148 5.0000000000 0.7677001357 13.017701149 12.250000954 167.40220642 0.0320999995 0.5119000077 2.1240000725 6.6729998589 153.12680054 141.75799561 384.54193115 0.5242000222  -999.250000 0.5661000013
 1628.7475586 5.0000000000 0.8210000992 13.070999146 12.250000954 159.72509766 0.0207000002 0.5131999850 2.1408998966 6.6862001419 156.20429993 141.56550598 385.24014282 0.5630000234  -999.250000 0.5824000239
 1628.9000244 5.0000000000 0.5951004028 12.845101357 12.250000954 151.88220215 0.0143999998 0.5241000056 2.1658000946 6.6515998840 154.99870300 141.67649841 385.62518311 0.5508000255  -999.250000 0.5457999706
 1629.0523682 5.0000000000 0.8108997345 13.060899734 12.250000954 144.52589417 0.0113000004 0.4830999970 2.1638000011 6.4169001579 156.18400574 141.89840698 386.57550049 0.5462999940  -999.250000 0.5562000275
 1629.2048340 5.0000000000 0.6711997986 12.921198845 12.250000954 148.31230164 0.0166999996 0.4853999913 2.1398999691 6.1918001175 156.28480530 142.32229614 391.11456299 0.5478000045  -999.250000 0.5539000034
