# LAS format log file from PETREL
# Project units are specified as depth units
#==================================================================
~Version information
VERS.   2.0:
WRAP.   NO:
#==================================================================
~Well
STRT .m      460.12496948 :
STOP .m      2548.7502441 :
STEP .m     0.00000000 :
NULL .        -999.250000 :
COMP.           : COMPANY
WELL.  25/10-4R  Balder Appr   : WELL
FLD.            : FIELD
LOC.            : LOCATION
SRVC.           : SERVICE COMPANY
DATE.  2018-09-11 14:48:14   : Log Export Date {yyyy-MM-dd HH:mm:ss}
PROV.           : PROVINCE
UWI.   25/10-4 R   : UNIQUE WELL ID
API.            : API NUMBER
#==================================================================
~Curve
DEPT .m                   : DEPTH
Lithology_geolink ._      : Lithology_geolink
CALI .in                  : CALI
MUDWEIGHT ._              : MUDWEIGHT
ROP .m/h                  : ROP
DRHO .g/cm3               : DRHO
NPHI .m3/m3               : NPHI
RHOB .g/cm3               : RHOB
GR .gAPI                  : GR
DTC .us/ft                : DTC
RDEP .ohm.m               : RDEP
SP .mV                    : SP
RSHA .ohm.m               : RSHA
RMED .ohm.m               : RMED
~Parameter
#==================================================================
~Ascii
# ...
 878.12500000  -999.250000 14.373001099 1.0800000429 0.6545275450  -999.250000  -999.250000  -999.250000 25.403999329 159.71699524 0.6650000215 19.959999084  -999.250000 1.3370000124
 878.25000000  -999.250000 14.345000267 1.0800000429 0.6546915770  -999.250000  -999.250000  -999.250000 25.893999100 160.38000488 0.6639999747 20.055999756  -999.250000 1.3370000124
 878.37500000  -999.250000 14.343000412 1.0800000429 0.6548556089  -999.250000  -999.250000  -999.250000 26.058000565 160.49699402 0.6620000005 19.954000473  -999.250000 1.3370000124
 878.50000000  -999.250000 14.361000061 1.0800000429 0.6551837325  -999.250000  -999.250000  -999.250000 25.038000107 160.32600403 0.6589999795 19.729000092  -999.250000 1.3370000124
 878.62493896  -999.250000 14.407999992 1.0800000429 0.6551837325  -999.250000  -999.250000  -999.250000 23.763000488 159.95700073 0.6570000052 19.372999191  -999.250000 1.3370000124
 878.75000000  -999.250000 14.480999947 1.0800000429 0.6553478837  -999.250000  -999.250000  -999.250000 22.513000488 159.56600952 0.6539999843 19.016000748  -999.250000 1.3370000124
 878.87500000  -999.250000 14.574001312 1.0800000429 0.6555117965  -999.250000  -999.250000  -999.250000 21.386999130 159.17500305 0.6520000100 19.367000580  -999.250000 1.3370000124
 879.00000000  -999.250000 14.703000069 1.0800000429 0.6558399200  -999.250000  -999.250000  -999.250000 22.410999298 158.78498840 0.6510000229 20.079999924  -999.250000 1.3370000124
 879.12500000  -999.250000 14.840001106 1.0800000429 0.6558399200  -999.250000  -999.250000  -999.250000 23.809999466 158.57299805 0.6520000100 20.732000351  -999.250000 1.3370000124
 879.24993896  -999.250000 14.961000443 1.0800000429 0.6560037732  -999.250000  -999.250000  -999.250000 24.353000641 158.73399353 0.6539999843 21.305000305  -999.250000 1.3370000124
 879.37500000  -999.250000 15.034001350 1.0800000429 0.6561679840  -999.250000  -999.250000  -999.250000 23.747999191 158.98800659 0.6549999714 21.851999283  -999.250000 1.3370000124
 879.50000000  -999.250000 15.057999611 1.0800000429 0.6561679840  -999.250000  -999.250000  -999.250000 22.506999969 159.27200317 0.6570000052 21.756999969  -999.250000 1.3370000124
 879.62500000  -999.250000 15.050999641 1.0800000429 0.6564961076  -999.250000  -999.250000  -999.250000 21.198999405 159.49598694 0.6579999924 21.613000870  -999.250000 1.3370000124
 879.75006104  -999.250000 15.039999962 1.0800000429 0.6566602588  -999.250000  -999.250000  -999.250000 20.292999268 159.19599915 0.6600000262 21.468000412  -999.250000 1.3370000124
 879.87500000  -999.250000 15.034001350 1.0800000429 0.6568241715  -999.250000  -999.250000  -999.250000 20.065000534 158.89601135 0.6629999876 21.323999405  -999.250000 1.3370000124
 880.00000000  -999.250000 15.067000389 1.0800000429 0.6571522355  -999.250000  -999.250000  -999.250000 20.625000000 158.70397949 0.6650000215 21.260000229  -999.250000 1.3370000124
 880.12500000  -999.250000 15.138999939 1.0800000429 0.6576444507  -999.250000  -999.250000  -999.250000 21.698999405 158.61001587 0.6679999828 21.256999969  -999.250000 1.3370000124
 880.25000000  -999.250000 15.255000114 1.0800000429 0.6583003998  -999.250000  -999.250000  -999.250000 22.940999985 158.58099365 0.6710000038 21.253999710  -999.250000 1.3309999704
 880.37493896  -999.250000 15.380999565 1.0800000429 0.6589561105  -999.250000  -999.250000  -999.250000 24.167999268 158.82598877 0.6729999781 21.333000183  -999.250000 1.3250000477
 880.50000000  -999.250000 15.506999969 1.0800000429 0.6594488621  -999.250000  -999.250000  -999.250000 24.780000687 159.57899475 0.6750000119 21.629999161  -999.250000 1.3250000477
 880.62500000  -999.250000 15.633000374 1.0800000429 0.6602691412  -999.250000  -999.250000  -999.250000 24.728000641 160.60200500 0.6769999862 21.879999161  -999.250000 1.3250000477
 880.75000000  -999.250000 15.758999825 1.0800000429 0.6609252095  -999.250000  -999.250000  -999.250000 24.167999268 161.66799927 0.6790000200 21.812999725  -999.250000 1.3250000477
 880.87500000  -999.250000 15.838000298 1.0800000429 0.6615812778  -999.250000  -999.250000  -999.250000 23.563999176 162.61599731 0.6809999943 21.094999313  -999.250000 1.3250000477
 880.99993896  -999.250000 15.887000084 1.0800000429 0.6620734930  -999.250000  -999.250000  -999.250000 23.003999710 162.83499146 0.6830000281 20.409999847  -999.250000 1.3250000477
 881.12500000  -999.250000 15.871999741 1.0800000429 0.6624016166  -999.250000  -999.250000  -999.250000 22.357000351 162.35899353 0.6850000024 19.725999832  -999.250000 1.3250000477
 881.25000000  -999.250000 15.833999634 1.0800000429 0.6624016166  -999.250000  -999.250000  -999.250000 21.968000412 161.48100281 0.6859999895 19.205999374  -999.250000 1.3250000477
 881.37500000  -999.250000 15.786999702 1.0800000429 0.6624016166  -999.250000  -999.250000  -999.250000 21.579999924 160.81399536 0.6859999895 19.035999298  -999.250000 1.3250000477
 881.50006104  -999.250000 15.737000465 1.0800000429 0.6624016166  -999.250000  -999.250000  -999.250000 21.253000259 160.49201965 0.6850000024 18.881000519  -999.250000 1.3250000477
 881.62500000  -999.250000 15.732000351 1.0800000429 0.6623195410  -999.250000  -999.250000  -999.250000 21.674999237 160.28399658 0.6830000281 19.115999222  -999.250000 1.3250000477
 881.75000000  -999.250000 15.751000404 1.0800000429 0.6620734930  -999.250000  -999.250000  -999.250000 22.243999481 160.33299255 0.6809999943 19.552000046  -999.250000 1.3250000477
 881.87500000  -999.250000 15.777001381 1.0800000429 0.6620734930  -999.250000  -999.250000  -999.250000 23.000000000 160.82800293 0.6779999733 19.986999512  -999.250000 1.3250000477
 882.00000000  -999.250000 15.798000336 1.0800000429 0.6620734930  -999.250000  -999.250000  -999.250000 24.099000931 161.32299805 0.6750000119 20.468999863  -999.250000 1.3250000477
 882.12506104  -999.250000 15.810000420 1.0800000429 0.6620734930  -999.250000  -999.250000  -999.250000 25.406000137 162.08200073 0.6719999909 21.163999557  -999.250000 1.3250000477
 882.25000000  -999.250000 15.819999695 1.0800000429 0.6620734930  -999.250000  -999.250000  -999.250000 26.704000473 163.07200623 0.6690000296 21.594999313  -999.250000 1.3250000477
 882.37500000  -999.250000 15.831000328 1.0800000429 0.6620734930  -999.250000  -999.250000  -999.250000 27.582000732 164.18099976 0.6679999828 21.413999557  -999.250000 1.3250000477
 882.50000000  -999.250000 15.840999603 1.0800000429 0.6620734930  -999.250000  -999.250000  -999.250000 27.895999908 165.48899841 0.6660000086 20.563999176  -999.250000 1.3250000477
 882.62500000  -999.250000 15.850999832 1.0800000429 0.6620734930  -999.250000  -999.250000  -999.250000 27.165000916 166.38499451 0.6650000215 19.966999054  -999.250000 1.3250000477
 882.74993896  -999.250000 15.852001190 1.0800000429 0.6619096398  -999.250000  -999.250000  -999.250000 26.437000275 166.57698059 0.6650000215 19.690999985  -999.250000 1.3250000477
 882.87500000  -999.250000 15.847999573 1.0800000429 0.6617454290  -999.250000  -999.250000  -999.250000 25.381000519 165.99800110 0.6650000215 20.013000488  -999.250000 1.3250000477
 883.00000000  -999.250000 15.843000412 1.0800000429 0.6617454290  -999.250000  -999.250000  -999.250000 24.732999802 164.60499573 0.6650000215 20.556999207  -999.250000 1.3250000477
 883.12500000  -999.250000 15.836999893 1.0800000429 0.6617454290  -999.250000  -999.250000  -999.250000 24.339000702 163.22300720 0.6679999828 21.108999252  -999.250000 1.3250000477
 883.25006104  -999.250000 15.832000732 1.0800000429 0.6617454290  -999.250000  -999.250000  -999.250000 24.340999603 161.91400146 0.6690000296 21.642999649  -999.250000 1.3250000477
 883.37500000  -999.250000 15.826999664 1.0800000429 0.6617454290  -999.250000  -999.250000  -999.250000 24.579999924 161.00100708 0.6660000086 22.159999847  -999.250000 1.3250000477
 883.50000000  -999.250000 15.821000099 1.0800000429 0.6617454290  -999.250000  -999.250000  -999.250000 24.507999420 161.36100769 0.6690000296 22.677000046  -999.250000 1.3250000477
