# LAS format log file from PETREL
# Project units are specified as depth units
#==================================================================
~Version information
VERS.   2.0:
WRAP.   NO:
#==================================================================
~Well
STRT .m      3054.5593262 :
STOP .m      3397.3076172 :
STEP .m     0.00000000 :
NULL .        -999.250000 :
COMP.           : COMPANY
WELL.  25/10-8A  Hanz Appr   : WELL
FLD.            : FIELD
LOC.            : LOCATION
SRVC.           : SERVICE COMPANY
DATE.  2018-09-11 14:48:15   : Log Export Date {yyyy-MM-dd HH:mm:ss}
PROV.           : PROVINCE
UWI.   25/10-8 A   : UNIQUE WELL ID
API.            : API NUMBER
#==================================================================
~Curve
DEPT .m                   : DEPTH
Lithology_geolink ._      : Lithology_geolink
NPHI .m3/m3               : NPHI
RHOB .g/cm3               : RHOB
GR .gAPI                  : GR
RDEP .ohm.m               : RDEP
RSHA .ohm.m               : RSHA
~Parameter
#==================================================================
~Ascii
# ...
 3293.2182617 6.0000000000 0.2432000041 2.2684576511 82.319183350 6.5064888000 10.811153412
 3293.3706055 6.0000000000 0.2453799993 2.3136672974 97.286209106 3.9501674175 5.8192801476
 3293.5229492 6.0000000000 0.2474500090 2.3510162830 109.02008057 2.3554866314 2.6915524006
 3293.6752930 6.0000000000 0.2477899939 2.3821728230 114.99427032 2.2742655277 2.4160668850
 3293.8278809 7.0000000000 0.2451199889 2.4052352905 117.31592560 2.4929471016 2.8485007286
 3293.9802246 7.0000000000 0.2439100146 2.4177713394 118.35947418 2.7092595100 2.8667573929
 3294.1325684 7.0000000000 0.2441200018 2.4241044521 118.27690125 2.6635541916 2.5834350586
 3294.2849121 7.0000000000 0.2439500093 2.4246046543 117.30423737 2.6132328510 2.3121604919
 3294.4375000 7.0000000000 0.2387499958 2.4226226807 115.92101288 2.6698181629 2.2289359570
 3294.5898438 7.0000000000 0.2309499979 2.4213097095 114.37017059 2.6702773571 2.2886483669
 3294.7421875 7.0000000000 0.2192099988 2.4202280045 113.36331177 2.6517634392 2.3619577885
 3294.8945313 7.0000000000 0.2106500119 2.4184510708 113.05609894 2.6328961849 2.4115283489
 3295.0468750 7.0000000000 0.2082099915 2.4166066647 113.71907806 2.5869078636 2.5198817253
 3295.1994629 7.0000000000 0.2077700049 2.4155499935 115.00823212 2.5349211693 2.6314430237
 3295.3518066 7.0000000000 0.2185499966 2.4151110649 116.33155823 2.4961993694 2.6263585091
 3295.5041504 7.0000000000 0.2339200079 2.4151203632 117.54902649 2.4762921333 2.5586838722
 3295.6564941 7.0000000000 0.2409099936 2.4179008007 118.30417633 2.4573006630 2.5225095749
 3295.8090820 7.0000000000 0.2432099879 2.4226658344 117.94958496 2.4338681698 2.4877383709
 3295.9614258 7.0000000000 0.2448699921 2.4243593216 116.83187103 2.4192624092 2.4215819836
 3296.1137695 7.0000000000 0.2444199920 2.4223818779 115.58869934 2.4212489128 2.3604125977
 3296.2661133 7.0000000000 0.2419599891 2.4202084541 114.78166962 2.4606735706 2.2800397873
 3296.4187012 7.0000000000 0.2381399870 2.4186365604 114.21682739 2.5289916992 2.2021868229
 3296.5710449 7.0000000000 0.2338299900 2.4174571037 113.96452332 2.5439212322 2.2253572941
 3296.7233887 7.0000000000 0.2304199934 2.4183156490 113.50231171 2.5119128227 2.3243439198
 3296.8757324 7.0000000000 0.2280199975 2.4218096733 112.52806091 2.4417352676 2.4238870144
 3297.0280762 7.0000000000 0.2230300009 2.4250881672 110.41234589 2.4169344902 2.4045073986
 3297.1806641 6.0000000000 0.2165600061 2.4273314476 107.85122681 2.4523072243 2.3352625370
 3297.3330078 6.0000000000 0.2099500149 2.4294173717 105.97119904 2.5086719990 2.2873251438
 3297.4853516 6.0000000000 0.2029799968 2.4325051308 102.22532654 2.5664081573 2.2536292076
 3297.6376953 6.0000000000 0.2012700140 2.4370956421 99.736053467 2.6250357628 2.2388796806
 3297.7902832 6.0000000000 0.2048500031 2.4387586117 98.772102356 2.6895768642 2.2949790955
 3297.9426270 6.0000000000 0.2095199972 2.4355161190 97.866027832 2.6296913624 2.5067040920
 3298.0949707 6.0000000000 0.2107300013 2.4321773052 97.169822693 2.6270248890 2.4650549889
 3298.2473145 6.0000000000 0.2080499977 2.4303576946 97.276969910 2.7364478111 2.3388638496
 3298.3999023 6.0000000000 0.2065800130 2.4293067455 98.843307495 2.7954964638 2.3637533188
 3298.5522461 6.0000000000 0.2097200006 2.4291839600 101.42839813 2.8175921440 2.4004366398
 3298.7045898 6.0000000000 0.2332299948 2.4302778244 103.80198669 2.8578960896 2.3919875622
 3298.8569336 6.0000000000 0.2603400052 2.4328019619 106.38267517 2.8933496475 2.4709668159
 3299.0092773 7.0000000000 0.2639099956 2.4362955093 110.07055664 2.8871259689 2.6172430515
 3299.1618652 7.0000000000 0.2589699924 2.4395895004 114.50439453 2.8554861546 2.7477943897
 3299.3142090 7.0000000000 0.2648900151 2.4422070980 118.45884705 2.8230235577 2.8482871056
 3299.4665527 7.0000000000 0.2757599950 2.4468181133 121.79857635 2.8042225838 2.8988506794
 3299.6188965 7.0000000000 0.2737399936 2.4524922371 122.11124420 2.7885892391 2.9144046307
 3299.7714844 7.0000000000 0.2585999966 2.4533548355 120.63995361 2.7774758339 2.9096901417
 3299.9238281 7.0000000000 0.2435799986 2.4503049850 118.67998505 2.7625231743 2.9056322575
 3300.0761719 7.0000000000 0.2329400033 2.4458129406 116.44616699 2.7397806644 2.9135193825
 3300.2285156 7.0000000000 0.2285899967 2.4407324791 112.86267090 2.6955106258 2.9124233723
 3300.3811035 7.0000000000 0.2316900045 2.4350037575 110.29424286 2.6549625397 2.7037959099
 3300.5334473 7.0000000000 0.2414100021 2.4291193485 109.59643555 2.7025671005 2.4489121437
 3300.6857910 7.0000000000 0.2398999929 2.4269604683 110.31727600 2.6746129990 2.4186718464
 3300.8381348 7.0000000000 0.2302000076 2.4311909676 111.34749603 2.5997297764 2.4322867393
 3300.9907227 7.0000000000 0.2254299968 2.4388947487 113.37592316 2.5557363033 2.3909900188
 3301.1430664 7.0000000000 0.2247400135 2.4473702908 116.33676910 2.5380780697 2.2785861492
 3301.2954102 7.0000000000 0.2269400060 2.4542448521 118.08277893 2.5342121124 2.2732696533
 3301.4477539 7.0000000000 0.2332200110 2.4587628841 118.86348724 2.4976606369 2.3876492977
 3301.6000977 7.0000000000 0.2392700016 2.4601309299 119.08129883 2.3913371563 2.5596554279
 3301.7526855 7.0000000000 0.2441000044 2.4572467804 118.40419006 2.2350909710 2.7278599739
 3301.9050293 7.0000000000 0.2485899925 2.4498865604 117.13223267 2.1623158455 2.6770236492
 3302.0573730 7.0000000000 0.2514199913 2.4315795898 115.17160797 2.1265394688 2.4729707241
 3302.2097168 7.0000000000 0.2486700118 2.3990764618 109.62985229 2.0883808136 2.3289475441
 3302.3623047 6.0000000000 0.2447599918 2.3552532196 102.67137909 2.0642838478 2.2869751453
 3302.5146484 6.0000000000 0.2384199947 2.3221523762 92.808639526 2.0300445557 2.4230511189
 3302.6669922 6.0000000000 0.2342399955 2.3047604561 82.661712646 2.0207383633 3.1224520206
 3302.8193359 6.0000000000 0.2338400036 2.3035209179 75.294845581 1.9125905037 4.3618321419
 3302.9719238 6.0000000000 0.2269199938 2.3292055130 68.915481567 1.2750248909 2.5541567802
 3303.1242676 2.0000000000 0.1969899982 2.3619804382 63.730686188 2.0762083530 0.6336382031
 3303.2766113 2.0000000000 0.1577000022 2.3890852928 58.776008606 6.5911483765 0.5628946424
 3303.4289551 2.0000000000 0.1304599941 2.4104292393 53.785457611 3.9561326504 1.5715150833
 3303.5812988 2.0000000000 0.1135700047 2.4255456924 49.379020691 0.8811292648 5.3851470947
 3303.7338867 2.0000000000 0.1019400060 2.4337675571 45.771152496 0.9292390943 9.4994878769
 3303.8862305 2.0000000000 0.1055700034 2.4233107567 44.530227661 0.9072546363 10.478377342
 3304.0385742 2.0000000000 0.1156999990 2.3939373493 44.422142029 0.7059070468 6.7559361458
 3304.1909180 2.0000000000 0.1286900043 2.3577697277 43.998065948 0.4758757353 2.1830487251
 3304.3435059 2.0000000000 0.1439400017 2.3171193600 43.531612396 0.5248167515 0.4249675870
 3304.4958496 2.0000000000 0.1817000061 2.2788233757 43.208415985 0.8434113860 0.2432501763
 3304.6481934 2.0000000000 0.2239200026 2.2393479347 42.871257782 1.0649136305 0.3349286318
 3304.8005371 2.0000000000 0.2410400063 2.2041592598 42.217540741 0.9156136513 0.5004407167
 3304.9531250 2.0000000000 0.2483600080 2.1740264893 41.795406342 0.6845241189 0.5571818948
 3305.1054688 2.0000000000 0.2620100081 2.1533555984 41.780338287 0.4815780520 0.4505731761
 3305.2578125 2.0000000000 0.2786999941 2.1387376785 41.796421051 0.3492556810 0.3431456089
 3305.4101563 2.0000000000 0.2917400002 2.1267838478 41.534233093 0.2760719955 0.2832058370
 3305.5625000 2.0000000000 0.3097299933 2.1174316406 41.292835236 0.2611533999 0.2364787757
 3305.7150879 2.0000000000 0.3272899985 2.1110301018 41.130527496 0.3458766341 0.2191326320
 3305.8674316 2.0000000000 0.3381800056 2.1066668034 40.872791290 0.3790205419 0.2465462983
 3306.0197754 2.0000000000 0.3468799889 2.1037449837 40.644935608 0.3563022017 0.2633236051
 3306.1721191 2.0000000000 0.3473099768 2.0999484062 40.640525818 0.3493268490 0.2641535103
 3306.3247070 2.0000000000 0.3362599909 2.0984420776 40.817131042 0.3476503491 0.2569568157
