# LAS format log file from PETREL
# Project units are specified as depth units
#==================================================================
~Version information
VERS.   2.0:
WRAP.   NO:
#==================================================================
~Well
STRT .m      1332.7867432 :
STOP .m      2972.7631836 :
STEP .m     0.00000000 :
NULL .        -999.250000 :
COMP.           : COMPANY
WELL.  25/10-9 Aegis   : WELL
FLD.            : FIELD
LOC.            : LOCATION
SRVC.           : SERVICE COMPANY
DATE.  2018-09-11 14:48:15   : Log Export Date {yyyy-MM-dd HH:mm:ss}
PROV.           : PROVINCE
UWI.   25/10-9   : UNIQUE WELL ID
API.            : API NUMBER
#==================================================================
~Curve
DEPT .m                   : DEPTH
Lithology_geolink ._      : Lithology_geolink
CALI .in                  : CALI
BS .in                    : BS
ROP .m/h                  : ROP
DRHO .g/cm3               : DRHO
NPHI .m3/m3               : NPHI
RHOB .g/cm3               : RHOB
PEF .b/e                  : PEF
GR .gAPI                  : GR
DTC .us/ft                : DTC
DTS .us/ft                : DTS
RDEP .ohm.m               : RDEP
RMED .ohm.m               : RMED
~Parameter
#==================================================================
~Ascii
# ...
 1875.9404297 5.0000000000 12.564900398 12.250000954 47.881561279 0.0445999987 0.4174000025 2.1803998947 4.5922999382 42.817798615 148.89909363 374.35998535 0.3765000105 0.3838000000
 1876.0928955 5.0000000000 12.598601341 12.250000954 48.429790497 0.0538999997 0.4181999862 2.1870999336 4.7437000275 42.937099457 148.45339966 371.66729736 0.3774000108 0.3707999885
 1876.2452393 5.0000000000 12.501099586 12.250000954 48.331039429 0.0595000014 0.4214999974 2.2023999691 4.5992999077 39.065601349 148.05009460 361.03628540 0.3677000105 0.3860999942
 1876.3977051 5.0000000000 12.540599823 12.250000954 49.349735260 0.0538999997 0.4054999948 2.2102999687 4.4414000511 40.316001892 146.52549744 370.68411255 0.3835000098 0.3700000048
 1876.5500488 5.0000000000 12.430100441 12.250000954 50.100723267 0.0527000017 0.3964999914 2.2067999840 4.7678999901 38.807800293 145.43089294 379.85839844 0.3916000128 0.3847000003
 1876.7023926 5.0000000000 12.436800003 12.250000954 40.956691742 0.0395999998 0.4034999907 2.1903998852 4.1525998116 40.791698456 145.27729797 377.71920776 0.3716999888 0.3907000124
 1876.8548584 5.0000000000 12.449299812 12.250000954 37.828411102 0.0395999998 0.3950999975 2.1818997860 4.0746998787 40.198200226 148.36180115 375.65231323 0.3914000094 0.3732999861
 1877.0072021 5.0000000000 12.471400261 12.250000954 41.333663940 0.0425999984 0.4196000099 2.1882998943 3.8508000374 37.949600220 151.15469360 367.33068848 0.3828999996 0.4027000070
 1877.1596680 5.0000000000 12.494600296 12.250000954 49.786090851 0.0445999987 0.4002000093 2.1877000332 3.9921000004 40.614601135 150.39199829 375.05444336 0.3928000033 0.3847999871
 1877.3120117 5.0000000000 12.619400024 12.250000954 50.005249023 0.0480000004 0.3966999948 2.1872000694 4.1276998520 42.654399872 150.36140442 383.03869629 0.3716000021 0.3695999980
 1877.4644775 5.0000000000 12.597800255 12.250000954 53.541339874 0.0592000000 0.4140999913 2.1937003136 4.4302000999 43.242900848 150.36929321 380.63290405 0.3522000015 0.3774999976
 1877.6168213 5.0000000000 12.477499962 12.250000954 58.425525665 0.0520000011 0.4219000041 2.1847000122 4.4770002365 40.930900574 152.64439392 369.79489136 0.3682999909 0.3580999970
 1877.7692871 5.0000000000 12.539799690 12.250000954 62.994750977 0.0478000008 0.4336000085 2.1863000393 4.3329000473 41.086700439 152.64421082 370.93231201 0.3700999916 0.3594000041
 1877.9216309 5.0000000000 12.516500473 12.250000954 73.651573181 0.0480999984 0.4298000038 2.1830999851 4.1353998184 42.112598419 154.30349731 374.49880981 0.3673999906 0.3537999988
 1878.0740967 5.0000000000 12.551699638 12.250000954 80.973426819 0.0478999987 0.4246999919 2.1809000969 4.0521998405 42.708698273 153.04141235 372.16030884 0.3898999989 0.3689999878
 1878.2264404 5.0000000000 12.631699562 12.250000954 72.880577087 0.0537000000 0.4230999947 2.1781001091 4.3115000725 42.911598206 150.63790894 357.82159424 0.4154999852 0.3898999989
 1878.3789063 5.0000000000 12.872900009 12.250000954 64.218833923 0.0759000033 0.4142999947 2.2485001087 4.2989997864 36.443298340 147.20289612 360.12210083 0.4625000060 0.4402000010
 1878.5312500 5.0000000000 13.271400452 12.250000954 52.720142365 0.0559000000 0.3826000094 2.3364999294 5.4204998016 30.394100189 147.05169678 360.50338745 0.5281000137 0.5033000112
 1878.6835938 5.0000000000 13.799099922 12.250000954 31.231952667 0.0196000002 0.3885999918 2.3390998840 5.8434000015 33.635601044 149.10929871 383.61730957 0.5601000190 0.5001999736
 1878.8360596 5.0000000000 14.827699661 12.250000954 15.863189697 0.0443999991 0.4004999995 2.3403999805 5.5704002380 38.018299103 149.68280029 390.78979492 0.4866000116 0.4580999911
 1878.9884033 5.0000000000 13.784000397 12.250000954 17.636156082 0.0593999997 0.4163999856 2.2430999279 4.3828001022 38.673400879 148.89559937 371.04550171 0.4160999954 0.4099999964
 1879.1408691 5.0000000000 12.703599930 12.250000954 24.218832016 0.0562000014 0.4406000078 2.2032001019 4.4039001465 40.892200470 148.82820129 354.17831421 0.4122999907 0.3826000094
 1879.2932129 5.0000000000 12.415300369 12.250000954 25.446523666 0.0546999983 0.4205999970 2.2081999779 4.4917001724 40.599998474 149.22479248 348.88320923 0.4056000113 0.4027000070
 1879.4456787 5.0000000000 12.621198654 12.250000954 23.644357681 0.0478999987 0.4264000058 2.2107000351 4.6027002335 43.546298981 148.52960205 353.10336304 0.4063000083 0.4005999863
 1879.5980225 5.0000000000 12.607600212 12.250000954 26.507217407 0.0650999993 0.4327000082 2.2320001125 4.6658000946 43.445598602 148.05859375 366.48529053 0.4007999897 0.3987999856
 1879.7504883 5.0000000000 12.506798744 12.250000954 34.923229218 0.0597000010 0.4153999984 2.2235000134 5.0743999481 46.107898712 148.81590271 367.12701416 0.3993000090 0.3989000022
 1879.9028320 5.0000000000 12.465399742 12.250000954 44.015090942 0.0458000004 0.4336999953 2.1977000237 4.4512000084 46.821498871 149.30709839 365.40109253 0.3944000006 0.3928000033
 1880.0552979 5.0000000000 12.457900047 12.250000954 50.296916962 0.0439000018 0.4397999942 2.1940999031 4.3066000938 39.832901001 150.59060669 360.41711426 0.4023000002 0.3846000135
 1880.2076416 5.0000000000 12.424599648 12.250000954 51.807415009 0.0434999987 0.4399000108 2.1951000690 4.2445998192 42.607200623 151.75410461 354.76458740 0.3939999938 0.4034000039
 1880.3601074 5.0000000000 12.416700363 12.250000954 54.320537567 0.0386000015 0.4657999873 2.1844000816 4.2904000282 49.399700165 151.23010254 349.56903076 0.3991000056 0.3822000027
 1880.5124512 5.0000000000 12.468099594 12.250000954 56.978347778 0.0403999984 0.4221999943 2.1874001026 4.3333001137 45.959800720 150.99960327 363.79641724 0.4018999934 0.3889999986
 1880.6649170 5.0000000000 12.497599602 12.250000954 59.146324158 0.0513000004 0.4104000032 2.2190001011 4.7386999130 43.176799774 151.23770142 383.37570190 0.3950000107 0.4079999924
 1880.8172607 5.0000000000 12.539899826 12.250000954 61.149940491 0.0542999990 0.4368999898 2.2379999161 5.0149998665 40.917598724 151.13870239 385.26589966 0.4007999897 0.4013000131
 1880.9696045 5.0000000000 12.464099884 12.250000954 59.702102661 0.0463999994 0.4433000088 2.2183001041 4.5113000870 43.580699921 150.99569702 379.09811401 0.3982999921 0.4011000097
 1881.1220703 5.0000000000 12.390800476 12.250000954 51.090225220 0.0372000001 0.4429000020 2.1940000057 3.8963000774 43.910598755 151.17379761 374.99148560 0.3955000043 0.3907999992
 1881.2744141 5.0000000000 12.458499908 12.250000954 48.146327972 0.0329999998 0.4584000111 2.1814000607 3.8215000629 47.696498871 151.45379639 374.61630249 0.3905999959 0.3711999953
 1881.4268799 5.0000000000 12.548199654 12.250000954 56.345146179 0.0441999994 0.4262999892 2.1851000786 4.1290001869 44.331100464 150.55279541 375.75949097 0.3709999919 0.3903999925
 1881.5792236 5.0000000000 12.558300018 12.250000954 73.001640320 0.0505000018 0.4686000049 2.1872999668 4.4342999458 37.236801147 149.12469482 385.91668701 0.3837000132 0.3966000080
 1881.7316895 5.0000000000 12.446200371 12.250000954 81.041007996 0.0478000008 0.4602999985 2.1837999821 4.3557000160 45.526000977 149.48159790 383.85067749 0.3944999874 0.3874000013
 1881.8840332 5.0000000000 12.414601326 12.250000954 82.258201599 0.0379000008 0.4282000065 2.1737999916 4.1434998512 41.515201569 149.95471191 380.77261353 0.3862000108 0.3986999989
 1882.0364990 5.0000000000 12.464400291 12.250000954 84.685043335 0.0384999998 0.4099000096 2.1802000999 4.0880999565 45.281799316 148.97209167 379.19769287 0.3745999932 0.3781000078
 1882.1888428 5.0000000000 12.416500092 12.250000954 86.751640320 0.0423999988 0.4309999943 2.1798000336 3.9588000774 36.027099609 149.54202271 374.86520386 0.3734999895 0.3894999921
 1882.3413086 5.0000000000 12.503199577 12.250000954 92.277236938 0.0438000001 0.4332999885 2.1903998852 3.9927000999 39.447299957 149.59419250 355.97540283 0.3743999898 0.3874000013
 1882.4936523 5.0000000000 12.574500084 12.250000954 98.978019714 0.0522000007 0.4217999876 2.2076001167 4.2223000526 45.674999237 149.00740051 346.06091309 0.3835999966 0.3781999946
