# LAS format log file from PETREL
# Project units are specified as depth units
#==================================================================
~Version information
VERS.   2.0:
WRAP.   NO:
#==================================================================
~Well
STRT .m      206.00000000 :
STOP .m      2655.9824219 :
STEP .m     0.00000000 :
NULL .        -999.250000 :
COMP.           : COMPANY
WELL.  25/10-8  Hanz   : WELL
FLD.            : FIELD
LOC.            : LOCATION
SRVC.           : SERVICE COMPANY
DATE.  2018-09-11 14:48:14   : Log Export Date {yyyy-MM-dd HH:mm:ss}
PROV.           : PROVINCE
UWI.   25/10-8   : UNIQUE WELL ID
API.            : API NUMBER
#==================================================================
~Curve
DEPT .m                   : DEPTH
Lithology_geolink ._      : Lithology_geolink
CALI .in                  : CALI
BS .in                    : BS
THOR .ppm                 : THOR
NPHI .m3/m3               : NPHI
RHOB .g/cm3               : RHOB
GR .gAPI                  : GR
URAN .ppm                 : URAN
DTC .us/ft                : DTC
RDEP .ohm.m               : RDEP
RSHA .ohm.m               : RSHA
RMED .ohm.m               : RMED
~Parameter
#==================================================================
~Ascii
# ...
 2210.3647461 12.000000000 12.284362793 12.250000954 1.7032436132 0.0020081778 2.4894127846 23.411758423 0.7694961429 85.370262146 2.2625379562 2.6268129349 2.2332792282
 2210.5170898 12.000000000 12.229424477 12.250000954 1.5972307920 0.0019842547 2.4963195324 25.005134583 0.7840782404 86.555503845 2.2852497101 2.5375146866 2.2093019485
 2210.6696777 11.000000000 12.217216492 12.250000954 1.5939643383 0.0018783750 2.4840056896 28.270706177 0.7790673971 85.657608032 2.3429508209 2.5074291229 2.2305574417
 2210.8220215 11.000000000 12.229424477 12.250000954 1.6183397770 0.0020257728 2.4974513054 28.033233643 0.7604346275 83.741531372 2.4259090424 2.5364952087 2.2836427689
 2210.9743652 11.000000000 12.278259277 12.250000954 1.6414538622 0.0021759663 2.4799740314 24.559059143 0.7246781588 81.611183167 2.5199165344 2.6171407700 2.3657064438
 2211.1267090 11.000000000 12.278259277 12.250000954 1.6478589773 0.0021590625 2.5024185181 23.068107605 0.7000192404 79.474166870 2.5867090225 2.7143745422 2.4524574280
 2211.2790527 11.000000000 12.284362793 12.250000954 1.6080240011 0.0021166778 2.4781546593 22.197990417 0.7133855820 77.486244202 2.5898981094 2.7722511292 2.4938144684
 2211.4316406 11.000000000 12.278259277 12.250000954 1.5366525650 0.0023835152 2.4954969883 21.521530151 0.7491230965 75.097434998 2.5422801971 2.7653131485 2.4680852890
 2211.5839844 11.000000000 12.302677155 12.250000954 1.4900372028 0.0020965768 2.4898583889 21.808296204 0.7749730945 72.708915710 2.4933795929 2.7322530746 2.4156961441
 2211.7363281 11.000000000 12.205009460 12.250000954 1.4714269638 0.0021724086 2.4455657005 22.453216553 0.7831563950 71.233825684 2.4759140015 2.7293777466 2.3866949081
 2211.8886719 11.000000000 12.235530853 12.250000954 1.4474217892 0.0019761731 2.4607400894 21.920578003 0.7803628445 71.175903320 2.4858474731 2.7756986618 2.3932361603
 2212.0412598 11.000000000 12.235530853 12.250000954 1.4261286259 0.0018792083 2.4761838913 22.687477112 0.7584787011 73.628494263 2.5024557114 2.8538532257 2.4172258377
 2212.1936035 11.000000000 12.205009460 12.250000954 1.4167102575 0.0017407808 2.4574446678 22.557556152 0.7183397412 75.994430542 2.5145578384 2.9387855530 2.4386196136
 2212.3459473 11.000000000 12.241634369 12.250000954 1.4276922941 0.0019574522 2.4382693768 20.259521484 0.6749910116 75.530601501 2.5323410034 3.0213909149 2.4563770294
 2212.4982910 11.000000000 12.284362793 12.250000954 1.4678332806 0.0021337790 2.4755728245 18.385231018 0.6413871646 73.992065430 2.5806846619 3.1189384460 2.4912595749
 2212.6508789 11.000000000 12.290469170 12.250000954 1.5009572506 0.0019181668 2.4775109291 19.814582825 0.6267434955 72.490287781 2.6793661118 3.2645769119 2.5720233917
 2212.8032227 11.000000000 12.314887047 12.250000954 1.4995332956 0.0017206991 2.4852287769 19.457931519 0.6305050850 71.351242065 2.8185310364 3.4767551422 2.7110805511
 2212.9555664 11.000000000 12.272154808 12.250000954 1.4636871815 0.0017146298 2.5505802631 19.753517151 0.6435358524 72.100914001 2.9505205154 3.7141656876 2.8794908524
 2213.1079102 11.000000000 12.198902130 12.250000954 1.3974858522 0.0017403077 2.5336680412 22.629013062 0.6606628299 73.527717590 3.0244150162 3.8717174530 3.0110816956
 2213.2602539 11.000000000 12.211112976 12.250000954 1.3447760344 0.0017965912 2.4919738770 22.835563660 0.6828255653 75.504287720 3.0345458984 3.8619184494 3.0632553101
 2213.4128418 11.000000000 12.137859344 12.250000954 1.3632076979 0.0018010271 2.5171315670 23.312461853 0.7116884589 79.320175171 3.0145845413 3.7080507278 3.0594263077
 2213.5651855 11.000000000 12.125652313 12.250000954 1.4783320427 0.0023219278 2.4981927872 25.210174561 0.7389218211 82.490402222 2.9924755096 3.5063934326 3.0410432816
 2213.7175293 12.000000000 12.150066376 12.250000954 1.6771858931 0.0021162550 2.5011060238 28.144607544 0.7652564049 84.457420349 2.9797792435 3.3342514038 3.0258626938
 2213.8698730 12.000000000 12.284362793 12.250000954 1.9006602764 0.0020191539 2.5673687458 29.478912354 0.7996833324 84.948860168 2.9833230972 3.2300672531 3.0233669281
 2214.0224609 12.000000000 12.296572685 12.250000954 2.0996644497 0.0017849584 2.5821874142 30.416366577 0.8435398340 83.407974243 2.9984569550 3.1972951889 3.0408391953
 2214.1748047 12.000000000 12.296572685 12.250000954 2.2599527836 0.0019939472 2.5494949818 30.950126648 0.8849820495 81.825714111 3.0017795563 3.2017707825 3.0630273819
 2214.3271484 12.000000000 12.320991516 12.250000954 2.3887679577 0.0018327067 2.5203731060 30.518424988 0.9195166826 80.931587219 2.9754457474 3.1928625107 3.0566473007
 2214.4794922 13.000000000 12.162277222 12.250000954 2.5382487774 0.0021399856 2.5205659866 33.220626831 0.9578692913 79.828826904 2.9427928925 3.1552705765 3.0167703629
 2214.6320801 13.000000000 12.162277222 12.250000954 2.6870830059 0.0021182501 2.5060222149 34.591079712 0.9929026365 78.681747437 2.9615583420 3.1386947632 2.9963760376
 2214.7844238 12.000000000 12.089023590 12.250000954 2.6580116749 0.0019228481 2.4875092506 33.104202271 1.0278141499 77.750869751 3.0680828094 3.2196197510 3.0654315948
 2214.9367676 12.000000000 12.125652313 12.250000954 2.1922898293 0.0018844808 2.4688429832 27.622566223 1.1025667191 76.208770752 3.2208719254 3.4274778366 3.2363929749
 2215.0891113 12.000000000 12.186695099 12.250000954 1.6113204956 0.0019360577 2.4760980606 22.281318665 1.1698743105 74.138954163 3.3067560196 3.6942663193 3.4157476425
 2215.2414551 11.000000000 12.235530853 12.250000954 1.3801136017 0.0020803846 2.4749464989 21.122009277 1.1605408192 72.504577637 3.2432289124 3.8764543533 3.4536685944
 2215.3940430 11.000000000 12.229424477 12.250000954 1.3563846350 0.0022769761 2.4952576160 19.433486938 1.1059230566 73.173377991 3.0679731369 3.8803520203 3.3112449646
 2215.5463867 11.000000000 12.308780670 12.250000954 1.3859345913 0.0021709183 2.4608011246 19.530738831 1.0336166620 75.946327209 2.8764333725 3.7538852692 3.0963001251
 2215.6987305 11.000000000 12.327095032 12.250000954 1.4963474274 0.0019097691 2.4712557793 20.552032471 0.9281474352 78.791442871 2.7206096649 3.5951871872 2.9057483673
 2215.8510742 11.000000000 12.253840446 12.250000954 1.6716449261 0.0022335432 2.4916682243 21.321891785 0.8099423051 79.562126160 2.6084194183 3.4481611252 2.7591676712
 2216.0036621 11.000000000 12.089023590 12.250000954 1.8113136292 0.0022022768 2.5050849915 20.817764282 0.7295593619 77.072196960 2.5458850861 3.3312435150 2.6569175720
 2216.1560059 11.000000000 12.070713043 12.250000954 1.8636167049 0.0019708797 2.4458732605 21.167633057 0.6872602701 72.853446960 2.5410718918 3.2804927826 2.6163492203
 2216.3083496 11.000000000 12.101234436 12.250000954 1.8374769688 0.0019415095 2.4079020023 20.221549988 0.6715769172 69.161857605 2.5781927109 3.3172655106 2.6419582367
 2216.4606934 11.000000000 12.137859344 12.250000954 1.7554551363 0.0017797308 2.4249927998 17.912994385 0.6791128516 67.234733582 2.6183643341 3.4081611633 2.6990947723
 2216.6132813 11.000000000 12.205009460 12.250000954 1.6042962074 0.0018571666 2.4802227020 20.147888184 0.7003049850 66.280021667 2.6350936890 3.4879875183 2.7401342392
 2216.7656250 11.000000000 12.308780670 12.250000954 1.3993821144 0.0021410608 2.4951815605 21.144142151 0.7218551636 65.634910583 2.6357774734 3.5218544006 2.7526226044
 2216.9179688 11.000000000 12.369827271 12.250000954 1.2375807762 0.0019651491 2.4590005875 21.075813293 0.7198615074 65.134475708 2.6417684555 3.5269441605 2.7601251602
 2217.0703125 11.000000000 12.394245148 12.250000954 1.1846013069 0.0016660097 2.4506163597 20.658721924 0.6759551167 64.909553528 2.6608772278 3.5336961746 2.7817611694
 2217.2226563 11.000000000 12.278259277 12.250000954 1.2319480181 0.0016678607 2.4959423542 18.270889282 0.6100720167 65.360733032 2.6861963272 3.5502986908 2.8132343292
 2217.3752441 11.000000000 12.186695099 12.250000954 1.3729552031 0.0017512112 2.5308039188 18.151718140 0.5518461466 66.540824890 2.7118110657 3.5700540543 2.8427305222
 2217.5275879 11.000000000 12.143962860 12.250000954 1.5747960806 0.0019804854 2.5448985100 19.817855835 0.5212217569 68.298805237 2.7382011414 3.5925388336 2.8688611984
