# LAS format log file from PETREL
# Project units are specified as depth units
#==================================================================
~Version information
VERS.   2.0:
WRAP.   NO:
#==================================================================
~Well
STRT .m      1090.1660156 :
STOP .m      2511.1435547 :
STEP .m     0.00000000 :
NULL .        -999.250000 :
COMP.           : COMPANY
WELL.  25/10-10  Balder Triassic   : WELL
FLD.            : FIELD
LOC.            : LOCATION
SRVC.           : SERVICE COMPANY
DATE.  2018-09-11 14:48:14   : Log Export Date {yyyy-MM-dd HH:mm:ss}
PROV.           : PROVINCE
UWI.   25/10-10   : UNIQUE WELL ID
API.            : API NUMBER
#==================================================================
~Curve
DEPT .m                   : DEPTH
Lithology_geolink ._      : Lithology_geolink
CALI .in                  : CALI
BS .in                    : BS
ROP .m/h                  : ROP
DRHO .g/cm3               : DRHO
THOR .ppm                 : THOR
NPHI .m3/m3               : NPHI
RHOB .g/cm3               : RHOB
PEF .b/e                  : PEF
GR .gAPI                  : GR
URAN .ppm                 : URAN
DTC .us/ft                : DTC
DTS .us/ft                : DTS
RDEP .ohm.m               : RDEP
RSHA .ohm.m               : RSHA
RMED .ohm.m               : RMED
~Parameter
#==================================================================
~Ascii
# ...
 2212.2871094 6.0000000000 12.780500412 12.250000954 37.416339874 0.0526000001 9.3444004059 0.2943044901 2.4755935669 6.4647974968 99.862915039 1.2463999987 88.591918945  -999.250000 2.5269000530 1.0949000120 2.1284000874
 2212.4396973 6.0000000000 12.273300171 12.250000954 40.351379395 0.0626000017 9.3763999939 0.2960999906 2.4842998981 6.4133000374 102.54679871 1.3931000233 86.222297668  -999.250000 2.2932000160 1.0741000175 1.9364000559
 2212.5920410 6.0000000000 12.351599693 12.250000954 45.042980194 0.0627999976 10.177900314 0.2894000113 2.4879999161 6.6894001961 106.71330261 0.9013000131 84.026000977  -999.250000 1.4991999865 0.8371000290 1.2833000422
 2212.7443848 6.0000000000 12.877400398 12.250000954 37.111549377 0.0784000009 10.837300301 0.2873033583 2.4795136452 7.4953083992 106.72947693 0.6198999882 82.128540039  -999.250000 1.2932000160 0.7867000103 1.1287000179
 2212.8967285 6.0000000000 13.876899719 12.250000954 43.905185699 0.0926000029 11.357099533 0.3154548109 2.4308779240 8.7212343216 106.54170227 0.4345000088 89.473106384  -999.250000 1.2718000412 0.7761999965 1.1217000484
 2213.0490723 6.0000000000 13.824700356 12.250000954 45.951770782 0.1063999981 11.242099762 0.3515421450 2.3937592506 9.1015920639 108.64292908 0.4296000004 100.60116577  -999.250000 1.2553999424 0.7516000271 1.1325000525
 2213.2016602 7.0000000000 12.631299973 12.250000954 44.957347870 0.1106999964 11.828499794 0.3722999990 2.3852000237 8.8675003052 108.26499939 0.2294999957 99.659400940  -999.250000 1.3752000332 0.7052000165 1.2818000317
 2213.3540039 7.0000000000 12.556699753 12.250000954 49.186351776 0.1330000013 10.997300148 0.3936657608 2.4335224628 8.5026845932 106.23815155 0.4765000045 108.21379089  -999.250000 1.3859000206 0.6582000256 1.3113000393
 2213.5063477 7.0000000000 12.317999840 12.250000954 54.996719360 0.1211000010 10.211999893 0.3863118589 2.4433841705 8.2371253967 101.30142212 0.3594999909 108.31436920  -999.250000 1.4450000525 0.6510999799 1.3608000278
 2213.6586914 7.0000000000 12.295700073 12.250000954 56.713249207 0.1036000028 10.447099686 0.3981809318 2.4424016476 7.9928913116 106.21470642 0.6183000207 105.68521881  -999.250000 1.4471999407 0.6856999993 1.3681999445
 2213.8112793 7.0000000000 14.615300179 12.250000954 59.793964386 0.0658000037 10.693400383 0.3594000041 2.4105000496 7.5089998245 110.62139893 0.5217000246 104.41369629  -999.250000 1.1905000210 0.6826000214 1.1453000307
 2213.9636230 7.0000000000 15.062899590 12.250000954 63.183723450 0.0623000003 10.543600082 0.3504999876 2.4165999889 7.1888999939 116.10430145 0.7271999717 104.80439758  -999.250000 1.1375000477 0.7825000286 1.1117000580
 2214.1159668 7.0000000000 15.152399063 12.250000954 55.505580902 0.0443999991 10.383799553 0.3469057381 2.4174985886 6.3547368050 118.37086487 0.8458999991 104.83884430  -999.250000 1.1949000359 0.9506000280 1.1912000179
 2214.2683105 7.0000000000 16.398000717 12.250000954 68.436683655 0.0331000015 9.5822000504 0.3743559122 2.4200956821 5.7106318474 118.59904480 1.3956999779 107.96148682  -999.250000 1.3253999949 0.9527000189 1.3450000286
 2214.4208984 7.0000000000 14.839099884 12.250000954 69.925857544 0.0375999995 8.9636001587 0.3625999987 2.4282999039 5.7871999741 116.46330261 1.8609000444 107.71990204  -999.250000 1.4844000340 0.9864000082 1.4983999729
 2214.5732422 6.0000000000 13.011699677 12.250000954 72.230316162 0.0581000000 8.1688003540 0.3472999930 2.4419999123 6.2947998047 112.64990234 1.9935001135 104.01229858  -999.250000 1.6168999672 1.0522999763 1.6385999918
 2214.7255859 6.0000000000 12.810299873 12.250000954 65.499343872 0.0673000067 7.8468003273 0.3365172744 2.4616684914 6.5936212540 110.08591461 2.0889999866 103.08677673  -999.250000 1.6671999693 1.3262000084 1.6638000011
 2214.8779297 6.0000000000 12.504500389 12.250000954 63.583003998 0.0665000007 6.6377000809 0.3361006677 2.4628980160 6.3842368126 106.49785614 2.3392000198 100.69164276  -999.250000 1.7933000326 1.5034999847 1.7336000204
 2215.0302734 6.0000000000 13.511400223 12.250000954 61.292324066 0.0449000001 6.4658999443 0.3189275563 2.4479241371 6.0839815140 105.58435822 2.3231000900 97.558921814  -999.250000 1.7851999998 1.4594000578 1.7000999451
 2215.1828613 6.0000000000 14.473600388 12.250000954 72.734580994 0.0595000014 6.1564998627 0.2899999917 2.4727001190 6.1047000885 99.004096985 2.3659000397 97.105400085  -999.250000 1.7798999548 1.6428999901 1.6890000105
 2215.3352051 6.0000000000 12.892399788 12.250000954 76.669288635 0.0447000004 6.1786999702 0.2693331242 2.4841816425 5.8281431198 98.398971558 2.2781999111 97.736984253  -999.250000 2.4614999294 1.9217000008 2.2811000347
 2215.4875488 6.0000000000 12.508199692 12.250000954 84.691932678 0.0406999998 5.7973999977 0.2520277202 2.4939842224 5.4913396835 96.742057800 2.4516999722 97.275939941  -999.250000 2.7483999729 2.4172000885 2.6164999008
 2215.6398926 6.0000000000 12.485899925 12.250000954 91.091537476 0.0223999992 6.0218000412 0.2384217978 2.4898066521 5.1113090515 96.595527649 2.4628999233 90.142250061  -999.250000 2.6443998814 2.5353000164 2.5067000389
 2215.7924805 6.0000000000 12.396400452 12.250000954 87.835304260 0.0222999994 6.4647998810 0.2208999991 2.4986000061 4.9430999756 96.439598083 2.3817999363 89.531402588  -999.250000 2.5855998993 2.4909000397 2.4367001057
 2215.9448242 6.0000000000 12.485899925 12.250000954 86.549545288 0.0421000011 6.0918998718 0.1997999996 2.5269999504 5.2258000374 92.208198547 2.2404000759 88.955902100  -999.250000 2.5945999622 2.6013998985 2.4539000988
 2216.0971680 6.0000000000 12.362799644 12.250000954 87.986877441 0.0626000017 5.3179998398 0.1879190505 2.5416762829 5.3716664314 87.960403442 1.9838999510 85.031486511  -999.250000 3.6654999256 3.0004999638 3.4460999966
 2216.2495117 6.0000000000 12.407500267 12.250000954 101.58760071 0.0790000036 5.2213997841 0.1892977506 2.5401027203 5.6623334885 82.183097839 1.7874000072 80.362678528  -999.250000 2.8745000362 2.7432999611 2.7650001049
 2216.4020996 6.0000000000 12.392600060 12.250000954 95.643043518 0.0773999989 5.6859998703 0.2124000043 2.5201001167 5.9243998528 83.523696899 1.8217999935 78.536499023  -999.250000 2.6056001186 2.4986999035 2.5079998970
 2216.5544434 6.0000000000 12.422499657 12.250000954 94.105972290 0.0644999966 6.0345997810 0.2331999987 2.4742000103 6.3910999298 90.632301331 2.0081000328 79.245697021  -999.250000 2.4203999043 2.3494000435 2.3408999443
 2216.7067871 6.0000000000 12.981900215 12.250000954 89.409118652 0.0560999997 7.1974000931 0.2511712015 2.4584000111 6.4274001122 96.523300171 1.9281998873 83.020347595  -999.250000 2.3004999161 2.2578999996 2.2678000927
 2216.8591309 6.0000000000 12.340399742 12.250000954 88.456687927 0.0502999984 7.0366997719 0.2479052842 2.4495999813 6.3559999466 95.077201843 1.9630999565 87.017700195  -999.250000 1.9618999958 1.9622000456 1.9912999868
 2217.0114746 6.0000000000 12.303098679 12.250000954 70.958663940 0.0566999987 6.2010002136 0.2377163470 2.4656999111 6.2411999702 89.684402466 1.9292001724 88.068717957  -999.250000 2.3383998871 2.2627999783 2.3875000477
 2217.1640625 6.0000000000 12.370200157 12.250000954 78.044616699 0.0599000007 5.4895000458 0.2238000035 2.4576001167 6.4345002174 84.011299133 1.6765999794 89.321601868  -999.250000 2.4646000862 2.1998000145 2.5309998989
 2217.3164063 6.0000000000 12.116700172 12.250000954 76.590881348 0.0560999997 5.3874001503 0.2059286386 2.4254999161 6.6760997772 81.058502197 1.5075000525 87.897583008  -999.250000 1.8253999949 1.7628999949 1.8609999418
 2217.4687500 6.0000000000 12.109199524 12.250000954 72.737205505 0.0483000018 4.8944001198 0.1979128122 2.3924999237 6.8699002266 79.488800049 1.5544999838 83.135337830  -999.250000 1.5152000189 1.5369999409 1.5399999619
 2217.6210938 6.0000000000 12.086799622 12.250000954 70.673233032 0.0447999984 5.0854001045 0.2110788375 2.3764998913 7.0156998634 83.011703491 1.6533999443 82.026573181  -999.250000 1.4898999929 1.4523999691 1.5124000311
 2217.7736816 6.0000000000 12.101699829 12.250000954 75.831695557 0.0384000018 5.1999998093 0.2287999988 2.3638999462 6.4577999115 84.998596191 1.7657999992 90.367202759  -999.250000 1.2522000074 1.2806999683 1.2674000263
