# LAS format log file from PETREL
# Project units are specified as depth units
#==================================================================
~Version information
VERS.   2.0:
WRAP.   NO:
#==================================================================
~Well
STRT .m      3054.5593262 :
STOP .m      3397.3076172 :
STEP .m     0.00000000 :
NULL .        -999.250000 :
COMP.           : COMPANY
WELL.  25/10-8A  Hanz Appr   : WELL
FLD.            : FIELD
LOC.            : LOCATION
SRVC.           : SERVICE COMPANY
DATE.  2018-09-11 14:48:15   : Log Export Date {yyyy-MM-dd HH:mm:ss}
PROV.           : PROVINCE
UWI.   25/10-8 A   : UNIQUE WELL ID
API.            : API NUMBER
#==================================================================
~Curve
DEPT .m                   : DEPTH
Lithology_geolink ._      : Lithology_geolink
NPHI .m3/m3               : NPHI
RHOB .g/cm3               : RHOB
GR .gAPI                  : GR
RDEP .ohm.m               : RDEP
RSHA .ohm.m               : RSHA
~Parameter
#==================================================================
~Ascii
# ...
 3081.0769043 11.000000000 0.1006399989 2.4841947556 18.021760941 3.7214689255 4.3155374527
 3081.2292480 11.000000000 0.0949600041 2.4986157417 16.061315536 3.6013319492 4.6299366951
 3081.3818359 11.000000000 0.0907600001 2.5224511623 14.615157127 3.5831036568 4.6181459427
 3081.5341797 11.000000000 0.0835000053 2.5415065289 13.862787247 3.6797366142 4.4906172752
 3081.6865234 11.000000000 0.0771799982 2.5498521328 13.552696228 3.7529504299 4.3683381081
 3081.8388672 11.000000000 0.0757099986 2.5511274338 13.449141502 3.6865839958 4.3582797050
 3081.9914551 11.000000000 0.0772599950 2.5498719215 13.306223869 3.6010625362 4.3754434586
 3082.1437988 11.000000000 0.0788699985 2.5468044281 13.181507111 3.4973356724 4.2164430618
 3082.2961426 11.000000000 0.0812899992 2.5414230824 13.082786560 3.4174702168 3.9775726795
 3082.4484863 11.000000000 0.0849300027 2.5323808193 12.804488182 3.3983268738 3.7567634583
 3082.6010742 11.000000000 0.0883800015 2.5206460953 12.446659088 3.3974993229 3.6102654934
 3082.7534180 11.000000000 0.0910799950 2.5077369213 12.159291267 3.4101374149 3.5401105881
 3082.9057617 11.000000000 0.0921800062 2.4992735386 11.955288887 3.4047989845 3.4668385983
 3083.0581055 11.000000000 0.0923300013 2.4964795113 11.800891876 3.3311762810 3.3545482159
 3083.2104492 11.000000000 0.0922299922 2.4959518909 11.782732010 3.2430777550 3.1851086617
 3083.3630371 11.000000000 0.0926899984 2.4946362972 11.980106354 3.1976730824 3.0662291050
 3083.5153809 11.000000000 0.0953100026 2.4906094074 12.461663246 3.1598651409 3.0691933632
 3083.6677246 11.000000000 0.0987899974 2.4870860577 12.883967400 3.1302504539 3.1349730492
 3083.8200684 11.000000000 0.1008000001 2.4849629402 13.075058937 3.0794539452 3.1891705990
 3083.9726563 11.000000000 0.1010800004 2.4852063656 13.062110901 2.9348034859 3.1044189930
 3084.1250000 11.000000000 0.1029199958 2.4864625931 12.906550407 2.7362489700 2.8854706287
 3084.2773438 11.000000000 0.1074699983 2.4843494892 12.692501068 2.5778551102 2.6903409958
 3084.4296875 11.000000000 0.1108800024 2.4766764641 12.425161362 2.4953722954 2.5763354301
 3084.5822754 11.000000000 0.1120499969 2.4667968750 12.311400414 2.4125003815 2.3639459610
 3084.7346191 11.000000000 0.1136299968 2.4558165073 12.458433151 2.3291616440 2.1821947098
 3084.8869629 11.000000000 0.1159700006 2.4439582825 12.745050430 2.2711024284 2.0964894295
 3085.0393066 11.000000000 0.1176899970 2.4334397316 13.121616364 2.2645750046 2.0600116253
 3085.1916504 11.000000000 0.1245699972 2.4276316166 13.753884315 2.2976953983 2.1001574993
 3085.3442383 11.000000000 0.1332200021 2.4255325794 14.313263893 2.3589761257 2.1645693779
 3085.4965820 11.000000000 0.1407800019 2.4250342846 14.549643517 2.4945945740 2.1841714382
 3085.6489258 11.000000000 0.1456200033 2.4259257317 14.503884315 2.5810832977 2.3360819817
 3085.8012695 11.000000000 0.1423700005 2.4284267426 14.354614258 2.4609978199 2.5670449734
 3085.9538574 11.000000000 0.1299999952 2.4339146614 14.306522369 2.3587868214 2.6164202690
 3086.1062012 11.000000000 0.1162600070 2.4407587051 15.080488205 2.3285415173 2.5852742195
 3086.2585449 11.000000000 0.1123900041 2.4460287094 16.788736343 2.3253614902 2.4890260696
 3086.4108887 11.000000000 0.1166800037 2.4522149563 19.099210739 2.3235914707 2.3272197247
 3086.5634766 11.000000000 0.1238000020 2.4573204517 20.764360428 2.3042931557 2.2391660213
 3086.7158203 11.000000000 0.1299300045 2.4593229294 21.572214127 2.2453155518 2.2773826122
 3086.8681641 11.000000000 0.1336500049 2.4556999207 21.389110565 2.1774868965 2.3462264538
 3087.0205078 11.000000000 0.1362800002 2.4484193325 19.818597794 2.2439191341 2.2938985825
 3087.1730957 11.000000000 0.1373400092 2.4452288151 17.769916534 2.3288719654 2.2925231457
 3087.3254395 11.000000000 0.1283100098 2.4492678642 15.829013824 2.3655803204 2.3692283630
 3087.4777832 11.000000000 0.1162300035 2.4563026428 14.633193016 2.4070792198 2.3419802189
 3087.6301270 11.000000000 0.1106100008 2.4625687599 13.919721603 2.4495668411 2.2377488613
 3087.7824707 11.000000000 0.1090600044 2.4630262852 13.422044754 2.5069119930 2.1761696339
 3087.9350586 11.000000000 0.1085200012 2.4593355656 13.045702934 2.5865595341 2.1873457432
 3088.0874023 11.000000000 0.1069799960 2.4556484222 12.751140594 2.6266834736 2.2429397106
 3088.2397461 11.000000000 0.1051700041 2.4520573616 12.601125717 2.7067523003 2.3185935020
 3088.3920898 11.000000000 0.1030900031 2.4486930370 12.697872162 2.9392552376 2.4355452061
 3088.5446777 11.000000000 0.0993399993 2.4485414028 13.646417618 3.5124781132 2.9904141426
 3088.6970215 11.000000000 0.0935399979 2.4548451900 16.120424271 4.1900353432 4.3505849838
 3088.8493652 11.000000000 0.0894099995 2.4664072990 21.736331940 4.6297726631 6.1904420853
 3089.0017090 11.000000000 0.0885299966 2.4760367870 30.111970901 4.7561411858 7.4574375153
 3089.1542969 12.000000000 0.0894999951 2.4752047062 39.450798035 4.5860180855 7.5628862381
 3089.3066406 12.000000000 0.0942099988 2.4570460320 51.168357849 4.2745628357 6.0415997505
 3089.4589844 12.000000000 0.1077000052 2.4269967079 62.062679291 4.1712212563 4.4545264244
 3089.6113281 12.000000000 0.1301199943 2.3859708309 70.175773621 4.2350172997 4.4621043205
 3089.7636719 5.0000000000 0.1557199955 2.3464493752 74.211364746 4.1741447449 5.1211247444
 3089.9162598 5.0000000000 0.1794099957 2.3147020340 74.477203369 4.2257828712 4.1961412430
 3090.0686035 5.0000000000 0.2054200023 2.2949209213 73.127914429 4.4160804749 3.1446325779
 3090.2209473 5.0000000000 0.2206600010 2.2847781181 71.266761780 4.2218608856 3.2970743179
 3090.3732910 5.0000000000 0.2236199975 2.2809586525 70.193786621 3.9154839516 3.6914062500
 3090.5258789 5.0000000000 0.2211499959 2.2851254940 70.362953186 3.7707138062 3.7434020042
 3090.6782227 5.0000000000 0.2142399997 2.2937016487 71.086677551 3.6749551296 3.6044709682
 3090.8305664 5.0000000000 0.2063499987 2.3045213223 71.938850403 3.5733594894 3.4180521965
 3090.9829102 5.0000000000 0.2026399970 2.3134927750 72.724494934 3.4818451405 3.3670752048
 3091.1354980 5.0000000000 0.1979599893 2.3201382160 73.643669128 3.4596955776 3.2952339649
 3091.2878418 5.0000000000 0.1935300082 2.3274881840 75.036331177 3.3969564438 3.3840303421
 3091.4401855 5.0000000000 0.1891799867 2.3363225460 77.021430969 3.1899096966 3.8048772812
 3091.5925293 6.0000000000 0.1862700135 2.3448829651 79.559959412 3.0559391975 3.6798944473
 3091.7448730 6.0000000000 0.1869300008 2.3512628078 82.481269836 3.0461072922 3.1233520508
 3091.8974609 6.0000000000 0.1896999925 2.3542931080 85.254669189 3.0177474022 2.9465632439
 3092.0498047 6.0000000000 0.1923800111 2.3536443710 87.714942932 2.9386856556 3.0018780231
 3092.2021484 6.0000000000 0.1944300085 2.3527605534 89.730216980 2.8333179951 3.0100998878
 3092.3544922 6.0000000000 0.1962999851 2.3528761864 91.148628235 2.8371069431 2.8813881874
 3092.5070801 6.0000000000 0.1968699992 2.3525085449 92.246147156 2.9354705811 2.5625853539
 3092.6594238 6.0000000000 0.1962500066 2.3519163132 92.675918579 3.0024232864 2.3609187603
 3092.8117676 6.0000000000 0.1932699978 2.3534791470 92.030303955 3.1064374447 2.3257274628
 3092.9641113 6.0000000000 0.1888699979 2.3548417091 91.070945740 3.1719229221 2.4393038750
 3093.1166992 6.0000000000 0.1825000048 2.3543715477 90.209487915 3.1668665409 2.7420916557
 3093.2690430 6.0000000000 0.1773399860 2.3516545296 89.078788757 3.1732459068 3.0639042854
 3093.4213867 6.0000000000 0.1770199984 2.3453514576 87.562957764 3.1774756908 3.3877360821
 3093.5737305 6.0000000000 0.1806100011 2.3375232220 86.386962891 3.2122988701 3.3974194527
 3093.7260742 6.0000000000 0.1790699959 2.3288211823 85.197700500 3.2912425995 3.2545270920
 3093.8786621 6.0000000000 0.1745100021 2.3230478764 83.359291077 3.3959782124 3.2737240791
 3094.0310059 6.0000000000 0.1708200127 2.3245768547 82.555015564 3.5793445110 3.2817821503
 3094.1833496 6.0000000000 0.1660799980 2.3325154781 83.258361816 3.8910167217 3.1842124462
