# LAS format log file from PETREL
# Project units are specified as depth units
#==================================================================
~Version information
VERS.   2.0:
WRAP.   NO:
#==================================================================
~Well
STRT .m      984.14562988 :
STOP .m      1996.3865967 :
STEP .m     0.00000000 :
NULL .        -999.250000 :
COMP.           : COMPANY
WELL.  25/11-23  Balder Appr   : WELL
FLD.            : FIELD
LOC.            : LOCATION
SRVC.           : SERVICE COMPANY
DATE.  2018-09-11 14:48:16   : Log Export Date {yyyy-MM-dd HH:mm:ss}
PROV.           : PROVINCE
UWI.   25/11-23   : UNIQUE WELL ID
API.            : API NUMBER
#==================================================================
~Curve
DEPT .m                   : DEPTH
Lithology_geolink ._      : Lithology_geolink
DCAL .in                  : DCAL
CALI .in                  : CALI
BS .in                    : BS
MUDWEIGHT ._              : MUDWEIGHT
ROP .m/h                  : ROP
DRHO .g/cm3               : DRHO
NPHI .m3/m3               : NPHI
RHOB .g/cm3               : RHOB
GR .gAPI                  : GR
DTC .us/ft                : DTC
RDEP .ohm.m               : RDEP
SP .mV                    : SP
RSHA .ohm.m               : RSHA
RMED .ohm.m               : RMED
~Parameter
#==================================================================
~Ascii
# ...
 1721.1520996 5.0000000000 0.0180997793 8.5180997849 8.5000000000 1.3200000525 180790.35938 -0.011900000 0.4126330316 2.2235999107 64.933700562 137.54020691 0.6013000011 0.0000000000 0.6143000126 0.6140000224
 1721.3044434 5.0000000000 0.0031003947 8.5031003952 8.5000000000 1.3200000525 231005.15625 -0.011400000 0.3838390112 2.2379000187 62.805301666 134.08099365 0.5702999830 0.0000000000 0.6248000264 0.5824000239
 1721.4567871 5.0000000000 -0.005399704 8.4946002960 8.5000000000 1.3200000525 231005.15625 -0.010600000 0.3421050012 2.2734000683 59.350601196 130.88670349 0.6524000168 0.0000000000 0.6953999996 0.6693000197
 1721.6092529 5.0000000000 -0.020199779 8.4798002243 8.5000000000 1.3200000525 231005.15625 -0.007700000 0.3240869939 2.3141999245 57.308898926 126.64439392 0.6869999766 0.0000000000 1.0396000147 0.7067000270
 1721.7615967 5.0000000000 -0.027400021 8.4725999832 8.5000000000 1.3200000525 231005.15625 -0.004900000 0.3446670175 2.3278999329 57.792900085 126.21710968 0.6424999833 0.0000000000 0.7027999759 0.6607000232
 1721.9140625 5.0000000000 -0.021100039 8.4788999557 8.5000000000 1.3200000525 222483.12500 -0.005300000 0.4011610150 2.2941000462 59.507701874 125.73020172 0.6492999792 0.0000000000 0.7853999734 0.6689000130
 1722.0664063 5.0000000000 -0.010000231 8.4899997711 8.5000000000 1.3200000525 140749.53125 -0.006800000 0.4311460257 2.2486999035 63.419799805 129.85479736 0.6722999811 0.0000000000 0.7520999908 0.6945999861
 1722.2188721 6.0000000000 -0.003999710 8.4960002899 8.5000000000 1.3200000525 125860.38281 -0.005800000 0.4208340049 2.2274000645 68.999298096 133.85609436 0.6531000137 0.0000000000 0.7957999706 0.6761000156
 1722.3712158 6.0000000000 -0.003199577 8.4968004227 8.5000000000 1.3200000525 126128.68750 -0.005400000 0.4100479782 2.2246999741 73.195999146 135.58810425 0.6417999864 0.0000000000 0.6952999830 0.6668000221
 1722.5236816 6.0000000000 -0.002699852 8.4973001480 8.5000000000 1.3200000525 126424.31250 -0.005100000 0.3986240029 2.2314000130 73.895301819 136.23519897 0.6780999899 0.0000000000 0.6679000258 0.7095999718
 1722.6760254 6.0000000000 -0.002599716 8.4974002838 8.5000000000 1.3200000525 126720.28125 -0.005500000 0.3922909796 2.2393999100 70.987297058 136.70289612 0.7123000026 0.0000000000 0.8118000031 0.7516999841
 1722.8284912 6.0000000000 -0.003000259 8.4969997406 8.5000000000 1.3200000525 127017.07031 -0.005200000 0.3855029941 2.2434000969 66.481002808 135.23570251 0.6363000274 0.0000000000 0.9336000085 0.6657999754
 1722.9808350 6.0000000000 -0.002300262 8.4976997375 8.5000000000 1.3200000525 127310.60938 -0.004600000 0.3944779932 2.2404000759 63.563800812 134.32719421 0.4812999964 0.0000000000 0.6229000092 0.4977000058
 1723.1333008 6.0000000000 -0.004300117 8.4956998825 8.5000000000 1.3200000525 131836.40625 -0.003300000 0.4180450141 2.2377998829 64.727699280 135.94360352 0.4192000031 0.0000000000 0.4611000121 0.4304000139
 1723.2856445 6.0000000000 -0.001600266 8.4983997345 8.5000000000 1.3200000525 153980.29688 -0.003900000 0.4197230041 2.2341001034 70.288696289 137.14649963 0.6464999914 0.0000000000 1.0549000502 0.6704000235
 1723.4379883 6.0000000000 0.0059995656 8.5059995651 8.5000000000 1.3200000525 156246.46875 -0.004100000 0.4118340015 2.2318000793 75.632301331 137.17430115 0.7414000034 0.0000000000 1.1483000517 0.7713000178
 1723.5904541 6.0000000000 0.0069999690 8.5069999695 8.5000000000 1.3200000525 156246.46875 -0.005800000 0.3975999951 2.2244999409 76.260398865 135.79859924 0.7911000252 0.0000000000 1.6369999647 0.8197000027
 1723.7427979 6.0000000000 0.0011997221 8.5011997223 8.5000000000 1.3200000525 156246.46875 -0.008300000 0.3777349889 2.2139000893 69.973899841 133.11439514 1.0700999498 0.0000000000 2.0083000660 1.1263999939
 1723.8952637 6.0000000000 -0.009400368 8.4905996323 8.5000000000 1.3200000525 156246.46875 -0.011200000 0.3515070081 2.1879000664 61.499099731 129.38340759 1.5355999470 0.0000000000 2.2637000084 1.6042000055
 1724.0476074 6.0000000000 -0.007200241 8.4927997589 8.5000000000 1.3200000525 155188.07813 -0.013200000 0.3460189700 2.1556999683 53.152698517 127.26429749 1.7496999502 0.0000000000 1.1646000147 1.7964999676
 1724.2000732 5.0000000000 0.0012998579 8.5012998581 8.5000000000 1.3200000525 149926.31250 -0.014600000 0.3690549731 2.1380000114 52.081298828 128.20919800 1.1577999592 0.0000000000 1.0836000443 1.1957000494
 1724.3524170 5.0000000000 0.0023002620 8.5023002625 8.5000000000 1.3200000525 144474.26563 -0.013700000 0.4090119898 2.1487998962 56.719100952 129.12080383 1.0923000574 0.0000000000 0.8733999729 1.1256999969
 1724.5048828 5.0000000000 0.0227003098 8.5227003098 8.5000000000 1.3200000525 144246.37500 -0.012000000 0.4272949994 2.1712000370 63.362998962 132.32369995 0.8962000012 0.0000000000 0.8485000134 0.9190000296
 1724.6572266 4.0000000000 0.0347003900 8.5347003937 8.5000000000 1.3200000525 145358.10938 -0.009600000 0.4274820089 2.1868000031 65.833198547 134.38270569 0.7833999991 0.0000000000 0.8187999725 0.8001000285
 1724.8096924 4.0000000000 0.0350999795 8.5350999832 8.5000000000 1.3200000525 146536.59375 -0.008100000 0.4210409820 2.1933999062 62.847099304 133.37170410 0.7735000253 0.0000000000 0.8590999842 0.7894999981
 1724.9620361 4.0000000000 0.0346002616 8.5346002579 8.5000000000 1.3200000525 147582.62500 -0.007300000 0.3921789825 2.2126998901 57.160598755 131.03489685 0.8938999772 0.0000000000 0.8496999741 0.9156000018
 1725.1145020 4.0000000000 0.0207004491 8.5207004547 8.5000000000 1.3200000525 149548.46875 -0.004700000 0.3589500189 2.2409999371 51.347900391 127.50080109 0.9472000003 0.0000000000 1.2064000368 0.9720000029
 1725.2668457 4.0000000000 0.0000000000 8.5000000000 8.5000000000 1.3200000525 153201.26563 -0.001900000 0.3455199897 2.2567000389 49.072299957 126.68399811 1.2175999880 0.0000000000 1.3363000154 1.2606999874
 1725.4191895 4.0000000000 -0.004199982 8.4958000183 8.5000000000 1.3200000525 153198.01563 -0.002400000 0.3798319995 2.2541999817 52.164798737 127.51930237 0.8475000262 0.0000000000 0.9678000212 0.8682000041
 1725.5716553 4.0000000000 0.0114002200 8.5114002228 8.5000000000 1.3200000525 152568.31250 -0.002600000 0.4118790030 2.2465999126 58.714199066 128.50050354 0.7304999828 0.0000000000 0.9018999934 0.7462999821
 1725.7239990 5.0000000000 0.0295000095 8.5295000076 8.5000000000 1.3200000525 152146.78125 -0.001800000 0.4219129980 2.2407000065 63.687400818 132.03700256 0.6639999747 0.0000000000 0.7480999827 0.6769999862
 1725.8764648 5.0000000000 0.0166997891 8.5166997910 8.5000000000 1.3200000525 153745.62500 -0.002400000 0.4123249948 2.2351000309 66.897903442 134.55090332 0.6736999750 0.0000000000 0.7192000151 0.6870999932
 1726.0288086 5.0000000000 0.0023002620 8.5023002625 8.5000000000 1.3200000525 157679.39063 -0.005300000 0.3962149918 2.2334001064 66.635597229 133.77549744 0.6582999825 0.0000000000 0.7037000060 0.6711999774
 1726.1812744 5.0000000000 -0.001500130 8.4984998703 8.5000000000 1.3200000525 178303.68750 -0.006800000 0.3894439936 2.2458000183 64.753097534 132.59710693 0.6384999752 0.0000000000 0.7218000293 0.6499999762
 1726.3336182 5.0000000000 -0.001199722 8.4988002777 8.5000000000 1.3200000525 182866.21875 -0.009700001 0.3851920068 2.2553000450 61.437698364 131.64309692 0.6769999862 0.0000000000 0.8282999992 0.6894999743
 1726.4860840 5.0000000000 0.0053997040 8.5053997040 8.5000000000 1.3200000525 183228.48438 -0.012300000 0.3848229945 2.2581000328 59.683601379 130.09840393 0.6944000125 0.0000000000 0.7592999935 0.7070000172
 1726.6384277 5.0000000000 0.0195999108 8.5195999146 8.5000000000 1.3200000525 183228.48438 -0.013000000 0.3884330094 2.2488999367 59.180999756 127.11760712 0.7670000196 0.0000000000 0.9190999866 0.7850000262
 1726.7908936 5.0000000000 0.0090999603 8.5090999603 8.5000000000 1.3200000525 183228.48438 -0.014300000 0.3838499784 2.2235000134 58.362201691 124.73740387 0.8090000153 0.0000000000 0.9205999970 0.8314999938
 1726.9432373 5.0000000000 -0.012700080 8.4872999191 8.5000000000 1.3200000525 186211.75000 -0.015400000 0.3613849878 2.1853001118 53.997699738 123.32740021 1.0802999735 0.0000000000 0.9689000249 1.1420999765
