# LAS format log file from PETREL
# Project units are specified as depth units
#==================================================================
~Version information
VERS.   2.0:
WRAP.   NO:
#==================================================================
~Well
STRT .m      1332.7867432 :
STOP .m      2972.7631836 :
STEP .m     0.00000000 :
NULL .        -999.250000 :
COMP.           : COMPANY
WELL.  25/10-9 Aegis   : WELL
FLD.            : FIELD
LOC.            : LOCATION
SRVC.           : SERVICE COMPANY
DATE.  2018-09-11 14:48:15   : Log Export Date {yyyy-MM-dd HH:mm:ss}
PROV.           : PROVINCE
UWI.   25/10-9   : UNIQUE WELL ID
API.            : API NUMBER
#==================================================================
~Curve
DEPT .m                   : DEPTH
Lithology_geolink ._      : Lithology_geolink
CALI .in                  : CALI
BS .in                    : BS
ROP .m/h                  : ROP
DRHO .g/cm3               : DRHO
NPHI .m3/m3               : NPHI
RHOB .g/cm3               : RHOB
PEF .b/e                  : PEF
GR .gAPI                  : GR
DTC .us/ft                : DTC
DTS .us/ft                : DTS
RDEP .ohm.m               : RDEP
RMED .ohm.m               : RMED
~Parameter
#==================================================================
~Ascii
# ...
 2533.0891113 11.000000000 8.8400001526 8.5000000000 95.959320068 0.0961999968 0.0896999985 2.4807000160 5.0917000771 30.074899673 56.315200806 110.75160217 1.2885999680 1.2684999704
 2533.2416992 11.000000000 8.7833003998 8.5000000000 94.222442627 0.0996999964 0.0863000005 2.4986000061 5.2569999695 27.045299530 56.623199463 111.54509735 1.2588000298 1.2037999630
 2533.3940430 11.000000000 8.8278999329 8.5000000000 98.532157898 0.0983999968 0.0882999972 2.4811999798 5.1536998749 31.756900787 56.416095734 112.22489929 1.2903000116 1.1885000467
 2533.5463867 11.000000000 8.8205003738 8.5000000000 98.961288452 0.0991000012 0.0976999998 2.4698998928 5.0334000587 32.672698975 57.061798096 112.95189667 1.5959000587 1.4605000019
 2533.6987305 11.000000000 8.7180004120 8.5000000000 88.085304260 0.0936999992 0.0971999988 2.4665000439 5.0882000923 30.051900864 58.819999695 113.71119690 1.9603999853 1.8604999781
 2533.8513184 11.000000000 8.7089004517 8.5000000000 78.709648132 0.0811000019 0.0996999964 2.4477999210 4.9296998978 31.085199356 59.656402588 114.38059998 2.2497999668 2.2118999958
 2534.0036621 11.000000000 8.6969003677 8.5000000000 76.117126465 0.0957000032 0.0992999971 2.4860000610 4.9720997810 37.185798645 60.435699463 114.47740173 2.5020000935 2.5964000225
 2534.1560059 11.000000000 8.8052997589 8.5000000000 74.734909058 0.1005999967 0.0978000015 2.5211999416 5.1244997978 36.951301575 60.963298798 114.16269684 2.5260000229 2.7348001003
 2534.3083496 11.000000000 8.8432998657 8.5000000000 74.605316162 0.1033999994 0.0954999998 2.5353000164 5.2571001053 30.821800232 61.294101715 113.63670349 2.5436999798 2.7948999405
 2534.4609375 11.000000000 8.8617000580 8.5000000000 82.156173706 0.1032000035 0.0948999971 2.5230000019 5.4130001068 31.750699997 61.990600586 112.97799683 2.6271998882 2.9474000931
 2534.6132813 11.000000000 8.8486995697 8.5000000000 97.472770691 0.1089000031 0.0952000022 2.5668001175 5.2534999847 32.501998901 63.091400146 112.42480469 2.7184000015 2.9960000515
 2534.7656250 11.000000000 8.7940998077 8.5000000000 103.34580231 0.1011999995 0.0908999965 2.5613000393 5.1153998375 35.167701721 62.304401398 112.20850372 2.8498001099 3.0594000816
 2534.9179688 11.000000000 8.7515001297 8.5000000000 99.057411194 0.0974000022 0.0908999965 2.5604000092 5.0127000809 30.883600235 60.451099396 112.02729797 3.0118999481 3.1368999481
 2535.0703125 11.000000000 8.7225999832 8.5000000000 95.174209595 0.0952000022 0.0822999999 2.5648000240 4.9299001694 34.551601410 58.586700439 111.64830017 3.1419000626 3.2328000069
 2535.2229004 11.000000000 8.6614999771 8.5000000000 85.234909058 0.0746999979 0.0803000033 2.5457999706 4.6578998566 31.784200668 58.081298828 111.22830200 3.1891999245 3.2284998894
 2535.3752441 11.000000000 8.7347002029 8.5000000000 79.406166077 0.0711999983 0.0773999989 2.5367000103 4.6742000580 35.129699707 59.077098846 110.82350159 3.1521000862 3.1900999546
 2535.5275879 11.000000000 8.6871004105 8.5000000000 75.685363770 0.1045999974 0.0758000016 2.5940001011 5.3038997650 33.506599426 59.765701294 110.08380127 3.0348000526 3.0511999130
 2535.6799316 11.000000000 8.7304000854 8.5000000000 71.775917053 0.1067000031 0.0764999986 2.5966000557 5.4390001297 33.089099884 59.123600006 109.07430267 2.9567000866 2.9479999542
 2535.8325195 11.000000000 8.7615995407 8.5000000000 68.438644409 0.0996999964 0.0813999996 2.5748000145 5.3392000198 36.335201263 58.544998169 108.36049652 2.8724000454 2.8452999592
 2535.9848633 11.000000000 8.8030996323 8.5000000000 66.395347595 0.1013000011 0.0794000030 2.5697999001 5.3597998619 33.780101776 58.813598633 108.33509827 2.7734000683 2.6821000576
 2536.1372070 11.000000000 8.7842998505 8.5000000000 66.724411011 0.1023000032 0.0778999999 2.5715000629 5.0591001511 31.228599548 58.453300476 108.57929993 2.7657001019 2.6059999466
 2536.2895508 11.000000000 8.7687997818 8.5000000000 66.561683655 0.1009000018 0.0776999965 2.5755999088 4.9110999107 36.159500122 56.885696411 108.17060089 2.8826000690 2.6688001156
 2536.4421387 11.000000000 8.7867002487 8.5000000000 65.902885437 0.1006999984 0.0771000013 2.5668001175 5.3538999557 31.470399857 52.387699127 108.09750366 2.9772000313 2.7551000118
 2536.5944824 11.000000000 8.8299999237 8.5000000000 64.896652222 0.1110000014 0.0807000026 2.5755000114 5.4436001778 34.304199219 51.566898346 108.22090149 3.1166999340 2.8719000816
 2536.7468262 11.000000000 8.7686996460 8.5000000000 64.162734985 0.1120999977 0.0798999965 2.5761001110 5.3951001167 34.897998810 53.289001465 108.04609680 3.2539000511 3.0078999996
 2536.8991699 11.000000000 8.7447996140 8.5000000000 64.164695740 0.1019999981 0.0807999969 2.5683999062 5.2406997681 31.681100845 53.421398163 107.79440308 3.4607000351 3.1688001156
 2537.0515137 11.000000000 8.7129001617 8.5000000000 63.607936859 0.0966999978 0.0824000016 2.5708999634 5.0152001381 40.008300781 53.857101440 108.05509949 3.5998001099 3.4124999046
 2537.2041016 11.000000000 8.6768999100 8.5000000000 65.294944763 0.0905999988 0.0838999972 2.5736000538 4.9250998497 34.964298248 55.682098389 108.39040375 3.7606999874 3.5590999126
 2537.3564453 11.000000000 8.7530002594 8.5000000000 67.179794312 0.0868000016 0.0821999982 2.5701000690 5.0356001854 35.353500366 55.754699707 108.77210236 4.1413002014 3.8450999260
 2537.5087891 11.000000000 8.7945995331 8.5000000000 66.412071228 0.1046999991 0.0785999969 2.5948998928 5.3326997757 34.041099548 56.380001068 109.67379761 4.6136999130 4.5170001984
 2537.6611328 11.000000000 8.7552003860 8.5000000000 65.769355774 0.1080000028 0.0751999989 2.5831000805 5.2604999542 31.788999557 56.055599213 110.06189728 4.9562997818 4.9059000015
 2537.8137207 11.000000000 8.7868003845 8.5000000000 66.225067139 0.1058999971 0.0711999983 2.5732998848 5.3062000275 35.708000183 55.933101654 109.98719788 5.0152001381 4.9474000931
 2537.9660645 11.000000000 8.8243999481 8.5000000000 65.896652222 0.1039000005 0.0680000037 2.5725998878 5.3404002190 36.568698883 56.877498627 108.96170044 4.9855999947 4.9888000488
 2538.1184082 11.000000000 8.7996997833 8.5000000000 64.243438721 0.1044000015 0.0681999996 2.5804998875 5.5401000977 40.569599152 57.115200043 108.73010254 5.0697999001 5.1009001732
 2538.2707520 11.000000000 8.6777000427 8.5000000000 63.762802124 0.1005999967 0.0662999973 2.6184000969 5.3246998787 37.374198914 57.787700653 108.44490814 5.0685000420 5.0493001938
 2538.4233398 11.000000000 8.6522998810 8.5000000000 66.387466431 0.0917000026 0.0684999973 2.6064000130 5.2245998383 34.394500732 58.063800812 108.20149994 5.0248999596 5.0840997696
 2538.5756836 11.000000000 8.6259002686 8.5000000000 68.121391296 0.0824000016 0.0687000006 2.5938999653 5.1206002235 31.271900177 57.021701813 107.81089783 5.1118998528 5.1387000084
 2538.7280273 11.000000000 8.6063995361 8.5000000000 66.302169800 0.0778999999 0.0647000000 2.5945999622 5.1272997856 33.052200317 56.293998718 107.18530273 5.0486001968 5.0027999878
 2538.8803711 11.000000000 8.6009998322 8.5000000000 67.088912964 0.0767000020 0.0654999986 2.5947000980 5.1291999817 31.428100586 54.853500366 106.63639832 4.9788999557 4.8533000946
 2539.0327148 11.000000000 8.6346998215 8.5000000000 69.566276550 0.0777999982 0.0658999979 2.5936999321 5.0064997673 35.007598877 55.221401215 106.39779663 5.0550999641 4.9246001244
 2539.1853027 11.000000000 8.6347999573 8.5000000000 70.892387390 0.0784000009 0.0652000010 2.5913000107 4.9938998222 41.901401520 55.884201050 106.15010834 5.3147001266 5.1799998283
 2539.3376465 11.000000000 8.6389999390 8.5000000000 71.591201782 0.0798999965 0.0657000020 2.5868999958 4.9675998688 31.663299561 55.721397400 105.94190979 5.5876002312 5.3583002090
 2539.4899902 11.000000000 8.6919002533 8.5000000000 73.329727173 0.0863000005 0.0652000010 2.5975999832 4.9690999985 36.584999084 54.752201080 106.00469971 5.7477002144 5.5859999657
 2539.6423340 11.000000000 8.7056999207 8.5000000000 78.780517578 0.0929000005 0.0650999993 2.5964999199 4.8784999847 33.274101257 53.630901337 105.98560333 5.8326997757 5.5883998871
