# LAS format log file from PETREL
# Project units are specified as depth units
#==================================================================
~Version information
VERS.   2.0:
WRAP.   NO:
#==================================================================
~Well
STRT .m      1456.9927979 :
STOP .m      2094.7868652 :
STEP .m     0.00000000 :
NULL .        -999.250000 :
COMP.           : COMPANY
WELL.  25/11-24 Jakob South   : WELL
FLD.            : FIELD
LOC.            : LOCATION
SRVC.           : SERVICE COMPANY
DATE.  2018-09-11 14:48:16   : Log Export Date {yyyy-MM-dd HH:mm:ss}
PROV.           : PROVINCE
UWI.   25/11-24   : UNIQUE WELL ID
API.            : API NUMBER
#==================================================================
~Curve
DEPT .m                   : DEPTH
Lithology_geolink ._      : Lithology_geolink
DCAL .in                  : DCAL
CALI .in                  : CALI
BS .in                    : BS
ROP .m/h                  : ROP
DRHO .g/cm3               : DRHO
NPHI .m3/m3               : NPHI
RHOB .g/cm3               : RHOB
PEF .b/e                  : PEF
GR .gAPI                  : GR
DTC .us/ft                : DTC
DTS .us/ft                : DTS
RDEP .ohm.m               : RDEP
RMIC .ohm.m               : RMIC
RMED .ohm.m               : RMED
~Parameter
#==================================================================
~Ascii
# ...
 1962.1988525 11.000000000 0.0391998291 8.5391998291 8.5000000000 7.8999342918 0.0008000000 0.1000056937 2.5225999355 4.7150001526 51.995899200 72.242118835 126.85649872 5.2641668320 3.5093998909 5.1290998459
 1962.3513184 11.000000000 0.0459995344 8.5459995270 8.5000000000 7.8999342918 0.0005000000 0.1070976034 2.5406999588 4.8480000496 54.408901215 72.392356873 122.80110168 4.8483805656 3.4626998901 4.7607002258
 1962.5036621 11.000000000 0.0403003730 8.5403003693 8.5000000000 7.8999342918 -0.000300000 0.1055971161 2.5494000912 4.7385001183 56.249801636 71.175514221 115.12220764 4.8987078667 4.1605000496 4.8804001808
 1962.6561279 11.000000000 0.0437002219 8.5437002182 8.5000000000 7.8999342918 -0.001200000 0.1019903868 2.5434000492 4.7544999123 55.698799133 67.334213257 113.61509705 4.9095487595 3.8008999825 4.9223999977
 1962.8084717 11.000000000 0.0437002219 8.5437002182 8.5000000000 7.9015612602 -0.000900000 0.0959951952 2.5662000179 4.7382001877 54.803501129 66.594291687 110.28019714 5.8149123192 5.1167998314 5.8533000946
 1962.9608154 11.000000000 0.0757999420 8.5757999420 8.5000000000 9.9304456711 -0.0000000000 0.0899949595 2.5864999294 4.7009000778 53.123600006 67.203880310 115.46089935 8.4489841461 8.7075004578 8.5861997604
 1963.1132813 11.000000000 0.0848998949 8.5848999023 8.5000000000 9.9304456711 0.0005000000 0.0836976767 2.5662999153 4.6697998047 55.396301270 65.061523438 120.75180054 8.4278612137 8.5418996811 8.6429004669
 1963.2656250 11.000000000 0.0574998893 8.5574998856 8.5000000000 9.9304456711 0.0016000000 0.0807963163 2.5687999725 4.7448000908 57.333599091 63.597530365 117.62500000 8.0049877167 6.5507998466 8.2580995560
 1963.4180908 11.000000000 0.0289001502 8.5289001465 8.5000000000 9.9304456711 0.0029000000 0.0761975199 2.5748000145 4.7321000099 56.759399414 62.141613007 119.66899872 7.2423133850 5.7533998489 7.5345001221
 1963.5704346 11.000000000 0.0346002616 8.5346002579 8.5000000000 9.9304456711 0.0027999999 0.0730967969 2.5927000046 4.7378997803 55.037601471 62.030105591 123.44960022 8.7556543350 5.7273998260 9.1037998199
 1963.7229004 11.000000000 0.0665998533 8.5665998459 8.5000000000 9.9304456711 0.0015000000 0.0690994412 2.5903999805 4.7687997818 52.095500946 62.161472321 121.74289703 8.6976423264 7.9774999619 9.0422000885
 1963.8752441 11.000000000 0.0712003708 8.5712003708 8.5000000000 9.9297428131 -0.000200000 0.0684009641 2.5919001102 4.7336997986 52.439800262 62.252082825 118.76170349 7.8780269623 8.7559003830 8.1856002808
 1964.0277100 11.000000000 0.0437002219 8.5437002182 8.5000000000 9.0531492233 0.0001000000 0.0695980787 2.5880999565 4.6407999992 51.357299805 62.357490540 117.99999237 8.6573925018 8.1198997498 9.0152997971
 1964.1800537 11.000000000 0.0529003106 8.5529003143 8.5000000000 9.0531492233 0.0008000000 0.0683987215 2.5882000923 4.5735001564 50.502601624 62.727279663 117.99999237 6.9707984924 7.7571997643 7.3087000847
 1964.3325195 11.000000000 0.0529003106 8.5529003143 8.5000000000 9.0531492233 0.0013000000 0.0667963177 2.6054999828 4.5876998901 51.263401031 62.706668854 117.08270264 8.8386316299 8.5858001709 9.2267999649
 1964.4848633 11.000000000 0.0346002616 8.5346002579 8.5000000000 9.0531492233 0.0010000000 0.0644989535 2.5892000198 4.6079998016 53.034698486 62.374828339 117.38249969 8.1722059250 6.9759998322 8.6469001770
 1964.6373291 11.000000000 0.0255002994 8.5255002975 8.5000000000 9.0531492233 0.0027000001 0.0631975979 2.6052999496 4.6164999008 53.642398834 61.535255432 119.60190582 7.4381489754 5.9274001122 7.9402999878
 1964.7896729 11.000000000 0.0437002219 8.5437002182 8.5000000000 9.0522117615 0.0040000002 0.0616976768 2.6057999134 4.7044000626 52.743801117 61.818103790 120.75669861 11.958321571 7.9435000420 12.862199783
 1964.9420166 11.000000000 0.0665998533 8.5665998459 8.5000000000 7.8832035065 0.0071999999 0.0587999225 2.6199998856 4.7684001923 52.965801239 61.697460175 120.64700317 12.604455948 10.370900154 13.752300262
 1965.0944824 11.000000000 0.0574998893 8.5574998856 8.5000000000 7.8832035065 0.0127999997 0.0587026440 2.6296999454 4.7860999107 56.008300781 61.272926331 118.97300720 6.4365653992 10.792699814 7.1655001640
 1965.2468262 11.000000000 0.0517997667 8.5517997742 8.5000000000 7.8832035065 0.0144999996 0.0620043240 2.6226999760 4.6121001244 55.801700592 61.554588318 117.57740021 9.3865156174 12.492300034 10.426799774
 1965.3992920 11.000000000 0.0003004074 8.5003004074 8.5000000000 7.8832035065 0.0115999999 0.0674066544 2.6110000610 4.7231001854 57.308498383 62.787059784 117.79689789 9.2802038193 11.509699821 10.330699921
 1965.5516357 11.000000000 0.0003004074 8.5003004074 8.5000000000 7.8832035065 0.0019000000 0.0757052004 2.5910000801 4.7087001801 55.063301086 63.857868195 120.22760010 7.9127659798 8.9899997711 8.7423000336
 1965.7041016 11.000000000 0.0173997898 8.5173997879 8.5000000000 7.8832035065 -0.001100000 0.0821988732 2.5799999237 4.5685000420 57.404998779 64.817474365 121.22189331 6.9958643913 7.2161998749 7.7128000259
 1965.8564453 11.000000000 0.0403003730 8.5403003693 8.5000000000 7.8838844299 -0.000600000 0.0807949528 2.5801999569 4.5742998123 56.097400665 65.534881592 121.01069641 5.4568839073 6.1345000267 6.0064001083
 1966.0089111 11.000000000 0.0631999969 8.5631999969 8.5000000000 8.7335958481 0.0041999999 0.0744904652 2.5745000839 4.5489001274 58.467498779 65.636703491 121.69529724 7.5657463074 4.9401001930 8.3514995575
 1966.1612549 11.000000000 0.0974998549 8.5974998474 8.5000000000 8.7335958481 0.0065000001 0.0625913516 2.6242001057 4.6131000519 56.519599915 64.516738892 120.95169830 17.103021622 10.215000153 18.748899460
 1966.3137207 11.000000000 0.0459995344 8.5459995270 8.5000000000 8.7335958481 0.0093000000 0.0517892726 2.6531000137 4.7860999107 55.822799683 62.313571930 119.23509979 20.249538422 21.294799805 22.295200348
 1966.4660645 11.000000000 0.0232000407 8.5232000351 8.5000000000 8.7335958481 0.0107000005 0.0451008826 2.6533000469 4.8291001320 50.263599396 60.424758911 118.59619904 21.142107010 23.205900192 23.179599762
 1966.6185303 11.000000000 0.0163001996 8.5163002014 8.5000000000 8.7335958481 0.0142999999 0.0462097675 2.6491000652 4.8113999367 51.174098969 60.000160217 118.41439819 15.403499603 14.272999763 16.872999191
 1966.7708740 11.000000000 0.0173997898 8.5173997879 8.5000000000 8.7323551178 0.0234999992 0.0523044877 2.6356999874 4.6881999969 53.399101257 60.100616455 119.14990997 7.6724882126 16.788499832 8.4133996964
 1966.9233398 11.000000000 0.0116996812 8.5116996765 8.5000000000 7.1853680611 0.0244999994 0.0579000004 2.6096999645 4.9552998543 57.896301270 60.494895935 119.32350159 8.2990379333 5.5521998405 8.9222002029
 1967.0756836 11.000000000 0.0459995344 8.5459995270 8.5000000000 7.1853680611 0.0204000007 0.0578920692 2.6638000011 4.5703001022 58.381099701 60.616016388 118.61750793 19.360057831 6.3731999397 20.450000763
 1967.2280273 11.000000000 0.0574998893 8.5574998856 8.5000000000 7.1853680611 0.0096000005 0.0479945578 2.6735999584 4.5940999985 56.087200165 60.263580322 117.31529999 21.055654526 21.319999695 22.237699509
 1967.3804932 11.000000000 0.0208997708 8.5208997726 8.5000000000 7.1853680611 0.0057000001 0.0411961563 2.6726999283 4.7368998528 53.632198334 58.990844727 116.64700317 23.746839523 28.929199219 24.972299576
 1967.5328369 11.000000000 0.0173997898 8.5173997879 8.5000000000 7.1853680611 0.0043000001 0.0364012830 2.6551001072 4.7369999886 52.170501709 57.798931122 115.23510742 26.908966064 31.902900696 28.270099640
 1967.6853027 11.000000000 0.0232000407 8.5232000351 8.5000000000 7.1853680611 0.0044999998 0.0380042456 2.6465001106 4.7740001678 51.057899475 57.211849213 114.72730255 21.741809845 29.410499573 22.808599472
 1967.8376465 11.000000000 0.0299997292 8.5299997330 8.5000000000 7.1859459877 0.0051000002 0.0433054417 2.6217999458 4.8155999184 51.606899261 57.898097992 114.98930359 11.404808044 27.074100494 12.172400475
 1967.9901123 11.000000000 0.0289001502 8.5289001465 8.5000000000 7.9071521759 0.0060000001 0.0501024015 2.6112000942 4.8024997711 51.765499115 59.019477844 115.35299683 12.288986206 13.423800468 13.094499588
