# LAS format log file from PETREL
# Project units are specified as depth units
#==================================================================
~Version information
VERS.   2.0:
WRAP.   NO:
#==================================================================
~Well
STRT .m      353.26309204 :
STOP .m      2468.2702637 :
STEP .m     0.00000000 :
NULL .        -999.250000 :
COMP.           : COMPANY
WELL.  25/11-1  Balder   : WELL
FLD.            : FIELD
LOC.            : LOCATION
SRVC.           : SERVICE COMPANY
DATE.  2018-09-11 14:48:15   : Log Export Date {yyyy-MM-dd HH:mm:ss}
PROV.           : PROVINCE
UWI.   25/11-1   : UNIQUE WELL ID
API.            : API NUMBER
#==================================================================
~Curve
DEPT .m                   : DEPTH
Lithology_geolink ._      : Lithology_geolink
CALI .in                  : CALI
MUDWEIGHT ._              : MUDWEIGHT
ROP .m/h                  : ROP
DRHO .g/cm3               : DRHO
RHOB .g/cm3               : RHOB
GR .gAPI                  : GR
DTC .us/ft                : DTC
DTE .us/ft                : DTE
RDEP .ohm.m               : RDEP
SP .mV                    : SP
RSHA .ohm.m               : RSHA
RMED .ohm.m               : RMED
~Parameter
#==================================================================
~Ascii
# ...
 359.96868896  -999.250000 17.623519897  -999.250000  -999.250000  -999.250000  -999.250000 49.206378937 165.17120361 165.17120361  -999.250000 151.71296692 0.1437119991 0.0448004417
 360.12109375  -999.250000 17.834560394  -999.250000  -999.250000  -999.250000  -999.250000 50.260879517 165.15060425 165.15061951  -999.250000 138.18519592 0.4529018104 0.0514005795
 360.27349854  -999.250000 19.190120697  -999.250000  -999.250000  -999.250000  -999.250000 49.762401581 165.45201111 165.45176697  -999.250000 122.37842560 0.5002989769 0.0676004663
 360.42590332  -999.250000 21.208959579  -999.250000  -999.250000  -999.250000  -999.250000 49.786300659 165.45159912 165.45159912  -999.250000 106.09246063 0.4103018045 0.1428976953
 360.57830811  -999.250000 22.032760620  -999.250000  -999.250000  -999.250000  -999.250000 51.108428955 166.15539551 166.15496826 0.3819977939 91.226463318 0.3569026887 0.2849895060
 360.73071289  -999.250000 22.046798706  -999.250000  -999.250000  -999.250000  -999.250000 53.488300323 166.08818054 166.08825684 0.4261960983 79.518035889 0.3226028085 0.4241856933
 360.88311768  -999.250000 22.044500351  -999.250000  -999.250000  -999.250000  -999.250000 55.322788239 165.48030090 165.48066711 0.4150013030 71.321426392 0.3160007000 0.5291864276
 361.03549194  -999.250000 22.040399551  -999.250000  -999.250000  -999.250000  -999.250000 56.304550171 165.16821289 165.16854858 0.4240027964 66.844573975 0.3125999868 0.6033024192
 361.18789673  -999.250000 22.036302567  -999.250000  -999.250000  -999.250000  -999.250000 57.286010742 163.87199402 163.87303162 0.4811010957 63.487068176 0.3122999966 0.6507006288
 361.34030151  -999.250000 22.033401489  -999.250000  -999.250000  -999.250000  -999.250000 58.071788788 161.50949097 161.51138306 0.5352994800 60.809764862 0.3125000000 0.6813997030
 361.49270630  -999.250000 22.032901764  -999.250000  -999.250000  -999.250000  -999.250000 57.905811310 159.69020081 159.69155884 0.5533992052 58.830406189 0.3127000034 0.7050989866
 361.64511108  -999.250000 22.033401489  -999.250000  -999.250000  -999.250000  -999.250000 56.420810699 162.37242126 162.37097168 0.5455005169 57.017665863 0.3129000068 0.7272983193
 361.79751587  -999.250000 22.033901215  -999.250000  -999.250000  -999.250000  -999.250000 54.421810150 164.95100403 164.94973755 0.5553990006 55.223690033 0.3131000102 0.7494977117
 361.94989014  -999.250000 22.034400940  -999.250000  -999.250000  -999.250000  -999.250000 53.729919434 165.08978271 165.08967590 0.6059045792 53.589256287 0.3133000135 0.7709013224
 362.10229492  -999.250000 22.034900665  -999.250000  -999.250000  -999.250000  -999.250000 55.608520508 165.08419800 165.08419800 0.6806027889 52.334983826 0.3136000037 0.7909005880
 362.25469971  -999.250000 22.035400391  -999.250000  -999.250000  -999.250000  -999.250000 56.307899475 164.72140503 164.72169495 0.7712001801 51.204601288 0.3154000044 0.8101000786
 362.40710449  -999.250000 22.035802841  -999.250000  -999.250000  -999.250000  -999.250000 54.361560822 165.78550720 165.78507996 0.8548973799 50.076599121 0.3181999028 0.8291993737
 362.55950928  -999.250000 22.036302567  -999.250000  -999.250000  -999.250000  -999.250000 52.415321350 165.78889465 165.78889465 0.8922976851 48.998600006 0.3210997880 0.8482987881
 362.71191406  -999.250000 22.036798477  -999.250000  -999.250000  -999.250000  -999.250000 52.396198273 165.79229736 165.79229736 0.8903002143 48.187755585 0.3239997029 0.8673982024
 362.86431885  -999.250000 22.037298203  -999.250000  -999.250000  -999.250000  -999.250000 53.348178864 165.79570007 165.79570007 0.9110972881 47.531436920 0.3268995881 0.8863976002
 363.01669312  -999.250000 22.037799835  -999.250000  -999.250000  -999.250000  -999.250000 54.253440857 165.79910278 165.79910278 0.9853041768 46.897830963 0.3302006125 0.9055008292
 363.16909790  -999.250000 22.038198471  -999.250000  -999.250000  -999.250000  -999.250000 55.068008423 165.80250549 165.80250549 1.0820009708 46.269714355 0.3441000879 0.9246001840
 363.32150269  -999.250000 22.038700104  -999.250000  -999.250000  -999.250000  -999.250000 55.866889954 165.80581665 165.80581665 1.1825979948 45.667980194 0.3558998108 0.9432997108
 363.47390747  -999.250000 22.039199829  -999.250000  -999.250000  -999.250000  -999.250000 55.855201721 165.80920410 165.80920410 1.2850949764 45.081592560 0.3603998125 0.9615991116
 363.62631226  -999.250000 22.039199829  -999.250000  -999.250000  -999.250000  -999.250000 55.232151031 165.81260681 165.81260681 1.3823920488 44.493831635 0.3668994904 0.9796984792
 363.77871704  -999.250000 22.038799286  -999.250000  -999.250000  -999.250000  -999.250000 54.060630798 165.81599426 165.81599426 1.4633909464 43.884208679 0.3775987923 0.9977980256
 363.93112183  -999.250000 22.038400650  -999.250000  -999.250000  -999.250000  -999.250000 54.122989655 165.81939697 165.81939697 1.5276910067 43.246612549 0.3857988119 1.0156970024
 364.08349609  -999.250000 22.038000107  -999.250000  -999.250000  -999.250000  -999.250000 59.121368408 165.82221985 165.82220459 1.5970020294 42.601009369 0.3899005949 1.0320999622
 364.23590088  -999.250000 22.037599564  -999.250000  -999.250000  -999.250000  -999.250000 61.733680725 165.55860901 165.55874634 1.6813989878 41.955741882 0.4138998091 1.0467000008
 364.38830566  -999.250000 22.037199020  -999.250000  -999.250000  -999.250000  -999.250000 64.835983276 165.29492188 165.29505920 1.7255979776 41.330596924 0.4366990924 1.0587999821
 364.54067993  -999.250000 22.036798477  -999.250000  -999.250000  -999.250000  -999.250000 69.730484009 165.03135681 165.03135681 1.6605169773 40.820774078 0.5187774301 1.0663985014
 364.69308472  -999.250000 22.036399841  -999.250000  -999.250000  -999.250000  -999.250000 75.039512634 164.76773071 164.76785278 1.5103440285 40.412937164 0.6536579132 1.0685995817
 364.84545898  -999.250000 22.036102295  -999.250000  -999.250000  -999.250000  -999.250000 76.742202759 164.23200989 164.23214722 1.3439875841 40.027992249 0.5486547947 1.0677003860
 364.99786377  -999.250000 22.035697937  -999.250000  -999.250000  -999.250000  -999.250000 78.444053650 164.16613770 164.16615295 1.2094749212 39.642257690 0.4200697839 1.0637025833
 365.15026855  -999.250000 22.035299301  -999.250000  -999.250000  -999.250000  -999.250000 80.044456482 164.94505310 164.94458008 1.1117196083 39.258464813 0.3914056122 1.0594007969
 365.30267334  -999.250000 22.034900665  -999.250000  -999.250000  -999.250000  -999.250000 77.455490112 165.72415161 165.72377014 1.0441155434 38.882816315 0.3684052229 1.0596998930
 365.45507813  -999.250000 22.034502029  -999.250000  -999.250000  -999.250000  -999.250000 72.452781677 166.50334167 166.50286865 1.0107086897 38.509078979 0.3490049839 1.0636991262
 365.60748291  -999.250000 22.034101486  -999.250000  -999.250000  -999.250000  -999.250000 66.909194946 167.28244019 167.28222656 0.9983035922 38.140224457 0.3422019780 1.0690989494
 365.75988770  -999.250000 22.033700943  -999.250000  -999.250000  -999.250000  -999.250000 62.329166412 168.06134033 168.06112671 0.9896027446 37.922424316 0.3426997960 1.0751978159
 365.91226196  -999.250000 22.033300400  -999.250000  -999.250000  -999.250000  -999.250000 59.202720642 168.84031677 168.84017944 0.9803050756 37.851802826 0.3459995091 1.0798970461
 366.06466675  -999.250000 22.032901764  -999.250000  -999.250000  -999.250000  -999.250000 58.235466003 169.61950684 169.61927795 0.9709054828 37.805244446 0.3509990871 1.0848969221
 366.21707153  -999.250000 22.032499313  -999.250000  -999.250000  -999.250000  -999.250000 58.414066315 170.25299072 170.25259399 0.9726996422 37.561183929 0.3559998870 1.0909987688
 366.36947632  -999.250000 22.032199860  -999.250000  -999.250000  -999.250000  -999.250000 59.748771667 170.25302124 170.25302124 0.9954944253 37.385379791 0.3712992966 1.0955990553
 366.52188110  -999.250000 22.031801224  -999.250000  -999.250000  -999.250000  -999.250000 63.486862183 170.25291443 170.25291443 1.0370886326 37.167495728 0.3986977935 1.0997991562
