# LAS format log file from PETREL
# Project units are specified as depth units
#==================================================================
~Version information
VERS.   2.0:
WRAP.   NO:
#==================================================================
~Well
STRT .m      984.14562988 :
STOP .m      1996.3865967 :
STEP .m     0.00000000 :
NULL .        -999.250000 :
COMP.           : COMPANY
WELL.  25/11-23  Balder Appr   : WELL
FLD.            : FIELD
LOC.            : LOCATION
SRVC.           : SERVICE COMPANY
DATE.  2018-09-11 14:48:16   : Log Export Date {yyyy-MM-dd HH:mm:ss}
PROV.           : PROVINCE
UWI.   25/11-23   : UNIQUE WELL ID
API.            : API NUMBER
#==================================================================
~Curve
DEPT .m                   : DEPTH
Lithology_geolink ._      : Lithology_geolink
DCAL .in                  : DCAL
CALI .in                  : CALI
BS .in                    : BS
MUDWEIGHT ._              : MUDWEIGHT
ROP .m/h                  : ROP
DRHO .g/cm3               : DRHO
NPHI .m3/m3               : NPHI
RHOB .g/cm3               : RHOB
GR .gAPI                  : GR
DTC .us/ft                : DTC
RDEP .ohm.m               : RDEP
SP .mV                    : SP
RSHA .ohm.m               : RSHA
RMED .ohm.m               : RMED
~Parameter
#==================================================================
~Ascii
# ...
 1388.3105469 7.0000000000 -0.028100008 8.4718713760 8.5000000000 1.3200000525 250953.95313 -0.005094632 0.4296675622 2.3062593937 91.348396301 142.82194519 0.9048998356 0.0000000000 1.0192525387 0.9406073689
 1388.4628906 7.0000000000 -0.063699722 8.4362964630 8.5000000000 1.3200000525 250360.95313 0.0015956730 0.4031859934 2.3802642822 101.62120056 140.38374329 1.0292353630 0.0000000000 1.0847116709 1.0743216276
 1388.6153564 7.0000000000 -0.068499573 8.4315433502 8.5000000000 1.3200000525 249691.96875 -0.003812650 0.4342018664 2.3356459141 98.384368896 131.69694519 0.8239625096 0.0000000000 0.9742205739 0.8519572616
 1388.7677002 7.0000000000 -0.041799549 8.4582195282 8.5000000000 1.3200000525 249116.93750 -0.011699279 0.5000435114 2.2395539284 87.383651733 125.93070984 0.8006284237 0.0000000000 0.8001118898 0.8253290057
 1388.9201660 7.0000000000 -0.017999651 8.4820365906 8.5000000000 1.3200000525 245893.68750 -0.010800000 0.5253410339 2.1820685863 78.462142944 137.66523743 0.8360783458 0.0000000000 0.9394014478 0.8614748716
 1389.0725098 7.0000000000 0.0047998428 8.5048179626 8.5000000000 1.3200000525 227427.59375 -0.010799600 0.5182318687 2.1623976231 76.496696472 142.80700684 0.8226344585 0.0000000000 0.8156381249 0.8458361030
 1389.2249756 7.0000000000 0.0270004310 8.5270252228 8.5000000000 1.3200000525 224001.37500 -0.010297278 0.5059691668 2.1593003273 78.491836548 143.67759705 0.8656769991 0.0000000000 0.8632429242 0.8909810185
 1389.3773193 7.0000000000 0.0424995385 8.5425043106 8.5000000000 1.3200000525 223332.26563 -0.008599920 0.4944247901 2.1595015526 82.192100525 143.24414063 0.9136949182 0.0000000000 0.8899977207 0.9414941072
 1389.5296631 7.0000000000 0.0482997894 8.5483150482 8.5000000000 1.3200000525 222624.98438 -0.008501842 0.5037649274 2.1615009308 82.317192078 145.66882324 0.9073762298 0.0000000000 0.8871777654 0.9340741634
 1389.6820068 7.0000000000 0.0677003935 8.5677003860 8.5000000000 1.3200000525 221915.93750 -0.010800000 0.5167745948 2.1628000736 81.815299988 147.19859314 0.8776999712 0.0000000000 0.8593999743 0.9018999934
 1389.8343506 7.0000000000 0.0899000168 8.5899000168 8.5000000000 1.3200000525 221779.51563 -0.010700000 0.5062255263 2.1661999226 80.515098572 146.89830017 0.8414999843 0.0000000000 0.8465999961 0.8632000089
 1389.9868164 7.0000000000 0.1004000008 8.6003999710 8.5000000000 1.3200000525 228334.03125 -0.010700000 0.5090488195 2.1628000736 82.485298157 146.75169373 0.8456000090 0.0000000000 0.8594999909 0.8673999906
 1390.1391602 7.0000000000 0.0967998505 8.5967998505 8.5000000000 1.3200000525 285871.50000 -0.009300000 0.5346115232 2.1565999985 82.224998474 146.64959717 0.9046999812 0.0000000000 0.8791999817 0.9297999740
 1390.2916260 6.0000000000 0.0929002911 8.5929002762 8.5000000000 1.3200000525 394162.15625 -0.010000000 0.5508949757 2.1491999626 81.928398132 145.55279541 0.9004999995 0.0000000000 0.8870000243 0.9258000255
 1390.4439697 6.0000000000 0.0888996199 8.5888996124 8.5000000000 1.3200000525 400511.90625 -0.008300000 0.5461179018 2.1482999325 80.051399231 146.34599304 0.8065999746 0.0000000000 0.8851000071 0.8273000121
 1390.5964355 6.0000000000 0.0509996377 8.5509996414 8.5000000000 1.3200000525 400511.90625 -0.008100000 0.5231634378 2.1472001076 80.762702942 147.49240112 0.7495999932 0.0000000000 0.8402000070 0.7674999833
 1390.7487793 6.0000000000 0.0109996796 8.5109996796 8.5000000000 1.3200000525 400511.90625 -0.010300000 0.5241491795 2.1424999237 81.100402832 148.13510132 0.7778999805 0.0000000000 0.8212000132 0.7972000241
 1390.9011230 6.0000000000 -0.000699997 8.4993000031 8.5000000000 1.3200000525 400511.90625 -0.012600000 0.5211558342 2.1379001141 81.404998779 147.95710754 0.8610000014 0.0000000000 0.8838999867 0.8842999935
 1391.0535889 6.0000000000 -0.009599686 8.4904003143 8.5000000000 1.3200000525 384872.87500 -0.011200000 0.5106055140 2.1389999390 78.663497925 148.87249756 0.8704000115 0.0000000000 0.8679000139 0.8935999870
 1391.2059326 6.0000000000 0.0083999634 8.5083999634 8.5000000000 1.3200000525 308608.56250 -0.011100000 0.5125877857 2.1391999722 75.478996277 148.69670105 0.8294000030 0.0000000000 0.8593000174 0.8497999907
 1391.3583984 6.0000000000 0.0473003425 8.5473003387 8.5000000000 1.3200000525 308608.56250 -0.009800000 0.5249909759 2.1398000717 72.657699585 148.12219238 0.8123000264 0.0000000000 0.8457999825 0.8313999772
 1391.5107422 6.0000000000 0.0314998589 8.5314998627 8.5000000000 1.3200000525 308608.56250 -0.006500000 0.5329542756 2.1424999237 72.165603638 147.83830261 0.8235999942 0.0000000000 0.8378999829 0.8432000279
 1391.6632080 6.0000000000 0.0312995911 8.5312995911 8.5000000000 1.3200000525 308608.56250 -0.004800000 0.5277271867 2.1405000687 72.527999878 148.14799500 0.8651999831 0.0000000000 0.8677999973 0.8869000077
 1391.8155518 6.0000000000 0.0464000702 8.5464000702 8.5000000000 1.3200000525 308608.56250 -0.006900000 0.5406585932 2.1321001053 71.890998840 149.66180420 0.9158999920 0.0000000000 0.8750000000 0.9402999878
 1391.9680176 6.0000000000 0.0495996550 8.5495996475 8.5000000000 1.3200000525 308608.56250 -0.007900000 0.5478392243 2.1254000664 70.103103638 149.11720276 0.8867999911 0.0000000000 0.8551999927 0.9099000096
 1392.1203613 6.0000000000 0.0334997214 8.5334997177 8.5000000000 1.3200000525 308608.56250 -0.008100000 0.5584664941 2.1208999157 68.958999634 149.04159546 0.9197999835 0.0000000000 0.8695999980 0.9442999959
 1392.2728271 6.0000000000 0.0054998398 8.5054998398 8.5000000000 1.3200000525 308608.56250 -0.008500000 0.5441575050 2.1206998825 70.219703674 148.46009827 0.8662999868 0.0000000000 0.8450999856 0.8880000114
 1392.4251709 6.0000000000 -0.000300407 8.4996995926 8.5000000000 1.3200000525 308608.56250 -0.010500000 0.5245617032 2.1245999336 73.179199219 147.68409729 0.9081000090 0.0000000000 0.8758000135 0.9322999716
 1392.5776367 6.0000000000 -0.000100136 8.4998998642 8.5000000000 1.3200000525 308608.56250 -0.010000000 0.5178033710 2.1373999119 75.048301697 147.28959656 0.9296000004 0.0000000000 0.9361000061 0.9559999704
 1392.7299805 6.0000000000 -0.004599571 8.4954004288 8.5000000000 1.3200000525 308608.56250 -0.006700000 0.5215100050 2.1507000923 75.184196472 147.05630493 0.9088000059 0.0000000000 0.9060999751 0.9355000257
 1392.8823242 6.0000000000 -0.005000114 8.4949998856 8.5000000000 1.3200000525 308608.56250 -0.006500000 0.5431312919 2.1556000710 73.704200745 145.67990112 0.8335999846 0.0000000000 0.8730000257 0.8574000001
 1393.0347900 6.0000000000 0.0121002188 8.5121002197 8.5000000000 1.3200000525 286298.37500 -0.010500000 0.5449646115 2.1473999023 72.520103455 144.98170471 0.7797999978 0.0000000000 0.8359000087 0.8016999960
 1393.1871338 6.0000000000 0.0256004296 8.5256004333 8.5000000000 1.3200000525 173608.98438 -0.011400000 0.5438337922 2.1456000805 71.310401917 145.23399353 0.7648000121 0.0000000000 0.8248999715 0.7864000201
 1393.3395996 6.0000000000 0.0223998986 8.5223999023 8.5000000000 1.3200000525 163184.39063 -0.011500000 0.5212960839 2.1468000412 70.125297546 145.78050232 0.7662000060 0.0000000000 0.8108000159 0.7879999876
 1393.4919434 6.0000000000 0.0403003730 8.5403003693 8.5000000000 1.3200000525 163184.39063 -0.013800000 0.5251936913 2.1468000412 70.157699585 146.24339294 0.8008000255 0.0000000000 0.8011999726 0.8245000243
 1393.6444092 6.0000000000 0.0492000617 8.5492000580 8.5000000000 1.3200000525 163184.39063 -0.014700000 0.5326699615 2.1428000927 70.019302368 146.47850037 0.8510000110 0.0000000000 0.8277000189 0.8777999878
 1393.7967529 6.0000000000 0.0355997086 8.5355997086 8.5000000000 1.3200000525 163184.39063 -0.012800000 0.5677019358 2.1401000023 70.589996338 146.66099548 0.8938000202 0.0000000000 0.8783000112 0.9233999848
 1393.9492188 6.0000000000 0.0483999252 8.5483999252 8.5000000000 1.3200000525 174132.28125 -0.011500000 0.5751250982 2.1363999844 69.453300476 147.08839417 0.7896000147 0.0000000000 0.8339999914 0.8126000166
 1394.1015625 6.0000000000 0.0517997667 8.5517997742 8.5000000000 1.3200000525 229115.34375 -0.010700000 0.5747072697 2.1352999210 68.286102295 147.42990112 0.7376000285 0.0000000000 0.7929999828 0.7577000260
