# LAS format log file from PETREL
# Project units are specified as depth units
#==================================================================
~Version information
VERS.   2.0:
WRAP.   NO:
#==================================================================
~Well
STRT .m      984.14562988 :
STOP .m      1996.3865967 :
STEP .m     0.00000000 :
NULL .        -999.250000 :
COMP.           : COMPANY
WELL.  25/11-23  Balder Appr   : WELL
FLD.            : FIELD
LOC.            : LOCATION
SRVC.           : SERVICE COMPANY
DATE.  2018-09-11 14:48:16   : Log Export Date {yyyy-MM-dd HH:mm:ss}
PROV.           : PROVINCE
UWI.   25/11-23   : UNIQUE WELL ID
API.            : API NUMBER
#==================================================================
~Curve
DEPT .m                   : DEPTH
Lithology_geolink ._      : Lithology_geolink
DCAL .in                  : DCAL
CALI .in                  : CALI
BS .in                    : BS
MUDWEIGHT ._              : MUDWEIGHT
ROP .m/h                  : ROP
DRHO .g/cm3               : DRHO
NPHI .m3/m3               : NPHI
RHOB .g/cm3               : RHOB
GR .gAPI                  : GR
DTC .us/ft                : DTC
RDEP .ohm.m               : RDEP
SP .mV                    : SP
RSHA .ohm.m               : RSHA
RMED .ohm.m               : RMED
~Parameter
#==================================================================
~Ascii
# ...
 1786.5316162 7.0000000000 -0.059900280 8.4400997162 8.5000000000 1.3200000525 71827.984375 -0.006600000 0.3711979985 2.3218998909 105.32080078 126.53569031 0.7651000023 0.0000000000 0.7825000286 0.7879999876
 1786.6840820 7.0000000000 -0.058799740 8.4412002563 8.5000000000 1.3200000525 72022.226563 -0.006200000 0.3668830097 2.3213999271 102.73159790 127.19058990 0.7932999730 0.0000000000 0.8270000219 0.8180000186
 1786.8364258 7.0000000000 -0.057800289 8.4421997070 8.5000000000 1.3200000525 72217.007813 -0.007300000 0.3561890125 2.3220999241 101.22119904 127.97699738 0.7796000242 0.0000000000 0.8111000061 0.8029999733
 1786.9887695 7.0000000000 -0.058400150 8.4415998459 8.5000000000 1.3200000525 75819.039063 -0.008900000 0.3447589874 2.3247001171 102.10990143 128.25120544 0.7728000283 0.0000000000 0.7903000116 0.7955999970
 1787.1412354 7.0000000000 -0.058300015 8.4416999817 8.5000000000 1.3200000525 110512.26563 -0.011300000 0.3571149707 2.3234000206 102.74099731 128.53070068 0.7613999844 0.0000000000 0.8022000194 0.7832000256
 1787.2935791 7.0000000000 -0.051099781 8.4489002228 8.5000000000 1.3200000525 118619.44531 -0.012700000 0.3816220164 2.3181002140 101.79160309 128.77239990 0.7839000225 0.0000000000 0.7867000103 0.8069000244
 1787.4460449 7.0000000000 -0.046299931 8.4537000656 8.5000000000 1.3200000525 119104.87500 -0.014200000 0.3919380307 2.3080000877 101.73829651 130.49389648 0.7832999825 0.0000000000 0.8023999929 0.8055999875
 1787.5983887 7.0000000000 -0.046899799 8.4531002045 8.5000000000 1.3200000525 119495.22656 -0.013000000 0.3856679797 2.3017001152 101.57389832 130.34550476 0.7613999844 0.0000000000 0.7767000198 0.7817999721
 1787.7508545 7.0000000000 -0.047599785 8.4524002075 8.5000000000 1.3200000525 119877.84375 -0.011900000 0.3813489974 2.2971000671 100.45800018 129.45750427 0.7196000218 0.0000000000 0.7574999928 0.7372000217
 1787.9031982 7.0000000000 -0.050200459 8.4497995377 8.5000000000 1.3200000525 120295.91406 -0.009100000 0.3610900044 2.2922999859 95.136596680 129.20199585 0.7815999985 0.0000000000 0.8271999955 0.8014000058
 1788.0556641 7.0000000000 -0.052100182 8.4478998184 8.5000000000 1.3200000525 126686.64844 -0.003700000 0.3421700001 2.2788000107 84.763603210 127.98829651 0.8819000125 0.0000000000 0.9315000176 0.9079999924
 1788.2080078 7.0000000000 -0.061699875 8.4383001328 8.5000000000 1.3200000525 151520.67188 0.0001000000 0.3275789917 2.2641999722 71.727203369 127.44480133 0.9362999797 0.0000000000 1.0973999500 0.9653000236
 1788.3604736 7.0000000000 -0.107700296 8.3922996521 8.5000000000 1.3200000525 165353.26563 0.0011000000 0.3088909984 2.2855000496 60.028099060 110.57850647 1.2544000149 0.0000000000 1.2489999533 1.3063000441
 1788.5128174 7.0000000000 -0.070500366 8.4294996262 8.5000000000 1.3200000525 167979.59375 0.0081000002 0.2657290101 2.3503999710 51.911598206 101.27809906 1.6672999859 0.0000000000 1.9335000515 1.7596000433
 1788.6652832 16.000000000 -0.030699728 8.4693002701 8.5000000000 1.3200000525 167979.59375 0.0155999996 0.2528699934 2.4105000496 49.042098999 100.50909424 1.2355999947 0.0000000000 1.1260000467 1.2854000330
 1788.8176270 16.000000000 -0.065600403 8.4343996048 8.5000000000 1.3200000525 167979.59375 0.0093999999 0.2725400031 2.3919999599 51.351600647 106.62290955 0.9620000124 0.0000000000 1.0286999941 0.9901000261
 1788.9699707 16.000000000 -0.069199562 8.4308004379 8.5000000000 1.3200000525 162395.20313 0.0014000000 0.3232529759 2.3362998962 58.623699188 115.93901062 1.0262999535 0.0000000000 0.8173000216 1.0588999987
 1789.1224365 5.0000000000 -0.060600281 8.4393997192 8.5000000000 1.3200000525 125869.35156 0.0004000000 0.3379940093 2.3024001122 66.791099548 121.72730255 0.8432999849 0.0000000000 0.8924999833 0.8640999794
 1789.2747803 5.0000000000 -0.057299614 8.4427003860 8.5000000000 1.3200000525 70021.750000 -0.001600000 0.3404580057 2.2922999859 72.997497559 124.79609680 0.8018000126 0.0000000000 0.8597999811 0.8202000260
 1789.4272461 5.0000000000 -0.052599911 8.4474000931 8.5000000000 1.3200000525 61843.683594 -0.003500000 0.3456799984 2.2948999405 77.504997253 128.20480347 0.8076000214 0.0000000000 0.8274000287 0.8266000152
 1789.5795898 5.0000000000 -0.042699810 8.4573001862 8.5000000000 1.3200000525 61843.683594 -0.004000000 0.3518149853 2.2997999191 80.827903748 129.58030701 0.8411999941 0.0000000000 0.8343999982 0.8608999848
 1789.7320557 6.0000000000 -0.038200378 8.4617996216 8.5000000000 1.3200000525 61843.683594 -0.006000000 0.3537950218 2.3002998829 84.006103516 127.85469818 0.8650000095 0.0000000000 0.8815000057 0.8847000003
 1789.8843994 6.0000000000 -0.045299530 8.4547004700 8.5000000000 1.3200000525 59452.972656 -0.008600000 0.3595240116 2.2946999073 86.159202576 126.71119690 0.8507999778 0.0000000000 0.9014999866 0.8687999845
 1790.0368652 6.0000000000 -0.050999638 8.4490003586 8.5000000000 1.3200000525 40813.628906 -0.010200000 0.3423140049 2.2915000916 86.911796570 126.06690216 0.7390000224 0.0000000000 0.7465999722 0.7516999841
 1790.1892090 6.0000000000 -0.049699783 8.4503002167 8.5000000000 1.3200000525 37309.250000 -0.012700000 0.3185769916 2.2973999977 85.379699707 124.56439972 0.7896999717 0.0000000000 0.8828999996 0.8033000231
 1790.3416748 6.0000000000 -0.039699551 8.4603004456 8.5000000000 1.3200000525 37394.242188 -0.011300000 0.3001709878 2.3257000446 83.172096252 123.21759796 0.9075000286 0.0000000000 0.9509999752 0.9258000255
 1790.4940186 6.0000000000 -0.030199999 8.4697999954 8.5000000000 1.3200000525 37481.214844 -0.007300000 0.3006559908 2.3577001095 82.710296631 122.52319336 0.8641999960 0.0000000000 1.1193000078 0.8798999786
 1790.6464844 6.0000000000 -0.041099548 8.4589004517 8.5000000000 1.3200000525 37568.507813 -0.005800000 0.3171280026 2.3677000999 83.286697388 121.38539886 0.9527000189 0.0000000000 1.0731999874 0.9718000293
 1790.7988281 6.0000000000 -0.048199646 8.4518003464 8.5000000000 1.3200000525 37655.660156 -0.006400000 0.3339380026 2.3566999435 83.364601135 121.39679718 0.9724000096 0.0000000000 1.0336999893 0.9918000102
 1790.9511719 6.0000000000 -0.047499660 8.4525003433 8.5000000000 1.3200000525 48799.871094 -0.004200000 0.3417470157 2.3512001038 79.823699951 122.60030365 0.9133999944 0.0000000000 0.9564999938 0.9304999709
 1791.1036377 6.0000000000 -0.048399925 8.4516000748 8.5000000000 1.3200000525 102768.66406 -0.002800000 0.3396459818 2.3466999531 75.958801270 123.76329803 0.8669999838 0.0000000000 0.9282000065 0.8823999763
 1791.2559814 6.0000000000 -0.051799767 8.4482002258 8.5000000000 1.3200000525 106511.12500 -0.005700000 0.3463909924 2.3327999115 73.594398499 125.64299774 0.8694000244 0.0000000000 0.9090999961 0.8849999905
 1791.4084473 6.0000000000 -0.056500431 8.4434995651 8.5000000000 1.3200000525 107223.12500 -0.008600000 0.3413529992 2.3160998821 74.584701538 126.28959656 0.8504999876 0.0000000000 0.8088999987 0.8665000200
 1791.5607910 6.0000000000 -0.058699612 8.4413003922 8.5000000000 1.3200000525 107223.12500 -0.011200000 0.3276879787 2.3078999519 76.084503174 124.58809662 0.7983000278 0.0000000000 0.9185000062 0.8131999969
 1791.7132568 6.0000000000 -0.058899879 8.4411001205 8.5000000000 1.3200000525 107223.12500 -0.012200000 0.3210079968 2.3083000183 77.138198853 125.16410065 0.9617999792 0.0000000000 0.9095000029 0.9847000241
 1791.8656006 6.0000000000 -0.055600170 8.4443998337 8.5000000000 1.3200000525 107223.12500 -0.014400000 0.3259960115 2.3092000484 78.773803711 125.37950134 0.7519000173 0.0000000000 0.8472999930 0.7663999796
 1792.0180664 6.0000000000 -0.053099629 8.4469003677 8.5000000000 1.3200000525 103772.26563 -0.014100000 0.3394820094 2.3189001083 81.557403564 122.63730621 0.7731000185 0.0000000000 0.8669999838 0.7890999913
 1792.1704102 6.0000000000 -0.053600308 8.4463996887 8.5000000000 1.3200000525 77145.843750 -0.012400000 0.3519020081 2.3296000957 82.124496460 121.89420319 0.8569999933 0.0000000000 0.9670000076 0.8773000240
 1792.3228760 6.0000000000 -0.053700455 8.4462995529 8.5000000000 1.3200000525 72523.078125 -0.011200000 0.3478310108 2.3234999180 80.390403748 122.22319031 0.8108000159 0.0000000000 0.8683000207 0.8298000097
