# LAS format log file from PETREL
# Project units are specified as depth units
#==================================================================
~Version information
VERS.   2.0:
WRAP.   NO:
#==================================================================
~Well
STRT .m      984.14562988 :
STOP .m      1996.3865967 :
STEP .m     0.00000000 :
NULL .        -999.250000 :
COMP.           : COMPANY
WELL.  25/11-23  Balder Appr   : WELL
FLD.            : FIELD
LOC.            : LOCATION
SRVC.           : SERVICE COMPANY
DATE.  2018-09-11 14:48:16   : Log Export Date {yyyy-MM-dd HH:mm:ss}
PROV.           : PROVINCE
UWI.   25/11-23   : UNIQUE WELL ID
API.            : API NUMBER
#==================================================================
~Curve
DEPT .m                   : DEPTH
Lithology_geolink ._      : Lithology_geolink
DCAL .in                  : DCAL
CALI .in                  : CALI
BS .in                    : BS
MUDWEIGHT ._              : MUDWEIGHT
ROP .m/h                  : ROP
DRHO .g/cm3               : DRHO
NPHI .m3/m3               : NPHI
RHOB .g/cm3               : RHOB
GR .gAPI                  : GR
DTC .us/ft                : DTC
RDEP .ohm.m               : RDEP
SP .mV                    : SP
RSHA .ohm.m               : RSHA
RMED .ohm.m               : RMED
~Parameter
#==================================================================
~Ascii
# ...
 1988.6141357  -999.250000 -0.077899933 8.4221000671 8.5000000000 1.3200000525 139154.04688 -0.010898798 0.2945537269 2.2567369938  -999.250000 98.723136902 0.7337344885 0.0000000000 1.2714803219 0.7576397657
 1988.7664795  -999.250000 -0.078300484 8.4216995239 8.5000000000 1.3200000525 139154.04688 -0.009399840 0.2816014290 2.3028306961  -999.250000 98.043472290 0.7767020464 0.0000000000 1.2469569445 0.8070929646
 1988.9189453  -999.250000 -0.067700393 8.4322996140 8.5000000000 1.3200000525 139576.67188 -0.009201283 0.2691432238 2.3410940170  -999.250000 99.199340820 0.6544201374 0.0000000000 1.3176989555 0.6734142900
 1989.0712891  -999.250000 -0.057499889 8.4425001144 8.5000000000 1.3200000525 151277.37500 -0.010801441 0.2694260478 2.3332610130  -999.250000 99.686035156 0.5549396276 0.0000000000 0.8180893064 0.5666439533
 1989.2237549  -999.250000 -0.055100434 8.4448995590 8.5000000000 1.3200000525 196348.00000 -0.012602804 0.2772309482 2.2844555378  -999.250000 99.584487915 0.7293959260 0.0000000000 1.3040301800 0.7465071678
 1989.3760986  -999.250000 -0.076499939 8.4235000610 8.5000000000 1.3200000525 202776.84375 -0.016101522 0.2887663245 2.2291095257  -999.250000 99.954315186 0.9737768769 0.0000000000 1.4669257402 1.0049803257
 1989.5285645  -999.250000 -0.102000199 8.3979997635 8.5000000000 1.3200000525 202776.84375 -0.017992627 0.2907715440 2.2411873341  -999.250000 100.33712006 1.0697133541 0.0000000000 2.2481229305 1.1052128077
 1989.6809082  -999.250000 -0.090499885 8.4095001221 8.5000000000 1.3200000525 202776.84375 -0.008791747 0.2897084057 2.3501148224  -999.250000 96.488594055 1.0867584944 0.0000000000 2.6512720585 1.1214596033
 1989.8333740  -999.250000 -0.080499649 8.4195003510 8.5000000000 1.3200000525 202776.84375 0.0015072058  -999.250000 2.4935562611  -999.250000 93.357002258 1.5330668688 0.0000000000 3.2384750843 1.5692454576
 1989.9857178  -999.250000 -0.069499969 8.4305000305 8.5000000000 1.3200000525 196737.15625 0.0059970352  -999.250000 2.5286350250  -999.250000 93.622932434 1.1379714012 0.0000000000 2.3489782810 1.1607582569
 1990.1381836  -999.250000 -0.072799683 8.4272003174 8.5000000000 1.3200000525 146737.82813 0.0022902323  -999.250000 2.4474227428  -999.250000 95.780296326 0.7281373143 0.0000000000 1.0742802620 0.7343320251
 1990.2905273  -999.250000 -0.105999902 8.3940000534 8.5000000000 1.3200000525 137153.53125 -0.003799679  -999.250000 2.3368566036  -999.250000 95.923019409 0.6266264915 0.0000000000 0.5632541776 0.6295247674
 1990.4429932  -999.250000 -0.092399590 8.4076004028 8.5000000000 1.3200000525 137153.53125 -0.003395036  -999.250000 2.2825891972  -999.250000 95.037559509 0.5351433158 0.0000000000 0.6312417984 0.5358414054
 1990.5953369  -999.250000 -0.065799713 8.4342002869 8.5000000000 1.3200000525 137153.53125 -0.000302163  -999.250000 2.2758979797  -999.250000 96.329193115 0.6244411469 0.0000000000 0.9065493941 0.6239402294
 1990.7476807  -999.250000 -0.073200233 8.4267997742 8.5000000000 1.3200000525 137153.53125 -0.003003923  -999.250000 2.2733776569  -999.250000 98.323753357 0.5510951877 0.0000000000 0.7185298800 0.5493943691
 1990.9001465  -999.250000 -0.092000000 8.4079999924 8.5000000000 1.3200000525 137182.14063 -0.007902003  -999.250000 2.2452704906  -999.250000 99.106399536 0.5453296304 0.0000000000 0.5063108206 0.5426267385
 1991.0524902  -999.250000 -0.089599609 8.4104003906 8.5000000000 1.3200000525 142946.39063 -0.010401841  -999.250000 2.2084903717  -999.250000 98.775588989 0.8315959573 0.0000000000 0.6444654465 0.8252950907
 1991.2049561  -999.250000 -0.083399780 8.4166002274 8.5000000000 1.3200000525 163206.25000 -0.012700801  -999.250000 2.1967239380  -999.250000 99.022071838 0.7020102143 0.0000000000 0.6014837623 0.6947015524
 1991.3572998  -999.250000 -0.092699997 8.4072999954 8.5000000000 1.3200000525 163894.71875 -0.013697358  -999.250000 2.2264473438  -999.250000 99.530372620 1.0887421370 0.0000000000 0.8309648037 1.0705389977
 1991.5097656  -999.250000 -0.096199997 8.4038000107 8.5000000000 1.3200000525 164624.70313 -0.010397196  -999.250000 2.2858462334  -999.250000 98.392257690 0.8915500045 0.0000000000 1.2860175371 0.8693563938
 1991.6621094  -999.250000 -0.084699623 8.4153003693 8.5000000000 1.3200000525 165294.10938 -0.006900962  -999.250000 2.3435294628  -999.250000 96.455825806 0.7045290470 0.0000000000 1.0585970879 0.6903293133
 1991.8145752  -999.250000 -0.079299927 8.4207000732 8.5000000000 1.3200000525 166047.50000 -0.008103523  -999.250000 2.3804116249  -999.250000 95.512031555 0.7408851385 0.0000000000 1.1795543432 0.7270628214
 1991.9669189  -999.250000 -0.080300339 8.4196996689 8.5000000000 1.3200000525 166704.89063 -0.010298157  -999.250000 2.3876912594  -999.250000 95.065223694 0.8563419580 0.0000000000 1.1515491009 0.8286490440
 1992.1193848  -999.250000 -0.083200432 8.4167995453 8.5000000000 1.3200000525 167479.81250 -0.008002562  -999.250000 2.3767549992  -999.250000 95.611724854 0.9084427953 0.0000000000 1.7103663683 0.8895503879
 1992.2717285  -999.250000 -0.085900307 8.4140996933 8.5000000000 1.3200000525 168127.26563 -0.009603125  -999.250000 2.3485765457  -999.250000 96.691459656 0.7480081320 0.0000000000 0.9409908652 0.7338082790
 1992.4241943  -999.250000 -0.085900307 8.4140996933 8.5000000000 1.3200000525 168843.76563 -0.013497118  -999.250000 2.3192749023  -999.250000 95.970695496 0.6335403323 0.0000000000 0.6801474690 0.6194208264
 1992.5765381  -999.250000 -0.082300194 8.4176998138 8.5000000000 1.3200000525 169562.23438 -0.011699599  -999.250000 2.3035845757  -999.250000 96.968940735 0.6588137150 0.0000000000 0.6476343870 0.6325154305
 1992.7288818  -999.250000 -0.082400322 8.4175996780 8.5000000000 1.3200000525 170205.00000 -0.011201121  -999.250000 2.2841801643  -999.250000 99.915222168 0.8004660606 0.0000000000 0.9396110177 0.7763682008
 1992.8813477  -999.250000 -0.079799660 8.4202003479 8.5000000000 1.3200000525 170414.84375 -0.012600400  -999.250000 2.2595779896  -999.250000 102.19235992 0.6332428455 0.0000000000 0.5789791346 0.6118438840
 1993.0336914  -999.250000 -0.077599533 8.4224004745 8.5000000000 1.3200000525 170430.12500 -0.013101281  -999.250000 2.2322754860  -999.250000 103.25817108 0.5619488358 0.0000000000 0.5530178547 0.5418507457
 1993.1861572  -999.250000 -0.093500137 8.4064998627 8.5000000000 1.3200000525 170430.12500 -0.014702084  -999.250000 2.2014744282  -999.250000 104.45765686 0.4980231822 0.0000000000 0.5751566291 0.4803280532
 1993.3385010  -999.250000 -0.095499992 8.4045000076 8.5000000000 1.3200000525 170430.12500 -0.017299920  -999.250000 2.1696803570  -999.250000 104.90241241 0.4021964967 0.0000000000 0.3964245915 0.3905970454
 1993.4909668  -999.250000 -0.085200302 8.4147996902 8.5000000000 1.3200000525 170430.12500 -0.017199600  -999.250000 2.1452884674  -999.250000 104.66469574 0.3978028893 0.0000000000 0.4270943105 0.3869028091
 1993.6433105  -999.250000 -0.086299904 8.4137001038 8.5000000000 1.3200000525 170845.31250 -0.016698798  -999.250000 2.1310966015  -999.250000 104.03831482 0.4014120102 0.0000000000 0.4199834764 0.3904112875
 1993.7957764  -999.250000 -0.086899765 8.4131002426 8.5000000000 1.3200000525 173483.73438 -0.015195677  -999.250000 2.1269137859  -999.250000 102.56071472 0.4164030254 0.0000000000 0.3994666040 0.4045028985
 1993.9481201  -999.250000 -0.086999901 8.4130001068 8.5000000000 1.3200000525 186082.10938 -0.012498157  -999.250000 2.1356127262  -999.250000 101.06520844 0.4183149040 0.0000000000 0.4410430491 0.4063138664
 1994.1005859  -999.250000 -0.090600006 8.4093999863 8.5000000000 1.3200000525 188204.34375 -0.010197919  -999.250000 2.1515231133  -999.250000 100.58187866 0.4369113445 0.0000000000 0.4946776032 0.4236105680
 1994.2529297  -999.250000 -0.095499992 8.4045000076 8.5000000000 1.3200000525 187623.67188 -0.008901362  -999.250000 2.1658992767  -999.250000 100.94248962 0.4440059364 0.0000000000 0.4806877375 0.4302051365
 1994.4053955  -999.250000 -0.103799798 8.3962001801 8.5000000000 1.3200000525 187033.04688 -0.010604803  -999.250000 2.1648902893  -999.250000 100.54865265 0.4514366686 0.0000000000 0.4655081034 0.4366342723
