# LAS format log file from PETREL
# Project units are specified as depth units
#==================================================================
~Version information
VERS.   2.0:
WRAP.   NO:
#==================================================================
~Well
STRT .m      3054.5593262 :
STOP .m      3397.3076172 :
STEP .m     0.00000000 :
NULL .        -999.250000 :
COMP.           : COMPANY
WELL.  25/10-8A  Hanz Appr   : WELL
FLD.            : FIELD
LOC.            : LOCATION
SRVC.           : SERVICE COMPANY
DATE.  2018-09-11 14:48:15   : Log Export Date {yyyy-MM-dd HH:mm:ss}
PROV.           : PROVINCE
UWI.   25/10-8 A   : UNIQUE WELL ID
API.            : API NUMBER
#==================================================================
~Curve
DEPT .m                   : DEPTH
Lithology_geolink ._      : Lithology_geolink
NPHI .m3/m3               : NPHI
RHOB .g/cm3               : RHOB
GR .gAPI                  : GR
RDEP .ohm.m               : RDEP
RSHA .ohm.m               : RSHA
~Parameter
#==================================================================
~Ascii
# ...
 3213.6652832 5.0000000000 0.1745499969 2.3709743023 76.993682861 3.7347984314 3.1981763840
 3213.8176270 5.0000000000 0.1804599911 2.3683636189 78.838333130 3.8352422714 3.5870094299
 3213.9699707 5.0000000000 0.1810699999 2.3667345047 81.520965576 3.7921578884 3.8173217773
 3214.1223145 5.0000000000 0.1806199998 2.3667910099 83.782073975 3.5922160149 3.7984445095
 3214.2749023 6.0000000000 0.1803400069 2.3673291206 85.449821472 3.4542982578 3.6421899796
 3214.4272461 6.0000000000 0.1799400002 2.3672058582 86.632240295 3.3412654400 3.4038641453
 3214.5795898 6.0000000000 0.1785400063 2.3670527935 87.021446228 3.2637755871 2.9737002850
 3214.7319336 6.0000000000 0.1752899885 2.3682644367 86.173080444 3.2912285328 2.6049299240
 3214.8845215 6.0000000000 0.1736899912 2.3693549633 84.666687012 3.3784818649 2.4525609016
 3215.0368652 6.0000000000 0.1710399985 2.3698775768 83.780540466 3.4681520462 2.4513022900
 3215.1892090 5.0000000000 0.1617799997 2.3713545799 83.404327393 3.6481199265 2.4252581596
 3215.3415527 5.0000000000 0.1448400021 2.3778679371 82.910797119 3.8899328709 2.4845175743
 3215.4941406 5.0000000000 0.1338500082 2.3915359974 81.695091248 4.0689182281 2.6857216358
 3215.6464844 5.0000000000 0.1269599944 2.4163515568 79.439903259 4.1378283501 3.0835638046
 3215.7988281 5.0000000000 0.1204800010 2.4463737011 76.681709290 4.2123427391 3.6698684692
 3215.9511719 5.0000000000 0.1133100018 2.4749665260 73.233840942 4.1769156456 4.8074617386
 3216.1035156 5.0000000000 0.1101500019 2.4891772270 69.970214844 4.1425213814 6.0906786919
 3216.2561035 5.0000000000 0.1134799942 2.4855456352 68.217048645 4.0987262726 6.1406598091
 3216.4084473 5.0000000000 0.1208899990 2.4711308479 68.388977051 4.0516042709 5.6838383675
 3216.5607910 5.0000000000 0.1273699999 2.4518406391 69.988838196 3.9949109554 5.3939170837
 3216.7131348 5.0000000000 0.1359099895 2.4334199429 72.641838074 3.8979437351 5.1080036163
 3216.8657227 5.0000000000 0.1489000022 2.4153258801 75.149368286 3.7162218094 4.4890275002
 3217.0180664 5.0000000000 0.1649200022 2.3991076946 77.216789246 3.5324165821 3.5879900455
 3217.1704102 5.0000000000 0.1828300059 2.3854920864 78.441253662 3.3673670292 3.0401995182
 3217.3227539 5.0000000000 0.1988199949 2.3760583401 79.008499146 3.2477819920 2.7222712040
 3217.4753418 5.0000000000 0.2057300061 2.3740534782 79.450515747 3.1925220490 2.4526920319
 3217.6276855 5.0000000000 0.2059199959 2.3773503304 80.294784546 3.0918722153 2.3022162914
 3217.7800293 5.0000000000 0.2002599835 2.3818612099 81.586074829 2.9463148117 2.2382488251
 3217.9323730 5.0000000000 0.1932500005 2.3851258755 82.750671387 2.8013460636 2.2277894020
 3218.0847168 5.0000000000 0.1909099966 2.3870182037 83.765098572 2.6881408691 2.2461876869
 3218.2373047 5.0000000000 0.1787499934 2.3884584904 84.808807373 2.6112728119 2.2068514824
 3218.3896484 5.0000000000 0.1645400077 2.3889703751 85.490394592 2.6081385612 2.1729307175
 3218.5419922 5.0000000000 0.1560700089 2.3882555962 85.913108826 2.6667134762 2.2688937187
 3218.6943359 5.0000000000 0.1543799937 2.3868567944 85.851203918 2.7638809681 2.4151263237
 3218.8469238 5.0000000000 0.1584700048 2.3846752644 85.474609375 2.9068262577 2.5692031384
 3218.9992676 5.0000000000 0.1632699966 2.3814787865 84.472831726 3.1521754265 2.8370862007
 3219.1516113 5.0000000000 0.1668400019 2.3781993389 83.710136414 3.3012521267 3.1845529079
 3219.3039551 5.0000000000 0.1721999943 2.3770320415 83.533187866 3.3179121017 3.4447386265
 3219.4565430 5.0000000000 0.1798100024 2.3778135777 83.838592529 3.2966783047 3.5423069000
 3219.6088867 6.0000000000 0.1829800010 2.3788316250 84.768920898 3.2102353573 3.5003318787
 3219.7612305 6.0000000000 0.1830100119 2.3815956116 85.821968079 3.1145451069 3.4264264107
 3219.9135742 6.0000000000 0.1830500066 2.3860161304 87.861564636 3.0340576172 3.3170802593
 3220.0661621 6.0000000000 0.1822599918 2.3923397064 90.503890991 2.9988160133 3.1193034649
 3220.2185059 6.0000000000 0.1826699972 2.3969349861 93.070129395 3.0240440369 2.7869942188
 3220.3708496 6.0000000000 0.1846799999 2.4000577927 95.224960327 3.0445699692 2.5956685543
 3220.5231934 6.0000000000 0.1855800003 2.4030184746 97.001655579 3.0416440964 2.5517110825
 3220.6755371 6.0000000000 0.1872500032 2.4061865807 98.059989929 3.0675020218 2.5091164112
 3220.8281250 6.0000000000 0.1894800067 2.4097745419 98.715843201 3.1240582466 2.5436019897
 3220.9804688 6.0000000000 0.1911100000 2.4146070480 99.466972351 3.1596007347 2.6802301407
 3221.1328125 6.0000000000 0.1919099987 2.4200549126 100.05384827 3.2044839859 2.8183660507
 3221.2851563 6.0000000000 0.1870100051 2.4232752323 100.32068634 3.2609357834 2.8651053905
 3221.4377441 6.0000000000 0.1745999902 2.4239091873 100.22903442 3.2907922268 2.8697874546
 3221.5900879 6.0000000000 0.1735399961 2.4228937626 99.791671753 3.2581274509 2.8975403309
 3221.7424316 6.0000000000 0.1804199964 2.4206531048 99.115051270 3.0362818241 3.0700082779
 3221.8947754 6.0000000000 0.1890200078 2.4177250862 98.542182922 2.8654224873 3.0751969814
 3222.0473633 6.0000000000 0.2010199875 2.4140970707 98.334144592 2.8483884335 2.9457566738
 3222.1997070 6.0000000000 0.2117499858 2.4111344814 98.728607178 2.8700280190 2.8418400288
 3222.3520508 6.0000000000 0.2141500115 2.4093241692 99.350433350 2.9327692986 2.6683557034
 3222.5043945 6.0000000000 0.2030600011 2.4083569050 99.752632141 3.0349943638 2.4973106384
 3222.6567383 6.0000000000 0.1942999959 2.4096326828 99.338966370 3.1237790585 2.4156548977
 3222.8093262 6.0000000000 0.1920400113 2.4114651680 98.157485962 3.1871507168 2.4101200104
 3222.9616699 6.0000000000 0.1868700087 2.4123299122 96.598022461 3.2352244854 2.4385638237
 3223.1140137 5.0000000000 0.1774599999 2.4158396721 94.269264221 3.2706763744 2.4928717613
 3223.2663574 5.0000000000 0.1652500033 2.4283087254 92.184677124 3.3069519997 2.5684127808
 3223.4189453 5.0000000000 0.1512899995 2.4463884830 90.092346191 3.4084935188 2.7370941639
 3223.5712891 5.0000000000 0.1395100057 2.4658076763 88.659828186 3.4845795631 2.9963383675
 3223.7236328 5.0000000000 0.1350599974 2.4760177135 88.585144043 3.2991163731 3.6020696163
 3223.8759766 5.0000000000 0.1369699985 2.4718689919 89.326370239 3.0646235943 4.2189469337
 3224.0285645 5.0000000000 0.1461400092 2.4586491585 90.763710022 3.0116884708 3.9603283405
 3224.1809082 6.0000000000 0.1533000022 2.4442703724 92.177925110 3.0112607479 3.2577681541
 3224.3332520 6.0000000000 0.1571200043 2.4333369732 93.217308044 3.0622813702 2.8467004299
 3224.4855957 6.0000000000 0.1602399945 2.4273841381 93.217811584 3.1986823082 2.6328270435
 3224.6379395 6.0000000000 0.1614699960 2.4260795116 91.920173645 3.2768964767 2.5361037254
 3224.7905273 6.0000000000 0.1617400050 2.4280138016 88.468582153 3.3295125961 2.4999144077
 3224.9428711 6.0000000000 0.1476400048 2.4342379570 83.657722473 3.3847811222 2.5021040440
 3225.0952148 6.0000000000 0.1262899935 2.4452488422 79.698387146 3.4409208298 2.5762271881
 3225.2475586 6.0000000000 0.1094600037 2.4596607685 77.203971863 3.5582175255 2.8501493931
 3225.4001465 5.0000000000 0.1008899957 2.4789285660 76.363578796 3.5132923126 3.5047261715
 3225.5524902 5.0000000000 0.1089399979 2.5009827614 77.977043152 3.1713874340 4.5638332367
 3225.7048340 5.0000000000 0.1274899989 2.5135543346 81.376411438 2.9180743694 5.0676712990
 3225.8571777 5.0000000000 0.1439200044 2.5127260685 85.044395447 2.7442703247 4.2729930878
 3226.0097656 5.0000000000 0.1503999978 2.5015771389 88.883102417 2.5826578140 3.3698515892
 3226.1621094 6.0000000000 0.1596800089 2.4815187454 91.629493713 2.4728024006 2.5507805347
 3226.3144531 6.0000000000 0.1859399974 2.4570791721 92.836105347 2.7975020409 1.5953025818
 3226.4667969 6.0000000000 0.1974699944 2.4356172085 93.150642395 2.8629207611 1.6412222385
 3226.6191406 6.0000000000 0.1882099956 2.4244630337 93.441146851 2.5967302322 2.1721014977
 3226.7717285 6.0000000000 0.1794300079 2.4208216667 94.333839417 2.4684159756 2.4207546711
