# LAS format log file from PETREL
# Project units are specified as depth units
#==================================================================
~Version information
VERS.   2.0:
WRAP.   NO:
#==================================================================
~Well
STRT .m      1332.7867432 :
STOP .m      2972.7631836 :
STEP .m     0.00000000 :
NULL .        -999.250000 :
COMP.           : COMPANY
WELL.  25/10-9 Aegis   : WELL
FLD.            : FIELD
LOC.            : LOCATION
SRVC.           : SERVICE COMPANY
DATE.  2018-09-11 14:48:15   : Log Export Date {yyyy-MM-dd HH:mm:ss}
PROV.           : PROVINCE
UWI.   25/10-9   : UNIQUE WELL ID
API.            : API NUMBER
#==================================================================
~Curve
DEPT .m                   : DEPTH
Lithology_geolink ._      : Lithology_geolink
CALI .in                  : CALI
BS .in                    : BS
ROP .m/h                  : ROP
DRHO .g/cm3               : DRHO
NPHI .m3/m3               : NPHI
RHOB .g/cm3               : RHOB
PEF .b/e                  : PEF
GR .gAPI                  : GR
DTC .us/ft                : DTC
DTS .us/ft                : DTS
RDEP .ohm.m               : RDEP
RMED .ohm.m               : RMED
~Parameter
#==================================================================
~Ascii
# ...
 2640.3786621 13.000000000 8.6859998703 8.5000000000 92.122703552 0.1008000001 0.1454000026 2.6447999477 5.0440001488 66.669898987 75.630393982 150.95520020 2.8169517517 2.8011729717
 2640.5312500 13.000000000 8.6605997086 8.5000000000 93.040031433 0.0932999998 0.1421000063 2.6270999908 4.7936000824 72.418502808 76.186203003 152.11210632 2.8615283966 2.7841274738
 2640.6835938 13.000000000 8.6250000000 8.5000000000 95.944877625 0.0917999968 0.1451999992 2.6401998997 4.7262997627 80.505699158 76.546302795 153.51919556 2.8588044643 2.7575426102
 2640.8359375 13.000000000 8.7411003113 8.5000000000 95.528221130 0.0658000037 0.1537999958 2.5920000076 4.7437000275 76.115600586 76.954589844 156.98359680 2.6945636272 2.6139304638
 2640.9882813 13.000000000 8.6623001099 8.5000000000 96.958335876 0.0778999999 0.1620000005 2.6070001125 4.7291998863 71.408897400 77.676803589 158.61500549 2.6422834396 2.5627818108
 2641.1406250 13.000000000 8.6125001907 8.5000000000 97.867454529 0.0810000002 0.1668999940 2.6019999981 4.5721001625 77.929496765 78.941802979 159.48809814 2.6318333149 2.5554232597
 2641.2932129 13.000000000 8.6009998322 8.5000000000 94.486221313 0.0776999965 0.1728000045 2.6017000675 4.2038998604 76.793800354 80.181999207 159.59770203 2.6084375381 2.6139061451
 2641.4455566 13.000000000 8.6458997726 8.5000000000 94.462600708 0.0776000097 0.1711000055 2.6001000404 4.4797000885 86.551803589 79.789710999 161.42779541 2.5499999523 2.4579000473
 2641.5979004 13.000000000 8.6182003021 8.5000000000 97.403869629 0.0819000006 0.1701000035 2.6073999405 4.6862998009 80.005699158 78.177696228 163.45880127 2.5553998947 2.4156999588
 2641.7502441 13.000000000 8.5783004761 8.5000000000 100.38713837 0.0715000033 0.1640000045 2.5880999565 4.3786001205 78.114303589 75.463500977 162.07530212 2.5699999332 2.4519999027
 2641.9028320 13.000000000 8.6621999741 8.5000000000 100.40026093 0.0680999979 0.1563999951 2.5792996883 4.4528999329 76.855400085 74.668197632 160.36849976 2.6001000404 2.4681999683
 2642.0551758 13.000000000 8.7332000732 8.5000000000 97.715225220 0.0791999996 0.1599999964 2.5725998878 4.6167001724 74.202499390 76.433998108 159.79350281 2.6124999523 2.5332999229
 2642.2075195 13.000000000 8.8060998917 8.5000000000 95.001968384 0.0943000019 0.1644999981 2.5864999294 4.6198000908 77.661399841 78.809799194 159.60249329 2.5724999905 2.5817999840
 2642.3598633 13.000000000 8.8257999420 8.5000000000 93.032806396 0.1058999971 0.1679999977 2.6094000340 4.7979001999 85.071601868 79.570610046 158.89939880 2.3331999779 2.2355000973
 2642.5124512 13.000000000 8.7847995758 8.5000000000 93.038711548 0.1054999977 0.1700000018 2.6054000854 4.8387999535 86.551803589 79.468200684 153.20989990 2.3578000069 2.1752998829
 2642.6647949 13.000000000 8.7473001480 8.5000000000 91.917976379 0.0989999995 0.1578000039 2.5968999863 4.6378998756 81.641998291 79.218109131 150.05090332 2.6603999138 2.4142999649
 2642.8171387 13.000000000 8.6784000397 8.5000000000 90.924545288 0.0887999982 0.1481000036 2.5931000710 4.4163999557 76.189002991 80.278297424 150.06530762 2.9739999771 2.7183001041
 2642.9694824 13.000000000 8.7529001236 8.5000000000 90.744422913 0.0865999982 0.1242000014 2.5782001019 4.7874999046 71.520500183 79.219200134 150.61010742 3.1257998943 2.8645999432
 2643.1218262 13.000000000 8.7580995560 8.5000000000 89.732612610 0.0942000002 0.1208000034 2.6066000462 4.6642999649 64.935699463 76.298606873 144.30430603 3.3308000565 3.0425999165
 2643.2744141 13.000000000 8.7501001358 8.5000000000 85.241142273 0.0894000009 0.1134999990 2.5934998989 4.4853000641 57.655399323 74.550590515 140.51679993 3.7202000618 3.6735000610
 2643.4267578 13.000000000 8.6420001984 8.5000000000 78.911422729 0.0953999981 0.1089999974 2.6266999245 5.1845998764 65.519798279 75.134498596 140.17230225 2.9867999554 3.0724000931
 2643.5791016 13.000000000 8.7024002075 8.5000000000 79.169952393 0.0865999982 0.1520999968 2.6210000515 5.2506999969 83.306701660 76.237701416 140.24600220 2.6356999874 2.6345000267
 2643.7314453 13.000000000 8.7566003799 8.5000000000 84.805442810 0.0877000019 0.1622000039 2.6078000069 4.5928001404 91.650100708 79.579101563 146.33799744 2.4086000919 2.3793001175
 2643.8840332 13.000000000 8.7760000229 8.5000000000 93.107612610 0.0793000013 0.1789000034 2.5571000576 4.5029997826 91.838500977 81.453903198 150.88661194 2.2527999878 2.0724999905
 2644.0363770 13.000000000 8.7809000015 8.5000000000 106.30150604 0.0837000012 0.1708000004 2.5613999367 4.3161001205 94.919097900 83.957199097 156.61799622 2.3122000694 1.9938000441
 2644.1887207 13.000000000 8.7372999191 8.5000000000 112.65682983 0.0912000015 0.1464000046 2.5668001175 4.1342000961 103.06120300 85.277603149 158.06799316 2.8401999474 2.2497999668
 2644.3410645 13.000000000 8.6282997131 8.5000000000 100.92913818 0.0881000012 0.1155999973 2.5724999905 4.1813001633 80.149002075 86.610496521 158.29289246 4.1817002296 3.2516999245
 2644.4936523 13.000000000 8.6588001251 8.5000000000 80.956039429 0.0861999989 0.0878000036 2.5905001163 4.1510000229 66.943397522 86.274200439 158.12030029 5.6690998077 4.9194998741
 2644.6459961 9.0000000000 8.7547998428 8.5000000000 66.513778687 0.0957000032 0.0593999997 2.6266000271 4.8303999901 47.821098328 86.781303406 158.76689148 5.8694000244 5.8902001381
 2644.7983398 9.0000000000 8.7611999512 8.5000000000 58.893043518 0.1088000014 0.0588999987 2.6607000828 5.5079002380 39.806198120 87.555206299 160.45350647 5.7112998962 6.5816998482
 2644.9506836 9.0000000000 8.7392997742 8.5000000000 58.767715454 0.1045000032 0.0653000027 2.6677999496 5.3586001396 39.835201263 88.869003296 161.79519653 5.4077000618 7.2923002243
 2645.1030273 9.0000000000 8.7417001724 8.5000000000 66.865158081 0.1018999964 0.0697999969 2.6605999470 5.2049999237 44.233501434 87.731399536 162.81089783 4.7484002113 6.7086000443
 2645.2556152 9.0000000000 8.7472000122 8.5000000000 78.015419006 0.1074000001 0.0855000019 2.6630001068 5.4454998970 55.882301331 85.241302490 160.37100220 3.9432001114 5.2480001450
 2645.4079590 13.000000000 8.7532997131 8.5000000000 85.205383301 0.1024999991 0.1190999970 2.6461999416 5.4236001968 71.415298462 84.359596252 157.76850891 2.9312000275 3.3266999722
 2645.5603027 13.000000000 8.7320995331 8.5000000000 96.521987915 0.1067999974 0.1579000056 2.6300001144 5.0219998360 84.283599854 82.997200012 154.66569519 2.5782999992 2.4739999771
 2645.7126465 13.000000000 8.8090000153 8.5000000000 110.11318970 0.0944000036 0.1768999994 2.5850999355 4.2878999710 85.468803406 79.074897766 150.84089661 3.1075999737 2.6361999512
 2645.8652344 13.000000000 8.7334995270 8.5000000000 114.37105560 0.1045999974 0.1599999964 2.5940999985 4.2788000107 77.964897156 76.272399902 146.02059937 3.9481000900 3.1935000420
 2646.0175781 13.000000000 8.6365003586 8.5000000000 109.90453339 0.0812999979 0.1362999976 2.5847001076 4.1154999733 64.848297119 72.344902039 143.17889404 5.5001001358 4.8406000137
 2646.1699219 13.000000000 8.7291002274 8.5000000000 99.385833740 0.0785999969 0.1158000007 2.5943999290 4.2771000862 54.726699829 69.746398926 142.02160645 5.4239997864 5.2239999771
 2646.3222656 13.000000000 8.7684001923 8.5000000000 94.285102844 0.1063999981 0.1171000004 2.6454000473 5.2017998695 55.921699524 70.079803467 138.43319702 4.0090999603 3.7455000877
 2646.4748535 13.000000000 8.7580003738 8.5000000000 100.09580231 0.1020999998 0.1158000007 2.6321001053 5.1048002243 65.257797241 69.873298645 139.20680237 3.2325999737 2.9530999660
 2646.6271973 13.000000000 8.7390003204 8.5000000000 112.49508667 0.1035000011 0.1061000004 2.6291000843 4.7298002243 76.505302429 69.603698730 138.41940308 3.1858999729 2.9056000710
 2646.7795410 13.000000000 8.7624998093 8.5000000000 123.03936768 0.1040000021 0.0918999985 2.6284999847 4.6452999115 70.557296753 68.486297607 135.64320374 3.6291000843 3.3754999638
 2646.9318848 13.000000000 8.7818002701 8.5000000000 115.19324493 0.1062999964 0.0861999989 2.6287999153 4.6338000298 56.497398376 66.922096252 133.11289978 4.6870999336 4.7174000740
