# LAS format log file from PETREL
# Project units are specified as depth units
#==================================================================
~Version information
VERS.   2.0:
WRAP.   NO:
#==================================================================
~Well
STRT .m      460.12496948 :
STOP .m      2548.7502441 :
STEP .m     0.00000000 :
NULL .        -999.250000 :
COMP.           : COMPANY
WELL.  25/10-4R  Balder Appr   : WELL
FLD.            : FIELD
LOC.            : LOCATION
SRVC.           : SERVICE COMPANY
DATE.  2018-09-11 14:48:14   : Log Export Date {yyyy-MM-dd HH:mm:ss}
PROV.           : PROVINCE
UWI.   25/10-4 R   : UNIQUE WELL ID
API.            : API NUMBER
#==================================================================
~Curve
DEPT .m                   : DEPTH
Lithology_geolink ._      : Lithology_geolink
CALI .in                  : CALI
MUDWEIGHT ._              : MUDWEIGHT
ROP .m/h                  : ROP
DRHO .g/cm3               : DRHO
NPHI .m3/m3               : NPHI
RHOB .g/cm3               : RHOB
GR .gAPI                  : GR
DTC .us/ft                : DTC
RDEP .ohm.m               : RDEP
SP .mV                    : SP
RSHA .ohm.m               : RSHA
RMED .ohm.m               : RMED
~Parameter
#==================================================================
~Ascii
# ...
 740.62500000  -999.250000 15.611000061 1.0800000429 1.6364829540  -999.250000  -999.250000  -999.250000 32.754001617 157.98899841 1.2079999447 21.767000198  -999.250000 1.6280000210
 740.75000000  -999.250000 15.595000267 1.0800000429 1.6364829540  -999.250000  -999.250000  -999.250000 32.750000000 158.10899353 1.1859999895 21.882999420  -999.250000 1.6189999580
 740.87506104  -999.250000 15.574999809 1.0800000429 1.6367291212  -999.250000  -999.250000  -999.250000 33.291999817 158.20500183 1.1640000343 21.781999588  -999.250000 1.6030000448
 741.00000000  -999.250000 15.541000366 1.0800000429 1.6368110180  -999.250000  -999.250000  -999.250000 33.379001617 158.59399414 1.1419999599 21.424999237  -999.250000 1.5839999914
 741.12500000  -999.250000 15.430000305 1.0800000429 1.6371392012  -999.250000  -999.250000  -999.250000 31.955999374 159.05000305 1.1139999628 21.027000427  -999.250000 1.5650000572
 741.25000000  -999.250000 15.260000229 1.0800000429 1.6373031139  -999.250000  -999.250000  -999.250000 30.808000565 159.22201538 1.0759999752 20.695999146  -999.250000 1.5449999571
 741.37500000  -999.250000 15.079999924 1.0800000429 1.6374671459  -999.250000  -999.250000  -999.250000 30.061000824 158.93698120 1.0340000391 20.711999893  -999.250000 1.5260000229
 741.50006104  -999.250000 14.883999825 1.0800000429 1.6374671459  -999.250000  -999.250000  -999.250000 30.212999344 158.26899719 0.9940000176 21.038000107  -999.250000 1.5130000114
 741.62500000  -999.250000 14.597999573 1.0800000429 1.6519027948  -999.250000  -999.250000  -999.250000 30.917999268 157.38600159 0.9580000043 21.388000488  -999.250000 1.5049999952
 741.75000000  -999.250000 14.291999817 1.0800000429 1.6517388821  -999.250000  -999.250000  -999.250000 30.951000214 156.74499512 0.9300000072 21.874000549  -999.250000 1.4980000257
 741.87500000  -999.250000 13.986000061 1.0800000429 1.6513288021  -999.250000  -999.250000  -999.250000 30.402999878 156.28100586 0.9029999971 22.245000839  -999.250000 1.4910000563
 742.00000000  -999.250000 13.712000847 1.0800000429 1.3024934530  -999.250000  -999.250000  -999.250000 28.690999985 156.17999268 0.8769999743 22.253000259  -999.250000 1.5049999952
 742.12493896  -999.250000 13.521000862 1.0800000429 0.6349202991  -999.250000  -999.250000  -999.250000 26.790000916 156.63900757 0.8560000062 22.132999420  -999.250000 1.5080000162
 742.25000000  -999.250000 13.347998619 1.0800000429 0.6418980360  -999.250000  -999.250000  -999.250000 24.964000702 157.26499939 0.8439999819 22.076999664  -999.250000 1.5110000372
 742.37500000  -999.250000 13.175000191 1.0800000429 0.6446850300  -999.250000  -999.250000  -999.250000 23.700000763 157.84698486 0.8320000172 22.024999619  -999.250000 1.5140000582
 742.50000000  -999.250000 13.001999855 1.0800000429 0.6505905986  -999.250000  -999.250000  -999.250000 23.493999481 158.07699585 0.8209999800 21.781999588  -999.250000 1.5149999857
 742.62506104  -999.250000 12.868000031 1.0800000429 0.6505084634  -999.250000  -999.250000  -999.250000 24.281000137 157.48899841 0.8090000153 21.804000854  -999.250000 1.5119999647
 742.75000000  -999.250000 12.792000771 1.0800000429 0.6502624750  -999.250000  -999.250000  -999.250000 25.260999680 156.56599426 0.8019999862 21.982000351  -999.250000 1.5080000162
 742.87500000  -999.250000 12.729000092 1.0800000429 0.6502624750  -999.250000  -999.250000  -999.250000 26.316999435 155.70500183 0.8029999733 22.353000641  -999.250000 1.5049999952
 743.00000000  -999.250000 12.661000252 1.0800000429 0.6502624750  -999.250000  -999.250000  -999.250000 26.378000259 155.11700439 0.8050000072 22.945999146  -999.250000 1.5019999743
 743.12500000  -999.250000 12.623999596 1.0800000429 0.6502624750  -999.250000  -999.250000  -999.250000 25.910999298 154.72999573 0.8080000281 23.415000916  -999.250000 1.4980000257
 743.25006104  -999.250000 12.618000984 1.0800000429 0.6502624750  -999.250000  -999.250000  -999.250000 25.489000320 154.57699585 0.8109999895 23.677000046  -999.250000 1.4960000515
 743.37500000  -999.250000 12.618000984 1.0800000429 0.6502624750  -999.250000  -999.250000  -999.250000 25.590999603 154.47999573 0.8140000105 23.798999786  -999.250000 1.4960000515
 743.50000000  -999.250000 12.647000313 1.0800000429 0.6502624750  -999.250000  -999.250000  -999.250000 26.423999786 154.33099365 0.8169999719 23.877000809  -999.250000 1.4960000515
 743.62500000  -999.250000 12.772000313 1.0800000429 0.6502624750  -999.250000  -999.250000  -999.250000 27.333999634 154.80900574 0.8199999928 23.636999130  -999.250000 1.4960000515
 743.75000000  -999.250000 12.972000122 1.0800000429 0.6500985622  -999.250000  -999.250000  -999.250000 27.944000244 155.23100281 0.8199999928 23.455999374  -999.250000 1.4960000515
 743.87493896  -999.250000 13.183999062 1.0800000429 0.6499344110  -999.250000  -999.250000  -999.250000 28.320999146 155.70300293 0.8199999928 23.267000198  -999.250000 1.4960000515
 744.00000000  -999.250000 13.395999908 1.0800000429 0.6499344110  -999.250000  -999.250000  -999.250000 28.299999237 156.78399658 0.8199999928 23.079999924  -999.250000 1.4960000515
 744.12500000  -999.250000 13.609000206 1.0800000429 0.6499344110  -999.250000  -999.250000  -999.250000 27.850000381 158.21899414 0.8199999928 22.896999359  -999.250000 1.4960000515
 744.25000000  -999.250000 13.821001053 1.0800000429 0.6499344110  -999.250000  -999.250000  -999.250000 27.287000656 159.61700439 0.8190000057 22.891000748  -999.250000 1.4960000515
 744.37500000  -999.250000 13.961000443 1.0800000429 0.6499344110  -999.250000  -999.250000  -999.250000 26.464000702 160.71099854 0.8149999976 22.888999939  -999.250000 1.4960000515
 744.50000000  -999.250000 14.034999847 1.0800000429 0.6499344110  -999.250000  -999.250000  -999.250000 25.533000946 161.36300659 0.8149999976 22.886999130  -999.250000 1.4960000515
 744.62500000  -999.250000 14.038000107 1.0800000429 0.6499344110  -999.250000  -999.250000  -999.250000 25.108999252 161.20599365 0.8159999847 22.462999344  -999.250000 1.4969999790
 744.75000000  -999.250000 13.977000237 1.0800000429 0.6499344110  -999.250000  -999.250000  -999.250000 25.159999847 160.44500732 0.8190000057 21.899000168  -999.250000 1.4969999790
 744.87500000  -999.250000 13.861999512 1.0800000429 0.6499344110  -999.250000  -999.250000  -999.250000 25.080999374 159.61000061 0.8220000267 21.464000702  -999.250000 1.4969999790
 745.00006104  -999.250000 13.737000465 1.0800000429 0.6496062875  -999.250000  -999.250000  -999.250000 24.770999908 159.01799011 0.8249999881 21.030000687  -999.250000 1.4969999790
 745.12500000  -999.250000 13.621000290 1.0800000429 0.6496062875  -999.250000  -999.250000  -999.250000 23.913999557 158.84199524 0.8280000091 20.813999176  -999.250000 1.4950000048
 745.25000000  -999.250000 13.579999924 1.0800000429 0.6496062875  -999.250000  -999.250000  -999.250000 23.294000626 158.77600098 0.8299999833 21.537000656  -999.250000 1.4859999418
 745.37500000  -999.250000 13.564999580 1.0800000429 0.6496062875  -999.250000  -999.250000  -999.250000 23.072999954 158.77799988 0.8299999833 22.260999680  -999.250000 1.4769999981
 745.50000000  -999.250000 13.551999092 1.0800000429 0.6496062875  -999.250000  -999.250000  -999.250000 23.489999771 158.77999878 0.8299999833 22.974000931  -999.250000 1.4689999819
 745.62493896  -999.250000 13.583000183 1.0800000429 0.6496062875  -999.250000  -999.250000  -999.250000 24.398000717 158.50900269 0.8280000091 23.631000519  -999.250000 1.4650000334
 745.75000000  -999.250000 13.630999565 1.0800000429 0.6496062875  -999.250000  -999.250000  -999.250000 24.952999115 158.21000671 0.8240000010 24.268999100  -999.250000 1.4630000591
 745.87500000  -999.250000 13.748999596 1.0800000429 0.6496062875  -999.250000  -999.250000  -999.250000 25.065000534 157.87699890 0.8190000057 24.608999252  -999.250000 1.4630000591
 746.00000000  -999.250000 13.883999825 1.0800000429 0.6496062875  -999.250000  -999.250000  -999.250000 24.764999390 156.82701111 0.8149999976 24.378999710  -999.250000 1.4579999447
