# LAS format log file from PETREL
# Project units are specified as depth units
#==================================================================
~Version information
VERS.   2.0:
WRAP.   NO:
#==================================================================
~Well
STRT .m      1090.1660156 :
STOP .m      2511.1435547 :
STEP .m     0.00000000 :
NULL .        -999.250000 :
COMP.           : COMPANY
WELL.  25/10-10  Balder Triassic   : WELL
FLD.            : FIELD
LOC.            : LOCATION
SRVC.           : SERVICE COMPANY
DATE.  2018-09-11 14:48:14   : Log Export Date {yyyy-MM-dd HH:mm:ss}
PROV.           : PROVINCE
UWI.   25/10-10   : UNIQUE WELL ID
API.            : API NUMBER
#==================================================================
~Curve
DEPT .m                   : DEPTH
Lithology_geolink ._      : Lithology_geolink
CALI .in                  : CALI
BS .in                    : BS
ROP .m/h                  : ROP
DRHO .g/cm3               : DRHO
THOR .ppm                 : THOR
NPHI .m3/m3               : NPHI
RHOB .g/cm3               : RHOB
PEF .b/e                  : PEF
GR .gAPI                  : GR
URAN .ppm                 : URAN
DTC .us/ft                : DTC
DTS .us/ft                : DTS
RDEP .ohm.m               : RDEP
RSHA .ohm.m               : RSHA
RMED .ohm.m               : RMED
~Parameter
#==================================================================
~Ascii
# ...
 1749.9055176 5.0000000000 12.370100021 12.250000954 60.522636414 0.0208000001  -999.250000 0.4878707528 2.2057869434 4.3977260590 56.814254761  -999.250000 134.92356873  -999.250000 0.5305023193 0.4931116998 0.5030032396
 1750.0579834 5.0000000000 12.378999710 12.250000954 58.170600891 0.0244999994  -999.250000 0.5192748308 2.1979064941 4.4836311340 58.480869293  -999.250000 134.90892029  -999.250000 0.5282018185 0.4860056937 0.5027002096
 1750.2103271 5.0000000000 12.396800041 12.250000954 57.808403015 0.0197999999  -999.250000 0.5400832891 2.1825122833 4.6423726082 56.453723907  -999.250000 134.86763000  -999.250000 0.5251024961 0.4794052839 0.4864130616
 1750.3627930 5.0000000000 12.413399696 12.250000954 57.889434814 0.0120000001  -999.250000 0.5414988399 2.1670124531 4.7566084862 52.692913055  -999.250000 133.32434082  -999.250000 0.5274980664 0.4821977615 0.4832025766
 1750.5151367 5.0000000000 12.437600136 12.250000954 58.359256744 0.0108000003  -999.250000 0.5089260936 2.1686985493 4.8343377113 49.578395844  -999.250000 133.31172180  -999.250000 0.5165088177 0.4865964949 0.4821009040
 1750.6676025 5.0000000000 12.460201263 12.250000954 61.192916870 0.0164000001  -999.250000 0.4543437064 2.1764938831 4.8246078491 50.685012817  -999.250000 134.06588745  -999.250000 0.5120036006 0.4848014414 0.4834988713
 1750.8199463 5.0000000000 12.476499557 12.250000954 65.074478149 0.0186999999  -999.250000 0.4486045539 2.1819956303 4.7640485764 54.910312653  -999.250000 135.18820190  -999.250000 0.5104013085 0.4854994416 0.4835000038
 1750.9722900 5.0000000000 12.397899628 12.250000954 75.646980286 0.0192000009  -999.250000 0.4479011297 2.1842963696 4.6971073151 56.546382904  -999.250000 136.15673828  -999.250000 0.5142937303 0.4927883148 0.4899896085
 1751.1247559 5.0000000000 12.357999802 12.250000954 85.864501953 0.0216000006  -999.250000 0.4716809392 2.1884965897 4.6694221497 56.247440338  -999.250000 135.87033081  -999.250000 0.5197955966 0.4926001430 0.4919984043
 1751.2770996 5.0000000000 12.365501404 12.250000954 144.59120178 0.0099999998  -999.250000 0.4417480528 2.1738235950 4.4371724129 55.566692352  -999.250000 135.29450989  -999.250000 0.5272880197 0.4907030463 0.4929983914
 1751.4295654 5.0000000000 12.371000290 12.250000954 167.39205933 0.0099999998  -999.250000 0.4042300284 2.1681046486 4.4539861679 52.148838043  -999.250000 135.18669128  -999.250000 0.5163088441 0.4906000793 0.4870047867
 1751.5819092 5.0000000000 12.378701210 12.250000954 183.28904724 0.0052000000  -999.250000 0.3998070359 2.1557197571 4.4549984932 49.178359985  -999.250000 136.22003174  -999.250000 0.5140036941 0.4895017445 0.4840047956
 1751.7343750 5.0000000000 12.378999710 12.250000954 191.91175842 0.0121999998  -999.250000 0.4286768436 2.1654920578 4.5315384865 48.570583344  -999.250000 137.58810425  -999.250000 0.5092038512 0.4820060134 0.4789040685
 1751.8867188 5.0000000000 12.379400253 12.250000954 197.70703125 0.0105999997  -999.250000 0.4519813359 2.1804881096 4.3647341728 48.034130096  -999.250000 137.90583801  -999.250000 0.5013062954 0.4800015986 0.4740039408
 1752.0391846 5.0000000000 12.379599571 12.250000954 197.83332825 0.0118000004  -999.250000 0.4823756516 2.1966872215 4.1993327141 47.363739014  -999.250000 136.78900146  -999.250000 0.5055965185 0.4791007042 0.4703029394
 1752.1915283 5.0000000000 12.392600060 12.250000954 193.65454102 0.0154999997  -999.250000 0.4942904711 2.2085905075 4.2272777557 46.112602234  -999.250000 136.98544312  -999.250000 0.4978062510 0.4714061618 0.4716988802
 1752.3439941 5.0000000000 12.428999901 12.250000954 183.20768738 0.0154999997  -999.250000 0.5181808472 2.1971092224 4.3303174973 43.364799500  -999.250000 136.61439514  -999.250000 0.5061932802 0.4798932076 0.4776951969
 1752.4963379 5.0000000000 12.473199844 12.250000954 135.96226501 0.0174000002  -999.250000 0.4586477578 2.1907052994 4.5776014328 41.799354553  -999.250000 136.93084717  -999.250000 0.5234861374 0.4869942963 0.4924881458
 1752.6488037 5.0000000000 12.513699532 12.250000954 113.68667603 0.0148999998  -999.250000 0.4344193637 2.1776103973 4.7377715111 45.817878723  -999.250000 137.24455261  -999.250000 0.5352905393 0.5053852797 0.5063888431
 1752.8011475 5.0000000000 12.451799393 12.250000954 84.547248840 0.0103000002  -999.250000 0.4430930316 2.1666088104 4.7125205994 52.810997009  -999.250000 137.24580383  -999.250000 0.5389969945 0.5089971423 0.5076990128
 1752.9534912 5.0000000000 12.383899689 12.250000954 69.242454529 0.0076000001  -999.250000 0.4848330617 2.1580138206 4.6266379356 55.271064758  -999.250000 137.68199158  -999.250000 0.5389999747 0.5090000033 0.5077000260
 1753.1059570 5.0000000000 12.394399643 12.250000954 64.291343689 0.0144999996  -999.250000 0.4647161961 2.1729881763 4.7453045845 54.995925903  -999.250000 138.02201843  -999.250000 0.5401990414 0.5133965015 0.5053018928
 1753.2583008 5.0000000000 12.407199860 12.250000954 58.521980286 0.0262000002  -999.250000 0.4351473749 2.2025525570 5.1111135483 59.603511810  -999.250000 138.45451355  -999.250000 0.5416976213 0.5088074207 0.5094932914
 1753.4107666 5.0000000000 12.421999931 12.250000954 56.229660034 0.0390000008  -999.250000 0.4301039875 2.2285792828 5.5038852692 63.457515717  -999.250000 137.67042542  -999.250000 0.5330069661 0.5035042167 0.5039044619
 1753.5631104 5.0000000000 12.455100060 12.250000954 54.283466339 0.0430999994  -999.250000 0.4955949485 2.2277014256 5.7224497795 60.275306702  -999.250000 136.40803528  -999.250000 0.5403881669 0.5091908574 0.5100900531
 1753.7155762 5.0000000000 12.509799004 12.250000954 53.808071136 0.0403000005  -999.250000 0.5849284530 2.2082157135 5.9235386848 57.551280975  -999.250000 136.47085571  -999.250000 0.5386014581 0.5099993348 0.5098002553
 1753.8679199 5.0000000000 12.477499962 12.250000954 53.238185883 0.0346000008  -999.250000 0.6531453133 2.1895151138 5.7605304718 57.956672668  -999.250000 136.18983459  -999.250000 0.5382003188 0.5089008808 0.5087009072
 1754.0203857 5.0000000000 12.410800934 12.250000954 57.582683563 0.0245999992  -999.250000 0.6529002190 2.1827054024 5.4542450905 59.419727325  -999.250000 137.49784851  -999.250000 0.5381000638 0.5143955946 0.5131964087
 1754.1727295 5.0000000000 12.419300079 12.250000954 60.333663940 0.0252999999  -999.250000 0.6214252114 2.1913931370 5.1783213615 63.876125336  -999.250000 136.95553589  -999.250000 0.5476922989 0.5157988667 0.5173966885
 1754.3251953 5.0000000000 12.430200577 12.250000954 71.194877625 0.0315000005  -999.250000 0.5528548956 2.2024912834 5.3321766853 68.106010437  -999.250000 137.39654541  -999.250000 0.5522962809 0.5254922509 0.5197981000
 1754.4775391 5.0000000000 12.435899734 12.250000954 82.028541565 0.0357000008  -999.250000 0.5210254788 2.1890106201 5.7414717674 66.897865295  -999.250000 137.86721802  -999.250000 0.5582951903 0.5242010355 0.5298919082
 1754.6300049 5.0000000000 12.419599533 12.250000954 91.722114563 0.0381000005  -999.250000 0.4928225875 2.1733126640 6.1230945587 64.194763184  -999.250000 136.48262024  -999.250000 0.5676925182 0.5310944319 0.5329974890
 1754.7823486 5.0000000000 12.411599159 12.250000954 92.440948486 0.0430999994  -999.250000 0.4979958236 2.1710019112 6.3628077507 62.856372833  -999.250000 136.45661926  -999.250000 0.5654018521 0.5323989987 0.5315011740
 1754.9348145 5.0000000000 12.385699272 12.250000954 97.131233215 0.0505999997  -999.250000 0.4584317207 2.1799929142 6.5348620415 59.782859802  -999.250000 137.13385010  -999.250000 0.5774902701 0.5398939848 0.5430907011
 1755.0871582 5.0000000000 12.419400215 12.250000954 104.03018951 0.0533000007  -999.250000 0.4988675416 2.1842966080 6.5916547775 57.068874359  -999.250000 138.05735779  -999.250000 0.5690068007 0.5413988233 0.5457978249
 1755.2395020 5.0000000000 12.420998573 12.250000954 104.53445435 0.0496999994  -999.250000 0.5315476656 2.1785092354 6.6475105286 56.594459534  -999.250000 139.65972900  -999.250000 0.5690000057 0.5414000154 0.5457999706
 1755.3919678 5.0000000000 12.422599792 12.250000954 105.99409485 0.0476999991  -999.250000 0.5670715570 2.1758022308 6.6190228462 56.593700409  -999.250000 139.00901794  -999.250000 0.5690000057 0.5414000154 0.5457999706
