# LAS format log file from PETREL
# Project units are specified as depth units
#==================================================================
~Version information
VERS.   2.0:
WRAP.   NO:
#==================================================================
~Well
STRT .m      206.00000000 :
STOP .m      2655.9824219 :
STEP .m     0.00000000 :
NULL .        -999.250000 :
COMP.           : COMPANY
WELL.  25/10-8  Hanz   : WELL
FLD.            : FIELD
LOC.            : LOCATION
SRVC.           : SERVICE COMPANY
DATE.  2018-09-11 14:48:14   : Log Export Date {yyyy-MM-dd HH:mm:ss}
PROV.           : PROVINCE
UWI.   25/10-8   : UNIQUE WELL ID
API.            : API NUMBER
#==================================================================
~Curve
DEPT .m                   : DEPTH
Lithology_geolink ._      : Lithology_geolink
CALI .in                  : CALI
BS .in                    : BS
THOR .ppm                 : THOR
NPHI .m3/m3               : NPHI
RHOB .g/cm3               : RHOB
GR .gAPI                  : GR
URAN .ppm                 : URAN
DTC .us/ft                : DTC
RDEP .ohm.m               : RDEP
RSHA .ohm.m               : RSHA
RMED .ohm.m               : RMED
~Parameter
#==================================================================
~Ascii
# ...
 2320.0927734 11.000000000 8.3287239075 12.250000954 1.1651115417 0.0009765241 2.5446970463 16.809661865 0.7836449146 63.418663025 3.7161922455 6.1586914063 4.0638389587
 2320.2451172 11.000000000 8.3287239075 12.250000954 1.3796447515 0.0009566154 2.5843429565 16.778739929 0.7437608242 62.984161377 3.7993927002 6.2007369995 4.1691303253
 2320.3977051 11.000000000 8.3531417847 12.250000954 1.5790231228 0.0009709504 2.5294444561 14.813655853 0.7016602159 62.867347717 3.8567695618 6.1828937531 4.2586441040
 2320.5500488 11.000000000 8.3470382690 12.250000954 1.7030088902 0.0010055096 2.4757187366 14.769996643 0.6819846034 63.147090912 3.8630743027 6.0634765625 4.2818107605
 2320.7023926 11.000000000 8.3653488159 12.250000954 1.7571550608 0.0010394952 2.4595456123 16.324600220 0.6768961549 63.629920959 3.8210582733 5.8638629913 4.2299957275
 2320.8547363 11.000000000 8.3287239075 12.250000954 1.7660372257 0.0010896971 2.4844000340 15.707790375 0.6607282162 64.129592896 3.7468671799 5.6347980499 4.1272487640
 2321.0073242 11.000000000 8.3531417847 12.250000954 1.7475894690 0.0010453749 2.4957201481 15.111667633 0.6287572384 64.583427429 3.6583662033 5.4078369141 3.9997282028
 2321.1596680 11.000000000 8.3714523315 12.250000954 1.7203859091 0.0011289088 2.4992456436 16.001205444 0.5830551386 64.955863953 3.5727357864 5.2102985382 3.8712911606
 2321.3120117 11.000000000 8.3409309387 12.250000954 1.6982795000 0.0012764760 2.4839713573 16.177375793 0.5198872089 65.203742981 3.5007324219 5.0765094757 3.7618255615
 2321.4643555 11.000000000 8.3287239075 12.250000954 1.6649293900 0.0013062789 2.4530730247 15.706707001 0.4517217875 65.040473938 3.4412918091 5.0236244202 3.6754302979
 2321.6169434 11.000000000 8.3531417847 12.250000954 1.5898959637 0.0012393750 2.4538671970 16.705665588 0.4098969400 64.635131836 3.3878583908 5.0292987823 3.6019906998
 2321.7692871 11.000000000 8.3592453003 12.250000954 1.4465602636 0.0012139999 2.4693074226 16.644966125 0.4216012657 64.546783447 3.3377685547 5.0444564819 3.5331897736
 2321.9216309 11.000000000 8.3531417847 12.250000954 1.2797319889 0.0011638221 2.4847569466 16.712654114 0.4721845984 64.892135620 3.2928524017 5.0235233307 3.4685277939
 2322.0739746 11.000000000 8.3531417847 12.250000954 1.1563614607 0.0013126155 2.5104928017 15.910823822 0.5345461369 65.495979309 3.2580661774 4.9531326294 3.4123468399
 2322.2263184 11.000000000 8.3531417847 12.250000954 1.0892847776 0.0013646249 2.5481052399 14.673744202 0.6006088257 65.909652710 3.2390995026 4.8594665527 3.3727550507
 2322.3789063 11.000000000 8.3836631775 12.250000954 1.0833371878 0.0013937744 2.5313849449 15.728420258 0.6566025615 66.037231445 3.2390098572 4.7801895142 3.3567771912
 2322.5312500 11.000000000 8.3836631775 12.250000954 1.1140654087 0.0012528124 2.5330307484 15.799900055 0.6829115748 66.130325317 3.2598171234 4.7331943512 3.3665485382
 2322.6835938 11.000000000 8.3409309387 12.250000954 1.1502615213 0.0012827020 2.5249934196 14.904315948 0.6720871925 66.157478333 3.3094558716 4.7190284729 3.4059171677
 2322.8359375 11.000000000 8.3470382690 12.250000954 1.1815012693 0.0010873653 2.5147614479 13.044944763 0.6470551491 66.083206177 3.4005727768 4.7445182800 3.4885311127
 2322.9885254 11.000000000 8.3409309387 12.250000954 1.2081928253 0.0010670847 2.5112662315 12.141510010 0.6318206787 65.810165405 3.5314645767 4.8255672455 3.6281909943
 2323.1408691 11.000000000 8.3714523315 12.250000954 1.2479948997 0.0010714375 2.5302858353 14.677097321 0.6492897272 65.141815186 3.6674194336 4.9594764709 3.8086318970
 2323.2932129 11.000000000 8.3531417847 12.250000954 1.2937948704 0.0009462164 2.5632898808 17.330375671 0.7014064193 64.157127380 3.7558994293 5.1101741791 3.9684476852
 2323.4455566 11.000000000 8.3836631775 12.250000954 1.2993320227 0.0009484711 2.5536360741 17.866905212 0.7506256700 63.311061859 3.7717638016 5.2434043884 4.0472564697
 2323.5981445 11.000000000 8.3714523315 12.250000954 1.2298852205 0.0010122084 2.5670537949 16.767944336 0.7902011275 62.929019928 3.7279844284 5.3681774139 4.0429840088
 2323.7504883 11.000000000 8.3348274231 12.250000954 1.1163448095 0.0011283008 2.5713315010 14.087882996 0.8150500059 62.896938324 3.6445245743 5.5078926086 3.9854154587
 2323.9028320 11.000000000 8.3409309387 12.250000954 1.0134128332 0.0011499183 2.5171837807 14.990699768 0.8121269345 63.234157562 3.5347795486 5.6542949677 3.8896045685
 2324.0551758 11.000000000 8.3653488159 12.250000954 0.9251115322 0.0010296298 2.4677562714 16.590026855 0.7914358974 63.836036682 3.4201202393 5.7804946899 3.7684679031
 2324.2075195 11.000000000 8.3714523315 12.250000954 0.8461143970 0.0011413076 2.4420437813 15.594863892 0.7649400234 64.240875244 3.3308811188 5.8826885223 3.6528577805
 2324.3601074 11.000000000 8.3409309387 12.250000954 0.7903589606 0.0011101136 2.4574418068 14.119823456 0.7460820079 64.338859558 3.2928791046 5.9793262482 3.5770530701
 2324.5124512 11.000000000 8.3653488159 12.250000954 0.7746666670 0.0011025096 2.5016367435 13.510635376 0.7483692169 64.206153870 3.3193206787 6.0825462341 3.5616407394
 2324.6647949 11.000000000 8.3409309387 12.250000954 0.7950538397 0.0010608750 2.5544533730 14.222610474 0.7691102624 63.816322327 3.4124126434 6.1848144531 3.6136865616
 2324.8171387 11.000000000 8.3653488159 12.250000954 0.8394519687 0.0010549616 2.5956013203 14.054157257 0.7946927547 63.219467163 3.5628395081 6.2573204041 3.7284421921
 2324.9697266 11.000000000 8.3348274231 12.250000954 0.9017140865 0.0009262176 2.5544080734 14.560077667 0.8278961182 62.761650085 3.7461299896 6.2546195984 3.8859453201
 2325.1220703 11.000000000 8.3653488159 12.250000954 0.9843974113 0.0009809567 2.5577828884 15.402931213 0.8711063862 62.749351501 3.9219007492 6.1307334900 4.0504226685
 2325.2744141 11.000000000 8.3897666931 12.250000954 1.0960205793 0.0009718750 2.5262658596 15.918746948 0.9086038470 62.888538361 4.0290088654 5.8548259735 4.1698417664
 2325.4267578 12.000000000 8.3775596619 12.250000954 1.2108858824 0.0010140192 2.4814040661 16.270996094 0.9274141192 63.391113281 3.9922370911 5.4191055298 4.1732444763
 2325.5793457 12.000000000 8.3714523315 12.250000954 1.3746771812 0.0012230418 2.5036511421 16.129661560 0.9377326369 65.383041382 3.7677412033 4.8517303467 3.9914712906
 2325.7316895 12.000000000 8.3653488159 12.250000954 2.3680076599 0.0014401473 2.5316812992 23.499038696 0.8711153865 68.916366577 3.4142112732 4.2392559052 3.6288270950
 2325.8840332 12.000000000 8.3897666931 12.250000954 4.0516896248 0.0014417547 2.5229156017 37.280212402 0.6948692203 72.077835083 3.0814094543 3.7162036896 3.2163724899
 2326.0363770 12.000000000 8.3836631775 12.250000954 5.0323052406 0.0018413317 2.4995017052 39.351760864 0.5575692654 73.348556519 2.9077901840 3.4152822495 2.9252347946
 2326.1887207 12.000000000 8.3409309387 12.250000954 5.0899500847 0.0017979135 2.4956128597 31.887550354 0.5105528235 72.222259521 2.9479417801 3.4140939713 2.8515787125
 2326.3413086 12.000000000 8.3531417847 12.250000954 4.4276804924 0.0013717872 2.5065293312 26.261756897 0.5188371539 69.048881531 3.1600761414 3.7249450684 3.0012674332
 2326.4936523 11.000000000 8.3409309387 12.250000954 3.1934356689 0.0012386539 2.4946622849 18.519851685 0.5700576901 66.192504883 3.4210901260 4.2567977905 3.2910318375
 2326.6459961 11.000000000 8.3714523315 12.250000954 2.2263960838 0.0010911732 2.4977083206 13.877105713 0.6152718067 65.072067261 3.6114969254 4.7960491180 3.5676622391
 2326.7983398 11.000000000 8.3409309387 12.250000954 1.9015687704 0.0009653943 2.5328819752 14.949611664 0.6367896199 64.984504700 3.7169084549 5.1545486450 3.7443199158
 2326.9509277 11.000000000 8.3836631775 12.250000954 1.7836730480 0.0009651664 2.5552687645 13.630592346 0.6569243670 65.090530396 3.7911615372 5.3500652313 3.8664398193
 2327.1032715 11.000000000 8.3470382690 12.250000954 1.6429679394 0.0009632788 2.6052379608 11.926959991 0.6885320544 65.172073364 3.8564748764 5.4766769409 3.9847249985
 2327.2556152 11.000000000 8.3531417847 12.250000954 1.5468077660 0.0010117115 2.5865454674 13.681262970 0.7105640769 65.093376160 3.8929824829 5.5466403961 4.0811119080
