# LAS format log file from PETREL
# Project units are specified as depth units
#==================================================================
~Version information
VERS.   2.0:
WRAP.   NO:
#==================================================================
~Well
STRT .m      206.00000000 :
STOP .m      2655.9824219 :
STEP .m     0.00000000 :
NULL .        -999.250000 :
COMP.           : COMPANY
WELL.  25/10-8  Hanz   : WELL
FLD.            : FIELD
LOC.            : LOCATION
SRVC.           : SERVICE COMPANY
DATE.  2018-09-11 14:48:14   : Log Export Date {yyyy-MM-dd HH:mm:ss}
PROV.           : PROVINCE
UWI.   25/10-8   : UNIQUE WELL ID
API.            : API NUMBER
#==================================================================
~Curve
DEPT .m                   : DEPTH
Lithology_geolink ._      : Lithology_geolink
CALI .in                  : CALI
BS .in                    : BS
THOR .ppm                 : THOR
NPHI .m3/m3               : NPHI
RHOB .g/cm3               : RHOB
GR .gAPI                  : GR
URAN .ppm                 : URAN
DTC .us/ft                : DTC
RDEP .ohm.m               : RDEP
RSHA .ohm.m               : RSHA
RMED .ohm.m               : RMED
~Parameter
#==================================================================
~Ascii
# ...
 2100.6367188 2.0000000000 17.460884094 12.250000954 2.1847233772 0.0034513702 2.2140898705 32.056259155 0.5473167896 88.076553345 0.6951124668 0.6477799416 0.6833715439
 2100.7893066 2.0000000000 17.473091125 12.250000954 2.0995409489 0.0035312383 2.1837320328 31.157997131 0.6245666742 94.040901184 0.6798892021 0.6287050247 0.6679749489
 2100.9416504 2.0000000000 17.509719849 12.250000954 1.9921360016 0.0034347500 2.1654560566 28.780441284 0.7168359160 99.209182739 0.6545016766 0.6018941402 0.6422941685
 2101.0939941 2.0000000000 17.503616333 12.250000954 1.9155589342 0.0041664038 2.1565613747 30.025444031 0.7806551456 101.38832855 0.6214916706 0.5727372169 0.6094706059
 2101.2463379 2.0000000000 17.503616333 12.250000954 1.8778808117 0.0046458943 2.1357455254 30.857460022 0.8129367828 99.892723083 0.5846776962 0.5456759930 0.5731818676
 2101.3989258 2.0000000000 17.491401672 12.250000954 1.8906717300 0.0038658960 2.1315600872 27.263542175 0.8063499928 96.785118103 0.5490059853 0.5224525928 0.5373504162
 2101.5512695 2.0000000000 17.503616333 12.250000954 1.9586306810 0.0040305001 2.1077637672 26.661155701 0.7597025633 93.993515015 0.5194180012 0.5031163692 0.5060291290
 2101.7036133 2.0000000000 17.656227112 12.250000954 2.0407974720 0.0040962934 2.1136150360 28.561592102 0.6997987628 92.734558105 0.4992281199 0.4880468845 0.4831162691
 2101.8559570 2.0000000000 17.906501770 12.250000954 2.1336205006 0.0044844807 2.1383619308 29.673118591 0.6383935809 93.625846863 0.4875916243 0.4780478477 0.4699077606
 2102.0085449 2.0000000000 17.924819946 12.250000954 2.2378990650 0.0037940834 2.1655769348 29.009727478 0.5774406195 95.436744690 0.4801508188 0.4721856117 0.4633747339
 2102.1608887 2.0000000000 17.924819946 12.250000954 2.3233423233 0.0032597361 2.1468951702 28.293983459 0.5306192040 96.718498230 0.4730519056 0.4679367542 0.4586038589
 2102.3132324 2.0000000000 17.918708801 12.250000954 2.4121115208 0.0033265194 2.1305632591 29.543052673 0.4942436218 97.055892944 0.4659434557 0.4636262655 0.4534181356
 2102.4655762 2.0000000000 17.943130493 12.250000954 2.5196909904 0.0033387693 2.1554877758 29.081779480 0.4551897645 96.021400452 0.4607371092 0.4597963095 0.4493234158
 2102.6179199 2.0000000000 17.949234009 12.250000954 2.6142346859 0.0032641680 2.1595878601 29.206062317 0.4173628092 93.821037292 0.4587514400 0.4579011202 0.4483555555
 2102.7705078 2.0000000000 17.930923462 12.250000954 2.6818504333 0.0033308144 2.1774265766 28.323554993 0.3875889480 91.599792480 0.4598463774 0.4588806629 0.4509251118
 2102.9228516 2.0000000000 17.918708801 12.250000954 2.7451667786 0.0033164087 2.1949970722 28.385513306 0.3806894124 89.983291626 0.4632313251 0.4629292488 0.4562455416
 2103.0751953 2.0000000000 18.089637756 12.250000954 2.8270690441 0.0030730865 2.1931591034 29.844879150 0.4172972739 89.671905518 0.4684579372 0.4699211121 0.4634268284
 2103.2275391 2.0000000000 18.425376892 12.250000954 2.8977231979 0.0032997355 2.1875877380 27.911735535 0.4837333560 91.309638977 0.4757308960 0.4797754288 0.4722777605
 2103.3801270 2.0000000000 18.413169861 12.250000954 2.9391980171 0.0036059713 2.1816308498 27.547889709 0.5415966511 93.727508545 0.4851080179 0.4925838709 0.4831912518
 2103.5324707 2.0000000000 18.400955200 12.250000954 2.9657320976 0.0037260577 2.1726138592 29.489776611 0.5749336481 95.171134949 0.4954407215 0.5076947212 0.4957860708
 2103.6848145 2.0000000000 18.455902100 12.250000954 2.9391429424 0.0035905193 2.1735436916 29.542526245 0.6021862626 94.964401245 0.5045132637 0.5228738785 0.5079252720
 2103.8371582 2.0000000000 18.449790955 12.250000954 2.8284974098 0.0034284713 2.1736311913 29.111541748 0.6364192367 93.042793274 0.5110099316 0.5349643230 0.5169992447
 2103.9897461 2.0000000000 18.407066345 12.250000954 2.6900763512 0.0031308751 2.1795508862 29.771995544 0.6511870623 90.251167297 0.5163567066 0.5424170494 0.5227229595
 2104.1420898 2.0000000000 18.333808899 12.250000954 2.5748398304 0.0032364528 2.2160844803 28.207626343 0.6329408884 87.621742249 0.5241446495 0.5469052792 0.5283885002
 2104.2944336 2.0000000000 18.346015930 12.250000954 2.5065736771 0.0031225819 2.2331819534 29.334518433 0.6012740731 85.432830811 0.5370500088 0.5523757935 0.5384738445
 2104.4467773 2.0000000000 18.577987671 12.250000954 2.5034103394 0.0030269856 2.2167527676 31.841331482 0.5592051148 84.682723999 0.5537443161 0.5615706444 0.5543746948
 2104.5993652 2.0000000000 18.755012512 12.250000954 2.5863401890 0.0029008749 2.2261834145 30.158744812 0.4876067340 86.436820984 0.5693337917 0.5735046864 0.5721647739
 2104.7517090 2.0000000000 18.950355530 12.250000954 2.7093441486 0.0032689550 2.2368474007 28.176063538 0.4107778966 89.822303772 0.5798041821 0.5843884945 0.5855145454
 2104.9040527 2.0000000000 18.999191284 12.250000954 2.8235390186 0.0033388173 2.2165431976 29.876235962 0.3619735539 92.825202942 0.5863790512 0.5915658474 0.5923802853
 2105.0563965 2.0000000000 19.035812378 12.250000954 2.9324924946 0.0029101251 2.2108707428 30.849517822 0.3366174400 93.955360413 0.5935878754 0.5961892605 0.5972986221
 2105.2087402 2.0000000000 19.041915894 12.250000954 3.0185012817 0.0029485913 2.2136235237 29.602058411 0.3316871822 92.868362427 0.6032950878 0.6011526585 0.6054327488
 2105.3613281 2.0000000000 18.968666077 12.250000954 3.0703291893 0.0031094993 2.2290945053 31.171485901 0.3511110544 90.193695068 0.6118481159 0.6068828106 0.6159822941
 2105.5136719 2.0000000000 18.993087769 12.250000954 3.1009457111 0.0027808605 2.2087330818 31.864730835 0.3976581693 87.662063599 0.6140851974 0.6104865074 0.6227021217
 2105.6660156 2.0000000000 18.968666077 12.250000954 3.0975925922 0.0028811826 2.1995165348 29.192070007 0.4631625712 86.104431152 0.6092154980 0.6094198227 0.6212220192
 2105.8183594 2.0000000000 18.968666077 12.250000954 3.0081024170 0.0035751201 2.2098183632 29.522323608 0.5438064337 85.137168884 0.6013705730 0.6047844887 0.6140067577
 2105.9709473 2.0000000000 19.127380371 12.250000954 2.8114655018 0.0038299165 2.1995337009 32.259506226 0.6471350789 85.537117004 0.5950193405 0.6001610756 0.6067211628
 2106.1232910 2.0000000000 19.389869690 12.250000954 2.5693306923 0.0031600385 2.2003264427 30.763389587 0.7603086233 87.096527100 0.5917313099 0.5983614922 0.6027276516
 2106.2756348 2.0000000000 19.505851746 12.250000954 2.3871614933 0.0034859614 2.2046670914 29.058570862 0.8395228982 88.180503845 0.5903434753 0.5999729633 0.6018106937
 2106.4279785 2.0000000000 19.542480469 12.250000954 2.2990512848 0.0030924615 2.1997582912 30.232513428 0.8618435860 88.485008240 0.5888855457 0.6038963795 0.6017620564
 2106.5805664 2.0000000000 19.469223022 12.250000954 2.2942330837 0.0030700832 2.1963510513 33.055404663 0.8478639126 88.325172424 0.5862743855 0.6087021828 0.6005413532
 2106.7329102 2.0000000000 19.389869690 12.250000954 2.3704850674 0.0031335184 2.2061002254 31.995201111 0.8039019108 87.934089661 0.5828626156 0.6136968136 0.5976870060
 2106.8852539 2.0000000000 19.145690918 12.250000954 2.4844956398 0.0029307161 2.1994841099 29.196525574 0.7246235609 88.031288147 0.5796761513 0.6190176010 0.5941779613
 2107.0375977 2.0000000000 19.145690918 12.250000954 2.5516343117 0.0028176634 2.1772000790 29.191589355 0.6500074863 88.552299500 0.5775508881 0.6249427795 0.5911688805
 2107.1899414 2.0000000000 19.157905579 12.250000954 2.5506858826 0.0027040576 2.1764631271 30.067024231 0.6093102694 88.558067322 0.5775203705 0.6317722797 0.5893993378
 2107.3425293 2.0000000000 19.176216125 12.250000954 2.4987626076 0.0027676655 2.2021017075 30.581398010 0.5961062908 88.059043884 0.5819480419 0.6413183212 0.5905129910
 2107.4948730 2.0000000000 19.200630188 12.250000954 2.3924188614 0.0034187885 2.1926612854 29.071014404 0.6102427840 88.328010559 0.5936288834 0.6576182842 0.5979685783
 2107.6472168 2.0000000000 19.402076721 12.250000954 2.2579805851 0.0032794711 2.1847634315 28.730400085 0.6378563046 89.781311035 0.6121470928 0.6837091446 0.6142163277
 2107.7995605 2.0000000000 19.408180237 12.250000954 2.1563589573 0.0029431442 2.1858325005 31.078857422 0.6528050900 91.174232483 0.6316924095 0.7156577110 0.6358306408
