# LAS format log file from PETREL
# Project units are specified as depth units
#==================================================================
~Version information
VERS.   2.0:
WRAP.   NO:
#==================================================================
~Well
STRT .m      984.14562988 :
STOP .m      1996.3865967 :
STEP .m     0.00000000 :
NULL .        -999.250000 :
COMP.           : COMPANY
WELL.  25/11-23  Balder Appr   : WELL
FLD.            : FIELD
LOC.            : LOCATION
SRVC.           : SERVICE COMPANY
DATE.  2018-09-11 14:48:16   : Log Export Date {yyyy-MM-dd HH:mm:ss}
PROV.           : PROVINCE
UWI.   25/11-23   : UNIQUE WELL ID
API.            : API NUMBER
#==================================================================
~Curve
DEPT .m                   : DEPTH
Lithology_geolink ._      : Lithology_geolink
DCAL .in                  : DCAL
CALI .in                  : CALI
BS .in                    : BS
MUDWEIGHT ._              : MUDWEIGHT
ROP .m/h                  : ROP
DRHO .g/cm3               : DRHO
NPHI .m3/m3               : NPHI
RHOB .g/cm3               : RHOB
GR .gAPI                  : GR
DTC .us/ft                : DTC
RDEP .ohm.m               : RDEP
SP .mV                    : SP
RSHA .ohm.m               : RSHA
RMED .ohm.m               : RMED
~Parameter
#==================================================================
~Ascii
# ...
 1453.6900635 5.0000000000 -0.002400398 8.4975996017 8.5000000000 1.3200000525 263163.59375 -0.004400400 0.5326212645 2.1388986111 62.038101196 148.86231995 0.6644259095 0.0000000000 0.7039122581 0.6847273111
 1453.8425293 5.0000000000 -0.002400398 8.4975996017 8.5000000000 1.3200000525 263163.59375 -0.004901442 0.5527467132 2.1369988918 61.290100098 148.27690125 0.6968081594 0.0000000000 0.7191990614 0.7188083529
 1453.9948730 5.0000000000 -0.002900124 8.4970998764 8.5000000000 1.3200000525 255581.29688 -0.006701282 0.5500165224 2.1355996132 61.412300110 147.78915405 0.7070072889 0.0000000000 0.7180067897 0.7292073965
 1454.1473389 5.0000000000 -0.003299713 8.4967002869 8.5000000000 1.3200000525 120480.32813 -0.008301601 0.5466769934 2.1351039410 62.827400208 147.47618103 0.7161036730 0.0000000000 0.7264990211 0.7384032011
 1454.2996826 5.0000000000 0.0053997040 8.5053997040 8.5000000000 1.3200000525 94120.562500 -0.009301843 0.5283886194 2.1377012730 63.401500702 147.90878296 0.7184048891 0.0000000000 0.7259041667 0.7404048443
 1454.4521484 5.0000000000 0.0103998203 8.5103998184 8.5000000000 1.3200000525 94120.562500 -0.011604003 0.5307577252 2.1391022205 62.298198700 148.01296997 0.7245326638 0.0000000000 0.7311003208 0.7464339733
 1454.6044922 5.0000000000 0.0024003980 8.5024003983 8.5000000000 1.3200000525 94120.562500 -0.014102484 0.5441878438 2.1405003071 61.097000122 150.30363464 0.7449337244 0.0000000000 0.7313411236 0.7676355243
 1454.7569580 5.0000000000 -0.002099991 8.4979000092 8.5000000000 1.3200000525 94120.562500 -0.017205125 0.5574017763 2.1406991482 60.377201080 145.73542786 0.7870702744 0.0000000000 0.7827203870 0.8119748235
 1454.9093018 5.0000000000 0.0036001212 8.5036001205 8.5000000000 1.3200000525 94120.562500 -0.020399921 0.5529928803 2.1401040554 61.596599579 142.38369751 0.8309149742 0.0000000000 0.8578499556 0.8586158752
 1455.0616455 5.0000000000 0.0206003208 8.5206003189 8.5000000000 1.3200000525 85778.085938 -0.020297518 0.5347329378 2.1451082230 63.426799774 140.88107300 0.8495990634 0.0000000000 0.9200429916 0.8783993721
 1455.2141113 5.0000000000 0.0188999195 8.5188999176 8.5000000000 1.3200000525 43058.878906 -0.017198078 0.5151242018 2.1553077698 63.464500427 141.96682739 0.8482785225 0.0000000000 0.8488156199 0.8774709105
 1455.3664551 5.0000000000 0.0043001170 8.5043001175 8.5000000000 1.3200000525 43058.878906 -0.014797358 0.5007937551 2.1652064323 62.791400909 143.75688171 0.6968032718 0.0000000000 0.7435872555 0.7165035009
 1455.5189209 5.0000000000 0.0186004601 8.5186004639 8.5000000000 1.3200000525 43058.878906 -0.011497036 0.4911006391 2.1733050346 62.130599976 143.24836731 0.7008873820 0.0000000000 0.7277030349 0.7208867669
 1455.6712646 5.0000000000 0.0087995529 8.5087995529 8.5000000000 1.3200000525 43058.878906 -0.007799119 0.4983418584 2.1794021130 62.616001129 142.95874023 0.6851192117 0.0000000000 0.7315128446 0.7044204473
 1455.8237305 5.0000000000 -0.002300262 8.4976997375 8.5000000000 1.3200000525 43058.878906 -0.006700000 0.5004010797 2.1819999218 63.227500916 142.63781738 0.7091175318 0.0000000000 0.7475083470 0.7299185991
 1455.9760742 5.0000000000 -0.002799988 8.4972000122 8.5000000000 1.3200000525 43531.238281 -0.006699840 0.4912537634 2.1818983555 62.835998535 143.04551697 0.7310069203 0.0000000000 0.7578895092 0.7531071305
 1456.1285400 5.0000000000 0.0064001074 8.5064001083 8.5000000000 1.3200000525 47185.765625 -0.006500802 0.4806397259 2.1800949574 63.834499359 143.94979858 0.7395912409 0.0000000000 0.7447958589 0.7619904876
 1456.2808838 5.0000000000 0.0172004700 8.5172004700 8.5000000000 1.3200000525 52835.246094 -0.007502644 0.4958966672 2.1739928722 65.049697876 144.43695068 0.7286752462 0.0000000000 0.7396836877 0.7500734925
 1456.4333496 5.0000000000 0.0232000407 8.5232000351 8.5000000000 1.3200000525 53506.078125 -0.010800321 0.5032138824 2.1649985313 67.150100708 145.75559998 0.6978616118 0.0000000000 0.7193332911 0.7170650363
 1456.5856934 5.0000000000 0.0289001502 8.5289001465 8.5000000000 1.3200000525 53506.078125 -0.010999279 0.5079422593 2.1641006470 66.338699341 146.31826782 0.7362884283 0.0000000000 0.7400836945 0.7575876713
 1456.7381592 5.0000000000 -0.003999710 8.4960002899 8.5000000000 1.3200000525 53506.078125 -0.010098559 0.4992587268 2.1651034355 65.557197571 146.15406799 0.7219536304 0.0000000000 0.7197318673 0.7422571778
 1456.8905029 5.0000000000 -0.020799641 8.4792003632 8.5000000000 1.3200000525 53506.078125 -0.009199199 0.5022223592 2.1672003269 64.358200073 145.63151550 0.7554506660 0.0000000000 0.7396365404 0.7779540420
 1457.0429688 5.0000000000 -0.008199692 8.4918003082 8.5000000000 1.3200000525 113334.76563 -0.008192314 0.5206476450 2.1675090790 64.299400330 145.51306152 0.8186237216 0.0000000000 0.7852429152 0.8454260826
 1457.1953125 5.0000000000 -0.012999530 8.4870004654 8.5000000000 1.3200000525 401873.12500 -0.003397997 0.5319505930 2.1732010841 64.203697205 145.62097168 0.8333907723 0.0000000000 0.8119927049 0.8616906404
 1457.3476563 5.0000000000 -0.019000050 8.4809999466 8.5000000000 1.3200000525 413323.87500 -0.000900801 0.5365259647 2.1747944355 64.717102051 145.82472229 0.8218537569 0.0000000000 0.8028489351 0.8499512672
 1457.5001221 5.0000000000 -0.017299650 8.4827003479 8.5000000000 1.3200000525 414760.46875 -0.001901763 0.5223720074 2.1678974628 66.557296753 146.23034668 0.7641316652 0.0000000000 0.7391497493 0.7891349792
 1457.6524658 5.0000000000 -0.008600235 8.4913997650 8.5000000000 1.3200000525 416298.50000 -0.004099920 0.5020802617 2.1647024155 67.478500366 146.03111267 0.8036299348 0.0000000000 0.8012394309 0.8328334093
 1457.8049316 5.0000000000 0.0034999852 8.5034999847 8.5000000000 1.3200000525 417867.09375 -0.004002484 0.4872468114 2.1678016186 67.233901978 146.42141724 0.8409346342 0.0000000000 0.8504512906 0.8745310307
 1457.9572754 5.0000000000 0.0193004627 8.5193004608 8.5000000000 1.3200000525 419389.12500 -0.007102963 0.4971478283 2.1697931290 66.476997375 147.17933655 0.7593536377 0.0000000000 0.7896906734 0.7884510756
 1458.1097412 5.0000000000 0.0299997292 8.5299997330 8.5000000000 1.3200000525 421013.31250 -0.010800881 0.5279775858 2.1610956192 66.206802368 147.48486328 0.7014650106 0.0000000000 0.7780906558 0.7273632884
 1458.2620850 5.0000000000 0.0424003638 8.5424003601 8.5000000000 1.3200000525 422502.59375 -0.011898558 0.5382844806 2.1556046009 66.230903625 148.19644165 0.6577959061 0.0000000000 0.7663820982 0.6815961003
 1458.4145508 5.0000000000 0.0410995483 8.5410995483 8.5000000000 1.3200000525 424177.31250 -0.010097758 0.5217843056 2.1614139080 65.615798950 147.62484741 0.6527387500 0.0000000000 0.7441028357 0.6768419743
 1458.5668945 5.0000000000 0.0270004310 8.5270004272 8.5000000000 1.3200000525 425639.93750 -0.008698558 0.5223005414 2.1700043678 64.846298218 146.21548462 0.6769191027 0.0000000000 0.7459132671 0.7030207515
 1458.7193604 5.0000000000 0.0089998255 8.5089778900 8.5000000000 1.3200000525 427361.68750 -0.006900800 0.5184838772 2.1754894257 62.698898315 145.81442261 0.7007230520 0.0000000000 0.7625268698 0.7289238572
 1458.8717041 5.0000000000 -0.004799843 8.4951925278 8.5000000000 1.3200000525 428832.03125 -0.007400801 0.5220738053 2.1689937115 61.298999786 146.94503784 0.7150422931 0.0000000000 0.7792553306 0.7437371016
 1459.0241699 5.0000000000 -0.013899800 8.4861068726 8.5000000000 1.3200000525 425911.56250 -0.008402241 0.5117543936 2.1612892151 60.832500458 146.86848450 0.6431704760 0.0000000000 0.7236627340 0.6653738022
 1459.1765137 5.0000000000 -0.009499550 8.4905061722 8.5000000000 1.3200000525 395058.40625 -0.009801683 0.5098265409 2.1545999050 61.032600403 146.79484558 0.6871162653 0.0000000000 0.7628134489 0.7114162445
 1459.3288574 5.0000000000 -0.002799988 8.4972124100 8.5000000000 1.3200000525 370585.56250 -0.011901202 0.5223011971 2.1546039581 62.065601349 146.99082947 0.7073677778 0.0000000000 0.7795517445 0.7316647768
 1459.4813232 5.0000000000 0.0123996688 8.5124063492 8.5000000000 1.3200000525 367180.56250 -0.013399679 0.5375017524 2.1598067284 62.616798401 146.65031433 0.6671283245 0.0000000000 0.7193259597 0.6877291203
