# LAS format log file from PETREL
# Project units are specified as depth units
#==================================================================
~Version information
VERS.   2.0:
WRAP.   NO:
#==================================================================
~Well
STRT .m      460.12496948 :
STOP .m      2548.7502441 :
STEP .m     0.00000000 :
NULL .        -999.250000 :
COMP.           : COMPANY
WELL.  25/10-4R  Balder Appr   : WELL
FLD.            : FIELD
LOC.            : LOCATION
SRVC.           : SERVICE COMPANY
DATE.  2018-09-11 14:48:14   : Log Export Date {yyyy-MM-dd HH:mm:ss}
PROV.           : PROVINCE
UWI.   25/10-4 R   : UNIQUE WELL ID
API.            : API NUMBER
#==================================================================
~Curve
DEPT .m                   : DEPTH
Lithology_geolink ._      : Lithology_geolink
CALI .in                  : CALI
MUDWEIGHT ._              : MUDWEIGHT
ROP .m/h                  : ROP
DRHO .g/cm3               : DRHO
NPHI .m3/m3               : NPHI
RHOB .g/cm3               : RHOB
GR .gAPI                  : GR
DTC .us/ft                : DTC
RDEP .ohm.m               : RDEP
SP .mV                    : SP
RSHA .ohm.m               : RSHA
RMED .ohm.m               : RMED
~Parameter
#==================================================================
~Ascii
# ...
 1015.6250000  -999.250000 12.788998604 1.0800000429 6.6729822159  -999.250000  -999.250000  -999.250000 45.091999054 128.13000488 1.3550000191 31.113000870  -999.250000 1.9839999676
 1015.7499390  -999.250000 12.935999870 1.0800000429 6.6732282639  -999.250000  -999.250000  -999.250000 46.682998657 133.36099243 1.3300000429 30.729999542  -999.250000 1.9429999590
 1015.8750000  -999.250000 13.123000145 1.0800000429 6.6734747887  -999.250000  -999.250000  -999.250000 49.334999084 138.51600647 1.3020000458 30.228000641  -999.250000 1.9019999504
 1016.0000000  -999.250000 13.432998657 1.0800000429 6.6738843918  -999.250000  -999.250000  -999.250000 51.854999542 140.85200500 1.2690000534 29.722999573  -999.250000 1.8619999886
 1016.1250000  -999.250000 13.704000473 1.0800000429 6.6742949486  -999.250000  -999.250000  -999.250000 56.632999420 141.27600098 1.2359999418 29.399999619  -999.250000 1.8259999752
 1016.2500000  -999.250000 13.826000214 1.0800000429 6.6747045517  -999.250000  -999.250000  -999.250000 61.244998932 141.07899475 1.2029999495 29.704999924  -999.250000 1.7869999409
 1016.3750000  -999.250000 13.887000084 1.0800000429 6.6751151085  -999.250000  -999.250000  -999.250000 64.355003357 140.46899414 1.1699999571 30.087999344  -999.250000 1.7649999857
 1016.5000000  -999.250000 13.890999794 1.0800000429 6.6755247116  -999.250000  -999.250000  -999.250000 64.904998779 139.85800171 1.1460000277 30.471000671  -999.250000 1.7539999485
 1016.6250000  -999.250000 13.875000000 1.0800000429 6.6758532524  -999.250000  -999.250000  -999.250000 64.280998230 139.29299927 1.1369999647 30.853000641  -999.250000 1.7430000305
 1016.7500000  -999.250000 13.784000397 1.0800000429 6.6760168076  -999.250000  -999.250000  -999.250000 63.306999207 139.56399536 1.1390000582 31.159000397  -999.250000 1.7369999886
 1016.8750610  -999.250000 13.626000404 1.0800000429 6.6764273643  -999.250000  -999.250000  -999.250000 62.780998230 140.07899475 1.1410000324 31.369998932  -999.250000 1.7319999933
 1017.0000000  -999.250000 13.406000137 1.0800000429 6.6768374443  -999.250000  -999.250000  -999.250000 62.556999207 140.35299683 1.1440000534 31.069999695  -999.250000 1.7280000448
 1017.1250000  -999.250000 13.173998833 1.0800000429 6.6772480011  -999.250000  -999.250000  -999.250000 62.758998871 140.71499634 1.1569999456 30.455999374  -999.250000 1.7330000401
 1017.2500000  -999.250000 12.972998619 1.0800000429 6.6776571274  -999.250000  -999.250000  -999.250000 63.430000305 141.07699585 1.1670000553 29.878000259  -999.250000 1.7380000353
 1017.3750000  -999.250000 12.854999542 1.0800000429 6.6780676842  -999.250000  -999.250000  -999.250000 64.199996948 140.86799622 1.1740000248 29.479999542  -999.250000 1.7430000305
 1017.4999390  -999.250000 12.755999565 1.0800000429 6.6784772873  -999.250000  -999.250000  -999.250000 64.746002197 140.28300476 1.1840000153 29.127000809  -999.250000 1.7500000000
 1017.6250000  -999.250000 12.663999557 1.0800000429 6.6785597801  -999.250000  -999.250000  -999.250000 64.749000549 139.29800415 1.1979999542 29.129999161  -999.250000 1.7560000420
 1017.7500000  -999.250000 12.618000984 1.0800000429 6.6789703369  -999.250000  -999.250000  -999.250000 63.964000702 138.13600159 1.2209999561 29.336000443  -999.250000 1.7730000019
 1017.8750000  -999.250000 12.590000153 1.0800000429 6.6793804169  -999.250000  -999.250000  -999.250000 62.969001770 136.97399902 1.2410000563 29.872999191  -999.250000 1.7920000553
 1018.0000000  -999.250000 12.583000183 1.0800000429 6.6797900200  -999.250000  -999.250000  -999.250000 62.570999146 135.81300354 1.2619999647 30.423999786  -999.250000 1.8079999685
 1018.1250000  -999.250000 12.630000114 1.0800000429 6.6802000999  -999.250000  -999.250000  -999.250000 63.034999847 134.65100098 1.2849999666 30.986999512  -999.250000 1.8300000429
 1018.2500000  -999.250000 12.678000450 1.0800000429 6.6806106567  -999.250000  -999.250000  -999.250000 64.295997620 133.68499756 1.3070000410 31.562999725  -999.250000 1.8580000401
 1018.3750000  -999.250000 12.725000381 1.0800000429 6.6810207367  -999.250000  -999.250000  -999.250000 67.013999939 133.31199646 1.3159999847 31.695001602  -999.250000 1.8869999647
 1018.5000000  -999.250000 12.772000313 1.0800000429 6.6814303398  -999.250000  -999.250000  -999.250000 67.591003418 132.93899536 1.3270000219 31.693998337  -999.250000 1.9060000181
 1018.6250610  -999.250000 12.763999939 1.0800000429 6.6815128326  -999.250000  -999.250000  -999.250000 67.558998108 132.73300171 1.3350000381 31.691997528  -999.250000 1.9170000553
 1018.7500000  -999.250000 12.715000153 1.0800000429 6.6819229126  -999.250000  -999.250000  -999.250000 67.313003540 132.68299866 1.3409999609 31.626998901  -999.250000 1.9290000200
 1018.8750000  -999.250000 12.658999443 1.0800000429 6.7266149521  -999.250000  -999.250000  -999.250000 67.283996582 132.95399475 1.3389999866 31.348001480  -999.250000 1.9320000410
 1019.0000000  -999.250000 12.604000092 1.0800000429 7.2992129326  -999.250000  -999.250000  -999.250000 68.388000488 133.41200256 1.3270000219 31.278997421  -999.250000 1.9259999990
 1019.1250000  -999.250000 12.574999809 1.0800000429 8.0875072479  -999.250000  -999.250000  -999.250000 69.825996399 133.90499878 1.3200000525 31.688999176  -999.250000 1.9220000505
 1019.2499390  -999.250000 12.562999725 1.0800000429 8.1090879440  -999.250000  -999.250000  -999.250000 72.316001892 134.45599365 1.3129999638 32.361000061  -999.250000 1.9190000296
 1019.3750000  -999.250000 12.557999611 1.0800000429 8.1094980240  -999.250000  -999.250000  -999.250000 87.102996826 134.99499512 1.3059999943 33.035999298  -999.250000 1.9149999619
 1019.5000000  -999.250000 12.557000160 1.0800000429 8.1099081039  -999.250000  -999.250000  -999.250000 144.98100281 135.15199280 1.2990000248 33.648998260  -999.250000 1.9110000134
 1019.6250000  -999.250000 12.557000160 1.0800000429 8.1103181839  -999.250000  -999.250000  -999.250000 188.32099915 135.05400085 1.2920000553 34.066001892  -999.250000 1.9079999924
 1019.7500000  -999.250000 12.555000305 1.0800000429 8.1107282639  -999.250000  -999.250000  -999.250000 199.79800415 134.84800720 1.2849999666 34.251998901  -999.250000 1.9060000181
 1019.8749390  -999.250000 12.539999008 1.0800000429 8.1113843918  -999.250000  -999.250000  -999.250000 199.86999512 134.80200195 1.2749999762 34.296001434  -999.250000 1.8949999809
 1020.0000000  -999.250000 12.522000313 1.0800000429 8.1118774414  -999.250000  -999.250000  -999.250000 198.94500732 135.27099609 1.2640000582 33.606998444  -999.250000 1.8799999952
 1020.1250000  -999.250000 12.506999969 1.0800000429 8.1108922958  -999.250000  -999.250000  -999.250000 184.00999451 136.44799805 1.2510000467 32.825000763  -999.250000 1.8639999628
 1020.2500000  -999.250000 12.494999886 1.0800000429 8.1092519760  -999.250000  -999.250000  -999.250000 144.04299927 137.76800537 1.2369999886 32.124000549  -999.250000 1.8500000238
 1020.3750610  -999.250000 12.484000206 1.0800000429 8.1073646545  -999.250000  -999.250000  -999.250000 94.769996643 139.08799744 1.2209999561 31.677000046  -999.250000 1.8359999657
 1020.5000000  -999.250000 12.475999832 1.0800000429 8.1056423187  -999.250000  -999.250000  -999.250000 67.682998657 140.22399902 1.2050000429 31.259998322  -999.250000 1.8209999800
 1020.6250000  -999.250000 12.473999977 1.0800000429 8.1040029526  -999.250000  -999.250000  -999.250000 65.221000671 141.10499573 1.1890000105 31.326000214  -999.250000 1.8059999943
 1020.7500000  -999.250000 12.472999573 1.0800000429 8.1023616791  -999.250000  -999.250000  -999.250000 64.865997314 141.13000488 1.1729999781 31.585000992  -999.250000 1.7910000086
 1020.8750000  -999.250000 12.479999542 1.0800000429 8.1004753113  -999.250000  -999.250000  -999.250000 65.583999634 140.77799988 1.1660000086 31.844999313  -999.250000 1.7819999456
 1020.9999390  -999.250000 12.489999771 1.0800000429 8.0987548828  -999.250000  -999.250000  -999.250000 66.728996277 140.60699463 1.1679999828 31.822000504  -999.250000 1.7760000229
