# LAS format log file from PETREL
# Project units are specified as depth units
#==================================================================
~Version information
VERS.   2.0:
WRAP.   NO:
#==================================================================
~Well
STRT .m      984.14562988 :
STOP .m      1996.3865967 :
STEP .m     0.00000000 :
NULL .        -999.250000 :
COMP.           : COMPANY
WELL.  25/11-23  Balder Appr   : WELL
FLD.            : FIELD
LOC.            : LOCATION
SRVC.           : SERVICE COMPANY
DATE.  2018-09-11 14:48:16   : Log Export Date {yyyy-MM-dd HH:mm:ss}
PROV.           : PROVINCE
UWI.   25/11-23   : UNIQUE WELL ID
API.            : API NUMBER
#==================================================================
~Curve
DEPT .m                   : DEPTH
Lithology_geolink ._      : Lithology_geolink
DCAL .in                  : DCAL
CALI .in                  : CALI
BS .in                    : BS
MUDWEIGHT ._              : MUDWEIGHT
ROP .m/h                  : ROP
DRHO .g/cm3               : DRHO
NPHI .m3/m3               : NPHI
RHOB .g/cm3               : RHOB
GR .gAPI                  : GR
DTC .us/ft                : DTC
RDEP .ohm.m               : RDEP
SP .mV                    : SP
RSHA .ohm.m               : RSHA
RMED .ohm.m               : RMED
~Parameter
#==================================================================
~Ascii
 984.14562988 16.000000000 0.5037003160 9.0036344528 8.5000000000  -999.250000 208085.93750 -0.004699399 0.3636077344 2.1160054207 64.641197205 135.62208557 1.3352931738 0.0000000000 1.0983580351 1.3107942343
 984.29803467 6.0000000000 0.3395003974 8.8394832611 8.5000000000  -999.250000 175805.64063 -0.003199599 0.3879168928 2.1298975945 73.670097351 135.33811951 1.3185081482 0.0000000000 1.2436031103 1.2967008352
 984.45043945 6.0000000000 0.2960996926 8.7960939407 8.5000000000  -999.250000 175887.40625 -0.002200601 0.4226564169 2.1241931915 74.765296936 133.61137390 1.8380048275 0.0000000000 1.7507238388 1.7982053757
 984.60284424 6.0000000000 0.2826996148 8.7826957703 8.5000000000  -999.250000 176379.65625 -0.003701161 0.4211746752 2.1071960926 73.063796997 132.29804993 1.8497838974 0.0000000000 1.8100873232 1.8115859032
 984.75524902 6.0000000000 0.2725000083 8.7725028992 8.5000000000  -999.250000 176879.54688 -0.006601241 0.4078398943 2.0976002216 71.593902588 131.70304871 1.8096989393 0.0000000000 1.5289030075 1.7766001225
 984.90765381 6.0000000000 0.2797003090 8.7797336578 8.5000000000  -999.250000 177400.00000 -0.009701483 0.3876274228 2.0980997086 71.720397949 131.80783081 1.8071315289 0.0000000000 1.5362482071 1.7770317793
 985.06005859 6.0000000000 0.3632001877 8.8632373810 8.5000000000  -999.250000 177887.85938 -0.013400961 0.3936576247 2.0974001884 73.156402588 131.60079956 1.8856742382 0.0000000000 1.6565771103 1.8563762903
 985.21246338 6.0000000000 0.4562998116 8.9563159943 8.5000000000  -999.250000 178424.37500 -0.015799999 0.3852403164 2.0978024006 74.082199097 131.34439087 1.8212732077 0.0000000000 1.5994585752 1.7970750332
 985.36486816 6.0000000000 0.4961996078 8.9961709976 8.5000000000  -999.250000 178902.26563 -0.015798517 0.3710410297 2.1038053036 77.905899048 130.82794189 1.7544234991 0.0000000000 1.4963304996 1.7349244356
 985.51727295 6.0000000000 0.4252996147 8.9252586365 8.5000000000  -999.250000 179453.31250 -0.012098197 0.3311746120 2.1168038845 80.677696228 130.94787598 1.8130158186 0.0000000000 1.5726184845 1.7958168983
 985.66967773 6.0000000000 0.3235997856 8.8236103058 8.5000000000  -999.250000 179946.89063 -0.007599680 0.3277622759 2.1266005039 82.441497803 130.65769958 1.8526593447 0.0000000000 1.6186652184 1.8381625414
 985.82208252 7.0000000000 0.3362998366 8.8363409042 8.5000000000  -999.250000 179889.87500 -0.007201281 0.3580820560 2.1272969246 82.926696777 130.52510071 1.8019182682 0.0000000000 1.5752966404 1.7915204763
 985.97448730 7.0000000000 0.3875998855 8.8876457214 8.5000000000  -999.250000 172333.29688 -0.008800160 0.3880835176 2.1233003139 85.062103271 130.14640808 1.8246157169 0.0000000000 1.5711530447 1.8171184063
 986.12683105 7.0000000000 0.4445000291 8.9445056915 8.5000000000  -999.250000 152678.96875 -0.009000360 0.3886975050 2.1236004829 89.164703369 129.65225220 1.8442573547 0.0000000000 1.5125384331 1.8399586678
 986.27923584 7.0000000000 0.4582996368 8.9582977295 8.5000000000  -999.250000 149909.00000 -0.009900561 0.3774398863 2.1248009205 91.178901672 129.78326416 1.7378280163 0.0000000000 1.6083481312 1.7368291616
 986.43164063 7.0000000000 0.4544000924 8.9544181824 8.5000000000  -999.250000 150336.59375 -0.011298999 0.3796496987 2.1274025440 91.527297974 130.71022034 1.8077455759 0.0000000000 1.4789353609 1.8097472191
 986.58404541 7.0000000000 0.4988003075 8.9987926483 8.5000000000  -999.250000 150782.84375 -0.008798038 0.3913732171 2.1340022087 90.093498230 130.73564148 1.9214603901 0.0000000000 1.5673267841 1.9276614189
 986.73645020 7.0000000000 0.4795999825 8.9795894623 8.5000000000  -999.250000 151247.64063 -0.003899079 0.3695268929 2.1393008232 89.991401672 131.07861328 1.8227605820 0.0000000000 1.6343547106 1.8313612938
 986.88885498 7.0000000000 0.4525003135 8.9525022507 8.5000000000  -999.250000 151750.29688 -0.001599640 0.3642613590 2.1409990788 89.702598572 129.61639404 1.7244083881 0.0000000000 1.5212181807 1.7348095179
 987.04125977 7.0000000000 0.4574003220 8.9574098587 8.5000000000  -999.250000 148887.84375 -0.000699519 0.3676763177 2.1388998032 90.140998840 128.59484863 1.7451168299 0.0000000000 1.5666054487 1.7585180998
 987.19366455 7.0000000000 0.4808998108 8.9809074402 8.5000000000  -999.250000 143485.98438 0.0004995595 0.3860173225 2.1384000778 90.440200806 130.23248291 1.7869931459 0.0000000000 1.5802813768 1.8035939932
 987.34606934 7.0000000000 0.5010995865 9.0011024475 8.5000000000  -999.250000 143243.28125 -0.000601121 0.3993545473 2.1382992268 90.541496277 130.94665527 1.7700932026 0.0000000000 1.5337973833 1.7886939049
 987.49847412 7.0000000000 0.5075997710 9.0075931549 8.5000000000  -999.250000 143243.28125 -0.003400761 0.3957025111 2.1364979744 91.668601990 131.34030151 1.7529988289 0.0000000000 1.5271927118 1.7734994888
 987.65087891 7.0000000000 0.4918003082 8.9917945862 8.5000000000  -999.250000 143243.28125 -0.005300921 0.4120078981 2.1318972111 92.453796387 131.33294678 1.7498911619 0.0000000000 1.5091012716 1.7722916603
 987.80328369 6.0000000000 0.4766997993 8.9766578674 8.5000000000  -999.250000 143243.28125 -0.007601522 0.4242722690 2.1249923706 92.555496216 130.94670105 1.7279970646 0.0000000000 1.5124032497 1.7513980865
 987.95568848 6.0000000000 0.4239997566 8.9239702225 8.5000000000  -999.250000 143243.28125 -0.009499439 0.4283568859 2.1155948639 91.992301941 130.44953918 1.7242980003 0.0000000000 1.5164021254 1.7489988804
 988.10809326 6.0000000000 0.3872003555 8.8872060776 8.5000000000  -999.250000 140603.31250 -0.008799359 0.4157026112 2.1090967655 90.957801819 129.73713684 1.7218142748 0.0000000000 1.5191047192 1.7476154566
 988.26043701 6.0000000000 0.3941002190 8.8941049576 8.5000000000  -999.250000 98175.437500 -0.007999880 0.4089632630 2.1049003601 90.612701416 129.91783142 1.7395957708 0.0000000000 1.5251014233 1.7668958902
 988.41284180 6.0000000000 0.4063996971 8.9064121246 8.5000000000  -999.250000 90119.164063 -0.007699960 0.4095622599 2.1060013771 88.025497437 130.50080872 1.7292935848 0.0000000000 1.5287961960 1.7568936348
 988.56524658 6.0000000000 0.4372996986 8.9373073578 8.5000000000  -999.250000 90119.164063 -0.007600280 0.4139221907 2.1098001003 85.511199951 131.75447083 1.7133042812 0.0000000000 1.5193073750 1.7411046028
 988.71765137 6.0000000000 0.4574003220 8.9573955536 8.5000000000  -999.250000 90119.164063 -0.008300641 0.4006889760 2.1098997593 84.553100586 132.68464661 1.7240014076 0.0000000000 1.5378905535 1.7526015043
 988.87005615 6.0000000000 0.4465999603 8.9465885162 8.5000000000  -999.250000 90119.164063 -0.009900240 0.3965946138 2.1095001698 84.413299561 132.56632996 1.7276002169 0.0000000000 1.5144057274 1.7566002607
 989.02246094 6.0000000000 0.4175997376 8.9175844193 8.5000000000  -999.250000 88561.671875 -0.010499960 0.4048271179 2.1103005409 83.799301147 132.15420532 1.7281024456 0.0000000000 1.5287069082 1.7572027445
 989.17486572 6.0000000000 0.3787002861 8.8787107468 8.5000000000  -999.250000 78479.187500 -0.010399800 0.4215575457 2.1117012501 82.637397766 131.65789795 1.7343049049 0.0000000000 1.5460005999 1.7639050484
 989.32727051 6.0000000000 0.4047003090 8.9047183990 8.5000000000  -999.250000 77151.585938 -0.009899559 0.4289402664 2.1147007942 83.287696838 131.39344788 1.7464002371 0.0000000000 1.5474988222 1.7765002251
 989.47967529 6.0000000000 0.4497995079 8.9498186111 8.5000000000  -999.250000 77557.414063 -0.008799519 0.4218986034 2.1165001392 84.275100708 131.49443054 1.7471047640 0.0000000000 1.5444995165 1.7771047354
 989.63208008 6.0000000000 0.4984999001 8.9985189438 8.5000000000  -999.250000 77982.367188 -0.007600280 0.4121294618 2.1167979240 84.684402466 132.07922363 1.7588967085 0.0000000000 1.5433019400 1.7890963554
 989.78448486 6.0000000000 0.5465002060 9.0465106964 8.5000000000  -999.250000 78409.367188 -0.008300400 0.4315446913 2.1111936569 83.932800293 132.65908813 1.7504932880 0.0000000000 1.5481861830 1.7798925638
 989.93688965 6.0000000000 0.5591002107 9.0590667725 8.5000000000  -999.250000 122568.07813 -0.008799680 0.4291488230 2.1030938625 82.531600952 133.01472473 1.7421923876 0.0000000000 1.5309904814 1.7706913948
