# LAS format log file from PETREL
# Project units are specified as depth units
#==================================================================
~Version information
VERS.   2.0:
WRAP.   NO:
#==================================================================
~Well
STRT .m      206.00000000 :
STOP .m      2655.9824219 :
STEP .m     0.00000000 :
NULL .        -999.250000 :
COMP.           : COMPANY
WELL.  25/10-8  Hanz   : WELL
FLD.            : FIELD
LOC.            : LOCATION
SRVC.           : SERVICE COMPANY
DATE.  2018-09-11 14:48:14   : Log Export Date {yyyy-MM-dd HH:mm:ss}
PROV.           : PROVINCE
UWI.   25/10-8   : UNIQUE WELL ID
API.            : API NUMBER
#==================================================================
~Curve
DEPT .m                   : DEPTH
Lithology_geolink ._      : Lithology_geolink
CALI .in                  : CALI
BS .in                    : BS
THOR .ppm                 : THOR
NPHI .m3/m3               : NPHI
RHOB .g/cm3               : RHOB
GR .gAPI                  : GR
URAN .ppm                 : URAN
DTC .us/ft                : DTC
RDEP .ohm.m               : RDEP
RSHA .ohm.m               : RSHA
RMED .ohm.m               : RMED
~Parameter
#==================================================================
~Ascii
# ...
 1237.4432373  -999.250000 12.198902130 12.250000954 7.9697051048 0.0094672553 2.2523503304 87.795776367 3.6866042614 122.83587646 1.6010203362 1.4701037407 1.5172324181
 1237.5955811  -999.250000 12.211112976 12.250000954 8.3276119232 0.0083908513 2.2341058254 87.200286865 3.1878178120 123.11630249 1.6106443405 1.4780511856 1.5219602585
 1237.7480469  -999.250000 12.192798615 12.250000954 8.6477260590 0.0056122444 2.2317862511 87.589599609 2.7711563110 123.86106110 1.6231818199 1.4900026321 1.5330147743
 1237.9003906  -999.250000 12.186695099 12.250000954 9.0362844467 0.0055780290 2.2232887745 86.003845215 2.4323201180 124.04706573 1.6311793327 1.4993872643 1.5423569679
 1238.0528564  -999.250000 12.211112976 12.250000954 9.4633855820 0.0067165671 2.2196636200 82.188476563 2.2042109966 123.47274017 1.6324925423 1.5010075569 1.5442414284
 1238.2052002  -999.250000 12.229424477 12.250000954 9.6668634415 0.0058191032 2.2398190498 86.467559814 2.2205755711 122.69636536 1.6306047440 1.4960465431 1.5407438278
 1238.3576660  -999.250000 12.229424477 12.250000954 9.6018495560 0.0055868900 2.2742643356 82.491577148 2.4849760532 121.96038818 1.6281180382 1.4888496399 1.5366997719
 1238.5100098  -999.250000 12.235530853 12.250000954 9.2657985687 0.0047521312 2.2487208843 82.803466797 3.0078930855 121.56992340 1.6227645874 1.4810733795 1.5327792168
 1238.6624756  -999.250000 12.223320007 12.250000954 8.7835445404 0.0057093864 2.2487311363 91.949645996 3.6039264202 121.79460907 1.6091227531 1.4704871178 1.5248341560
 1238.8148193  -999.250000 12.235530853 12.250000954 8.4052381516 0.0053213732 2.2502734661 93.918945313 3.9906845093 122.75647736 1.5834212303 1.4538512230 1.5073971748
 1238.9672852  -999.250000 12.235530853 12.250000954 8.1887664795 0.0046580154 2.2489511967 90.548248291 4.1777887344 124.23081970 1.5488257408 1.4303879738 1.4785952568
 1239.1196289  -999.250000 12.198902130 12.250000954 8.1839065552 0.0058644908 2.2491464615 83.793975830 4.1486487389 125.82694244 1.5173664093 1.4049906731 1.4451923370
 1239.2719727  -999.250000 12.205009460 12.250000954 8.3267612457 0.0065714275 2.2061712742 82.530456543 3.9368054867 126.83441162 1.5027194023 1.3873791695 1.4214110374
 1239.4244385  -999.250000 12.192798615 12.250000954 8.4764156342 0.0064336867 2.1725661755 82.644775391 3.6828169823 127.09206390 1.5088987350 1.3850650787 1.4179644585
 1239.5767822  -999.250000 12.186695099 12.250000954 8.5903348923 0.0054571060 2.2120332718 84.166168213 3.4355647564 126.88601685 1.5267729759 1.3957896233 1.4321184158
 1239.7292480  -999.250000 12.198902130 12.250000954 8.5519495010 0.0045871753 2.2155721188 87.836944580 3.2773184776 125.71846771 1.5431923866 1.4092607498 1.4510517120
 1239.8815918  -999.250000 12.198902130 12.250000954 8.2730484009 0.0053545819 2.1972007751 90.887115479 3.2962095737 124.24796295 1.5513405800 1.4163436890 1.4644241333
 1240.0340576  -999.250000 12.198902130 12.250000954 7.8638072014 0.0071262713 2.1868031025 91.022583008 3.4502055645 123.05117798 1.5512042046 1.4145169258 1.4700222015
 1240.1864014  -999.250000 12.211112976 12.250000954 7.4553046227 0.0061403122 2.1908099651 88.331115723 3.6420326233 121.70801544 1.5458078384 1.4057168961 1.4691562653
 1240.3388672  -999.250000 12.205009460 12.250000954 7.1023526192 0.0048995502 2.2045016289 86.250579834 3.8118333817 121.20072174 1.5413560867 1.3943395615 1.4647064209
 1240.4912109  -999.250000 12.192798615 12.250000954 6.9574971199 0.0055197398 2.2028944492 82.201995850 3.8692181110 121.86582947 1.5480217934 1.3875284195 1.4639754295
 1240.6436768  -999.250000 12.198902130 12.250000954 7.2114977837 0.0046719504 2.1746773720 81.230712891 3.6969881058 122.76780701 1.5770874023 1.3929839134 1.4776682854
 1240.7960205  -999.250000 12.198902130 12.250000954 7.8066029549 0.0054999744 2.2272245884 81.130554199 3.3184678555 123.47898102 1.6363859177 1.4158182144 1.5157370567
 1240.9484863  -999.250000 12.211112976 12.250000954 8.4142045975 0.0051620472 2.2814435959 80.263000488 2.9356975555 123.17037964 1.7229342461 1.4568080902 1.5831146240
 1241.1008301  -999.250000 12.192798615 12.250000954 8.6276502609 0.0057805097 2.2473983765 79.399749756 2.7419059277 120.85324097 1.8112559319 1.5087051392 1.6701407433
 1241.2531738  -999.250000 12.198902130 12.250000954 8.3968772888 0.0056709666 2.2314085960 82.457214355 2.7328898907 118.47840881 1.8576073647 1.5531220436 1.7418456078
 1241.4056396  -999.250000 12.205009460 12.250000954 8.1417694092 0.0059614806 2.2484583855 84.535705566 2.7665441036 118.47228241 1.8349785805 1.5691342354 1.7548923492
 1241.5579834  -999.250000 12.211112976 12.250000954 8.0240201950 0.0057914853 2.2587807178 82.867065430 2.8178734779 119.27917480 1.7597770691 1.5521130562 1.7033758163
 1241.7104492  -999.250000 12.198902130 12.250000954 7.9817805290 0.0069390587 2.2014954090 80.486480713 2.9087705612 119.47568512 1.6677165031 1.5150070190 1.6204547882
 1241.8627930  -999.250000 12.192798615 12.250000954 8.1011905670 0.0057781925 2.1656451225 82.471679688 2.9861738682 119.04444122 1.5829248428 1.4701962471 1.5356965065
 1242.0152588  -999.250000 12.192798615 12.250000954 8.3502607346 0.0050656372 2.2237472534 82.385131836 3.0330286026 118.07191467 1.5181770325 1.4235744476 1.4638299942
 1242.1676025  -999.250000 12.211112976 12.250000954 8.5177822113 0.0055011730 2.2338111401 83.399169922 3.1107573509 118.62129211 1.4774541855 1.3821363449 1.4143161774
 1242.3200684  -999.250000 12.205009460 12.250000954 8.5239410400 0.0074249441 2.2017862797 80.517181396 3.2456665039 121.92430115 1.4507689476 1.3503680229 1.3862872124
 1242.4724121  -999.250000 12.198902130 12.250000954 8.3473300934 0.0064327293 2.2001101971 79.164062500 3.4364979267 125.92988586 1.4200778008 1.3230972290 1.3631072044
 1242.6248779  -999.250000 12.186695099 12.250000954 8.0081567764 0.0045704301 2.2258751392 88.513305664 3.6635606289 127.64323425 1.3795304298 1.2915868759 1.3282904625
 1242.7772217  -999.250000 12.198902130 12.250000954 7.5404176712 0.0045450437 2.2197589874 89.131591797 3.9184300900 126.20569611 1.3435997963 1.2572975159 1.2869606018
 1242.9296875  -999.250000 12.192798615 12.250000954 6.9654817581 0.0042989906 2.1889574528 82.686431885 4.2036952972 123.12343597 1.3305220604 1.2317943573 1.2595849037
 1243.0820313  -999.250000 12.192798615 12.250000954 6.5439009666 0.0049139219 2.1990511417 81.007537842 4.3642520905 120.55011749 1.3445944786 1.2241778374 1.2590641975
 1243.2343750  -999.250000 12.229424477 12.250000954 6.4627718925 0.0048500574 2.2152304649 77.667327881 4.2707152367 120.00973511 1.3735561371 1.2325735092 1.2809014320
 1243.3868408  -999.250000 12.211112976 12.250000954 6.6361894608 0.0071260310 2.2344875336 77.210754395 4.0205383301 121.69938660 1.3976440430 1.2466292381 1.3080787659
 1243.5391846  -999.250000 12.217216492 12.250000954 6.9842066765 0.0068104663 2.2549538612 81.194976807 3.7433047295 124.63902283 1.4026432037 1.2549557686 1.3225975037
 1243.6916504  -999.250000 12.217216492 12.250000954 7.4968290329 0.0056449394 2.2251358032 82.309967041 3.4970986843 127.31769562 1.3877377510 1.2520833015 1.3168258667
 1243.8439941  -999.250000 12.223320007 12.250000954 8.0177707672 0.0042768987 2.2032938004 81.294677734 3.3525125980 129.18161011 1.3626322746 1.2404985428 1.2963681221
 1243.9964600  -999.250000 12.217216492 12.250000954 8.3346614838 0.0053137671 2.2023313046 81.273590088 3.3647527695 130.29058838 1.3377804756 1.2266974449 1.2723336220
 1244.1488037  -999.250000 12.259948730 12.250000954 8.3295478821 0.0060431296 2.2088286877 84.405334473 3.5659062862 130.84304810 1.3182272911 1.2154207230 1.2520527840
 1244.3012695  -999.250000 12.235530853 12.250000954 8.0664358139 0.0061467253 2.2202987671 88.398925781 3.8929295540 131.53173828 1.3051204681 1.2076396942 1.2374739647
 1244.4536133  -999.250000 12.247738838 12.250000954 7.7125473022 0.0069027091 2.2175436020 89.053100586 4.2055492401 131.77204895 1.2993397713 1.2031798363 1.2290000916
 1244.6060791  -999.250000 12.247738838 12.250000954 7.3176789284 0.0045279912 2.1979184151 86.452178955 4.4569072723 130.76042175 1.3026399612 1.2030448914 1.2279372215
