# LAS format log file from PETREL
# Project units are specified as depth units
#==================================================================
~Version information
VERS.   2.0:
WRAP.   NO:
#==================================================================
~Well
STRT .m      3054.5593262 :
STOP .m      3397.3076172 :
STEP .m     0.00000000 :
NULL .        -999.250000 :
COMP.           : COMPANY
WELL.  25/10-8A  Hanz Appr   : WELL
FLD.            : FIELD
LOC.            : LOCATION
SRVC.           : SERVICE COMPANY
DATE.  2018-09-11 14:48:15   : Log Export Date {yyyy-MM-dd HH:mm:ss}
PROV.           : PROVINCE
UWI.   25/10-8 A   : UNIQUE WELL ID
API.            : API NUMBER
#==================================================================
~Curve
DEPT .m                   : DEPTH
Lithology_geolink ._      : Lithology_geolink
NPHI .m3/m3               : NPHI
RHOB .g/cm3               : RHOB
GR .gAPI                  : GR
RDEP .ohm.m               : RDEP
RSHA .ohm.m               : RSHA
~Parameter
#==================================================================
~Ascii
# ...
 3187.1474609 5.0000000000 0.1462900043 2.4281351566 77.734146118 2.7972023487 1.9257845879
 3187.3000488 5.0000000000 0.1349299997 2.4512693882 77.550064087 3.1161937714 2.2040398121
 3187.4523926 5.0000000000 0.1247000024 2.4724233150 78.508262634 3.3197288513 2.5693125725
 3187.6047363 5.0000000000 0.1155899987 2.4834227562 80.107261658 3.2076385021 3.8406012058
 3187.7570801 5.0000000000 0.1173299998 2.4782812595 81.517250061 3.1242311001 4.5882434845
 3187.9096680 6.0000000000 0.1273400038 2.4635863304 83.316230774 3.1388564110 4.5342378616
 3188.0620117 6.0000000000 0.1396600008 2.4455540180 84.910644531 3.0964226723 4.5580487251
 3188.2143555 6.0000000000 0.1511099935 2.4291837215 85.824272156 3.0639481544 4.4226222038
 3188.3666992 6.0000000000 0.1570899934 2.4138951302 86.557205200 3.0545258522 4.4157166481
 3188.5192871 6.0000000000 0.1626600027 2.4002008438 87.164176941 3.0589139462 3.8717210293
 3188.6716309 6.0000000000 0.1686699986 2.3897716999 87.588157654 3.1098928452 3.0279414654
 3188.8239746 6.0000000000 0.1759199947 2.3841919899 88.070663452 3.1730136871 2.5637762547
 3188.9763184 6.0000000000 0.1798800081 2.3808302879 88.527259827 3.2115387917 2.4490351677
 3189.1286621 6.0000000000 0.1802000105 2.3778996468 88.801841736 3.2814338207 2.4479999542
 3189.2812500 6.0000000000 0.1831299961 2.3750307560 89.009956360 3.4059407711 2.4482686520
 3189.4335938 6.0000000000 0.1858499944 2.3721008301 89.127082825 3.5239605904 2.4648876190
 3189.5859375 6.0000000000 0.1859799922 2.3705508709 89.085250854 3.4545524120 2.7157385349
 3189.7382813 6.0000000000 0.1858399957 2.3679971695 89.199287415 3.3024768829 3.0422616005
 3189.8908691 6.0000000000 0.1872200072 2.3633220196 89.725257874 3.2344884872 3.0239326954
 3190.0432129 6.0000000000 0.1904100031 2.3572142124 90.449203491 3.1827015877 2.8358080387
 3190.1955566 6.0000000000 0.1938699931 2.3528428078 91.378173828 3.1956617832 2.6768975258
 3190.3479004 6.0000000000 0.1981299967 2.3521840572 92.147445679 3.2943096161 2.5353159904
 3190.5004883 6.0000000000 0.1996899992 2.3543498516 92.730773926 3.4898152351 2.3971583843
 3190.6528320 5.0000000000 0.1960899979 2.3574182987 92.862266541 3.7485466003 2.2958121300
 3190.8051758 5.0000000000 0.1888500005 2.3610188961 92.094841003 4.0441040993 2.2589547634
 3190.9575195 5.0000000000 0.1846199930 2.3666799068 90.210990906 4.3677816391 2.3784077168
 3191.1098633 5.0000000000 0.1803800017 2.3725297451 88.086692810 4.5706181526 2.9144845009
 3191.2624512 5.0000000000 0.1733300090 2.3770964146 86.875419617 4.4611082077 3.6472830772
 3191.4147949 5.0000000000 0.1702899933 2.3796124458 86.426010132 4.2168221474 4.3901681900
 3191.5671387 5.0000000000 0.1773399860 2.3829689026 86.450881958 4.1239380836 4.7086777687
 3191.7194824 5.0000000000 0.1854400039 2.3884291649 87.297996521 4.1192331314 4.9740943909
 3191.8720703 6.0000000000 0.1916399896 2.3936762810 88.959770203 4.1415052414 5.3456349373
 3192.0244141 6.0000000000 0.1953700036 2.3971226215 92.096717834 4.1359934807 5.8609766960
 3192.1767578 6.0000000000 0.2233600020 2.4017462730 97.055854797 4.0413498878 6.2563114166
 3192.3291016 6.0000000000 0.2485000044 2.4064114094 102.59749603 3.8454613686 5.9080886841
 3192.4816895 6.0000000000 0.2539499998 2.4068565369 107.32264709 3.7052969933 4.9245443344
 3192.6340332 6.0000000000 0.2589600086 2.4023373127 110.25661469 3.6106667519 3.3571138382
 3192.7863770 6.0000000000 0.2658900023 2.3986268044 111.73479462 3.6992807388 2.4738893509
 3192.9387207 6.0000000000 0.2604199946 2.3973090649 111.43671417 4.0045490265 2.3027725220
 3193.0910645 6.0000000000 0.2504799962 2.3966097832 109.04428864 4.0603761673 2.3568546772
 3193.2436523 6.0000000000 0.2180500031 2.3963406086 105.89488983 3.8066673279 2.6384997368
 3193.3959961 6.0000000000 0.1891700029 2.3990647793 102.06334686 3.5966684818 2.9103891850
 3193.5483398 6.0000000000 0.1712400019 2.4083647728 99.458496094 3.5065963268 3.1334633827
 3193.7006836 5.0000000000 0.1543000042 2.4236876965 97.366210938 3.5324881077 3.3493750095
 3193.8532715 5.0000000000 0.1441500038 2.4413683414 94.879600525 3.5141313076 4.0831050873
 3194.0056152 5.0000000000 0.1395199895 2.4516236782 92.104759216 3.1840343475 5.2765207291
 3194.1579590 5.0000000000 0.1382099986 2.4563245773 90.151084900 2.9480996132 5.4572553635
 3194.3103027 5.0000000000 0.1448999941 2.4601986408 89.383087158 2.9233026505 4.7242946625
 3194.4628906 5.0000000000 0.1529700011 2.4614686966 90.427757263 2.9437396526 4.1127967834
 3194.6152344 5.0000000000 0.1762299985 2.4567759037 94.326484680 2.9982922077 3.4849412441
 3194.7675781 6.0000000000 0.2129400074 2.4409303665 98.665168762 3.0046865940 3.0996172428
 3194.9199219 6.0000000000 0.2375499904 2.4198613167 104.03022003 2.9819808006 2.9808902740
 3195.0725098 6.0000000000 0.2427099943 2.4040324688 107.63256836 2.9697172642 2.9531838894
 3195.2248535 6.0000000000 0.2354200035 2.3972644806 110.11356354 2.9537842274 2.8521475792
 3195.3771973 6.0000000000 0.2206500024 2.3960444927 111.50891876 2.8631224632 2.6758050919
 3195.5295410 6.0000000000 0.2130900025 2.3966097832 111.40074158 2.7162878513 2.4751908779
 3195.6818848 6.0000000000 0.2149000019 2.3966617584 109.98797607 2.6683785915 2.2350668907
 3195.8344727 6.0000000000 0.2105699927 2.3962926865 107.46610260 2.7091226578 2.0844779015
 3195.9868164 6.0000000000 0.1942499876 2.3983690739 104.64009857 2.7409765720 2.0431764126
 3196.1391602 6.0000000000 0.1664699912 2.4069626331 102.51218414 2.7883689404 2.0188407898
 3196.2915039 6.0000000000 0.1537600011 2.4219880104 99.290695190 2.9086861610 2.0197288990
 3196.4440918 5.0000000000 0.1456599981 2.4438831806 95.485404968 3.2176864147 2.2232887745
 3196.5964355 5.0000000000 0.1359699965 2.4667110443 90.355201721 3.7871301174 2.7875802517
 3196.7487793 5.0000000000 0.1294400096 2.4861922264 85.557220459 3.6764488220 4.0108175278
 3196.9011230 5.0000000000 0.1272799969 2.4890658855 83.259025574 3.3105158806 5.1514916420
 3197.0537109 5.0000000000 0.1312699914 2.4713099003 83.361503601 3.2777426243 5.4399919510
 3197.2060547 5.0000000000 0.1426599920 2.4508943558 85.257980347 3.3077993393 4.8796429634
 3197.3583984 5.0000000000 0.1561599970 2.4316420555 88.441383362 3.2811868191 4.0333609581
 3197.5107422 5.0000000000 0.1700399965 2.4175376892 92.847099304 3.2828509808 3.2829039097
 3197.6630859 5.0000000000 0.1773200035 2.4109363556 95.613632202 3.3828263283 2.7658531666
 3197.8156738 5.0000000000 0.1780299991 2.4078660011 97.448608398 3.5047457218 2.4972496033
 3197.9680176 6.0000000000 0.1776700020 2.4047148228 98.953239441 3.5963778496 2.3791811466
 3198.1203613 6.0000000000 0.1772200018 2.4001152515 99.913444519 3.5760757923 2.3959496021
 3198.2727051 6.0000000000 0.1795099974 2.3956394196 100.41934204 3.4422852993 2.5351951122
 3198.4252930 6.0000000000 0.1819099933 2.3928542137 100.98632813 3.2588407993 2.7274796963
 3198.5776367 6.0000000000 0.1803800017 2.3927204609 101.95562744 3.1501297951 2.7704145908
 3198.7299805 6.0000000000 0.1746499985 2.3955485821 103.47541809 3.1514866352 2.6331715584
 3198.8823242 6.0000000000 0.1762999892 2.3985910416 105.51892090 2.9450473785 2.9115760326
 3199.0349121 6.0000000000 0.1919300109 2.3998382092 107.83195496 2.7117493153 3.1020491123
 3199.1872559 6.0000000000 0.2102400064 2.4003701210 109.87133026 2.5896923542 3.1106917858
 3199.3395996 6.0000000000 0.2301400006 2.4008407593 111.95372009 2.4511229992 2.9007637501
 3199.4919434 6.0000000000 0.2376800030 2.4010000229 112.16374969 2.4818184376 2.0854451656
 3199.6442871 6.0000000000 0.2366999984 2.4009830952 111.05006409 2.6467790604 1.5996041298
 3199.7968750 6.0000000000 0.2325200140 2.4005465508 109.36808014 2.6291062832 1.7269239426
 3199.9492188 6.0000000000 0.2214500010 2.3994817734 108.10099030 2.5065279007 1.9551887512
 3200.1015625 6.0000000000 0.2169499993 2.3985033035 107.79519653 2.5326745510 2.0495898724
 3200.2539063 6.0000000000 0.2242099941 2.3970997334 107.47741699 2.5203156471 2.2757978439
