# LAS format log file from PETREL
# Project units are specified as depth units
#==================================================================
~Version information
VERS.   2.0:
WRAP.   NO:
#==================================================================
~Well
STRT .m      1118.6159668 :
STOP .m      2017.3187256 :
STEP .m     0.00000000 :
NULL .        -999.250000 :
COMP.           : COMPANY
WELL.  25/11-15  Grane   : WELL
FLD.            : FIELD
LOC.            : LOCATION
SRVC.           : SERVICE COMPANY
DATE.  2018-09-11 14:48:15   : Log Export Date {yyyy-MM-dd HH:mm:ss}
PROV.           : PROVINCE
UWI.   25/11-15   : UNIQUE WELL ID
API.            : API NUMBER
#==================================================================
~Curve
DEPT .m                   : DEPTH
Lithology_geolink ._      : Lithology_geolink
CALI .in                  : CALI
BS .in                    : BS
MUDWEIGHT ._              : MUDWEIGHT
ROP .m/h                  : ROP
TGAS ._                   : TGAS
DRHO .g/cm3               : DRHO
THOR .ppm                 : THOR
NPHI .m3/m3               : NPHI
RHOB .g/cm3               : RHOB
GR .gAPI                  : GR
URAN .ppm                 : URAN
DTC .us/ft                : DTC
DTE .us/ft                : DTE
RDEP .ohm.m               : RDEP
SP .mV                    : SP
RSHA .ohm.m               : RSHA
RMED .ohm.m               : RMED
~Parameter
#==================================================================
~Ascii
# ...
 1239.3167725  -999.250000 8.5156011581 36.000000000  -999.250000 276206.75000  -999.250000 -1.022333384 4.8977999687 0.4935410917 2.1943659782 58.876319885 -2.541199923 138.09390259 135.17984009 1.1417020559 47.000000000  -999.250000 1.3240369558
 1239.4691162  -999.250000 8.5163040161 36.000000000  -999.250000 276206.75000  -999.250000 -1.036617398 4.8123688698 0.5265836716 2.1889662743 60.219734192 -2.528310299 138.34049988 135.29986572 1.1422055960 46.500400543  -999.250000 1.3619786501
 1239.6215820  -999.250000 8.5227966309 36.000000000  -999.250000 276206.75000  -999.250000 -1.041527629 4.1560001373 0.5555704236 2.1848340034 63.870780945 -2.613399982 138.69090271 135.67553711 1.1540939808 46.000000000  -999.250000 1.3784990311
 1239.7739258  -999.250000 8.5189161301 36.000000000  -999.250000 276206.75000  -999.250000 -1.044251442 3.9175906181 0.5541933775 2.1682953835 59.282348633 -2.701229572 139.76922607 136.54376221 1.1598893404 46.000000000  -999.250000 1.3776936531
 1239.9263916  -999.250000 8.5520725250 36.000000000  -999.250000 274620.12500  -999.250000 -1.044084907 4.9211997986 0.5379245877 2.1727290154 53.875591278 -2.342600107 139.04530334 136.16487122 1.1597950459 46.000000000  -999.250000 1.3639340401
 1240.0787354  -999.250000 8.5207891464 36.000000000  -999.250000 254398.37500  -999.250000 -1.044157386 4.9689617157 0.5480998755 2.2076010704 54.563060760 -2.317520142 136.31558228 133.82858276 1.1536090374 45.500400543  -999.250000 1.2895416021
 1240.2312012  -999.250000 8.4935112000 36.000000000  -999.250000 228441.54688  -999.250000 -1.041713119 5.2810997963 0.5712811947 2.2398900986 57.187850952 -2.241899967 132.72650146 130.49464417 1.1488009691 45.000000000  -999.250000 1.2470740080
 1240.3835449  -999.250000 8.5064849854 36.000000000  -999.250000 218482.92188  -999.250000 -1.039790034 3.9160938263 0.5760831833 2.2520081997 57.623344421 -3.191638947 131.66874695 128.87228394 1.1441078186 45.499599457  -999.250000 1.2153993845
 1240.5360107  -999.250000 8.4935121536 36.000000000  -999.250000 218595.73438  -999.250000 -1.034385562 4.5480999947 0.5656948090 2.2382910252 56.497669220 -2.868499994 131.76449585 128.68533325 1.1440089941 45.500000000  -999.250000 1.1928119659
 1240.6883545  -999.250000 8.5091171265 36.000000000  -999.250000 219874.60938  -999.250000 -1.023953915 4.4943428040 0.5447226763 2.1843390465 53.314781189 -2.914363384 138.45812988 134.17512512 1.1566188335 45.500000000  -999.250000 1.2090259790
 1240.8406982  -999.250000 8.5247097015 36.000000000  -999.250000 219205.90625  -999.250000 -1.023232937 4.7172212601 0.5467209816 2.1511914730 53.060260773 -2.844156265 141.90724182 138.24359131 1.1948384047  -999.250000  -999.250000 1.2447173595
 1240.9931641  -999.250000 8.5391044617 36.000000000  -999.250000 205028.14063  -999.250000 -1.037268758 5.0715165138 0.5811697841 2.1488058567 49.407707214 -2.681030750 142.38801575 139.31912231 1.2050118446  -999.250000  -999.250000 1.3154363632
 1241.1455078  -999.250000 8.5423221588 36.000000000  -999.250000 158088.07813  -999.250000 -1.053101063 5.2939214706 0.5844764113 2.1361532211 47.938125610 -2.536915302 144.05665588 140.73153687 1.2338548899  -999.250000  -999.250000 1.4079378843
 1241.2979736  -999.250000 8.5781002045 36.000000000  -999.250000 138884.18750  -999.250000 -1.056645513 4.8906002045 0.5508012772 2.1706249714 47.036228180 -2.706000090 140.70579529 138.39457703 1.2439930439  -999.250000  -999.250000 1.6056519747
 1241.4503174  -999.250000 8.5781002045 36.000000000  -999.250000 138413.87500  -999.250000 -1.060065627 4.8483338356 0.5183206201 2.2704422474 52.090167999 -2.612874508 129.05824280 128.44174194 1.2468945980  -999.250000  -999.250000 1.6596686840
 1241.6027832  -999.250000 8.5781002045 36.000000000  -999.250000 138434.01563  -999.250000 -1.072993398 4.9811000824 0.4979378879 2.2303481102 52.878189087 -2.543200016 133.68240356 129.78543091 1.2460019588  -999.250000  -999.250000 1.6820160151
 1241.7551270  -999.250000 8.5780992508 36.000000000  -999.250000 139761.89063  -999.250000 -1.074434400 5.0414519310 0.5176802278 2.2209177017 56.372329712 -1.815982699 134.88563538 131.64222717 1.2472919226  -999.250000  -999.250000 1.4920152426
 1241.9075928  -999.250000 8.5761823654 36.000000000  -999.250000 142023.15625  -999.250000 -1.069506884 4.4123997688 0.5166015029 2.1913709641 56.658630371 -1.790899992 138.21319580 134.45692444 1.2360960245  -999.250000  -999.250000 1.4166489840
 1242.0599365  -999.250000 8.5553045273 36.000000000  -999.250000 188902.54688  -999.250000 -1.081791878 4.6397180557 0.5171111822 2.1817865372 59.403617859 -1.624233484 138.57881165 135.51596069 1.2190207243  -999.250000  -999.250000 1.3575242758
 1242.2124023  -999.250000 8.5638103485 36.000000000  -999.250000 243677.34375  -999.250000 -1.112357140 4.4526000023 0.5450770259 2.1773869991 58.251029968 -1.679200053 139.28660583 136.14788818 1.1958069801  -999.250000  -999.250000 1.3032859564
 1242.3647461  -999.250000 8.5767841339 36.000000000  -999.250000 259448.40625  -999.250000 -1.099651337 4.3069167137 0.5506736040 2.1699118614 59.562816620 -1.736154318 139.88861084 136.77635193 1.1766823530  -999.250000  -999.250000 1.2851165533
 1242.5172119  -999.250000 8.5625000000 36.000000000  -999.250000 259448.40625  -999.250000 -1.121006966 4.3801999092 0.6190134287 2.1719870567 60.749980927 -1.658900023 139.51750183 136.62767029 1.1332279444  -999.250000  -999.250000 1.2869039774
 1242.6695557  -999.250000 8.5625009537 36.000000000  -999.250000 259448.40625  -999.250000 -1.179755569 4.4117746353 0.5917006135 2.1680760384 60.718517303 -1.632121444 140.00880432 136.89631653 1.1137295961  -999.250000  -999.250000 1.2926803827
 1242.8218994  -999.250000 8.5638084412 36.000000000  -999.250000 259448.40625  -999.250000 -1.177728176 4.2759094238 0.5676661730 2.1639683247 60.436405182 -1.740513086 140.47811890 137.42826843 1.1093454361  -999.250000  -999.250000 1.2786033154
 1242.9743652  -999.250000 8.5761766434 36.000000000  -999.250000 259448.40625  -999.250000 -1.143054843 4.6735816002 0.4810797870 2.1647889614 58.442729950 -1.585924029 140.24148560 137.29905701 1.3389480114  -999.250000  -999.250000 1.2660939693
 1243.1267090  -999.250000 8.5533914566 36.000000000  -999.250000 256553.37500  -999.250000 -1.152394891 4.5291156769 0.4763053954 2.1585240364 61.964912415 -1.627266765 141.31802368 138.13607788 1.1232841015  -999.250000  -999.250000 1.2505145073
 1243.2791748  -999.250000 8.5390996933 36.000000000  -999.250000 251037.89063  -999.250000 -1.124703526 4.2188000679 0.4776852131 2.1651070118 60.189701080 -1.771199942 140.47839355 137.60766602 1.1225019693  -999.250000  -999.250000 1.2539279461
 1243.4315186  -999.250000 8.5383968353 36.000000000  -999.250000 250138.09375  -999.250000 -1.080588102 4.3848671913 0.4638178945 2.1641356945 62.465667725 -1.698158503 140.24688721 137.34033203 1.1244994402  -999.250000  -999.250000 1.2827868462
 1243.5839844  -999.250000 8.5313005447 36.000000000  -999.250000 250138.09375  -999.250000 -1.077102304 4.3656997681 0.4719055891 2.1715290546 60.031238556 -1.656599998 139.64410400 136.80760193 1.1298019886  -999.250000  -999.250000 1.3008970022
 1243.7363281  -999.250000 8.5319023132 36.000000000  -999.250000 250138.09375  -999.250000 -1.081039310 4.1076068878 0.4869025052 2.1689970493 59.967700958 -1.713054776 139.88909912 136.84016418 1.1378875971  -999.250000  -999.250000 1.2972878218
 1243.8887939  -999.250000 8.5357704163 36.000000000  -999.250000 250138.09375  -999.250000 -1.076035380 4.2750000954 0.5232449174 2.1709680557 57.533370972 -1.625300050 139.40530396 136.49581909 1.1421970129  -999.250000  -999.250000 1.4907480478
 1244.0411377  -999.250000 8.5007028580 36.000000000  -999.250000 244086.45313  -999.250000 -1.067134142 4.0586733818 0.5000240207 2.1736648083 59.998844147 -1.778477192 139.29359436 136.30418396 1.1432981491  -999.250000  -999.250000 1.3205434084
 1244.1936035  -999.250000 8.5078001022 36.000000000  -999.250000 168031.43750  -999.250000 -1.058470845 4.0117001534 0.5031015277 2.1760098934 61.999610901 -1.684800029 138.80929565 135.92761230 1.1440910101  -999.250000  -999.250000 1.3368949890
