# LAS format log file from PETREL
# Project units are specified as depth units
#==================================================================
~Version information
VERS.   2.0:
WRAP.   NO:
#==================================================================
~Well
STRT .m      353.26309204 :
STOP .m      2468.2702637 :
STEP .m     0.00000000 :
NULL .        -999.250000 :
COMP.           : COMPANY
WELL.  25/11-1  Balder   : WELL
FLD.            : FIELD
LOC.            : LOCATION
SRVC.           : SERVICE COMPANY
DATE.  2018-09-11 14:48:15   : Log Export Date {yyyy-MM-dd HH:mm:ss}
PROV.           : PROVINCE
UWI.   25/11-1   : UNIQUE WELL ID
API.            : API NUMBER
#==================================================================
~Curve
DEPT .m                   : DEPTH
Lithology_geolink ._      : Lithology_geolink
CALI .in                  : CALI
MUDWEIGHT ._              : MUDWEIGHT
ROP .m/h                  : ROP
DRHO .g/cm3               : DRHO
RHOB .g/cm3               : RHOB
GR .gAPI                  : GR
DTC .us/ft                : DTC
DTE .us/ft                : DTE
RDEP .ohm.m               : RDEP
SP .mV                    : SP
RSHA .ohm.m               : RSHA
RMED .ohm.m               : RMED
~Parameter
#==================================================================
~Ascii
# ...
 1057.3510742  -999.250000 14.877469063 9.5000000000 1.9724457264 0.0701280981 1.9310990572 50.463455200 155.80729675 155.80754089 1.0384989977 48.185443878 0.6354923248 1.1445029974
 1057.5035400  -999.250000 14.133500099 9.5000000000 1.9724409580 0.0763990358 1.9258010387 48.525711060 156.93380737 156.93319702 1.0342010260 48.415966034 0.5914111733 1.1619950533
 1057.6558838  -999.250000 12.956660271 9.5000000000 1.9721177816 0.0801995173 1.9217000008 47.837783813 155.31709290 155.31849670 1.0299999714 48.504951477 0.7183179259 1.1661000252
 1057.8082275  -999.250000 12.613130569 9.5000000000 1.9721130133 0.0846629292 1.9222929478 47.202102661 154.42839050 154.43112183 1.0263999701 48.603935242 0.9087398052 1.1638000011
 1057.9606934  -999.250000 12.677101135 9.5000000000 1.9717895985 0.0720697120 1.9066989422 47.182643890 151.72290039 151.72525024 1.0257999897 48.662483215 0.9964994192 1.1634999514
 1058.1130371  -999.250000 12.572340012 9.5000000000 1.9717848301 0.0567437932 1.8915909529 47.966972351 148.67300415 148.67828369 1.0284010172 48.670528412 0.9814103246 1.1706030369
 1058.2655029  -999.250000 12.187108994 9.5000000000 1.9714615345 0.0324711539 1.8703999519 47.963001251 147.81979370 147.82048035 1.0320999622 48.623657227 1.0066000223 1.1777000427
 1058.4178467  -999.250000 11.893858910 9.5000000000 1.9714567661 0.0315932743 1.8596040010 48.751155853 147.91929626 147.91874695 1.0358010530 48.504837036 1.0296460390 1.1781009436
 1058.5703125  -999.250000 12.072790146 9.5000000000 1.9711333513 0.0552620217 1.8714989424 48.729499817 149.07769775 149.07687378 1.0388000011 48.440048218 1.1684880257 1.1798000336
 1058.7226563  -999.250000 12.350118637 9.5000000000 1.9750057459 0.0901056826 1.8842999935 47.301044464 149.32980347 149.33000183 1.0387990475 48.352825165 1.2346010208 1.1896020174
 1058.8751221  -999.250000 12.424090385 9.5000000000 1.9828258753 0.0948677883 1.8853000402 47.305599213 147.96800232 147.96888733 1.0348010063 48.227905273 0.9344376922 1.1969989538
 1059.0274658  -999.250000 12.449608803 9.5000000000 2.4527702332 0.1201056838 1.9129049778 47.802303314 149.00090027 149.00018311 1.0292990208 48.097450256 0.9916328788 1.1956000328
 1059.1799316  -999.250000 12.486289978 9.5000000000 3.2415199280 0.1351322085 1.9350949526 48.708610535 148.60049438 148.60072327 1.0238009691 48.061531067 1.1500649452 1.1958999634
 1059.3322754  -999.250000 12.578609467 9.5000000000 3.3014557362 0.1018358693 1.9256019592 50.862354279 148.11810303 148.11837769 1.0183990002 48.060264587 1.0525219440 1.2029010057
 1059.4847412  -999.250000 12.636180878 9.5000000000 3.3021655083 0.0728701949 1.9365969896 52.005691528 148.93659973 148.93614197 1.0129009485 48.058528900 1.1972579956 1.2111979723
 1059.6370850  -999.250000 12.655710220 9.5000000000 3.3018419743 0.0684663430 1.9679019451 52.988162994 147.94830322 147.94898987 1.0074000359 48.056529999 1.2023999691 1.2192000151
 1059.7894287  -999.250000 12.786869049 9.5000000000 3.3015141487 0.0660696551 1.9834029675 52.439353943 148.99800110 148.99652100 1.0072059631 48.055263519 1.2057039738 1.2230019569
 1059.9418945  -999.250000 12.930100441 9.5000000000 3.3015091419 0.0613341331 1.9908000231 50.543357849 148.52699280 148.52737427 1.0198010206 48.053531647 1.2144000530 1.2281999588
 1060.0942383  -999.250000 12.993609428 9.5000000000 3.3011860847 0.0687910318 1.9989010096 48.932678223 148.98199463 148.98162842 1.0421129465 48.052265167 1.2154769897 1.2368030548
 1060.2467041  -999.250000 13.013100624 9.5000000000 3.3011810780 0.0734663457 2.0002999306 48.648208618 148.87899780 148.87899780 1.0751990080 48.115993500 1.1605010033 1.2446000576
 1060.3990479  -999.250000 13.016400337 9.5000000000 3.3250899315 0.0769303441 1.9986000061 49.358272552 147.52789307 147.52919006 1.1231169701 48.263946533 1.0712679625 1.2539039850
 1060.5515137  -999.250000 13.016099930 9.5000000000 3.4227881432 0.0684687495 1.9994000196 49.180210114 146.99220276 146.99220276 1.1751949787 48.384761810 1.2895790339 1.2667989731
 1060.7038574  -999.250000 13.059610367 9.5000000000 3.8125705719 0.0737910345 2.0194070339 48.555938721 144.69270325 144.69505310 1.2158050537 48.484764099 1.1963720322 1.2806040049
 1060.8563232  -999.250000 13.094590187 9.5000000000 3.9155755043 0.0821322128 2.0429959297 47.970088959 142.74240112 142.74209595 1.2344969511 48.534538269 1.1002140045 1.2943979502
 1061.0086670  -999.250000 13.067290306 9.5000000000 3.9169950485 0.0825348273 2.0566999912 47.970790863 141.22659302 141.22792053 1.2377970219 48.490081787 1.1820850372 1.3096020222
 1061.1611328  -999.250000 13.003109932 9.5000000000 3.9166710377 0.0849326923 2.0576000214 50.246509552 140.62260437 140.62249756 1.2238030434 48.448196411 1.1156140566 1.3188979626
 1061.3134766  -999.250000 13.161809921 9.5000000000 3.9286308289 0.0808719024 2.0499999523 53.486454010 141.88859558 141.88729858 1.1833900213 48.439262390 1.1375139952 1.3130970001
 1061.4659424  -999.250000 13.197589874 9.5000000000 3.9284820557 0.1024615392 2.0490999222 54.480819702 144.00160217 144.00219727 1.1222170591 48.360294342 1.2321729660 1.2939050198
 1061.6182861  -999.250000 12.929180145 9.5000000000 3.9284772873 0.1190649047 2.0429990292 52.883251190 146.17199707 146.17005920 1.0450930595 48.123096466 1.0722969770 1.2683969736
 1061.7707520  -999.250000 12.684079170 9.5000000000 3.9161901474 0.0926645324 2.0305039883 49.278228760 147.90420532 147.90480042 0.9675254226 47.766193390 1.0425100327 1.2386100292
 1061.9230957  -999.250000 12.550399780 9.5000000000 3.9160103798 0.0585384630 2.0483009815 46.928764343 146.26100159 146.26240540 0.9031984210 47.510528564 1.1072020531 1.1948980093
 1062.0754395  -999.250000 12.511300087 9.5000000000 3.4782195091 0.0507325865 2.0955131054 42.736598969 143.24130249 143.24482727 0.8480795026 47.225685120 1.1775269508 1.1430859566
 1062.2279053  -999.250000 12.498399734 9.5000000000 3.0662965775 0.0649302900 2.1290988922 36.790271759 140.50520325 140.50729370 0.7980015874 46.638393402 1.2485979795 1.1075010300
 1062.3802490  -999.250000 12.525731087 9.5000000000 2.9505157471 0.0912449956 2.1426990032 29.455589294 136.66189575 136.66497803 0.7666972876 46.050552368 1.2285829782 1.0897970200
 1062.5327148  -999.250000 12.598589897 9.5000000000 2.9407351017 0.1121971160 2.1401998997 25.893449783 136.46609497 136.46609497 0.7586007714 45.739967346 1.1777050495 1.0820009708
 1062.6850586  -999.250000 12.619310379 9.5000000000 2.9202618599 0.0950224176 2.1101889610 25.880529404 137.34140015 137.34069824 0.7662057877 45.717014313 1.2613550425 1.0855029821
 1062.8375244  -999.250000 12.653091431 9.5000000000 2.9157440662 0.0840673074 2.0703070164 29.625999451 137.47950745 137.47950745 0.7876964808 45.868286133 1.1060229540 1.0975979567
 1062.9898682  -999.250000 12.812649727 9.5000000000 2.9153590202 0.1166989505 2.0652968884 33.968921661 139.22720337 139.22509766 0.8480203152 46.159072876 0.9528911710 1.1140060425
 1063.1423340  -999.250000 13.038850784 9.5000000000 2.9030668736 0.1436634660 2.0531029701 41.252979279 142.47850037 142.47920227 0.9512755871 46.543174744 0.9117090106 1.1425939798
 1063.2946777  -999.250000 13.091690063 9.5000000000 2.9028871059 0.1599887908 2.0348958969 47.524829865 146.14370728 146.14027405 1.0662139654 47.030723572 0.9598234296 1.1885069609
 1063.4471436  -999.250000 13.030719757 9.5000000000 2.9106476307 0.1273413450 2.0083079338 52.550060272 149.53190613 149.53280640 1.1630710363 47.522548676 1.1340459585 1.2404849529
 1063.5994873  -999.250000 13.087209702 9.5000000000 2.9511802197 0.0663819015 1.9866009951 52.318279266 150.40910339 150.40890503 1.2183020115 47.954528809 1.2441769838 1.2806019783
 1063.7519531  -999.250000 13.197760582 9.5000000000 3.1461083889 0.0446009636 1.9983960390 52.097480774 144.80230713 144.80039978 1.2415920496 48.270023346 1.0014760494 1.3019930124
 1063.9042969  -999.250000 13.159700394 9.5000000000 3.2744107246 0.0598629825 2.0357010365 51.954109192 142.76350403 142.76513672 1.2624009848 48.495529175 0.9857006073 1.3187999725
