# LAS format log file from PETREL
# Project units are specified as depth units
#==================================================================
~Version information
VERS.   2.0:
WRAP.   NO:
#==================================================================
~Well
STRT .m      353.26309204 :
STOP .m      2468.2702637 :
STEP .m     0.00000000 :
NULL .        -999.250000 :
COMP.           : COMPANY
WELL.  25/11-1  Balder   : WELL
FLD.            : FIELD
LOC.            : LOCATION
SRVC.           : SERVICE COMPANY
DATE.  2018-09-11 14:48:15   : Log Export Date {yyyy-MM-dd HH:mm:ss}
PROV.           : PROVINCE
UWI.   25/11-1   : UNIQUE WELL ID
API.            : API NUMBER
#==================================================================
~Curve
DEPT .m                   : DEPTH
Lithology_geolink ._      : Lithology_geolink
CALI .in                  : CALI
MUDWEIGHT ._              : MUDWEIGHT
ROP .m/h                  : ROP
DRHO .g/cm3               : DRHO
RHOB .g/cm3               : RHOB
GR .gAPI                  : GR
DTC .us/ft                : DTC
DTE .us/ft                : DTE
RDEP .ohm.m               : RDEP
SP .mV                    : SP
RSHA .ohm.m               : RSHA
RMED .ohm.m               : RMED
~Parameter
#==================================================================
~Ascii
# ...
 2452.1157227  -999.250000 8.4366769791 11.399999619 20.877973557 0.0222708341 2.7256031036 14.587437630 49.799777985 49.799247742 99.996696472 66.581954956 68.848266602 68.171127319
 2452.2683105  -999.250000 8.4172010422 11.399999619 20.573516846 0.0168846156 2.7277998924 14.072640419 50.216529846 50.216598511 99.992698669 66.408828735 69.143783569 69.248626709
 2452.4206543  -999.250000 8.3932008743 11.399999619 20.505014420 0.0208461545 2.7318000793 13.442420006 49.848461151 49.848590851 99.988693237 66.303298950 69.441619873 70.321128845
 2452.5729980  -999.250000 8.3965148926 11.399999619 20.502952576 0.0273846146 2.7308907509 12.797064781 49.414184570 49.413696289 99.984786987 66.281059265 69.742439270 71.392303467
 2452.7253418  -999.250000 8.4176111221 11.399999619 20.562873840 0.0209743995 2.7165839672 12.396821022 50.083095551 50.083126068 99.980789185 66.279266357 69.913444519 72.463981628
 2452.8779297  -999.250000 8.4279985428 11.399999619 20.565277100 0.0084999995 2.7012031078 11.996979713 50.051158905 50.051200867 99.976806641 66.267227173 69.935203552 73.533203125
 2453.0302734  -999.250000 8.4161968231 11.399999619 20.565607071 -0.000846154 2.7005019188 11.773550034 49.499729156 49.499599457 99.972801208 66.182823181 69.915786743 74.569946289
 2453.1826172  -999.250000 8.3961973190 11.399999619 20.565933228 0.0021153847 2.7105059624 12.038115501 50.240989685 50.239711761 99.968803406 66.210639954 69.896522522 75.447143555
 2453.3349609  -999.250000 8.3913173676 11.399999619 20.566261292 0.0069184005 2.7223041058 12.303215981 50.337810516 50.337444305 99.964897156 66.333084106 69.877113342 76.066680908
 2453.4875488  -999.250000 8.4100942612 11.399999619 20.566589355 0.0123846158 2.7267990112 12.568320274 50.564468384 50.564498901 99.960891724 66.251571655 69.857696533 76.487876892
 2453.6398926  -999.250000 8.4380016327 11.399999619 20.566917419 0.0169230774 2.7260000706 13.314849854 50.937839508 50.937900543 99.956916809 66.028045654 69.838302612 76.811317444
 2453.7922363  -999.250000 8.4582052231 11.399999619 20.567245483 0.0165384617 2.7219970226 14.346076965 50.554759979 50.555408478 99.952911377 66.128509521 69.819030762 77.173141479
 2453.9445801  -999.250000 8.4695968628 11.399999619 20.567573547 0.0116224000 2.7149930000 15.378825188 50.472721100 50.472824097 99.948982239 66.961822510 69.799720764 77.776412964
 2454.0971680  -999.250000 8.4650020599 11.399999619 20.567903519 0.0041538463 2.7055039406 16.121070862 50.491809845 50.491798401 99.945007324 67.633758545 69.780296326 78.663307190
 2454.2495117  -999.250000 8.4371023178 11.399999619 20.607927322 -0.001653846 2.6911010742 15.158370018 50.451438904 50.451400757 99.941001892 67.527847290 69.760986328 79.704711914
 2454.4018555  -999.250000 8.4003944397 11.399999619 20.629226685 0.0006538462 2.6756980419 14.140630722 51.056930542 51.056034088 99.936996460 67.322776794 69.741729736 80.786911011
 2454.5541992  -999.250000 8.3805971146 11.399999619 20.630554199 -0.001653846 2.6693029404 13.095085144 50.882606506 50.882678986 99.932991028 67.468574524 69.722412109 81.870719910
 2454.7065430  -999.250000 8.3769006729 11.399999619 20.630893707 -0.000811200 2.6741080284 12.049475670 51.199863434 51.199291229 99.929100037 67.670394897 69.703109741 82.954223633
 2454.8591309  -999.250000 8.3767004013 11.399999619 20.630905151 0.0029230770 2.6822979450 10.976119995 51.256114960 51.256099701 99.925086975 67.562316895 69.683792114 84.035476685
 2455.0114746  -999.250000 8.3791007996 11.399999619 20.691146851 0.0069230772 2.6927011013 10.230165482 50.935127258 50.935619354 99.921089172 67.332397461 69.716133118 85.152000427
 2455.1638184  -999.250000 8.3848037720 11.399999619 20.693241119 0.0087307692 2.6999990940 10.042998314 51.428253174 51.426609039 99.917190552 67.208946228 70.129516602 86.332473755
 2455.3161621  -999.250000 8.3916110992 11.399999619 20.693559647 0.0068111997 2.6977910995 9.8566303253 53.072647095 53.068565369 99.913192749 67.095939636 70.843803406 87.559310913
 2455.4687500  -999.250000 8.4027967453 11.399999619 20.693887711 0.0147692300 2.6879029274 9.6703605652 54.711799622 54.712299347 99.909210205 67.018867493 69.038887024 88.797378540
 2455.6210938  -999.250000 8.4604072571 11.399999619 20.694213867 0.0114230765 2.6681990623 10.055029869 55.259944916 55.259998322 99.905212402 67.000061035 46.333271027 90.051437378
 2455.7734375  -999.250000 8.6293172836 11.399999619 20.654912949 0.0024230769 2.6526010036 10.880307198 54.391769409 54.393890381 99.904693604 66.996063232 18.755685806 91.353752136
 2455.9257813  -999.250000 8.6699132919 11.399999619 20.534652710 0.0014592001 2.6551160812 11.931176186 52.700038910 52.703712463 99.910888672 67.008979797 16.006961823 92.725097656
 2456.0783691  -999.250000 8.5589504242 11.399999619 20.331712723 0.0078461533 2.6755909920 12.778420448 51.458408356 51.457805634 99.921798706 67.099372864 37.515399933 94.131057739
 2456.2307129  -999.250000 8.4277105331 11.399999619 19.987237930 0.0143846162 2.6971979141 13.051980019 51.329429626 51.329399109 99.933708191 67.151329041 57.979579926 95.546173096
 2456.3830566  -999.250000 8.3432054520 11.399999619 19.777570724 0.0116153844 2.7044000626 13.325252533 51.338428497 51.338485718 99.945800781 67.098686218 66.936607361 96.964401245
 2456.5354004  -999.250000 8.3595323563 11.399999619 19.711383820 0.0158461537 2.7026948929 13.282988548 51.040180206 51.040676117 99.957786560 67.165267944 66.839241028  -999.250000
 2456.6877441  -999.250000 8.4090566635 11.399999619 19.709634781 0.0143520003 2.6954979897 12.847229004 51.074100494  -999.250000 99.969886780 67.107398987 59.446338654  -999.250000
 2456.8403320  -999.250000 8.3662090302 11.399999619 19.709962845 0.0108076921 2.6935999393 12.292619705 51.119541168  -999.250000 99.981910706 66.978637695 61.403179169  -999.250000
 2456.9926758  -999.250000 8.2801933289 11.399999619 19.769899368 0.0092692301 2.6926999092 11.879522324 51.165065765  -999.250000 99.994018555 66.818222046 67.488059998  -999.250000
 2457.1450195  -999.250000 8.2407922745 11.399999619 19.772298813 0.0053461539 2.6912031174 11.618638039 51.210575104  -999.250000 100.00599670 66.517753601 68.832328796  -999.250000
 2457.2973633  -999.250000 8.2266950607 11.399999619 19.772626877 0.0032704000 2.6964099407 12.037218094 51.224479675  -999.250000 100.01809692 66.163818359 68.236244202  -999.250000
 2457.4499512  -999.250000 8.2218017578 11.399999619 19.772954941 0.0103076929 2.7075960636 12.803339958 51.221336365  -999.250000 100.03009796 65.983673096 67.319107056  -999.250000
 2457.6022949  -999.250000 8.2342014313 11.399999619 19.773283005 0.0166538451 2.6405479908 13.571319580 51.218189240  -999.250000 100.02709961 65.899299622 66.426658630  -999.250000
 2457.7546387  -999.250000 8.2698135376 11.399999619 19.773611069 0.0165384617 2.6430809498 14.096787453 51.215038300  -999.250000 99.981582642 65.600479126 62.344741821  -999.250000
 2457.9069824  -999.250000 8.3059082031 11.399999619 19.773939133 0.0145408008 2.6387789249 13.180182457 51.211891174  -999.250000  -999.250000 65.309051514 56.225921631  -999.250000
 2458.0595703  -999.250000 8.3159952164 11.399999619 19.714565277 0.0169230774 2.6328449249 12.022529602 51.208751678  -999.250000  -999.250000 65.128189087 52.951969147  -999.250000
 2458.2119141  -999.250000 8.3631954193 11.399999619 19.712915421 0.0150769232 2.6284339428 10.195469856 51.205600739  -999.250000  -999.250000 64.820983887 46.967109680  -999.250000
 2458.3642578  -999.250000 8.4324169159  -999.250000  -999.250000 0.0242307708 2.6284339428 7.2770476341 51.202445984  -999.250000  -999.250000 64.323371887 32.264183044  -999.250000
 2458.5166016  -999.250000 8.4919176102  -999.250000  -999.250000 0.0265384614 2.6284339428 4.2822642326 51.199298859  -999.250000  -999.250000 63.785469055 15.293961525  -999.250000
 2458.6689453  -999.250000 8.3630456924  -999.250000  -999.250000 0.0208927989 2.6284339428 1.2876291275 51.196159363  -999.250000  -999.250000 63.542652130 8.8101472855  -999.250000
