# LAS format log file from PETREL
# Project units are specified as depth units
#==================================================================
~Version information
VERS.   2.0:
WRAP.   NO:
#==================================================================
~Well
STRT .m      383.59057617 :
STOP .m      2173.8320313 :
STEP .m     0.00000000 :
NULL .        -999.250000 :
COMP.           : COMPANY
WELL.  25/11-5 Balder Appr   : WELL
FLD.            : FIELD
LOC.            : LOCATION
SRVC.           : SERVICE COMPANY
DATE.  2018-09-11 14:48:16   : Log Export Date {yyyy-MM-dd HH:mm:ss}
PROV.           : PROVINCE
UWI.   25/11-5   : UNIQUE WELL ID
API.            : API NUMBER
#==================================================================
~Curve
DEPT .m                   : DEPTH
Lithology_geolink ._      : Lithology_geolink
DCAL .in                  : DCAL
CALI .in                  : CALI
BS .in                    : BS
MUDWEIGHT ._              : MUDWEIGHT
DRHO .g/cm3               : DRHO
NPHI .m3/m3               : NPHI
RHOB .g/cm3               : RHOB
GR .gAPI                  : GR
DTC .us/ft                : DTC
RDEP .ohm.m               : RDEP
SP .mV                    : SP
RMED .ohm.m               : RMED
~Parameter
#==================================================================
~Ascii
# ...
 866.39343262  -999.250000 2.3369998932 14.586999893 12.250000954 9.1999998093  -999.250000  -999.250000  -999.250000 18.570999146 154.12493896 0.6759999990 35.683998108 0.6869999766
 866.54583740  -999.250000 2.2000000477 14.449999809 12.250000954 9.1999998093  -999.250000  -999.250000  -999.250000 18.716999054 152.61331177 0.6690000296 35.797000885 0.6660000086
 866.69824219  -999.250000 2.1270000935 14.376998901 12.250000954 9.1999998093  -999.250000  -999.250000  -999.250000 18.714000702 150.42286682 0.6600000262 35.894001007 0.6460000277
 866.85064697  -999.250000 2.2290000916 14.478999138 12.250000954 9.1999998093  -999.250000  -999.250000  -999.250000 19.670000076 150.32633972 0.6539999843 36.189998627 0.6420000196
 867.00305176  -999.250000 2.3299999237 14.579999924 12.250000954 9.1999998093  -999.250000  -999.250000  -999.250000 20.086999893 152.46295166 0.6510000229 36.416000366 0.6430000067
 867.15545654  -999.250000 2.4930000305 14.743000031 12.250000954 9.1999998093  -999.250000  -999.250000  -999.250000 20.985000610 153.60194397 0.6489999890 36.631999969 0.6460000277
 867.30773926  -999.250000 2.4530000687 14.703000069 12.250000954 9.1999998093  -999.250000  -999.250000  -999.250000 21.092956543 153.85948181 0.6489999890 36.845916748 0.6469995975
 867.46014404  -999.250000 2.4610002041 14.711001396 12.250000954 9.1999998093  -999.250000  -999.250000  -999.250000 20.428266525 153.82902527 0.6539979577 37.123889923 0.6470000148
 867.61254883  -999.250000 2.5009999275 14.751001358 12.250000954 9.1999998093  -999.250000  -999.250000  -999.250000 19.046552658 152.77694702 0.6609972119 37.170982361 0.6499987841
 867.76495361  -999.250000 2.5409998894 14.791000366 12.250000954 9.1999998093  -999.250000  -999.250000  -999.250000 18.139362335 150.57127380 0.6679971814 37.069042206 0.6599960327
 867.91735840  -999.250000 2.5559999943 14.806000710 12.250000954 9.1999998093  -999.250000  -999.250000  -999.250000 17.552234650 149.83897400 0.6729979515 36.741130829 0.6659976244
 868.06976318  -999.250000 2.5559999943 14.806000710 12.250000954 9.1999998093  -999.250000  -999.250000  -999.250000 18.502618790 151.70790100 0.6759988070 36.715011597 0.6590027809
 868.22216797  -999.250000 2.5550000668 14.805000305 12.250000954 9.1999998093  -999.250000  -999.250000  -999.250000 18.897842407 152.40205383 0.6779991984 36.563060760 0.6480044127
 868.37457275  -999.250000 2.6070001125 14.856999397 12.250000954 9.1999998093  -999.250000  -999.250000  -999.250000 19.779647827 152.26770020 0.6809988022 36.875873566 0.6370044351
 868.52697754  -999.250000 2.6589999199 14.909000397 12.250000954 9.1999998093  -999.250000  -999.250000  -999.250000 20.691635132 149.85203552 0.6839988232 37.005947113 0.6270039678
 868.67938232  -999.250000 2.7039999962 14.954000473 12.250000954 9.1999998093  -999.250000  -999.250000  -999.250000 21.319747925 148.51547241 0.6879984140 36.854061127 0.6160044074
 868.83172607  -999.250000 2.7339997292 14.984000206 12.250000954 9.1999998093  -999.250000  -999.250000  -999.250000 21.816600800 148.28398132 0.6919967532 36.116592407 0.6189976335
 868.98413086  -999.250000 2.7420001030 14.991999626 12.250000954 9.1999998093  -999.250000  -999.250000  -999.250000 22.485464096 148.91334534 0.6929992437 36.342815399 0.6469776034
 869.13653564  -999.250000 2.7509999275 15.001000404 12.250000954 9.1999998093  -999.250000  -999.250000  -999.250000 23.233400345 149.30604553 0.6910015941 36.397953033 0.6579911709
 869.28894043  -999.250000 2.7589998245 15.008999825 12.250000954 9.1999998093  -999.250000  -999.250000  -999.250000 24.043676376 151.19432068 0.6890007854 36.395000458 0.6420064569
 869.44134521  -999.250000 2.7679998875 15.017999649 12.250000954 9.1999998093  -999.250000  -999.250000  -999.250000 23.797100067 153.45217896 0.6860011816 36.441982269 0.6350027919
 869.59375000  -999.250000 2.7780001163 15.027999878 12.250000954 9.1999998093  -999.250000  -999.250000  -999.250000 21.365974426 153.33195496 0.6830012202 36.337043762 0.6409975886
 869.74615479  -999.250000 2.7909998894 15.040999413 12.250000954 9.1999998093  -999.250000  -999.250000  -999.250000 20.746248245 154.44232178 0.6810007691 36.130084991 0.6599923968
 869.89855957  -999.250000 2.7659997940 15.015999794 12.250000954 9.1999998093  -999.250000  -999.250000  -999.250000 20.743001938 155.12704468 0.6819995642 36.036037445 0.6859895587
 870.05096436  -999.250000 2.7409999371 14.991000175 12.250000954 9.1999998093  -999.250000  -999.250000  -999.250000 22.532283783 152.23901367 0.6849988103 36.033000946 0.6919975877
 870.20336914  -999.250000 2.7149996758 14.965000153 12.250000954 9.1999998093  -999.250000  -999.250000  -999.250000 22.231121063 151.26667786 0.6879988313 36.129962921 0.6750068069
 870.35577393  -999.250000 2.6919996738 14.942001343 12.250000954 9.1999998093  -999.250000  -999.250000  -999.250000 21.173423767 150.26940918 0.6800032258 36.226963043 0.6640043855
 870.50817871  -999.250000 2.6919996738 14.942001343 12.250000954 9.1999998093  -999.250000  -999.250000  -999.250000 19.511665344 148.48303223 0.6680048108 36.189014435 0.6600016356
 870.66058350  -999.250000 2.6860001087 14.935999870 12.250000954 9.1999998093  -999.250000  -999.250000  -999.250000 19.506002426 145.40875244 0.6709988117 36.618827820 0.6709955931
 870.81298828  -999.250000 2.6770000458 14.927000046 12.250000954 9.1999998093  -999.250000  -999.250000  -999.250000 20.025791168 148.73263550 0.6809960008 36.700965881 0.6879932284
 870.96533203  -999.250000 2.5669999123 14.817000389 12.250000954 9.1999998093  -999.250000  -999.250000  -999.250000 19.398504257 152.59994507 0.6889935732 36.862869263 0.6899983883
 871.11773682  -999.250000 2.6640000343 14.913999557 12.250000954 9.1999998093  -999.250000  -999.250000  -999.250000 18.517705917 152.49139404 0.6939960122 36.739097595 0.6670184135
 871.27014160  -999.250000 2.7839996815 15.034001350 12.250000954 9.1999998093  -999.250000  -999.250000  -999.250000 18.449054718 150.29306030 0.7039920092 36.708026886 0.6410207748
 871.42254639  -999.250000 2.8260002136 15.076001167 12.250000954 9.1999998093  -999.250000  -999.250000  -999.250000 20.367231369 149.45722961 0.7239919901 36.506080627 0.6519955993
 871.57495117  -999.250000 2.8299996853 15.080000877 12.250000954 9.1999998093  -999.250000  -999.250000  -999.250000 22.913980484 153.02107239 0.7449916005 36.502998352 0.6939831972
 871.72735596  -999.250000 2.7489998341 14.998999596 12.250000954 9.1999998093  -999.250000  -999.250000  -999.250000 25.255062103 156.92993164 0.7689903975 36.779888153 0.7409811616
 871.87976074  -999.250000 2.7090001106 14.958999634 12.250000954 9.1999998093  -999.250000  -999.250000  -999.250000 25.632848740 157.33843994 0.7949895859 37.206829071 0.7809839845
 872.03216553  -999.250000 2.7520000935 15.001998901 12.250000954 9.1999998093  -999.250000  -999.250000  -999.250000 23.800733566 155.04380798 0.8219892383 37.423912048 0.7899964452
 872.18457031  -999.250000 2.7859997749 15.036000252 12.250000954 9.1999998093  -999.250000  -999.250000  -999.250000 20.814195633 152.40126038 0.8579855561 37.452987671 0.7700079679
 872.33697510  -999.250000 2.8050000668 15.055000305 12.250000954 9.1999998093  -999.250000  -999.250000  -999.250000 19.214641571 150.12251282 0.9119783640 37.386028290 0.7220192552
 872.48937988  -999.250000 2.7939999104 15.043999672 12.250000954 9.1999998093  -999.250000  -999.250000  -999.250000 18.899126053 150.29702759 0.9679775834 37.194076538 0.7309964299
 872.64178467  -999.250000 2.7709999084 15.020998955 12.250000954 9.1999998093  -999.250000  -999.250000  -999.250000 18.638105392 150.63836670 1.0179799795 37.479885101 0.8029711246
 872.79418945  -999.250000 2.7379996777 14.987999916 12.250000954 9.1999998093  -999.250000  -999.250000  -999.250000 18.892896652 148.08102417 1.0459887981 37.526981354 0.9049591422
 872.94659424  -999.250000 2.7079997063 14.958000183 12.250000954 9.1999998093  -999.250000  -999.250000  -999.250000 19.053936005 144.42536926 1.0549963713 37.283100128 1.0019611120
