# LAS format log file from PETREL
# Project units are specified as depth units
#==================================================================
~Version information
VERS.   2.0:
WRAP.   NO:
#==================================================================
~Well
STRT .m      383.59057617 :
STOP .m      2173.8320313 :
STEP .m     0.00000000 :
NULL .        -999.250000 :
COMP.           : COMPANY
WELL.  25/11-5 Balder Appr   : WELL
FLD.            : FIELD
LOC.            : LOCATION
SRVC.           : SERVICE COMPANY
DATE.  2018-09-11 14:48:16   : Log Export Date {yyyy-MM-dd HH:mm:ss}
PROV.           : PROVINCE
UWI.   25/11-5   : UNIQUE WELL ID
API.            : API NUMBER
#==================================================================
~Curve
DEPT .m                   : DEPTH
Lithology_geolink ._      : Lithology_geolink
DCAL .in                  : DCAL
CALI .in                  : CALI
BS .in                    : BS
MUDWEIGHT ._              : MUDWEIGHT
DRHO .g/cm3               : DRHO
NPHI .m3/m3               : NPHI
RHOB .g/cm3               : RHOB
GR .gAPI                  : GR
DTC .us/ft                : DTC
RDEP .ohm.m               : RDEP
SP .mV                    : SP
RMED .ohm.m               : RMED
~Parameter
#==================================================================
~Ascii
# ...
 1221.7899170  -999.250000 0.4540005028 12.704000473 12.250000954 9.1999998093  -999.250000 0.6784399748  -999.250000 49.553001404 142.69337463 1.0749864578 46.131000519 1.2319896221
 1221.9422607  -999.250000 0.3979997933 12.647999763 12.250000954 9.1999998093  -999.250000 0.6756121516  -999.250000 47.825386047 141.90266418 1.0899760723 46.429759979 1.2489727736
 1222.0947266  -999.250000 0.3739995956 12.623999596 12.250000954 9.1999998093  -999.250000 0.6514999866  -999.250000 47.816001892 141.71154785 1.1009911299 46.770000458 1.2729808092
 1222.2470703  -999.250000 0.3889999092 12.638999939 12.250000954 9.1999998093  -999.250000 0.6392398477  -999.250000 47.211483002 141.85517883 1.1099928617 46.766002655 1.2969808578
 1222.3995361  -999.250000 0.3839997649 12.633999825 12.250000954 9.1999998093  -999.250000 0.6474400163  -999.250000 46.908000946 142.14447021 1.1169943810 46.710998535 1.3029952049
 1222.5518799  -999.250000 0.4429998398 12.693000793 12.250000954 9.1999998093  -999.250000 0.6540948153  -999.250000 48.102043152 142.49870300 1.1199976206 46.557121277 1.2920088768
 1222.7043457  -999.250000 0.0939998701 12.343999863 12.250000954 9.1999998093  -999.250000 0.6564199924  -999.250000 49.617000580 142.79695129 1.1190007925 46.602001190 1.2760127783
 1222.8566895  -999.250000 0.2639999092 12.513999939 12.250000954 9.1999998093  -999.250000 0.6695894599  -999.250000 50.821033478 142.53530884 1.1180008650 46.547046661 1.2650088072
 1223.0091553  -999.250000 0.4619998932 12.711999893 12.250000954 9.1999998093  -999.250000 0.6733300090  -999.250000 51.356998444 142.00822449 1.1100064516 46.591999054 1.2570064068
 1223.1614990  -999.250000 0.6210002899 12.871000290 12.250000954 9.1999998093  -999.250000 0.6505482197  -999.250000 50.960315704 141.98591614 1.0930136442 46.509063721 1.2510048151
 1223.3138428  -999.250000 0.5649995804 12.814998627 12.250000954 9.1999998093  -999.250000 0.6427462697  -999.250000 49.848892212 142.68577576 1.0690383911 46.433059692 1.2380208969
 1223.4663086  -999.250000 0.5080003738 12.758001328 12.250000954 9.1999998093  -999.250000 0.6634434462  -999.250000 50.823219299 143.76362610 1.0430208445 46.329082489 1.2170168161
 1223.6186523  -999.250000 0.4269999862 12.676999092 12.250000954 9.1999998093  -999.250000 0.6826946735  -999.250000 53.487865448 145.46148682 1.0180400610 46.373966217 1.1940368414
 1223.7711182  -999.250000 0.4829998016 12.732998848 12.250000954 9.1999998093  -999.250000 0.6750199795  -999.250000 54.387001038 147.46949768 0.9960176349 46.519001007 1.1600272655
 1223.9234619  -999.250000 0.5120000839 12.762001038 12.250000954 9.1999998093  -999.250000 0.6715428233  -999.250000 54.598831177 148.11425781 0.9870144129 46.563964844 1.1100801229
 1224.0759277  -999.250000 0.4469994903 12.696998596 12.250000954 9.1999998093  -999.250000 0.6778299809  -999.250000 54.493000031 147.64727783 0.9840024114 46.659000397 1.0770264864
 1224.2282715  -999.250000 0.4469994903 12.696998596 12.250000954 9.1999998093  -999.250000 0.6871125698  -999.250000 52.870300293 146.92507935 0.9859983921 46.852844238 1.0959846973
 1224.3807373  -999.250000 0.4289999306 12.678999901 12.250000954 9.1999998093  -999.250000 0.7033200264  -999.250000 51.290000916 145.93638611 0.9889976382 46.898998260 1.1379663944
 1224.5330811  -999.250000 0.4020003676 12.651999474 12.250000954 9.1999998093  -999.250000 0.7236037254  -999.250000 51.021213531 144.82040405 0.9919975996 47.098838806 1.1509896517
 1224.6855469  -999.250000 0.3870000839 12.637000084 12.250000954 9.1999998093  -999.250000 0.7123799920  -999.250000 49.937999725 142.56910706 0.9969959855 47.237998962 1.1559959650
 1224.8378906  -999.250000 0.3030005097 12.553001404 12.250000954 9.1999998093  -999.250000 0.6752098203  -999.250000 49.475368500 141.45478821 1.0109888315 47.233005524 1.1649928093
 1224.9903564  -999.250000 0.2060002983 12.456000328 12.250000954 9.1999998093  -999.250000 0.6496000290  -999.250000 49.466999054 140.97088623 1.0339816809 47.113998413 1.1819864511
 1225.1427002  -999.250000 0.1580000073 12.407999992 12.250000954 9.1999998093  -999.250000 0.6371999383  -999.250000 49.119277954 140.96949768 1.0459903479 47.056045532 1.2149735689
 1225.2950439  -999.250000 0.4390000999 12.689000130 12.250000954 9.1999998093  -999.250000 0.6282671690  -999.250000 48.556449890 141.53390503 1.0559840202 46.749244690 1.2419567108
 1225.4475098  -999.250000 0.4540005028 12.704000473 12.250000954 9.1999998093  -999.250000 0.6407399774  -999.250000 50.605358124 142.20956421 1.0649929047 46.391284943 1.2410008907
 1225.5998535  -999.250000 0.4269999862 12.676999092 12.250000954 9.1999998093  -999.250000 0.6512815356  -999.250000 51.827022552 142.82841492 1.0749840736 46.263103485 1.2220304012
 1225.7523193  -999.250000 0.4090003967 12.658999443 12.250000954 9.1999998093  -999.250000 0.6339300275  -999.250000 52.025001526 143.12705994 1.0799959898 46.638000488 1.1990184784
 1225.9046631  -999.250000 0.3920001984 12.641999245 12.250000954 9.1999998093  -999.250000 0.6167038083  -999.250000 51.682273865 142.96936035 1.0780031681 46.568058014 1.1990000010
 1226.0571289  -999.250000 0.3570004106 12.607000351 12.250000954 9.1999998093  -999.250000 0.6183199883  -999.250000 49.785999298 142.43452454 1.0740032196 46.696998596 1.2199832201
 1226.2094727  -999.250000 0.2950001061 12.545000076 12.250000954 9.1999998093  -999.250000 0.6320589781  -999.250000 48.571971893 141.78552246 1.0700032711 46.841884613 1.2409832478
 1226.3619385  -999.250000 0.2639999092 12.513999939 12.250000954 9.1999998093  -999.250000 0.6399700046  -999.250000 47.708999634 141.01362610 1.0660032034 46.937000275 1.2479944229
 1226.5142822  -999.250000 0.2829999924 12.532999039 12.250000954 9.1999998093  -999.250000 0.6287389994  -999.250000 46.703804016 140.73373413 1.0620032549 46.835079193 1.2430040836
 1226.6667480  -999.250000 0.3360003829 12.586000443 12.250000954 9.1999998093  -999.250000 0.6162800193  -999.250000 48.091999054 141.71342468 1.0600014925 46.777999878 1.2559896708
 1226.8190918  -999.250000 0.4180001915 12.668000221 12.250000954 9.1999998093  -999.250000 0.6117636561  -999.250000 49.949512482 143.25067139 1.0580015182 46.872924805 1.2729864120
 1226.9715576  -999.250000 0.4709996581 12.720999718 12.250000954 9.1999998093  -999.250000 0.6143000126  -999.250000 51.145999908 143.97421265 1.0570008755 46.762001038 1.2600103617
 1227.1239014  -999.250000 0.3599997461 12.610000610 12.250000954 9.1999998093  -999.250000 0.6131609082  -999.250000 51.154991150 143.64906311 1.0550014973 46.714038849 1.2250280380
 1227.2762451  -999.250000 0.3420000076 12.592000008 12.250000954 9.1999998093  -999.250000 0.6115812659  -999.250000 51.148002625 142.96690369 1.0530031919 46.857887268 1.2040336132
 1227.4287109  -999.250000 0.4449996650 12.694999695 12.250000954 9.1999998093  -999.250000 0.6120296717  -999.250000 49.945960999 142.26446533 1.0520008802 46.670146942 1.2129929066
 1227.5810547  -999.250000 0.5340003967 12.784002304 12.250000954 9.1999998093  -999.250000 0.6158869267  -999.250000 49.915023804 149.52864075 1.0500031710 46.998737335 1.2359631062
 1227.7335205  -999.250000 0.5200005174 12.770000458 12.250000954 9.1999998093  -999.250000 0.6339399815  -999.250000 49.631000519 155.43885803 1.0490008593 47.043998718 1.2479903698
 1227.8858643  -999.250000 0.3699999154 12.619999886 12.250000954 9.1999998093  -999.250000 0.6511362195  -999.250000 48.686756134 148.68144226 1.0490000248 46.865146637 1.2410112619
 1228.0383301  -999.250000 0.2030001134 12.453000069 12.250000954 9.1999998093  -999.250000 0.6497300267  -999.250000 48.421001434 145.89512634 1.0480008125 46.735000610 1.2170192003
 1228.1906738  -999.250000 0.3540000618 12.604000092 12.250000954 9.1999998093  -999.250000 0.6471920013  -999.250000 49.432189941 147.00080872 1.0460015535 47.101707458 1.1920200586
 1228.3431396  -999.250000 0.3160000145 12.565999985 12.250000954 9.1999998093  -999.250000 0.6479399800  -999.250000 50.544998169 147.11900330 1.0410040617 47.522998810 1.1810088158
