# LAS format log file from PETREL
# Project units are specified as depth units
#==================================================================
~Version information
VERS.   2.0:
WRAP.   NO:
#==================================================================
~Well
STRT .m      1456.9927979 :
STOP .m      2094.7868652 :
STEP .m     0.00000000 :
NULL .        -999.250000 :
COMP.           : COMPANY
WELL.  25/11-24 Jakob South   : WELL
FLD.            : FIELD
LOC.            : LOCATION
SRVC.           : SERVICE COMPANY
DATE.  2018-09-11 14:48:16   : Log Export Date {yyyy-MM-dd HH:mm:ss}
PROV.           : PROVINCE
UWI.   25/11-24   : UNIQUE WELL ID
API.            : API NUMBER
#==================================================================
~Curve
DEPT .m                   : DEPTH
Lithology_geolink ._      : Lithology_geolink
DCAL .in                  : DCAL
CALI .in                  : CALI
BS .in                    : BS
ROP .m/h                  : ROP
DRHO .g/cm3               : DRHO
NPHI .m3/m3               : NPHI
RHOB .g/cm3               : RHOB
PEF .b/e                  : PEF
GR .gAPI                  : GR
DTC .us/ft                : DTC
DTS .us/ft                : DTS
RDEP .ohm.m               : RDEP
RMIC .ohm.m               : RMIC
RMED .ohm.m               : RMED
~Parameter
#==================================================================
~Ascii
# ...
 1795.7780762 1.0000000000 0.0956001282 8.5956001282 8.5000000000 32.568241119 -0.001900000 0.3319171369 2.0687003136 2.3766000271 110.19629669 109.06061554 231.53480530 0.3826000094 0.1705999970 0.3407999873
 1795.9304199 1.0000000000 0.1260996014 8.6260995865 8.5000000000 32.568241119 -0.001900000 0.3425914049 2.0653998852 2.3413999081 110.49420166 109.31299591 231.11219788 0.3799999952 0.1703999937 0.3391000032
 1796.0828857 1.0000000000 0.0880002975 8.5880002975 8.5000000000 32.568241119 -0.002800000 0.3319004774 2.0908000469 2.3248999119 111.81310272 109.43438721 230.64700317 0.3802999854 0.1579000056 0.3384999931
 1796.2352295 1.0000000000 0.1056994945 8.6056995392 8.5000000000 32.568241119 -0.004600000 0.3322003186 2.0810999870 2.2946999073 107.55439758 109.36350250 230.67648315 0.3955999911 0.1819999963 0.3522999883
 1796.3876953 1.0000000000 0.0853996277 8.5853996277 8.5000000000 32.568241119 -0.006000000 0.3325999975 2.0829000473 2.3469998837 106.87809753 109.24236298 229.94099426 0.3932000101 0.1749999970 0.3503000140
 1796.5400391 1.0000000000 0.0904998854 8.5904998779 8.5000000000 32.568241119 -0.006000000 0.3325930238 2.0792000294 2.3322000504 105.15339661 108.71755219 228.71910095 0.3917999864 0.1728000045 0.3495000005
 1796.6923828 1.0000000000 0.0726995468 8.5726995468 8.5000000000 32.568241119 -0.004900000 0.3238934577 2.0957000256 2.2400000095 109.40750122 108.28311157 227.83949280 0.3896999955 0.1870000064 0.3476999998
 1796.8448486 1.0000000000 0.0701999664 8.5701999664 8.5000000000 32.568241119 -0.003500000 0.3156995177 2.1070001125 2.2507998943 109.52320099 107.91950226 227.50527954 0.3799999952 0.1852000058 0.3397000134
 1796.9971924 1.0000000000 0.0726995468 8.5726995468 8.5000000000 43.439960480 -0.002800000 0.3151001036 2.1027998924 2.2716999054 111.75520325 107.67670441 227.32350159 0.3826999962 0.1837999970 0.3425000012
 1797.1496582 1.0000000000 0.0777997971 8.5777997971 8.5000000000 43.439960480 -0.003000000 0.3152008951 2.0729000568 2.3627998829 110.75650024 107.93900299 227.27270508 0.4040000141 0.1975000054 0.3625999987
 1797.3020020 1.0000000000 0.1260996014 8.6260995865 8.5000000000 43.439960480 -0.003600000 0.3163112998 2.0861001015 2.3624999523 112.17610168 108.44432068 228.32099915 0.3905999959 0.2046000063 0.3510000110
 1797.4544678 1.0000000000 0.1210003048 8.6210002899 8.5000000000 43.439960480 -0.005000000 0.3304012716 2.0848999023 2.3375999928 111.22920227 108.96871948 230.16870117 0.3817000091 0.1950999945 0.3436999917
 1797.6068115 1.0000000000 0.1311998069 8.6311998367 8.5000000000 43.439960480 -0.006300000 0.3319874108 2.0754001141 2.1946001053 109.78289795 109.85851288 231.64450073 0.3752999902 0.1812999994 0.3382999897
 1797.7592773 1.0000000000 0.1565999985 8.6565999985 8.5000000000 43.439960480 -0.007400000 0.3162988722 2.0827000141 2.1939001083 111.23619843 110.12115479 232.91729736 0.3754000068 0.1731999964 0.3397000134
 1797.9116211 1.0000000000 0.1997994930 8.6997995377 8.5000000000 43.439960480 -0.008600000 0.3155958354 2.0636999607 2.1935000420 111.10099792 110.58574677 233.79690552 0.3759000003 0.1843000054 0.3404000103
 1798.0640869 1.0000000000 0.1056994945 8.6056995392 8.5000000000 33.992778778 -0.009100000 0.3104283512 2.0627000332 2.3408000469 111.30549622 110.76769257 234.65518188 0.3765999973 0.1683000028 0.3413000107
 1798.2164307 1.0000000000 0.1616000980 8.6616001129 8.5000000000 33.992778778 -0.009100000 0.3281015158 2.0790998936 2.2142000198 111.24349976 110.94927216 234.64700317 0.3770999908 0.1735000014 0.3422000110
 1798.3688965 1.0000000000 0.1489000022 8.6489000320 8.5000000000 33.992778778 -0.007100000 0.3300426006 2.0571999550 2.2135000229 110.14199829 111.03029633 234.15229797 0.3808000088 0.1775999963 0.3470000029
 1798.5212402 1.0000000000 0.1413002014 8.6413002014 8.5000000000 33.992778778 -0.004200000 0.3566014171 2.0620000362 2.3963000774 110.31109619 110.77790070 233.47590637 0.3815999925 0.1752000004 0.3479000032
 1798.6735840 1.0000000000 0.0676002502 8.5676002502 8.5000000000 33.992778778 -0.000900000 0.3583946228 2.0576999187 2.4361999035 109.92070007 110.65640259 233.14169312 0.3786000013 0.1702000052 0.3456000090
 1798.8260498 1.0000000000 0.0447997972 8.5447998047 8.5000000000 33.992778778 0.0011000000 0.3516800702 2.0631999969 2.4711999893 113.62190247 110.64671326 232.82878113 0.3648000062 0.1717000008 0.3330999911
 1798.9783936 1.0000000000 0.0270004310 8.5270004272 8.5000000000 35.110240936 0.0020000001 0.3267888725 2.0715000629 2.5092999935 114.21060181 110.28318024 232.46519470 0.3625999987 0.1651999950 0.3309000134
 1799.1308594 1.0000000000 0.0825996399 8.5825996399 8.5000000000 35.110240936 0.0009000000 0.3129044175 2.0697999001 2.4086000919 112.22489929 109.99990082 232.36360168 0.3614000082 0.1539999992 0.3300999999
 1799.2832031 1.0000000000 0.1032000110 8.6031999588 8.5000000000 35.110240936 -0.000700000 0.3184006214 2.0861999989 2.3443000317 113.10849762 109.87926483 232.10159302 0.3617999852 0.1526000053 0.3310000002
 1799.4356689 1.0000000000 0.1083002016 8.6083002090 8.5000000000 35.110240936 -0.002400000 0.3192081153 2.0827999115 2.3224999905 114.37969971 109.45452881 231.73789978 0.3621000051 0.1564999968 0.3312000036
 1799.5880127 1.0000000000 0.1361999959 8.6361999512 8.5000000000 35.110240936 -0.004000000 0.3292952478 2.0717000961 2.3496000767 114.68840027 109.49483490 231.63639832 0.3639999926 0.1604000032 0.3336000144
 1799.7404785 1.0000000000 0.0904998854 8.5904998779 8.5000000000 35.110240936 -0.005100000 0.3234100640 2.0901000500 2.3218998909 111.84770203 109.67685699 231.63639832 0.3651899397 0.1630000025 0.3350999951
 1799.8928223 1.0000000000 0.0825996399 8.5825996399 8.5000000000 35.110240936 -0.006600000 0.3297022283 2.0641999245 2.2848999500 112.11830139 109.89865875 232.16050720 0.3588991165 0.1814000010 0.3298999965
 1800.0452881 1.0000000000 0.1438999027 8.6438999176 8.5000000000 38.558731079 -0.007900000 0.3325216174 2.0610001087 2.3285000324 112.99710083 110.22235870 232.62570190 0.3578009605 0.1791000068 0.3292999864
 1800.1976318 1.0000000000 0.2047996968 8.7047996521 8.5000000000 38.558731079 -0.009400000 0.3460022211 2.0724000931 2.1449999809 110.25789642 110.44418335 233.25138855 0.3583996594 0.1787000000 0.3303999901
 1800.3500977 1.0000000000 0.1809997857 8.6809997559 8.5000000000 38.558731079 -0.010100000 0.3487980962 2.0757999420 2.1530001163 108.33910370 110.80789185 233.97869873 0.3579984009 0.1810999960 0.3296999931
 1800.5024414 1.0000000000 0.2124996036 8.7124996185 8.5000000000 38.558731079 -0.010000000 0.3476041853 2.0583999157 2.1944999695 106.88580322 111.05068207 234.18179321 0.3569978178 0.1728000045 0.3292999864
 1800.6547852 1.0000000000 0.1743002087 8.6743001938 8.5000000000 38.558731079 -0.008800000 0.3527950346 2.0706000328 2.1893000603 107.29160309 110.90914917 234.05079651 0.3543007076 0.1649000049 0.3269000053
 1800.8072510 1.0000000000 0.1693000942 8.6693000793 8.5000000000 38.557277679 -0.007000000 0.3465911746 2.0708000660 2.3724000454 107.70480347 110.96943665 234.13099670 0.3551993370 0.1684000045 0.3269000053
 1800.9595947 1.0000000000 0.1234999076 8.6234998703 8.5000000000 36.747051239 -0.005700000 0.3355885446 2.0792996883 2.3854000568 108.14420319 111.14158630 234.05079651 0.3543996215 0.1673000008 0.3260999918
 1801.1120605 1.0000000000 0.1590995938 8.6590995789 8.5000000000 36.747051239 -0.005000000 0.3212988079 2.0590000153 2.3185999393 112.33139801 111.00003052 234.00000000 0.3538949490 0.1722999960 0.3262999952
 1801.2644043 1.0000000000 0.1286001056 8.6286001205 8.5000000000 36.747051239 -0.005700000 0.3198102415 2.0618000031 2.4091999531 111.43579865 111.04018402 233.73791504 0.3475994468 0.1738000065 0.3203000128
 1801.4168701 1.0000000000 0.1464004964 8.6464004517 8.5000000000 36.747051239 -0.006400000 0.3326144218 2.0685999393 2.3269000053 111.42179871 111.14154053 233.50529480 0.3468998969 0.1668999940 0.3201999962
 1801.5692139 1.0000000000 0.1896000057 8.6895999908 8.5000000000 36.747051239 -0.007500000 0.3506037593 2.0808999538 2.3129999638 109.63120270 110.93959045 233.19250488 0.3468033671 0.1761000007 0.3199999928
