# LAS format log file from PETREL
# Project units are specified as depth units
#==================================================================
~Version information
VERS.   2.0:
WRAP.   NO:
#==================================================================
~Well
STRT .m      353.26309204 :
STOP .m      2468.2702637 :
STEP .m     0.00000000 :
NULL .        -999.250000 :
COMP.           : COMPANY
WELL.  25/11-1  Balder   : WELL
FLD.            : FIELD
LOC.            : LOCATION
SRVC.           : SERVICE COMPANY
DATE.  2018-09-11 14:48:15   : Log Export Date {yyyy-MM-dd HH:mm:ss}
PROV.           : PROVINCE
UWI.   25/11-1   : UNIQUE WELL ID
API.            : API NUMBER
#==================================================================
~Curve
DEPT .m                   : DEPTH
Lithology_geolink ._      : Lithology_geolink
CALI .in                  : CALI
MUDWEIGHT ._              : MUDWEIGHT
ROP .m/h                  : ROP
DRHO .g/cm3               : DRHO
RHOB .g/cm3               : RHOB
GR .gAPI                  : GR
DTC .us/ft                : DTC
DTE .us/ft                : DTE
RDEP .ohm.m               : RDEP
SP .mV                    : SP
RSHA .ohm.m               : RSHA
RMED .ohm.m               : RMED
~Parameter
#==================================================================
~Ascii
# ...
 775.71594238  -999.250000 12.954500198 9.1000003815 0.3188942075 0.0124020828 2.1080000401 34.600090027 144.54110718 144.54109192 1.4133039713 37.704063416 1.4841049910 1.4272040129
 775.86828613  -999.250000 12.956399918 9.1000003815 0.3188976347 0.0191329587 2.1187019348 32.827888489 144.86050415 144.86024475 1.3937970400 37.723060608 1.4758980274 1.4113980532
 776.02069092  -999.250000 12.967899323 9.1000003815 0.3188976347 0.0341990404 2.1400010586 31.607139587 145.17750549 145.17724609 1.3641979694 37.741119385 1.4561979771 1.3935990334
 776.17309570  -999.250000 12.977800369 9.1000003815 0.3192221820 0.0463327989 2.1503000259 32.325729370 145.48519897 145.48495483 1.3294990063 37.822261810 1.4211989641 1.3707989454
 776.32550049  -999.250000 13.004800797 9.1000003815 0.3192257285 0.0475334376 2.1445999146 33.596801758 145.85899353 145.85884094 1.2980999947 37.955615997 1.3877999783 1.3445999622
 776.47790527  -999.250000 13.049599648 9.1000003815 0.3192257285 0.0462667197 2.1419000626 34.935348511 146.45770264 146.45755005 1.2721010447 38.152820587 1.3289020061 1.3181010485
 776.63031006  -999.250000 13.207590103 9.1000003815 0.3195502758 0.0503996797 2.1414000988 36.297409058 147.19059753 147.19030762 1.2481019497 38.438671112 1.2157069445 1.2922019958
 776.78271484  -999.250000 13.394179344 9.1000003815 0.3195538223 0.0585995205 2.1414000988 37.688358307 147.96560669 147.96539307 1.2253019810 38.448207855 1.1468069553 1.2683019638
 776.93511963  -999.250000 13.458189011 9.1000003815 0.3198783398 0.0690660775 2.1422998905 37.642910004 149.08160400 149.08135986 1.2050030231 38.392589569 1.1839950085 1.2468030453
 777.08752441  -999.250000 13.381510735 9.1000003815 0.3198818862 0.0668670386 2.1342012882 36.905719757 150.35499573 150.35469055 1.1807039976 38.265823364 1.2149950266 1.2231040001
 777.23992920  -999.250000 13.207530022 9.1000003815 0.3198818862 0.0481278040 2.1138041019 37.115058899 151.11320496 151.11309814 1.1504060030 38.249000549 1.2510930300 1.1957050562
 777.39233398  -999.250000 13.131118774 9.1000003815 0.3202064335 0.0405326374 2.0959041119 37.890430450 151.02960205 151.02963257 1.1197069883 38.382999420 1.2578979731 1.1709049940
 777.54473877  -999.250000 13.362330437 9.1000003815 0.3202099800 0.0532062463 2.0914070606 39.529308319 151.96940613 151.96794128 1.0895830393 38.414760590 1.2403600216 1.1516900063
 777.69714355  -999.250000 13.776029587 9.1000003815 0.3202099800 0.0770756900 2.1034049988 39.921230316 154.10150146 154.09944153 1.0595840216 38.273162842 1.1699839830 1.1325880289
 777.84954834  -999.250000 14.031999588 9.1000003815 0.3205346465 0.1060104147 2.1140840054 38.617420197 156.37089539 156.36878967 1.0294749737 38.249011993 1.1390219927 1.1101850271
 778.00189209  -999.250000 14.026199341 9.1000003815 0.3205380738 0.0949347243 2.0819830894 36.391258240 158.99108887 158.98779297 0.9799625278 38.382259369 1.1845010519 1.0789810419
 778.15429688  -999.250000 14.028639793 9.1000003815 0.3208625913 0.0652683228 2.0442950726 32.772930145 161.78300476 161.78015137 0.9003642797 38.463027954 1.1867100000 1.0384839773
 778.30670166  -999.250000 14.358370781 9.1000003815 0.3208661377 0.0364681594 2.0318009853 29.991329193 163.16780090 163.16598511 0.8195775747 38.558353424 0.9911931753 1.0013890266
 778.45910645  -999.250000 14.533859253 9.1000003815 0.3208661377 0.0377993584 2.0350968838 28.790149689 164.96449280 164.96308899 0.7639867067 38.466678619 0.9739068747 0.9733911753
 778.61151123  -999.250000 14.414238930 9.1000003815 0.3211906850 0.0666647926 2.0274939537 27.811090469 166.80769348 166.80647278 0.7276906967 38.423000336 0.9931874871 0.9490916133
 778.76391602  -999.250000 14.229841232 9.1000003815 0.3211942315 0.0965318382 2.0081939697 25.945890427 168.35620117 168.35546875 0.6997948289 38.423000336 0.9556956291 0.9237927198
 778.91632080  -999.250000 14.038080215 9.1000003815 0.3211942315 0.0952006429 1.9872009754 23.550060272 168.73210144 168.73214722 0.6824979186 38.423000336 0.9409971833 0.8992949724
 779.06872559  -999.250000 13.956629753 9.1000003815 0.3215187490 0.0714681670 1.9919090271 22.248889923 167.90629578 167.90693665 0.6744987965 38.423000336 0.9305995703 0.8807973862
 779.22113037  -999.250000 14.067219734 9.1000003815 0.3215222955 0.0493344031 2.0288059711 21.763570786 166.63282776 166.63360596 0.6692000031 38.423000336 0.9289010167 0.8695986271
 779.37353516  -999.250000 14.186909676 9.1000003815 0.3215222955 0.0484014414 2.0608029366 21.602329254 165.36329651 165.36390686 0.6691017747 38.423000336 0.9338009953 0.8625993729
 779.52593994  -999.250000 14.226010323 9.1000003815 0.3215222955 0.0654072911 2.0796039104 21.213409424 164.53109741 164.53153992 0.6798095703 38.423000336 0.9398890734 0.8586993814
 779.67834473  -999.250000 14.244500160 9.1000003815 0.3215222955 0.0710000023 2.0860970020 20.481090546 164.30281067 164.30290222 0.6980140805 38.423000336 0.9199026823 0.8577001095
 779.83074951  -999.250000 14.245401382 9.1000003815 0.3215222955 0.0577937514 2.0803930759 20.860530853 164.22900391 164.22921753 0.7263211012 38.423000336 0.9251983762 0.8579022884
 779.98309326  -999.250000 14.235799789 9.1000003815 0.3215222955 0.0354012810 2.0654039383 21.556629181 163.98089600 163.98139954 0.7720230222 38.445793152 0.9218956828 0.8628047705
 780.13549805  -999.250000 14.232589722 9.1000003815 0.3215222955 0.0399991982 2.0758090019 21.839080811 163.30470276 163.30563354 0.8255193830 38.566497803 0.9122945070 0.8738062978
 780.28790283  -999.250000 14.211150169 9.1000003815 0.3215222955 0.0571990386 2.0972039700 23.006399155 162.20030212 162.20169067 0.8739160895 38.618766785 0.8991472721 0.8892071247
 780.44024658  -999.250000 14.092080116 9.1000003815 0.3215222955 0.0663972795 2.1085004807 25.090524673 161.05905151 161.05992126 0.9172971845 38.646514893 1.0318747759 0.9081032276
 780.59265137  -999.250000 14.329339981 9.1000003815 0.3215222955 0.0797260702 2.1235990524 26.405843735 159.89724731 159.89822388 0.9598964453 38.821083069 1.1133383512 0.9394989014
 780.74505615  -999.250000 14.758049965 9.1000003815 0.3215222955 0.1213768572 2.1389908791 26.636829376 158.51502991 158.51600647 1.0030907393 39.151435852 1.0271295309 0.9763908386
 780.89746094  -999.250000 14.570899963 9.1000003815 0.3215222955 0.1342671216 2.1296977997 25.999126434 156.90664673 156.90768433 1.0316905975 39.300441742 1.0094320774 0.9958921671
 781.04986572  -999.250000 14.550680161 9.1000003815 0.3215222955 0.0966231450 2.1062123775 24.329858780 155.22427368 155.22503662 1.0391950607 38.897178650 1.1129674911 0.9961996675
 781.20227051  -999.250000 14.886630058 9.1000003815 0.3215222955 0.0888630301 2.1206982136 24.258758545 154.55078125 154.55113220 1.0320968628 38.474563599 1.1551830769 0.9955006838
 781.35467529  -999.250000 15.025899887 9.1000003815 0.3215222955 0.1034589559 2.1436896324 24.408918381 153.91946411 153.91960144 1.0015052557 38.557781219 1.1544982195 0.9975976944
 781.50708008  -999.250000 15.017900467 9.1000003815 0.3215222955 0.0926033631 2.1367998123 24.921764374 154.42419434 154.42398071 0.9567126632 38.622264862 1.1425998211 0.9886007905
 781.65942383  -999.250000 14.997879028 9.1000003815 0.3215222955 0.0598834604 2.1135165691 25.460348129 154.40951538 154.40951538 0.9166136980 38.584526062 1.1025360823 0.9675041437
 781.81182861  -999.250000 14.748001099 9.1000003815 0.3215222955 0.0675891042 2.1098017693 26.025457382 154.52931213 154.52915955 0.8806115389 38.372581482 1.1114578247 0.9423078299
 781.96423340  -999.250000 14.331009865 9.1000003815 0.3215222955 0.0747328848 2.1070971489 25.843427658 154.78620911 154.78610229 0.8445129991 38.130508423 1.0399323702 0.9161100984
 782.11663818  -999.250000 14.125129700 9.1000003815 0.3215222955 0.0779315233 2.0962972641 25.103965759 154.68563843 154.68601990 0.8089036345 38.182907104 0.9846162796 0.8914011121
 782.26904297  -999.250000 14.187858582 9.1000003815 0.3215222955 0.0702054501 2.0794057846 24.286958694 153.92080688 153.92161560 0.7832056880 38.226203918 0.9701122046 0.8701035380
