# LAS format log file from PETREL
# Project units are specified as depth units
#==================================================================
~Version information
VERS.   2.0:
WRAP.   NO:
#==================================================================
~Well
STRT .m      383.59057617 :
STOP .m      2173.8320313 :
STEP .m     0.00000000 :
NULL .        -999.250000 :
COMP.           : COMPANY
WELL.  25/11-5 Balder Appr   : WELL
FLD.            : FIELD
LOC.            : LOCATION
SRVC.           : SERVICE COMPANY
DATE.  2018-09-11 14:48:16   : Log Export Date {yyyy-MM-dd HH:mm:ss}
PROV.           : PROVINCE
UWI.   25/11-5   : UNIQUE WELL ID
API.            : API NUMBER
#==================================================================
~Curve
DEPT .m                   : DEPTH
Lithology_geolink ._      : Lithology_geolink
DCAL .in                  : DCAL
CALI .in                  : CALI
BS .in                    : BS
MUDWEIGHT ._              : MUDWEIGHT
DRHO .g/cm3               : DRHO
NPHI .m3/m3               : NPHI
RHOB .g/cm3               : RHOB
GR .gAPI                  : GR
DTC .us/ft                : DTC
RDEP .ohm.m               : RDEP
SP .mV                    : SP
RMED .ohm.m               : RMED
~Parameter
#==================================================================
~Ascii
# ...
 2167.2788086  -999.250000 10007.389648 8.3950004578  -999.250000  -999.250000 0.0260000005 -0.031569999 2.1170117855  -999.250000  -999.250000 1.5599983931 46.806999207 1.6430015564
 2167.4311523  -999.250000 10007.389648 8.3879995346  -999.250000  -999.250000 0.0260000005 -0.031560015 2.1170001030  -999.250000  -999.250000 1.5599999428 46.800010681 1.6420015097
 2167.5834961  -999.250000 10007.379883 8.3809995651  -999.250000  -999.250000 0.0339744017 -0.031560000 2.1278572083  -999.250000  -999.250000 1.5599999428 46.936779022 1.6410032511
 2167.7360840  -999.250000 10007.370117 8.3739995956  -999.250000  -999.250000 0.0429855771 -0.031580001 2.1408522129  -999.250000  -999.250000 1.5599999428 47.533000946 1.6400015354
 2167.8884277  -999.250000 10007.370117 8.3669996262  -999.250000  -999.250000 0.0519855767 -0.031720001 2.1538522243  -999.250000  -999.250000 1.5609984398 48.030998230 1.6390016079
 2168.0407715  -999.250000 10007.360352 8.3599996567  -999.250000  -999.250000 0.0569919869 -0.032089408 2.1569659710  -999.250000  -999.250000 1.5609999895 48.218700409 1.6380015612
 2168.1931152  -999.250000 10007.349609 8.3529996872  -999.250000  -999.250000 0.0500112176 -0.032479376 2.1481022835  -999.250000  -999.250000 1.5609999895 48.386730194 1.6370015144
 2168.3457031  -999.250000 10007.349609 8.3459997177  -999.250000  -999.250000 0.0450080000 -0.032630000 2.1381139755  -999.250000  -999.250000 1.5609999895 48.430000305 1.6360015869
 2168.4980469  -999.250000 10007.349609 8.3470001221  -999.250000  -999.250000 0.0440016016 -0.032529999 2.1310789585  -999.250000  -999.250000 1.5609999895 48.439998627 1.6350015402
 2168.6503906  -999.250000 10007.349609 8.3520002365  -999.250000  -999.250000 0.0499903858 -0.032420173 2.1369316578  -999.250000  -999.250000 1.5609999895 48.449985504 1.6340014935
 2168.8027344  -999.250000 10007.360352 8.3570003510  -999.250000  -999.250000 0.0539935902 -0.032300193 2.1458976269  -999.250000  -999.250000 1.5600014925 48.674636841 1.6330015659
 2168.9550781  -999.250000 10007.360352 8.3620004654  -999.250000  -999.250000 0.0559936017 -0.032190174 2.1499481201  -999.250000  -999.250000 1.5590032339 48.680988312 1.6320031881
 2169.1076660  -999.250000 10007.370117 8.3669996262  -999.250000  -999.250000 0.0569983982 -0.032049999 2.1509883404  -999.250000  -999.250000 1.5580015182 48.326999664 1.6310015917
 2169.2600098  -999.250000 10007.370117 8.3719997406  -999.250000  -999.250000 0.0570000000 -0.031900238 2.1519882679  -999.250000  -999.250000 1.5570015907 48.265098572 1.6300015450
 2169.4123535  -999.250000 10007.379883 8.3769998550  -999.250000  -999.250000 0.0510096140 -0.031740256 2.1460685730  -999.250000  -999.250000 1.5560015440 48.405773163 1.6290014982
 2169.5646973  -999.250000 10007.379883 8.3819999695  -999.250000  -999.250000 0.0430256017 -0.031540319 2.1262586117  -999.250000  -999.250000 1.5550031662 48.360073090 1.6280032396
 2169.7172852  -999.250000 10007.389648 8.3870000839  -999.250000  -999.250000 0.0330160260 -0.031160001 2.1200687885  -999.250000  -999.250000 1.5540015697 48.179000854 1.6270015240
 2169.8696289  -999.250000 10007.389648 8.3920001984  -999.250000  -999.250000 0.0240144227 -0.030560000 2.1170337200  -999.250000  -999.250000 1.5530015230 48.061000824 1.6269999743
 2170.0219727  -999.250000 10007.400391 8.3970003128  -999.250000  -999.250000 0.0269951932 -0.029911039 2.1150233746  -999.250000  -999.250000 1.5520015955 48.046024323 1.6289967299
 2170.1743164  -999.250000 10007.400391 8.3990001678  -999.250000  -999.250000 0.0309871994 -0.029241072 2.1179614067  -999.250000  -999.250000 1.5500063896 48.056980133 1.6319903135
 2170.3269043  -999.250000 10007.400391 8.3990001678  -999.250000  -999.250000 0.0349935889 -0.028419999 2.1229431629  -999.250000  -999.250000 1.5400159359 48.083000183 1.6349952221
 2170.4792480  -999.250000 10007.400391 8.3990001678  -999.250000  -999.250000 0.0389935896 -0.026810000 2.1259663105  -999.250000  -999.250000 1.5230273008 48.057998657 1.6379952431
 2170.6315918  -999.250000 10007.400391 8.3990001678  -999.250000  -999.250000 0.0439919867 -0.023525264 2.1329197884  -999.250000  -999.250000 1.5050288439 48.001091003 1.6409952641
 2170.7839355  -999.250000 10007.400391 8.3979997635  -999.250000  -999.250000 0.0479935892 -0.018917387 2.1547498703  -999.250000  -999.250000 1.4910224676 48.068889618 1.6439952850
 2170.9362793  -999.250000 10007.400391 8.3979997635  -999.250000  -999.250000 0.0509903990 -0.014177596 2.2004046440  -999.250000  -999.250000 1.4830256701 48.135894775 1.6469902992
 2171.0888672  -999.250000 10007.400391 8.3979997635  -999.250000  -999.250000 0.0500016026 -0.009530000 2.2702040672  -999.250000  -999.250000 1.4780080318 48.153999329 1.6499952078
 2171.2412109  -999.250000 10007.400391 8.3979997635  -999.250000  -999.250000 0.0300320499 -0.005616272 2.3659095764  -999.250000  -999.250000 1.4770015478 48.245849609 1.6529952288
 2171.3935547  -999.250000 10007.400391 8.3970003128  -999.250000  -999.250000 0.0080352565 -0.003443477 2.4747614861  -999.250000  -999.250000 1.4809935093 48.337852478 1.6549967527
 2171.5458984  -999.250000 10007.400391 8.3970003128  -999.250000  -999.250000 0.0060064001 -0.002811010 2.5056085587  -999.250000  -999.250000 1.4849872589 48.382926941 1.6579903364
 2171.6984863  -999.250000 10007.400391 8.3970003128  -999.250000  -999.250000 0.0060000001 -0.002480000 2.5069878101  -999.250000  -999.250000 1.4850000143 48.375999451 1.6609952450
 2171.8508301  -999.250000 10007.400391 8.3979997635  -999.250000  -999.250000 0.0060000001  -999.250000 2.5050230026  -999.250000  -999.250000 1.4820047617 48.394001007 1.6639952660
 2172.0031738  -999.250000 10007.400391 8.3999996185  -999.250000  -999.250000  -999.250000  -999.250000 2.5020337105  -999.250000  -999.250000 1.4790047407 48.382019043 1.6669952869
 2172.1555176  -999.250000 10007.400391 8.4010000229  -999.250000  -999.250000  -999.250000  -999.250000  -999.250000  -999.250000  -999.250000 1.4760096073 48.275173187 1.6699903011
 2172.3081055  -999.250000 10007.400391 8.4029998779  -999.250000  -999.250000  -999.250000  -999.250000  -999.250000  -999.250000  -999.250000 1.4740031958 48.280998230 1.6729952097
 2172.4604492  -999.250000 10007.410156 8.4049997330  -999.250000  -999.250000  -999.250000  -999.250000  -999.250000  -999.250000  -999.250000 1.4710047245 48.423999786 1.6759952307
 2172.6127930  -999.250000 10007.410156 8.4069995880  -999.250000  -999.250000  -999.250000  -999.250000  -999.250000  -999.250000  -999.250000 1.4819823503 48.518848419 1.6789952517
 2172.7651367  -999.250000 10007.410156 8.4079999924  -999.250000  -999.250000  -999.250000  -999.250000  -999.250000  -999.250000  -999.250000  -999.250000 48.513011932  -999.250000
 2172.9174805  -999.250000 10007.410156 8.4099998474  -999.250000  -999.250000  -999.250000  -999.250000  -999.250000  -999.250000  -999.250000  -999.250000 48.558925629  -999.250000
 2173.0700684  -999.250000 10007.410156 8.4119997025  -999.250000  -999.250000  -999.250000  -999.250000  -999.250000  -999.250000  -999.250000  -999.250000  -999.250000  -999.250000
 2173.2224121  -999.250000 10007.410156 8.4130001068  -999.250000  -999.250000  -999.250000  -999.250000  -999.250000  -999.250000  -999.250000  -999.250000  -999.250000  -999.250000
 2173.3747559  -999.250000 10007.410156 8.4130001068  -999.250000  -999.250000  -999.250000  -999.250000  -999.250000  -999.250000  -999.250000  -999.250000  -999.250000  -999.250000
 2173.5270996  -999.250000 10007.410156 8.4130001068  -999.250000  -999.250000  -999.250000  -999.250000  -999.250000  -999.250000  -999.250000  -999.250000  -999.250000  -999.250000
 2173.6796875  -999.250000 10007.410156 8.4130001068  -999.250000  -999.250000  -999.250000  -999.250000  -999.250000  -999.250000  -999.250000  -999.250000  -999.250000  -999.250000
 2173.8320313  -999.250000 10007.410156 8.4119997025  -999.250000  -999.250000  -999.250000  -999.250000  -999.250000  -999.250000  -999.250000  -999.250000  -999.250000  -999.250000
