# LAS format log file from PETREL
# Project units are specified as depth units
#==================================================================
~Version information
VERS.   2.0:
WRAP.   NO:
#==================================================================
~Well
STRT .m      1090.1660156 :
STOP .m      2511.1435547 :
STEP .m     0.00000000 :
NULL .        -999.250000 :
COMP.           : COMPANY
WELL.  25/10-10  Balder Triassic   : WELL
FLD.            : FIELD
LOC.            : LOCATION
SRVC.           : SERVICE COMPANY
DATE.  2018-09-11 14:48:14   : Log Export Date {yyyy-MM-dd HH:mm:ss}
PROV.           : PROVINCE
UWI.   25/10-10   : UNIQUE WELL ID
API.            : API NUMBER
#==================================================================
~Curve
DEPT .m                   : DEPTH
Lithology_geolink ._      : Lithology_geolink
CALI .in                  : CALI
BS .in                    : BS
ROP .m/h                  : ROP
DRHO .g/cm3               : DRHO
THOR .ppm                 : THOR
NPHI .m3/m3               : NPHI
RHOB .g/cm3               : RHOB
PEF .b/e                  : PEF
GR .gAPI                  : GR
URAN .ppm                 : URAN
DTC .us/ft                : DTC
DTS .us/ft                : DTS
RDEP .ohm.m               : RDEP
RSHA .ohm.m               : RSHA
RMED .ohm.m               : RMED
~Parameter
#==================================================================
~Ascii
# ...
 1563.8251953 5.0000000000 12.757100105 12.250000954 105.63254547 0.0665000007  -999.250000 0.5194000006 2.2009000778 7.2311000824 65.086601257  -999.250000 133.84429932  -999.250000 0.6287000179 0.6118000150 0.6079000235
 1563.9776611 5.0000000000 12.674699783 12.250000954 125.29067993 0.0494999997  -999.250000 0.5641999841 2.1833000183 7.0587000847 64.453300476  -999.250000 135.53179932  -999.250000 0.6467999816 0.6119999886 0.6205000281
 1564.1300049 5.0000000000 12.581199646 12.250000954 100.41239929 0.0498000011  -999.250000 0.5831999779 2.1802999973 7.0399999619 57.416900635  -999.250000 136.99009705  -999.250000 0.6654999852 0.6237999797 0.6284999847
 1564.2824707 5.0000000000 12.372699738 12.250000954 104.29724884 0.0489999987  -999.250000 0.5426999927 2.1744000912 7.1739997864 53.904300690  -999.250000 138.93469238  -999.250000 0.6583999991 0.6297000051 0.6319000125
 1564.4348145 5.0000000000 12.367500305 12.250000954 100.59842682 0.0469999984  -999.250000 0.5868999958 2.1707999706 6.9468998909 55.911998749  -999.250000 139.43559265  -999.250000 0.6466000080 0.6211000085 0.6226999760
 1564.5872803 5.0000000000 12.367900848 12.250000954 99.060363770 0.0410000011  -999.250000 0.5483999848 2.1675999165 6.5321998596 57.130100250  -999.250000 138.98510742  -999.250000 0.6427999735 0.6269000173 0.6209999919
 1564.7396240 5.0000000000 12.412500381 12.250000954 90.154853821 0.0421999991  -999.250000 0.5335000157 2.1730999947 6.5034999847 58.500900269  -999.250000 138.84979248  -999.250000 0.6438999772 0.6247000098 0.6177999973
 1564.8919678 5.0000000000 12.377600670 12.250000954 91.579727173 0.0450999998  -999.250000 0.5248000026 2.1791000366 6.8445000648 62.844200134  -999.250000 136.52130127  -999.250000 0.6438999772 0.6247000098 0.6177999973
 1565.0444336 5.0000000000 12.454001427 12.250000954 82.766731262 0.0441999994  -999.250000 0.5195000172 2.1738998890 7.2189998627 67.463096619  -999.250000 135.39489746  -999.250000 0.6528999805 0.6291000247 0.6198999882
 1565.1967773 5.0000000000 12.485400200 12.250000954 75.053146362 0.0379999988  -999.250000 0.5181999803 2.1584999561 7.3970999718 68.103797913  -999.250000 138.10330200  -999.250000 0.6531000137 0.6374999881 0.6233000159
 1565.3492432 5.0000000000 12.448800087 12.250000954 83.303474426 0.0373999998  -999.250000 0.5004000068 2.1510999203 7.2575998306 60.985401154  -999.250000 141.04060364  -999.250000 0.6294999719 0.6184999943 0.6050000191
 1565.5015869 5.0000000000 12.456000328 12.250000954 82.633201599 0.0313000008  -999.250000 0.5044000149 2.1528999805 7.1177000999 51.028598785  -999.250000 142.15910339  -999.250000 0.6606000066 0.6317999959 0.6262999773
 1565.6540527 5.0000000000 12.463199615 12.250000954 101.15124512 0.0054000001  -999.250000 0.4715000093 2.2033998966 6.7685999870 49.106498718  -999.250000 139.74130249  -999.250000 0.6958000064 0.6405000091 0.6294999719
 1565.8063965 5.0000000000 12.469600677 12.250000954 97.081039429 0.0082000000  -999.250000 0.3950999975 2.2718000412 6.2119002342 51.728900909  -999.250000 139.28520203  -999.250000 0.7851999998 0.7210000157 0.7301999927
 1565.9588623 5.0000000000 12.501099586 12.250000954 85.420600891 0.0097000012  -999.250000 0.3571000099 2.2571001053 6.1164999008 52.663799286  -999.250000 136.18020630  -999.250000 0.8931000233 0.8860999942 0.8429999948
 1566.1112061 5.0000000000 12.531000137 12.250000954 85.389434814 0.0406000018  -999.250000 0.4075999856 2.2137000561 5.9478998184 55.729499817  -999.250000 135.91349792  -999.250000 0.6862999797 0.6607999802 0.6463999748
 1566.2636719 5.0000000000 12.569600105 12.250000954 61.882217407 0.0390000008  -999.250000 0.4921999872 2.1545999050 6.3358001709 59.581100464  -999.250000 141.13470459  -999.250000 0.6204000115 0.6118999720 0.5931000113
 1566.4160156 5.0000000000 12.615799904 12.250000954 44.557086945 0.0370999984  -999.250000 0.5746999979 2.1572999954 6.0524997711 57.930900574  -999.250000 140.07969666  -999.250000 0.6316000223 0.5970000029 0.5958999991
 1566.5684814 5.0000000000 12.542099953 12.250000954 38.802822113 0.0357000008  -999.250000 0.5705000162 2.1526999474 6.0195999146 55.498500824  -999.250000 138.90379333  -999.250000 0.6263999939 0.5989999771 0.5900999904
 1566.7208252 5.0000000000 12.470499992 12.250000954 40.716209412 0.0292000007  -999.250000 0.5810999870 2.1584000587 5.5711998940 57.759601593  -999.250000 139.15570068  -999.250000 0.6441000104 0.6222000122 0.6168000102
 1566.8731689 5.0000000000 12.475500107 12.250000954 40.463909149 0.0192000009  -999.250000 0.6003999710 2.1600999832 5.1925001144 60.311199188  -999.250000 140.75700378  -999.250000 0.6463999748 0.6140999794 0.6097000241
 1567.0256348 5.0000000000 12.479100227 12.250000954 41.668964386 0.0093000000  -999.250000 0.5746999979 2.1635999680 4.7267999649 63.455001831  -999.250000 137.47039795  -999.250000 0.6341000199 0.6105999947 0.5961999893
 1567.1779785 5.0000000000 12.412500381 12.250000954 41.470142365 0.0074000000  -999.250000 0.5626000166 2.1705999374 4.4591999054 64.125503540  -999.250000 137.59840393  -999.250000 0.6148999929 0.5724999905 0.5911999941
 1567.3304443 5.0000000000 12.385699272 12.250000954 42.779525757 0.0093999999  -999.250000 0.4907999933 2.1775000095 4.2357001305 59.230899811  -999.250000 135.97500610  -999.250000 0.6148999929 0.5724999905 0.5911999941
 1567.4827881 5.0000000000 12.552599907 12.250000954 46.225719452 0.0060000001  -999.250000 0.4794999957 2.1672999859 4.1037998199 55.208000183  -999.250000 136.74609375  -999.250000 0.6268000007 0.6032999754 0.5985000134
 1567.6352539 5.0000000000 12.487999916 12.250000954 47.051181793 0.0024000001  -999.250000 0.4623000026 2.1610000134 3.9607999325 54.544898987  -999.250000 138.16650391  -999.250000 0.6284000278 0.6001999974 0.6047999859
 1567.7875977 5.0000000000 12.381299973 12.250000954 60.904861450 0.0020000001  -999.250000 0.4645000100 2.1540999413 4.0334000587 57.368499756  -999.250000 138.69270325  -999.250000 0.6304000020 0.6166999936 0.6029000282
 1567.9400635 5.0000000000 12.392600060 12.250000954 96.854988098 0.0012000001  -999.250000 0.4537999928 2.1547999382 4.0355000496 60.355899811  -999.250000 139.46060181  -999.250000 0.6147000194 0.5860999823 0.5758000016
 1568.0924072 5.0000000000 12.494699478 12.250000954 166.32022095 0.0009000000  -999.250000 0.4600999951 2.1512000561 4.1887001991 60.847599030  -999.250000 138.63909912  -999.250000 0.5997999907 0.5810999870 0.5741999745
 1568.2448730 5.0000000000 12.486000061 12.250000954 128.79920959 0.0049999999  -999.250000 0.5009999871 2.1410000324 4.9265999794 63.581699371  -999.250000 138.07490540  -999.250000 0.5999000072 0.5860999823 0.5706999898
 1568.3972168 5.0000000000 12.508700371 12.250000954 119.32513428 0.0078999996  -999.250000 0.5343000293 2.1350998878 5.0735001564 68.334701538  -999.250000 138.95260620  -999.250000 0.5871999860 0.5654000044 0.5594000220
 1568.5496826 5.0000000000 12.520599365 12.250000954 110.58660889 0.0082000000  -999.250000 0.5529999733 2.1312003136 5.0121002197 69.064796448  -999.250000 138.65570068  -999.250000 0.5778999925 0.5515000224 0.5522999763
 1568.7020264 5.0000000000 12.411599159 12.250000954 103.50787354 0.0087000001  -999.250000 0.5490000248 2.1589999199 4.3576002121 65.690002441  -999.250000 139.73199463  -999.250000 0.5870000124 0.5608999729 0.5658000112
 1568.8543701 5.0000000000 12.437600136 12.250000954 101.35006714 0.0137999998  -999.250000 0.5131000280 2.1861999035 4.3429999352 61.443599701  -999.250000 140.42860413  -999.250000 0.6074000001 0.5832999945 0.5759000182
 1569.0068359 5.0000000000 12.472200394 12.250000954 93.817260742 0.0189999994  -999.250000 0.4736000001 2.1817998886 4.5727000237 57.264198303  -999.250000 137.21479797  -999.250000 0.6029000282 0.5720999837 0.5748000145
 1569.1591797 5.0000000000 12.463999748 12.250000954 78.729331970 0.0157999992  -999.250000 0.4713999927 2.1538999081 4.6900000572 55.364398956  -999.250000 139.12069702  -999.250000 0.6029000282 0.5720999837 0.5748000145
 1569.3116455 5.0000000000 12.456600189 12.250000954 75.509513855 0.0115999999  -999.250000 0.5138000250 2.1363999844 4.6536998749 60.236698151  -999.250000 141.43429565  -999.250000 0.6100000143 0.5795000196 0.5756000280
