# LAS format log file from PETREL
# Project units are specified as depth units
#==================================================================
~Version information
VERS.   2.0:
WRAP.   NO:
#==================================================================
~Well
STRT .m      383.59057617 :
STOP .m      2173.8320313 :
STEP .m     0.00000000 :
NULL .        -999.250000 :
COMP.           : COMPANY
WELL.  25/11-5 Balder Appr   : WELL
FLD.            : FIELD
LOC.            : LOCATION
SRVC.           : SERVICE COMPANY
DATE.  2018-09-11 14:48:16   : Log Export Date {yyyy-MM-dd HH:mm:ss}
PROV.           : PROVINCE
UWI.   25/11-5   : UNIQUE WELL ID
API.            : API NUMBER
#==================================================================
~Curve
DEPT .m                   : DEPTH
Lithology_geolink ._      : Lithology_geolink
DCAL .in                  : DCAL
CALI .in                  : CALI
BS .in                    : BS
MUDWEIGHT ._              : MUDWEIGHT
DRHO .g/cm3               : DRHO
NPHI .m3/m3               : NPHI
RHOB .g/cm3               : RHOB
GR .gAPI                  : GR
DTC .us/ft                : DTC
RDEP .ohm.m               : RDEP
SP .mV                    : SP
RMED .ohm.m               : RMED
~Parameter
#==================================================================
~Ascii
# ...
 1335.7851563  -999.250000 0.1499996036 12.400000572 12.250000954 9.1999998093  -999.250000 0.6442999840  -999.250000 56.485000610 146.32290649 0.8429999948 48.111999512 1.0160000324
 1335.9375000  -999.250000 0.1759995967 12.425999641 12.250000954 9.1999998093  -999.250000 0.6420999765  -999.250000 56.175998688 145.96128845 0.8410000205 48.119998932 1.0199999809
 1336.0898438  -999.250000 0.2019996792 12.451999664 12.250000954 9.1999998093  -999.250000 0.6616299748  -999.250000 57.050998688 145.48115540 0.8470000029 47.936000824 1.0269999504
 1336.2423096  -999.250000 0.1879996955 12.437999725 12.250000954 9.1999998093  -999.250000 0.6919599771  -999.250000 58.549999237 144.59710693 0.8569999933 48.048999786 1.0379999876
 1336.3946533  -999.250000 0.1149998009 12.364999771 12.250000954 9.1999998093  -999.250000 0.6998000145  -999.250000 58.542999268 144.02272034 0.8679999709 48.062999725 1.0540000200
 1336.5471191  -999.250000 0.0419998206 12.291999817 12.250000954 9.1999998093  -999.250000 0.6688100100  -999.250000 55.787998199 143.88931274 0.8809999824 48.294998169 1.0759999752
 1336.6994629  -999.250000 0.1330004036 12.382999420 12.250000954 9.1999998093  -999.250000 0.6250000000  -999.250000 51.266998291 143.56782532 0.8899999857 49.023998260 1.0939999819
 1336.8519287  -999.250000 0.1169995964 12.366999626 12.250000954 9.1999998093  -999.250000 0.6166700125  -999.250000 50.398998260 143.50914001 0.8980000019 49.366001129 1.0989999771
 1337.0042725  -999.250000 0.1870002896 12.437001228 12.250000954 9.1999998093  -999.250000 0.6492099762  -999.250000 49.896999359 143.32235718 0.9060000181 49.358001709 1.0980000496
 1337.1567383  -999.250000 0.1300000995 12.380000114 12.250000954 9.1999998093  -999.250000 0.6927000284  -999.250000 51.605998993 143.05950928 0.9139999747 49.311000824 1.0959999561
 1337.3090820  -999.250000 0.0469999351 12.297001839 12.250000954 9.1999998093  -999.250000 0.7110499740  -999.250000 52.631999969 143.13093567 0.9179999828 48.715999603 1.0930000544
 1337.4615479  -999.250000 0.1549997032 12.405000687 12.250000954 9.1999998093  -999.250000 0.7037000060  -999.250000 54.375000000 143.53448486 0.9129999876 48.707000732 1.0859999657
 1337.6138916  -999.250000 0.2010001838 12.450999260 12.250000954 9.1999998093  -999.250000 0.6869300008  -999.250000 55.117000580 144.01541138 0.9070000052 48.789001465 1.0779999495
 1337.7663574  -999.250000 0.0950002670 12.345001221 12.250000954 9.1999998093  -999.250000 0.6753299832  -999.250000 52.701000214 144.23033142 0.9010000229 48.800998688 1.0679999590
 1337.9187012  -999.250000 -0.010000231 12.239998817 12.250000954 9.1999998093  -999.250000 0.6670899987  -999.250000 51.556999207 144.46241760 0.8939999938 48.714000702 1.0529999733
 1338.0710449  -999.250000 -0.206000298 12.043999672 12.250000954 9.1999998093  -999.250000 0.6363300085  -999.250000 51.846000671 144.90568542 0.8880000114 48.787998199 1.0379999876
 1338.2235107  -999.250000 -0.420999497 11.829000473 12.250000954 9.1999998093  -999.250000 0.6039800048  -999.250000 54.904998779 145.51071167 0.8820000291 48.390998840 1.0310000181
 1338.3758545  -999.250000 -0.343999892 11.905999184 12.250000954 9.1999998093  -999.250000 0.6165999770  -999.250000 55.118999481 146.23533630 0.8750000000 47.881000519 1.0349999666
 1338.5283203  -999.250000 -0.130999595 12.119000435 12.250000954 9.1999998093  -999.250000 0.6389799714  -999.250000 56.305999756 146.69793701 0.8669999838 47.518001556 1.0440000296
 1338.6806641  -999.250000 -0.053999901 12.196000099 12.250000954 9.1999998093  -999.250000 0.6504200101  -999.250000 56.296001434 146.52467346 0.8590000272 47.662998199 1.0369999409
 1338.8331299  -999.250000 -0.229000106 12.020999908 12.250000954 9.1999998093  -999.250000 0.6675599813  -999.250000 56.180999756 146.39349365 0.8519999981 47.770000458 1.0019999743
 1338.9854736  -999.250000 -0.149000198 12.100999832 12.250000954 9.1999998093  -999.250000 0.6740000248  -999.250000 57.173999786 145.83909607 0.8439999819 48.229999542 0.9789999723
 1339.1379395  -999.250000 -0.053999901 12.196000099 12.250000954 9.1999998093  -999.250000 0.6720899940  -999.250000 57.056999207 145.41189575 0.8360000253 48.025001526 0.9800000191
 1339.2902832  -999.250000 -0.055000309 12.194999695 12.250000954 9.1999998093  -999.250000 0.6821498871  -999.250000 56.554000854 145.38389587 0.8320000172 47.935001373 0.9810000062
 1339.4427490  -999.250000 -0.053000450 12.197000504 12.250000954 9.1999998093  -999.250000 0.6956499815  -999.250000 55.226001740 144.97869873 0.8330000043 47.853000641 0.9829999804
 1339.5950928  -999.250000 -0.046999935 12.203000069 12.250000954 9.1999998093  -999.250000 0.7272698879  -999.250000 53.744998932 144.15190125 0.8339999914 48.160999298 0.9869999886
 1339.7475586  -999.250000 -0.041000370 12.208999634 12.250000954 9.1999998093  -999.250000 0.7720301151  -999.250000 52.914001465 144.14579773 0.8360000253 48.220001221 0.9950000048
 1339.8999023  -999.250000 -0.032999989 12.217000008 12.250000954 9.1999998093  -999.250000 0.7599999905  -999.250000 54.986999512 145.35629272 0.8370000124 48.445999146 1.0099999905
 1340.0523682  -999.250000 -0.022999760 12.227000237 12.250000954 9.1999998093  -999.250000 0.6952000260  -999.250000 56.061000824 145.77079773 0.8379999995 48.830001831 1.0249999762
 1340.2047119  -999.250000 -0.012000080 12.237998962 12.250000954 9.1999998093  -999.250000 0.6596000195  -999.250000 54.992000580 145.68559265 0.8389999866 48.880001068 1.0260000229
 1340.3570557  -999.250000 -0.001999855 12.248000145 12.250000954 9.1999998093  -999.250000 0.6712499857  -999.250000 54.091999054 145.83540344 0.8399999738 49.097000122 1.0249999762
 1340.5095215  -999.250000 -0.017999651 12.232000351 12.250000954 9.1999998093  -999.250000 0.6929901242  -999.250000 53.183998108 145.88029480 0.8410000205 49.284999847 1.0169999599
 1340.6618652  -999.250000 -0.041999821 12.207999229 12.250000954 9.1999998093  -999.250000 0.7045800090  -999.250000 54.641998291 146.08180237 0.8399999738 49.298999786 1.0099999905
 1340.8143311  -999.250000 -0.053000450 12.197000504 12.250000954 9.1999998093  -999.250000 0.6979299784  -999.250000 60.813999176 149.99589539 0.8389999866 49.312999725 1.0039999485
 1340.9666748  -999.250000 -0.052000046 12.197999954 12.250000954 9.1999998093  -999.250000 0.6802399755  -999.250000 62.217998505 153.65260315 0.8389999866 49.326999664 0.9980000257
 1341.1191406  -999.250000 -0.020000461 12.229998589 12.250000954 9.1999998093  -999.250000 0.6549900174  -999.250000 62.125999451 148.72390747 0.8379999995 49.158000946 0.9909999967
 1341.2714844  -999.250000 0.0209999103 12.271000862 12.250000954 9.1999998093  -999.250000 0.6331800222  -999.250000 61.813999176 145.37849426 0.8389999866 48.505001068 0.9869999886
 1341.4239502  -999.250000 0.0719995499 12.321998596 12.250000954 9.1999998093  -999.250000 0.6375300288  -999.250000 58.817001343 144.72090149 0.8410000205 48.280998230 1.0000000000
 1341.5762939  -999.250000 0.1099997088 12.359999657 12.250000954 9.1999998093  -999.250000 0.6505900025  -999.250000 58.810001373 144.06370544 0.8450000286 48.244998932 1.0190000534
 1341.7287598  -999.250000 0.0690002367 12.319001198 12.250000954 9.1999998093  -999.250000 0.6771801114  -999.250000 59.835998535 143.40530396 0.8519999981 48.258998871 1.0349999666
 1341.8811035  -999.250000 0.0279998817 12.277999878 12.250000954 9.1999998093  -999.250000 0.7029799819  -999.250000 59.866001129 143.01750183 0.8619999886 48.458999634 1.0529999733
 1342.0335693  -999.250000 -0.020999910 12.229000092 12.250000954 9.1999998093  -999.250000 0.7214701176  -999.250000 59.198001862 143.22749329 0.8769999743 48.479999542 1.0720000267
 1342.1859131  -999.250000 -0.116000198 12.133998871 12.250000954 9.1999998093  -999.250000 0.7334399819  -999.250000 60.202999115 143.78269958 0.8859999776 48.390998840 1.0750000477
 1342.3382568  -999.250000 -0.158000007 12.092000008 12.250000954 9.1999998093  -999.250000 0.7147899866  -999.250000 61.099998474 144.32400513 0.8949999809 48.226001740 1.0620000362
