# LAS format log file from PETREL
# Project units are specified as depth units
#==================================================================
~Version information
VERS.   2.0:
WRAP.   NO:
#==================================================================
~Well
STRT .m      383.59057617 :
STOP .m      2173.8320313 :
STEP .m     0.00000000 :
NULL .        -999.250000 :
COMP.           : COMPANY
WELL.  25/11-5 Balder Appr   : WELL
FLD.            : FIELD
LOC.            : LOCATION
SRVC.           : SERVICE COMPANY
DATE.  2018-09-11 14:48:16   : Log Export Date {yyyy-MM-dd HH:mm:ss}
PROV.           : PROVINCE
UWI.   25/11-5   : UNIQUE WELL ID
API.            : API NUMBER
#==================================================================
~Curve
DEPT .m                   : DEPTH
Lithology_geolink ._      : Lithology_geolink
DCAL .in                  : DCAL
CALI .in                  : CALI
BS .in                    : BS
MUDWEIGHT ._              : MUDWEIGHT
DRHO .g/cm3               : DRHO
NPHI .m3/m3               : NPHI
RHOB .g/cm3               : RHOB
GR .gAPI                  : GR
DTC .us/ft                : DTC
RDEP .ohm.m               : RDEP
SP .mV                    : SP
RMED .ohm.m               : RMED
~Parameter
#==================================================================
~Ascii
# ...
 1691.1815186 5.0000000000 0.6929997802 9.1929998398 8.5000000000 10.000000000 0.0169983990 0.4130800068 2.1700940132 46.719852448 128.27876282 1.0560144186 51.473579407 0.9631905556
 1691.3339844 5.0000000000 0.7089995742 9.2089996338 8.5000000000 10.000000000 0.0170000009 0.4302999973 2.1660339832 47.858089447 131.94935608 1.0280224085 52.029552460 0.9050464630
 1691.4863281 5.0000000000 0.7499999404 9.2500000000 8.5000000000 10.000000000 0.0160016026 0.4485400021 2.1650097370 49.126968384 135.35803223 0.9900608659 52.862663269 0.9040015936
 1691.6387939 5.0000000000 0.6689996719 9.1689996719 8.5000000000 10.000000000 0.0179983974 0.4637399912 2.1649999619 50.512889862 134.90196228 0.9480336905 53.715316772 0.9259823561
 1691.7911377 5.0000000000 0.5450000763 9.0450000763 8.5000000000 10.000000000 0.0219967943 0.4632599950 2.1659913063 51.381305695 131.19776917 0.9070328474 54.281547546 0.9250007868
 1691.9436035 5.0000000000 0.4300003350 8.9300003052 8.5000000000 10.000000000 0.0269959979 0.4552200139 2.1709568501 50.469734192 128.29531860 0.8770239949 54.596748352 0.9170063734
 1692.0959473 5.0000000000 0.5039997101 9.0039997101 8.5000000000 10.000000000 0.0260008015 0.4482100010 2.1749658585 48.619483948 128.94218445 0.8540183902 54.706912994 0.9309887886
 1692.2484131 5.0000000000 0.9160004258 9.4160003662 8.5000000000 10.000000000 0.0210040025 0.4422799945 2.1730177402 48.590023041 127.87455750 0.8320176601 54.543128967 0.9659720063
 1692.4007568 5.0000000000 1.3940000534 9.8940000534 8.5000000000 10.000000000 0.0160040073 0.4372499883 2.1660594940 48.254272461 124.96693420 0.8150136471 54.266220093 0.9440176487
 1692.5532227 5.0000000000 1.9060000181 10.406001091 8.5000000000 10.000000000 0.0140016014 0.4370799959 2.1570770741 47.991210938 124.23228455 0.8020104170 54.089141846 0.8500753045
 1692.7055664 6.0000000000 2.4249999523 10.925000191 8.5000000000 10.000000000 0.0149991987 0.4433099926 2.1431202888 48.043956757 128.87457275 0.7900096178 54.235881805 0.7870504856
 1692.8580322 6.0000000000 2.5290000439 11.029000282 8.5000000000 10.000000000 0.0169983990 0.4524100125 2.1231720448 49.945476532 136.64888000 0.7760112286 54.660659790 0.7780072093
 1693.0103760 6.0000000000 1.8150000572 10.314999580 8.5000000000 10.000000000 0.0179991983 0.4586200118 2.0932581425 52.204189301 143.02638245 0.7630104423 55.101646423 0.8149703741
 1693.1627197 6.0000000000 1.1549999714 9.6549997330 8.5000000000 10.000000000 0.0150048034 0.4550400078 2.0692255497 52.120998383 141.82574463 0.7510191798 55.394531250 0.8649199605
 1693.3151855 6.0000000000 0.7390003800 9.2390003204 8.5000000000 10.000000000 0.0070064105 0.4432100058 2.0541291237 51.339000702 134.37756348 0.7420071959 55.459945679 0.9169583321
 1693.4675293 6.0000000000 0.6070004106 9.1070003510 8.5000000000 10.000000000 0.0030064052 0.4320099950 2.0658872128 50.777000427 123.51101685 0.7330144048 55.393108368 0.9699151516
 1693.6199951 6.0000000000 0.5659999847 9.0659999847 8.5000000000 10.000000000 0.0059975963 0.4282799959 2.1106121540 49.301998138 117.67436981 0.7260056138 55.226135254 0.9819903970
 1693.7723389 6.0000000000 0.5450000763 9.0450000763 8.5000000000 10.000000000 0.0079967976 0.4316500127 2.1516141891 47.632999420 116.13855743 0.7200096250 55.209026337 0.9660256505
 1693.9248047 5.0000000000 0.5260000229 9.0260000229 8.5000000000 10.000000000 0.0099983970 0.4392299950 2.1787672043 45.922000885 118.10981750 0.7180016041 55.229984283 0.9560079575
 1694.0771484 5.0000000000 0.4689999223 8.9689998627 8.5000000000 10.000000000 0.0109991990 0.4472300112 2.1918876171 44.157001495 121.49418640 0.7249944210 55.040153503 0.9530023932
 1694.2296143 5.0000000000 0.3959998488 8.8959999084 8.5000000000 10.000000000 0.0129983993 0.4492399991 2.1929910183 42.681999207 126.69983673 0.7409871817 54.807186127 0.9530000091
 1694.3819580 5.0000000000 0.3739995956 8.8739995956 8.5000000000 10.000000000 0.0169967953 0.4476799965 2.1890342236 42.924999237 130.55830383 0.7579863667 54.633140564 0.9440072179
 1694.5344238 5.0000000000 0.3660002053 8.8660001755 8.5000000000 10.000000000 0.0209967978 0.4537999928 2.1800770760 45.708999634 130.63214111 0.7699903846 54.544071198 0.9190200567
 1694.6867676 5.0000000000 0.3760004044 8.8760004044 8.5000000000 10.000000000 0.0229983982 0.4654099941 2.1750431061 48.183998108 128.01638794 0.7769944072 54.468059540 0.9060104489
 1694.8392334 5.0000000000 0.3879995048 8.8879995346 8.5000000000 10.000000000 0.0190032013 0.4747700095 2.1839227676 49.125000000 125.28338623 0.7779992223 54.401054382 0.9099968076
 1694.9915771 6.0000000000 0.4009999931 8.9010000229 8.5000000000 10.000000000 0.0150032043 0.4795500040 2.1958963871 49.799999237 124.00432587 0.7730039954 54.406997681 0.9090007544
 1695.1439209 6.0000000000 0.3230000436 8.8229999542 8.5000000000 10.000000000 0.0149999997 0.4809899926 2.1979806423 50.790000916 123.31848145 0.7620176673 54.485874176 0.8900303841
 1695.2963867 6.0000000000 0.2919997871 8.7919998169 8.5000000000 10.000000000 0.0159991998 0.4796000123 2.1880857944 53.358001709 124.77193451 0.7470120192 54.648868561 0.8540288210
 1695.4487305 6.0000000000 0.3140000999 8.8140001297 8.5000000000 10.000000000 0.0150016006 0.4767600000 2.1810662746 54.164001465 127.71288300 0.7320240140 54.837699890 0.8250464201
 1695.6011963 6.0000000000 0.3439998925 8.8439998627 8.5000000000 10.000000000 0.0120024038 0.4738399982 2.1780254841 53.679000854 132.52433777 0.7160128355 54.856983185 0.8070144057
 1695.7535400 5.0000000000 0.3730000854 8.8730001450 8.5000000000 10.000000000 0.0080064051 0.4715999961 2.1700756550 53.020000458 137.84187317 0.6990272403 54.740188599 0.8109936118
 1695.9060059 5.0000000000 0.3690004051 8.8690004349 8.5000000000 10.000000000 0.0080000004 0.4689100087 2.1571125984 51.223999023 141.60928345 0.6860104203 54.648071289 0.8619590998
 1696.0583496 5.0000000000 0.3299998939 8.8299999237 8.5000000000 10.000000000 0.0010056091 0.4626699984 2.1431202888 47.141998291 143.63227844 0.6830024123 54.517105103 0.9839022756
 1696.2108154 5.0000000000 0.2980003059 8.7980003357 8.5000000000 10.000000000 -0.004995196 0.4503600001 2.1370518208 46.297000885 138.84523010 0.6989871860 54.165283203 1.1208903790
 1696.3631592 5.0000000000 0.2889995873 8.7889995575 8.5000000000 10.000000000 -0.009995993 0.4355199933 2.1399745941 47.431999207 129.89607239 0.7239799500 53.761325836 1.1889455318
 1696.5156250 5.0000000000 0.2840003967 8.7840003967 8.5000000000 10.000000000 -0.010000000 0.4237999916 2.1390087605 47.487998962 121.93487549 0.7509783506 52.981624603 1.1560264826
 1696.6679688 5.0000000000 0.2790003121 8.7790002823 8.5000000000 10.000000000 -0.003005609 0.4181599915 2.1330518723 45.974998474 119.77942657 0.7829743624 51.854904175 1.0780624151
 1696.8204346 5.0000000000 0.2749995887 8.7749996185 8.5000000000 10.000000000 0.0039943955 0.4173400104 2.1230859756 44.091999054 123.23513031 0.8239671588 51.105598450 1.0470248461
 1696.9727783 5.0000000000 0.2709999084 8.7709999084 8.5000000000 10.000000000 0.0069975965 0.4164200127 2.1220090389 44.326000214 127.24347687 0.8679646850 51.027000427 1.0769759417
 1697.1251221 5.0000000000 0.2670001984 8.7670001984 8.5000000000 10.000000000 0.0060016015 0.4156700075 2.1319060326 46.085998535 128.14196777 0.9089343548 51.333000183 1.1259216070
 1697.2775879 5.0000000000 0.2629995048 8.7629995346 8.5000000000 10.000000000 0.0050008013 0.4180899858 2.1419136524 46.893001556 126.97923279 0.9449711442 51.379001617 1.1419870853
 1697.4299316 5.0000000000 0.4540005028 8.9540004730 8.5000000000 10.000000000 0.0049999999 0.4220899940 2.1429903507 46.688999176 127.77671051 0.9659664035 51.176998138 1.1410015821
 1697.5823975 5.0000000000 0.7229995728 9.2229995728 8.5000000000 10.000000000 0.0069983979 0.4230799973 2.1390340328 46.875000000 130.07846069 0.9719951749 51.040000916 1.1190176010
 1697.7347412 5.0000000000 1.1469999552 9.6470003128 8.5000000000 10.000000000 0.0119919935 0.4247300029 2.1340420246 47.361999512 130.86125183 0.9720000029 51.011001587 1.0501104593
