# LAS format log file from PETREL
# Project units are specified as depth units
#==================================================================
~Version information
VERS.   2.0:
WRAP.   NO:
#==================================================================
~Well
STRT .m      383.59057617 :
STOP .m      2173.8320313 :
STEP .m     0.00000000 :
NULL .        -999.250000 :
COMP.           : COMPANY
WELL.  25/11-5 Balder Appr   : WELL
FLD.            : FIELD
LOC.            : LOCATION
SRVC.           : SERVICE COMPANY
DATE.  2018-09-11 14:48:16   : Log Export Date {yyyy-MM-dd HH:mm:ss}
PROV.           : PROVINCE
UWI.   25/11-5   : UNIQUE WELL ID
API.            : API NUMBER
#==================================================================
~Curve
DEPT .m                   : DEPTH
Lithology_geolink ._      : Lithology_geolink
DCAL .in                  : DCAL
CALI .in                  : CALI
BS .in                    : BS
MUDWEIGHT ._              : MUDWEIGHT
DRHO .g/cm3               : DRHO
NPHI .m3/m3               : NPHI
RHOB .g/cm3               : RHOB
GR .gAPI                  : GR
DTC .us/ft                : DTC
RDEP .ohm.m               : RDEP
SP .mV                    : SP
RMED .ohm.m               : RMED
~Parameter
#==================================================================
~Ascii
# ...
 510.99685669  -999.250000 0.8909998536 13.140999794 12.250000954 8.6999998093  -999.250000  -999.250000  -999.250000 66.318435669 155.61000061 1.6109963655 36.407970428 1.5519921780
 511.14923096  -999.250000 0.8400002122 13.090000153 12.250000954 8.6999998093  -999.250000  -999.250000  -999.250000 65.842193604 155.61000061 1.6319915056 36.153102875 1.5849868059
 511.30163574  -999.250000 0.8389996886 13.088999748 12.250000954 8.6999998093  -999.250000  -999.250000  -999.250000 63.637882233 155.61000061 1.6479935646 35.633209229 1.6009935141
 511.45404053  -999.250000 0.7539997101 13.004000664 12.250000954 8.6999998093  -999.250000  -999.250000  -999.250000 62.916145325 155.61000061 1.6539988518 35.085109711 1.6000002623
 511.60644531  -999.250000 0.6549996734 12.904999733 12.250000954 8.6999998093  -999.250000  -999.250000  -999.250000 65.952392578 155.61000061 1.6480011940 34.397136688 1.6000000238
 511.75885010  -999.250000 0.5329999924 12.782999992 12.250000954 8.6999998093  -999.250000  -999.250000  -999.250000 68.187553406 155.61000061 1.6130070686 34.822917938 1.5880024433
 511.91125488  -999.250000 0.6079998016 12.857999802 12.250000954 8.6999998093  -999.250000  -999.250000  -999.250000 69.330001831 155.61000061 1.5730079412 34.929977417 1.5540068150
 512.06365967  -999.250000 0.7089995742 12.959000587 12.250000954 8.6999998093  -999.250000  -999.250000  -999.250000 69.383003235 155.61000061 1.5290000439 34.687000275 1.5199999809
 512.21606445  -999.250000 0.7889996171 13.038999557 12.250000954 8.6999998093  -999.250000  -999.250000  -999.250000 67.445999146 155.61000061 1.4750000238 34.397998810 1.4780000448
 512.36846924  -999.250000 0.8500003815 13.100000381 12.250000954 8.6999998093  -999.250000  -999.250000  -999.250000 68.688003540 155.61000061 1.4190000296 34.265998840 1.4220000505
 512.52087402  -999.250000 0.7729997635 13.022998810 12.250000954 8.6999998093  -999.250000  -999.250000  -999.250000 72.552001953 155.61000061 1.3589999676 34.234001160 1.3580000401
 512.67327881  -999.250000 0.6949996948 12.944998741 12.250000954 8.6999998093  -999.250000  -999.250000  -999.250000 74.788002014 155.61000061 1.2999999523 34.256999969 1.2829999924
 512.82562256  -999.250000 0.6179999709 12.868000031 12.250000954 8.6999998093  -999.250000  -999.250000  -999.250000 73.041000366 155.61000061 1.2620152235 34.482910156 1.2230241299
 512.97802734  -999.250000 0.5839995742 12.833999634 12.250000954 8.6999998093  -999.250000  -999.250000  -999.250000 72.125000000 155.61000061 1.2510044575 34.447013855 1.1909999847
 513.13043213  -999.250000 0.6059998870 12.855999947 12.250000954 8.6999998093  -999.250000  -999.250000  -999.250000 71.680000305 155.61000061 1.2490007877 34.342041016 1.2239999771
 513.28283691  -999.250000 0.6129999161 12.862998962 12.250000954 8.6999998093  -999.250000  -999.250000  -999.250000 71.671997070 155.61000061 1.2529984713 34.338001251 1.3170000315
 513.43524170  -999.250000 0.6129999161 12.862998962 12.250000954 8.6999998093  -999.250000  -999.250000  -999.250000 70.466003418 155.61000061 1.2599971294 34.994735718 1.3969999552
 513.58764648  -999.250000 0.5730000138 12.822999954 12.250000954 8.6999998093  -999.250000  -999.250000  -999.250000 70.458000183 155.61000061 1.2779928446 35.353855133 1.4340000153
 513.74005127  -999.250000 0.6379994750 12.887999535 12.250000954 8.6999998093  -999.250000  -999.250000  -999.250000 70.806999207 155.61000061 1.3009908199 35.611896515 1.4450000525
 513.89245605  -999.250000 0.6409997940 12.890998840 12.250000954 8.6999998093  -999.250000  -999.250000  -999.250000 71.377998352 155.61000061 1.3349864483 35.659980774 1.4490000010
 514.04486084  -999.250000 0.5799999237 12.829999924 12.250000954 8.6999998093  -999.250000  -999.250000  -999.250000 72.856002808 155.61000061 1.3780000210 35.613998413 1.4520000219
 514.19726563  -999.250000 0.5059996247 12.755999565 12.250000954 8.6999998093  -999.250000  -999.250000  -999.250000 74.316001892 155.61000061 1.4210000038 35.508998871 1.4509999752
 514.34967041  -999.250000 0.4200001061 12.670000076 12.250000954 8.6999998093  -999.250000  -999.250000  -999.250000 74.478996277 155.61000061 1.4570000172 35.305000305 1.4520000219
 514.50207520  -999.250000 0.5129994750 12.762998581 12.250000954 8.6999998093  -999.250000  -999.250000  -999.250000 75.125999451 155.61000061 1.4809999466 35.300998688 1.4609999657
 514.65447998  -999.250000 0.4370003045 12.687000275 12.250000954 8.6999998093  -999.250000  -999.250000  -999.250000 72.263000488 155.61000061 1.5049999952 35.294998169 1.4780000448
 514.80682373  -999.250000 0.4160003662 12.666000366 12.250000954 8.6999998093  -999.250000  -999.250000  -999.250000 70.301002502 155.61000061 1.5290000439 35.294998169 1.4980000257
 514.95922852  -999.250000 0.4020003676 12.651999474 12.250000954 8.6999998093  -999.250000  -999.250000  -999.250000 71.295997620 155.61000061 1.5549999475 35.398956299 1.5230000019
 515.11163330  -999.250000 0.3879995048 12.637999535 12.250000954 8.6999998093  -999.250000  -999.250000  -999.250000 73.892997742 155.61000061 1.5850000381 35.480964661 1.5529999733
 515.26403809  -999.250000 0.2629995048 12.512998581 12.250000954 8.6999998093  -999.250000  -999.250000  -999.250000 73.660003662 155.61000061 1.6239999533 35.476005554 1.5939999819
 515.41644287  -999.250000 0.4149999917 12.664999962 12.250000954 8.6999998093  -999.250000  -999.250000  -999.250000 70.334999084 155.61000061 1.6599999666 35.371040344 1.6339999437
 515.56884766  -999.250000 0.5670003891 12.817000389 12.250000954 8.6999998093  -999.250000  -999.250000  -999.250000 66.635002136 155.61000061 1.6879999638 35.250049591 1.6619999409
 515.72125244  -999.250000 0.5500001907 12.800000191 12.250000954 8.6999998093  -999.250000  -999.250000  -999.250000 64.900001526 155.61000061 1.7070000172 35.022998810 1.6779999733
 515.87365723  -999.250000 0.4280005097 12.678000450 12.250000954 8.6999998093  -999.250000  -999.250000  -999.250000 64.686996460 155.61000061 1.7180000544 34.828998566 1.6770000458
 516.02606201  -999.250000 0.5010004044 12.750999451 12.250000954 8.6999998093  -999.250000  -999.250000  -999.250000 64.936996460 155.61000061 1.7109999657 34.751998901 1.6599999666
 516.17846680  -999.250000 0.5920000076 12.842000008 12.250000954 8.6999998093  -999.250000  -999.250000  -999.250000 65.424003601 155.61000061 1.7029999495 34.658000946 1.6410000324
 516.33087158  -999.250000 0.6520003676 12.902000427 12.250000954 8.6999998093  -999.250000  -999.250000  -999.250000 64.779998779 155.61000061 1.6820000410 34.773998260 1.6030000448
 516.48327637  -999.250000 0.5410004258 12.791000366 12.250000954 8.6999998093  -999.250000  -999.250000  -999.250000 64.612998962 155.61000061 1.6449999809 34.902999878 1.5290000439
 516.63568115  -999.250000 0.2659997940 12.516000748 12.250000954 8.6999998093  -999.250000  -999.250000  -999.250000 64.305000305 155.61000061 1.6100000143 35.096000671 1.4429999590
 516.78808594  -999.250000 0.4309997857 12.680998802 12.250000954 8.6999998093  -999.250000  -999.250000  -999.250000 63.808998108 155.61000061 1.5770000219 35.127998352 1.3960000277
 516.94042969  -999.250000 0.5970001221 12.847000122 12.250000954 8.6999998093  -999.250000  -999.250000  -999.250000 61.817001343 155.61000061 1.5520000458 35.293998718 1.4160000086
 517.09283447  -999.250000 0.7620001435 13.012000084 12.250000954 8.6999998093  -999.250000  -999.250000  -999.250000 56.162998199 155.61000061 1.5449999571 35.569000244 1.4630000591
 517.24523926  -999.250000 0.8070001602 13.057000160 12.250000954 8.6999998093  -999.250000  -999.250000  -999.250000 52.916000366 155.61000061 1.5399999619 36.000999451 1.5180000067
 517.39764404  -999.250000 0.6070004106 12.857000351 12.250000954 8.6999998093  -999.250000  -999.250000  -999.250000 49.875999451 155.61000061 1.5360000134 36.008998871 1.5549999475
 517.55004883  -999.250000 0.7440003753 12.994000435 12.250000954 8.6999998093  -999.250000  -999.250000  -999.250000 48.395000458 155.61000061 1.5349999666 35.805000305 1.5429999828
