# LAS format log file from PETREL
# Project units are specified as depth units
#==================================================================
~Version information
VERS.   2.0:
WRAP.   NO:
#==================================================================
~Well
STRT .m      1118.6159668 :
STOP .m      2017.3187256 :
STEP .m     0.00000000 :
NULL .        -999.250000 :
COMP.           : COMPANY
WELL.  25/11-15  Grane   : WELL
FLD.            : FIELD
LOC.            : LOCATION
SRVC.           : SERVICE COMPANY
DATE.  2018-09-11 14:48:15   : Log Export Date {yyyy-MM-dd HH:mm:ss}
PROV.           : PROVINCE
UWI.   25/11-15   : UNIQUE WELL ID
API.            : API NUMBER
#==================================================================
~Curve
DEPT .m                   : DEPTH
Lithology_geolink ._      : Lithology_geolink
CALI .in                  : CALI
BS .in                    : BS
MUDWEIGHT ._              : MUDWEIGHT
ROP .m/h                  : ROP
TGAS ._                   : TGAS
DRHO .g/cm3               : DRHO
THOR .ppm                 : THOR
NPHI .m3/m3               : NPHI
RHOB .g/cm3               : RHOB
GR .gAPI                  : GR
URAN .ppm                 : URAN
DTC .us/ft                : DTC
DTE .us/ft                : DTE
RDEP .ohm.m               : RDEP
SP .mV                    : SP
RSHA .ohm.m               : RSHA
RMED .ohm.m               : RMED
~Parameter
#==================================================================
~Ascii
# ...
 1415.3387451  -999.250000 9.7752704620 8.5000000000 1.1100000143 192413.87500 0.0399999991 -0.050894100 8.9785003662 0.4674271047 2.2234036922 114.68939972 -2.223799944 138.81170654 135.69235229 0.9596766233 29.200000763 0.6050695181 0.9684097767
 1415.4912109  -999.250000 9.4051446915 8.5000000000 1.1100000143 192413.87500 0.0399999991 -0.059117429 8.9154996872 0.4774827957 2.2616639137 116.30919647 -2.197000027 134.13409424 132.11338806 0.9278185964 28.700000763 0.3281723857 0.9768766761
 1415.6435547  -999.250000 9.7396545410 8.5000000000 1.1100000143 193710.84375 0.0399999991 -0.066277340 8.6485996246 0.4674363136 2.3948578835 111.81289673 -2.286099911 117.01049805 117.39779663 0.9107251167 27.700000763 0.4439837039 0.9455307126
 1415.7960205  -999.250000 9.7903785706 8.5000000000 1.1100000143 194275.79688 0.0400959775 -0.056798548 7.7214999199 0.4914506972 2.3988699913 112.18479919 -2.729599953 116.02860260 113.25759888 0.9184383750 26.700000763 0.5270559788 0.9738051295
 1415.9483643  -999.250000 9.7582406998 8.5000000000 1.1100000143 181812.53125 0.0401000008 -0.046912216 7.9208002090 0.4528217912 2.4246160984 108.12329865 -2.546299934 110.90190125 108.95172882 0.9899067283 26.700000763 0.4652262032 0.9816346169
 1416.1008301  -999.250000 10.183580399 8.5000000000 1.1100000143 144706.12500 0.0401000008 -0.051425941 7.6037998199 0.4373953938 2.4408309460 106.43769836 -2.758899927 108.67179108 106.12602234 1.0666600466 26.700000763 0.7437642217 1.1205990314
 1416.2531738  -999.250000 10.143980026 8.5000000000 1.1100000143 132827.40625 0.0401000008 -0.052204911 7.5494999886 0.4048804045 2.4250888824 106.74800110 -2.783400059 110.67031097 107.32835388 1.1260139942 25.700000763 0.5499253869 1.2968089581
 1416.4056396  -999.250000 10.221709251 8.5000000000 1.1100000143 132827.40625 0.0401999988 -0.052978728 7.9292001724 0.4547435939 2.3925299644 104.69090271 -2.599999905 115.36720276 111.40200043 1.0978900194 24.700000763 0.6950929761 1.3054020405
 1416.5579834  -999.250000 10.679061890 8.5000000000 1.1100000143 132827.40625 0.0401999988 -0.062987201 7.8718004227 0.4491243064 2.2578120232 107.25140381 -2.577399969 133.09080505 126.51718903 1.0000350475 24.700000763 0.6897659898 1.1011970043
 1416.7104492  -999.250000 10.750539780 8.5000000000 1.1100000143 132827.40625 0.0401999988 -0.075232483 7.7767000198 0.4696640968 2.2002639771 108.75659943 -2.679699898 139.41169739 135.18754578 0.9358882904 24.700000763 0.5575733185 0.9931800961
 1416.8627930  -999.250000 10.702819824 8.5000000000 1.1100000143 132827.40625 0.0401999988 -0.077557988 7.8823995590 0.4573112130 2.2080960274 113.87400055 -2.662199974 138.45170593 135.70741272 0.8796684146 25.700000763 0.7109236121 0.9038152099
 1417.0152588  -999.250000 11.082320213 8.5000000000 1.1100000143 174195.01563 0.0402152427 -0.065459646 7.8420996666 0.4562042058 2.2059669495 112.68609619 -2.763299942 138.81820679 135.69601440 0.8956949115 26.200000763 0.8722761273 0.9219503999
 1417.1676025  -999.250000 11.504859924 8.5000000000 1.1100000143 224724.29688 0.0403000005 -0.064099975 7.4663000107 0.4587819874 2.1977679729 111.49970245 -2.860899925 139.64480591 136.52343750 0.9045271277 25.700000763 0.5850185156 0.9643161893
 1417.3199463  -999.250000 11.074870110 8.5000000000 1.1100000143 235241.29688 0.0386213660 -0.069707900 7.7355999947 0.4391568005 2.1831769943 111.05750275 -2.727499962 140.72059631 137.56942749 0.9510573149 25.700000763 0.3942230046 0.9853041768
 1417.4724121  -999.250000 11.394630432 8.5000000000 1.1100000143 235241.29688 0.0364863239 -0.056260977 7.5054998398 0.4716952145 2.2109150887 106.74780273 -2.823400021 138.08500671 135.63497925 0.9534714818 26.200000763 0.5166345239 0.9890065193
 1417.6247559  -999.250000 11.567560196 8.5000000000 1.1100000143 233960.59375 0.0348025672 -0.041069660 7.3854999542 0.5091810822 2.2080399990 103.74669647 -2.899800062 138.10569763 135.10058594 0.9179211855 27.200000763 0.5666453242 0.9979709983
 1417.7772217  -999.250000 11.168400764 8.5000000000 1.1100000143 233379.35938 0.0328952372 -0.050236806 7.7838001251 0.5253760815 2.1765520573 100.75379944 -2.794699907 141.31300354 137.66217041 0.9055950046 28.200000763 0.5185698867 0.9716926813
 1417.9295654  -999.250000 11.773960114 8.5000000000 1.1100000143 237902.90625 0.0317227095 -0.056530397 7.8186001778 0.5130938888 2.1869111061 106.50240326 -2.624900103 140.71499634 137.83715820 0.8801255226 28.700000763 0.3543618917 0.9606599808
 1418.0820313  -999.250000 12.321169853 8.5000000000 1.1100000143 247328.45313 0.0313000008 -0.057699516 7.4169001579 0.4954079092 2.2073240280 108.81610107 -2.898900032 138.57960510 136.05455017 0.8806927204 29.200000763 0.2426066995 0.9225854874
 1418.2343750  -999.250000 12.596199989 8.5000000000 1.1100000143 251415.64063 0.0311999992 -0.059135284 7.3961000443 0.4797399938 2.1915450096 114.80709839 -2.975199938 139.75979614 136.56788635 0.8696119785 29.700000763 0.2541593909 0.8985962868
 1418.3868408  -999.250000 11.771520615 8.5000000000 1.1100000143 252000.00000 0.0311999992 -0.063058943 7.6283998489 0.5052819848 2.2231309414 109.18840027 -2.908299923 136.30560303 133.97164917 0.8708099127 29.200000763 0.3236922026 0.8948041797
 1418.5391846  -999.250000 11.815699577 8.5000000000 1.1100000143 253284.39063 0.0311609264 -0.070626140 7.4539999962 0.5184906125 2.3687748909 110.93689728 -3.036900043 118.77359772 119.26719666 0.8916695118 28.200000763 0.3094696105 0.9026485085
 1418.6916504  -999.250000 12.481241226 8.5000000000 1.1100000143 253861.90625 0.0310999993 -0.080416426 7.2048001289 0.5223749280 2.3773910999 110.25170135 -3.162800074 117.36250305 114.67607117 0.8805357218 28.200000763 0.3970882893 0.9579020739
 1418.8439941  -999.250000 11.882189751 8.5000000000 1.1100000143 253861.90625 0.0310999993 -0.091255151 7.3783001900 0.5055829883 2.4110488892 111.55860138 -3.183599949 112.21140289 110.27313995 0.9002456069 28.200000763 0.4727101922 0.8840494156
 1418.9964600  -999.250000 11.157979965 8.5000000000 1.1100000143 253861.90625 0.0310035404 -0.116500840 8.0934000015 0.4657987058 2.4481670856 106.86949921 -2.684200048 106.76799774 104.89644623 0.9808874130 28.200000763 0.2930445075 0.9448934793
 1419.1488037  -999.250000 10.727660179 8.5000000000 1.1100000143 253785.95313 0.0309999995 -0.139239252 7.9725995064 0.4326129854 2.4341111183 102.31240082 -2.922800064 109.95189667 106.34994507 1.0371400118 26.700000763 0.1890718937 1.0255359411
 1419.3012695  -999.250000 10.421750069 8.5000000000 1.1100000143 252478.28125 0.0309987776 -0.140911251 8.1863002777 0.4076359868 2.4186120033 102.19170380 -2.716099977 112.13390350 108.73777008 1.0309139490 26.200000763 0.3084231019 1.2155799866
 1419.4536133  -999.250000 10.728980064 8.5000000000 1.1100000143 252000.00000 0.0308999997 -0.119095810 7.6540999413 0.4178336859 2.3736000061 105.81120300 -3.221800089 118.88189697 114.56671143 1.0380619764 25.700000763 0.3292815983 1.1152549982
 1419.6059570  -999.250000 11.400790215 8.5000000000 1.1100000143 252000.00000 0.0308999997 -0.102072448 8.1501998901 0.4789932966 2.4804790020 104.06369781 -3.169399977 101.75369263 102.11683655 0.9962370992 24.700000763 0.4657151997 1.0534169674
 1419.7584229  -999.250000 11.942169189 8.5000000000 1.1100000143 252000.00000 0.0308416355 -0.088596717 8.0249996185 0.5279272199 2.5137410164 105.18440247 -3.509399891 96.358047485 94.453140259 0.9927304983 23.700000763 0.4800559878 0.9796147943
 1419.9107666  -999.250000 12.049798965 8.5000000000 1.1100000143 253386.31250 0.0307999998 -0.062103879 7.2697000504 0.4895648956 2.4914550781 100.43460083 -3.799299955 100.31620026 96.539916992 1.0353089571 24.700000763 0.5746102929 1.0027559996
 1420.0632324  -999.250000 11.760680199 8.5000000000 1.1100000143 281522.62500 0.0307999998 -0.038033206 7.7588000298 0.4184286892 2.3156480789 97.561576843 -3.457400084 125.24060059 117.28314972 1.0862449408 24.700000763 0.9749829769 1.1680790186
 1420.2155762  -999.250000 11.894499779 8.5000000000 1.1100000143 291103.56250 0.0307843909 -0.057046100 7.7358999252 0.3491345048 2.2163660526 96.003471375 -3.371599913 137.50250244 132.10139465 1.0779559612 24.700000763 0.4715533853 1.1320810318
