# LAS format log file from PETREL
# Project units are specified as depth units
#==================================================================
~Version information
VERS.   2.0:
WRAP.   NO:
#==================================================================
~Well
STRT .m      984.14562988 :
STOP .m      1996.3865967 :
STEP .m     0.00000000 :
NULL .        -999.250000 :
COMP.           : COMPANY
WELL.  25/11-23  Balder Appr   : WELL
FLD.            : FIELD
LOC.            : LOCATION
SRVC.           : SERVICE COMPANY
DATE.  2018-09-11 14:48:16   : Log Export Date {yyyy-MM-dd HH:mm:ss}
PROV.           : PROVINCE
UWI.   25/11-23   : UNIQUE WELL ID
API.            : API NUMBER
#==================================================================
~Curve
DEPT .m                   : DEPTH
Lithology_geolink ._      : Lithology_geolink
DCAL .in                  : DCAL
CALI .in                  : CALI
BS .in                    : BS
MUDWEIGHT ._              : MUDWEIGHT
ROP .m/h                  : ROP
DRHO .g/cm3               : DRHO
NPHI .m3/m3               : NPHI
RHOB .g/cm3               : RHOB
GR .gAPI                  : GR
DTC .us/ft                : DTC
RDEP .ohm.m               : RDEP
SP .mV                    : SP
RSHA .ohm.m               : RSHA
RMED .ohm.m               : RMED
~Parameter
#==================================================================
~Ascii
# ...
 1584.4492188 5.0000000000 0.1429004967 8.6429004669 8.5000000000 1.3200000525 274848.50000 -0.007400881 0.5129089952 2.1366972923 60.786499023 147.73471069 0.5944095254 0.0000000000 0.6646109223 0.5985094905
 1584.6016846 5.0000000000 0.1484003067 8.6484003067 8.5000000000 1.3200000525 274848.50000 -0.008499119 0.5043640137 2.1333956718 61.102798462 147.86781311 0.6062862873 0.0000000000 0.6781911254 0.6102859974
 1584.7540283 16.000000000 0.1561003029 8.6561002731 8.5000000000 1.3200000525 274848.50000 -0.007396077 0.4894630015 2.1280970573 60.799598694 148.14152527 0.5891839862 0.0000000000 0.6670765281 0.5927837491
 1584.9064941 16.000000000 0.1837996989 8.6837997437 8.5000000000 1.3200000525 273951.12500 -0.002498878 0.4806269705 2.1244010925 60.342800140 148.42352295 0.5692153573 0.0000000000 0.6377784014 0.5725155473
 1585.0588379 16.000000000 0.2088003010 8.7088003159 8.5000000000 1.3200000525 251406.95313 -0.001104327 0.4920119941 2.1259233952 59.420700073 145.34147644 0.5884602666 0.0000000000 0.6110044718 0.5919612050
 1585.2113037 16.000000000 0.2711000144 8.7711000443 8.5000000000 1.3200000525 224459.76563 -0.006501121 0.4876480103 2.1550958157 56.720199585 141.95613098 0.6637933254 0.0000000000 0.7418077588 0.6684966087
 1585.3636475 16.000000000 0.2103003860 8.7103004456 8.5000000000 1.3200000525 225134.31250 -0.007200641 0.4731039703 2.2149195671 53.107299805 138.72659302 0.7842954397 0.0000000000 1.0584965944 0.7910956144
 1585.5161133 16.000000000 0.0571003035 8.5571002960 8.5000000000 1.3200000525 225847.03125 -0.008014572 0.4743590057 2.2393312454 50.213798523 134.72981262 0.7785649300 0.0000000000 1.1783810854 0.7855646014
 1585.6684570 16.000000000 -0.007699966 8.4923000336 8.5000000000 1.3200000525 226449.53125 -0.017107293 0.5048109889 2.1964502335 50.731300354 133.68000793 0.7566639781 0.0000000000 0.8547036052 0.7634636760
 1585.8209229 5.0000000000 -0.016699789 8.4833002090 8.5000000000 1.3200000525 227161.03125 -0.026189432 0.5280910134 2.1342725754 55.388099670 136.18881226 0.7117192745 0.0000000000 0.7344276309 0.7181181908
 1585.9732666 5.0000000000 -0.008700371 8.4912996292 8.5000000000 1.3200000525 249177.37500 -0.019594552 0.5183320045 2.1172044277 59.870201111 138.87951660 0.6613716483 0.0000000000 0.6893057823 0.6670716405
 1586.1256104 5.0000000000 0.0031995771 8.5031995773 8.5000000000 1.3200000525 366194.28125 -0.012798319 0.4924129844 2.1230044365 61.400600433 139.53245544 0.6259808540 0.0000000000 0.6964743137 0.6316808462
 1586.2780762 5.0000000000 0.0513000414 8.5513000488 8.5000000000 1.3200000525 388467.59375 -0.010699119 0.5044040084 2.1286017895 61.210601807 139.35820007 0.6020902991 0.0000000000 0.6643767357 0.6077904701
 1586.4304199 5.0000000000 0.0857000500 8.5857000351 8.5000000000 1.3200000525 389078.28125 -0.009598400 0.5324100256 2.1310009956 60.809101105 140.09999084 0.5899990797 0.0000000000 0.6354051232 0.5958994627
 1586.5828857 5.0000000000 0.0913000107 8.5913000107 8.5000000000 1.3200000525 389078.28125 -0.007598478 0.5521469712 2.1320993900 60.768100739 143.20837402 0.5888946652 0.0000000000 0.6417855024 0.5951948762
 1586.7352295 5.0000000000 0.0705995634 8.5705995560 8.5000000000 1.3200000525 389078.28125 -0.005699840 0.5461629629 2.1311011314 60.121200562 144.53985596 0.5822011232 0.0000000000 0.6237090826 0.5888014436
 1586.8876953 5.0000000000 0.0634002686 8.5634002686 8.5000000000 1.3200000525 389078.28125 -0.005502003 0.5328119993 2.1325991154 59.605800629 145.98718262 0.5836177468 0.0000000000 0.6349996924 0.5906186104
 1587.0400391 5.0000000000 0.0542001687 8.5542001724 8.5000000000 1.3200000525 392854.68750 -0.008000561 0.5246970057 2.1315023899 59.577999115 146.96566772 0.6058018208 0.0000000000 0.6346046925 0.6138022542
 1587.1925049 5.0000000000 0.0223998986 8.5223999023 8.5000000000 1.3200000525 411239.87500 -0.008700401 0.5195029974 2.1345000267 60.291500092 146.79760742 0.6081067920 0.0000000000 0.6405084133 0.6166073680
 1587.3448486 5.0000000000 0.0024003980 8.5024003983 8.5000000000 1.3200000525 412281.71875 -0.009199279 0.5129280090 2.1344037056 60.750400543 146.55134583 0.6166132092 0.0000000000 0.6510190964 0.6258137822
 1587.4973145 5.0000000000 -0.004500389 8.4954996109 8.5000000000 1.3200000525 412281.71875 -0.008298559 0.5003629923 2.1392109394 60.762500763 145.97550964 0.6331139207 0.0000000000 0.6748214364 0.6430147290
 1587.6496582 5.0000000000 -0.012399669 8.4876003265 8.5000000000 1.3200000525 412281.71875 -0.007398718 0.5061190128 2.1460042000 59.609699249 145.79414368 0.6417754889 0.0000000000 0.6881648898 0.6521748304
 1587.8021240 5.0000000000 -0.018600460 8.4813995361 8.5000000000 1.3200000525 412281.71875 -0.005800160 0.5124920011 2.1513993740 58.893398285 145.95712280 0.6112023592 0.0000000000 0.6443710327 0.6208027601
 1587.9544678 5.0000000000 -0.020099636 8.4799003601 8.5000000000 1.3200000525 422040.96875 -0.005900962 0.5274659991 2.1508967876 58.162399292 146.34304810 0.6127123833 0.0000000000 0.6263366938 0.6225128174
 1588.1069336 5.0000000000 -0.020400047 8.4795999527 8.5000000000 1.3200000525 469654.37500 -0.007102402 0.5243399739 2.1469907761 57.096199036 146.65557861 0.6281950474 0.0000000000 0.6720880270 0.6384950280
 1588.2592773 5.0000000000 -0.013699528 8.4863004684 8.5000000000 1.3200000525 469175.21875 -0.008599840 0.5203039646 2.1411960125 55.877300262 146.70730591 0.6250661016 0.0000000000 0.6645835042 0.6353648901
 1588.4116211 5.0000000000 -0.016099930 8.4839000702 8.5000000000 1.3200000525 468612.56250 -0.008400721 0.5188679695 2.1360933781 55.902801514 147.08702087 0.5828064680 0.0000000000 0.6439995170 0.5916066170
 1588.5640869 5.0000000000 -0.017399790 8.4826002121 8.5000000000 1.3200000525 468101.78125 -0.009300561 0.5173619986 2.1276950836 57.304298401 147.62947083 0.5909123421 0.0000000000 0.6434231997 0.5999126434
 1588.7164307 5.0000000000 -0.007699966 8.4923000336 8.5000000000 1.3200000525 467518.75000 -0.009998959 0.5258390307 2.1215991974 58.249599457 147.96401978 0.6063094735 0.0000000000 0.6722916365 0.6157097816
 1588.8688965 5.0000000000 -0.008999825 8.4910001755 8.5000000000 1.3200000525 467021.53125 -0.008698878 0.5282229781 2.1208000183 57.779800415 148.22801208 0.6181021333 0.0000000000 0.6618915200 0.6279023886
 1589.0212402 5.0000000000 -0.016400339 8.4835996628 8.5000000000 1.3200000525 466429.21875 -0.007300801 0.5401039720 2.1208965778 56.468101501 148.25433350 0.6208245754 0.0000000000 0.6513265371 0.6309254766
 1589.1737061 5.0000000000 -0.011799810 8.4882001877 8.5000000000 1.3200000525 465944.53125 -0.008300561 0.5402970314 2.1167969704 55.765098572 148.29037476 0.6514986157 0.0000000000 0.6844165921 0.6626986265
 1589.3260498 5.0000000000 -0.016200069 8.4837999344 8.5000000000 1.3200000525 465406.68750 -0.009000480 0.5429279804 2.1127998829 56.045898438 148.24961853 0.6497862935 0.0000000000 0.7050950527 0.6609858274
 1589.4785156 5.0000000000 -0.012000080 8.4879999161 8.5000000000 1.3200000525 464869.53125 -0.009603363 0.5360279679 2.1127068996 56.696098328 148.02166748 0.6326891184 0.0000000000 0.6988874674 0.6432887912
 1589.6308594 5.0000000000 -0.002799988 8.4972000122 8.5000000000 1.3200000525 464333.18750 -0.011701122 0.5336940289 2.1170032024 57.382499695 147.56523132 0.6258767843 0.0000000000 0.6910830736 0.6362760663
 1589.7833252 5.0000000000 -0.002499580 8.4975004196 8.5000000000 1.3200000525 463797.06250 -0.013100160 0.5423339605 2.1208035946 57.327800751 146.86634827 0.5970065594 0.0000000000 0.6700368524 0.6064070463
 1589.9356689 5.0000000000 -0.003399849 8.4966001511 8.5000000000 1.3200000525 450927.93750 -0.013199760 0.5512900352 2.1230993271 57.639598846 146.46054077 0.6010921597 0.0000000000 0.6929706335 0.6107918620
 1590.0881348 5.0000000000 -0.013199810 8.4868001938 8.5000000000 1.3200000525 388818.00000 -0.012897919 0.5502569675 2.1221027374 57.472198486 146.62817383 0.5912895799 0.0000000000 0.6563272476 0.6005892754
 1590.2404785 5.0000000000 -0.015399930 8.4846000671 8.5000000000 1.3200000525 383484.25000 -0.011599439 0.5398820043 2.1237015724 57.291698456 147.04470825 0.5847976208 0.0000000000 0.6732904315 0.5938974619
