# LAS format log file from PETREL
# Project units are specified as depth units
#==================================================================
~Version information
VERS.   2.0:
WRAP.   NO:
#==================================================================
~Well
STRT .m      353.26309204 :
STOP .m      2468.2702637 :
STEP .m     0.00000000 :
NULL .        -999.250000 :
COMP.           : COMPANY
WELL.  25/11-1  Balder   : WELL
FLD.            : FIELD
LOC.            : LOCATION
SRVC.           : SERVICE COMPANY
DATE.  2018-09-11 14:48:15   : Log Export Date {yyyy-MM-dd HH:mm:ss}
PROV.           : PROVINCE
UWI.   25/11-1   : UNIQUE WELL ID
API.            : API NUMBER
#==================================================================
~Curve
DEPT .m                   : DEPTH
Lithology_geolink ._      : Lithology_geolink
CALI .in                  : CALI
MUDWEIGHT ._              : MUDWEIGHT
ROP .m/h                  : ROP
DRHO .g/cm3               : DRHO
RHOB .g/cm3               : RHOB
GR .gAPI                  : GR
DTC .us/ft                : DTC
DTE .us/ft                : DTE
RDEP .ohm.m               : RDEP
SP .mV                    : SP
RSHA .ohm.m               : RSHA
RMED .ohm.m               : RMED
~Parameter
#==================================================================
~Ascii
# ...
 2170.4807129 5.0000000000 12.655400276 11.399999619 8.2538986206 0.0299999993 2.4923009872 49.216281891 84.323219299 84.323097229 2.3777029514 64.944236755 2.8569979668 2.0771999359
 2170.6330566 5.0000000000 12.671098709 11.399999619 8.2552118301 0.0248815995 2.4782979488 48.432956696 83.221763611 83.223564148 2.3526959419 65.048667908 2.7646119595 2.0838010311
 2170.7854004 5.0000000000 12.672419548 11.399999619 8.2164402008 0.0193461534 2.4712998867 46.662597656 83.114105225 83.114372253 2.3400959969 64.955726624 2.8073890209 2.0876970291
 2170.9379883 5.0000000000 12.695489883 11.399999619 8.1967430115 0.0150705129 2.4718999863 45.061931610 83.056121826 83.056098938 2.3347029686 64.892494202 2.7903099060 2.0831029415
 2171.0903320 5.0000000000 12.710100174 11.399999619 8.1522245407 0.0125352563 2.4728999138 43.059120178 83.099220276 83.099197388 2.3288009167 64.958618164 3.2779889107 2.0737020969
 2171.2426758 5.0000000000 12.685799599 11.399999619 7.9772706032 0.0105376001 2.4678990841 42.340812683 83.570991516 83.570236206 2.3102920055 64.883224487 3.5200250149 2.0636980534
 2171.3950195 5.0000000000 12.669599533 11.399999619 7.6546392441 0.0056153848 2.4594969749 42.099746704 83.870117188 83.869819641 2.2627580166 64.433609009 3.0777399540 2.0527930260
 2171.5473633 5.0000000000 12.669300079 11.399999619 6.6690902710 0.0003461539 2.4529969692 44.284065247 83.600738525 83.602729797 2.1836190224 64.016212463 2.7902750969 2.0395879745
 2171.6999512 5.0000000000 12.668999672 11.399999619 5.9209189415 0.0011971154 2.4498009682 46.931411743 81.832168579 81.831596375 2.0949289799 63.885162354 2.7630090714 2.0261039734
 2171.8522949 5.0000000000 12.644800186 11.302885056 5.6813511848 0.0056560002 2.4544999599 48.319957733 80.276542664 80.279090881 2.0215981007 63.983337402 3.2148249149 2.0148999691
 2172.0046387 5.0000000000 12.604490280 11.300000191 5.5961694717 0.0128461532 2.4637041092 47.720893860 80.047966003 80.048362732 1.9691829681 63.950912476 4.0852260590 2.0062959194
 2172.1569824 5.0000000000 12.588278770 11.300000191 5.5550227165 0.0179230757 2.4741029739 45.574283600 80.011466980 80.010162354 1.9273689985 63.827320099 3.6733100414 1.9961880445
 2172.3095703 5.0000000000 12.556718826 11.300000191 5.5550804138 0.0175352562 2.4773991108 42.249130249 81.825897217 81.826705933 1.8877179623 63.548522949 2.9830861092 1.9811069965
 2172.4619141 5.0000000000 12.511099815 11.300000191 5.6561207771 0.0162688009 2.4673008919 38.976398468 82.836112976 82.836196899 1.8565030098 63.373466492 2.7917170525 1.9629019499
 2172.6142578 3.0000000000 12.446061134 11.300000191 5.8601698875 0.0189230777 2.4542961121 38.496845245 82.396636963 82.397598267 1.8433029652 62.730739594 2.5655400753 1.9449959993
 2172.7666016 3.0000000000 12.317408562 11.300000191 5.9870238304 0.0258461535 2.4411020279 39.507614136 81.315742493 81.317428589 1.8530219793 62.173175812 2.7143011093 1.9288909435
 2172.9191895 3.0000000000 12.179679871 11.300000191 6.2313718796 0.0331266038 2.4435989857 40.648429871 81.426536560 81.426597595 1.8866800070 61.994358063 3.4113419056 1.9155080318
 2173.0715332 3.0000000000 12.141809464 11.300000191 6.4991483688 0.0393942334 2.4664950371 40.887348175 81.181678772 81.181602478 1.9420880079 61.742294312 3.1075630188 1.9124009609
 2173.2238770 3.0000000000 12.200420380 11.300000191 6.6681113243 0.0417312011 2.4875009060 39.395622253 80.576873779 80.577865601 2.0017058849 61.696514130 2.5194849968 1.9264019728
 2173.3762207 3.0000000000 12.309769630 11.300000191 6.7336592674 0.0405384600 2.4955000877 38.271930695 80.378692627 80.379318237 2.0433070660 61.743835449 2.4197440147 1.9434020519
 2173.5285645 3.0000000000 12.435391426 11.300000191 6.7368369102 0.0356153846 2.4951961040 36.974048615 79.851913452 79.852943420 2.0560789108 61.913898468 2.7131149769 1.9472800493
 2173.6811523 3.0000000000 12.533270836 11.300000191 6.7977328300 0.0310705137 2.4913020134 37.727340698 79.689460754 79.689392090 2.0328080654 62.041618347 3.2219099998 1.9252079725
 2173.8334961 3.0000000000 12.564999580 11.300000191 6.7409148216 0.0278064013 2.4840989113 38.796566010 79.352226257 79.352745056 1.9636969566 61.653606415 3.3153970242 1.8700979948
 2173.9858398 3.0000000000 12.564669609 11.300000191 6.7404484749 0.0233461540 2.4548859596 38.054874420 79.575492859 79.575050354 1.8363239765 61.211505890 3.1695439816 1.7953690290
 2174.1381836 3.0000000000 12.480541229 11.300000191 6.7417578697 0.0198076926 2.4203810692 38.243995667 79.767799377 79.767196655 1.6533420086 60.929012299 3.0311059952 1.7179410458
 2174.2907715 3.0000000000 12.400539398 11.300000191 6.5235428810 0.0153381415 2.3958120346 38.243099213 80.176246643 80.176399231 1.4592850208 60.205924988 3.0394959450 1.6421350241
 2174.4431152 3.0000000000 12.380800247 11.300000191 6.2583408356 0.0125376005 2.3823010921 38.238498688 81.202316284 81.202400208 1.2987149954 59.184875488 2.8874149323 1.5663069487
 2174.5954590 3.0000000000 12.369680405 11.300000191 5.5930242538 0.0098076919 2.3708980083 35.855579376 82.226623535 82.224960327 1.1722700596 58.438850403 3.3669629097 1.4884779453
 2174.7478027 3.0000000000 12.279760361 11.300000191 5.2359757423 0.0075384616 2.3622970581 33.093158722 82.377754211 82.376556396 1.0655360222 58.139808655 3.2298049927 1.4082520008
 2174.9003906 3.0000000000 12.211640358 11.300000191 5.0871124268 0.0055352566 2.3577029705 31.410699844 83.839973450 83.840896606 0.9704539180 57.479263306 2.5403630733 1.3349419832
 2175.0527344 3.0000000000 12.215299606 11.300000191 5.0441331863 0.0086618587 2.3524010181 31.051580429 85.328346252 85.328697205 0.8793194890 56.935344696 2.3807349205 1.2810120583
 2175.2050781 3.0000000000 12.223000526 11.300000191 5.0092053413 0.0092687998 2.3482000828 31.289058685 85.026519775 85.027282715 0.7931892872 56.435028076 1.8678450584 1.2445960045
 2175.3574219 3.0000000000 12.210680008 11.300000191 4.9643025398 0.0060769231 2.3477029800 30.910768509 83.085571289 83.089210510 0.7216705084 55.954956055 1.5224289894 1.2159880400
 2175.5097656 3.0000000000 12.178970337 11.300000191 5.0243186951 0.0071923081 2.3529129028 29.470281601 82.038803101 82.040779114 0.6663649082 55.606540680 2.0407230854 1.1927809715
 2175.6623535 3.0000000000 12.140009880 11.300000191 5.0272026062 0.0087323720 2.3676950932 28.412370682 81.736106873 81.736000061 0.6277130842 55.272697449 2.7284219265 1.1714069843
 2175.8146973 3.0000000000 12.141000748 11.300000191 5.1285524368 0.0089999996 2.3627989292 28.171695709 82.156570435 82.155830383 0.6068999171 55.001785278 2.4365921021 1.1398990154
 2175.9670410 3.0000000000 12.163700104 11.300000191 5.4820437431 0.0089999996 2.3327889442 28.648763657 84.242439270 84.238853455 0.6024050117 54.784736633 2.0228500366 1.0951839685
 2176.1193848 3.0000000000 12.171300888 11.300000191 7.0181112289 0.0082692308 2.3039810658 29.766187668 84.941352844 84.939369202 0.6153224111 54.383361816 1.8978170156 1.0547850132
 2176.2719727 3.0000000000 12.171000481 11.300000191 8.2652311325 0.0080000004 2.2789120674 30.801910400 86.022003174 86.022499084 0.6456850767 54.000549316 2.3664510250 1.0349090099
 2176.4243164 3.0000000000 12.176400185 11.300000191 8.3617105484 0.0080000004 2.2589020729 29.911600113 87.917465210 87.917701721 0.6883952022 53.947723389 1.8864459991 1.0304009914
 2176.5766602 3.0000000000 12.198010445 11.300000191 8.3647909164 0.0072692311 2.2400000095 28.468931198 88.322509766 88.321762085 0.7504228950 54.404083252 1.2058490515 1.0425109863
 2176.7290039 3.0000000000 12.230480194 11.300000191 8.3661012650 0.0084615387 2.2389190197 27.028268814 88.726158142 88.727149963 0.8431680202 54.728977203 1.0266710520 1.0835460424
 2176.8815918 3.0000000000 12.194519997 11.300000191 8.3670969009 0.0126618594 2.2682819366 26.486520767 86.113998413 86.112396240 0.9581261873 55.033946991 0.9820262790 1.1591529846
 2177.0339355 3.0000000000 12.108119011 11.300000191 8.3486471176 0.0161971170 2.3290860653 27.152740479 84.290405273 84.290000916 1.0837689638 55.913482666 1.6031169891 1.2637749910
