# LAS format log file from PETREL
# Project units are specified as depth units
#==================================================================
~Version information
VERS.   2.0:
WRAP.   NO:
#==================================================================
~Well
STRT .m      984.14562988 :
STOP .m      1996.3865967 :
STEP .m     0.00000000 :
NULL .        -999.250000 :
COMP.           : COMPANY
WELL.  25/11-23  Balder Appr   : WELL
FLD.            : FIELD
LOC.            : LOCATION
SRVC.           : SERVICE COMPANY
DATE.  2018-09-11 14:48:16   : Log Export Date {yyyy-MM-dd HH:mm:ss}
PROV.           : PROVINCE
UWI.   25/11-23   : UNIQUE WELL ID
API.            : API NUMBER
#==================================================================
~Curve
DEPT .m                   : DEPTH
Lithology_geolink ._      : Lithology_geolink
DCAL .in                  : DCAL
CALI .in                  : CALI
BS .in                    : BS
MUDWEIGHT ._              : MUDWEIGHT
ROP .m/h                  : ROP
DRHO .g/cm3               : DRHO
NPHI .m3/m3               : NPHI
RHOB .g/cm3               : RHOB
GR .gAPI                  : GR
DTC .us/ft                : DTC
RDEP .ohm.m               : RDEP
SP .mV                    : SP
RSHA .ohm.m               : RSHA
RMED .ohm.m               : RMED
~Parameter
#==================================================================
~Ascii
# ...
 1251.6075439 2.0000000000 0.0010995860 8.5010995865 8.5000000000 1.3200000525 160838.28125 -0.014500000 0.3188730180 2.0804998875 24.509500504 135.32940674 0.5565000176 0.0000000000 0.6409999728 0.5415999889
 1251.7600098 2.0000000000 0.0260000192 8.5260000229 8.5000000000 1.3200000525 160838.28125 -0.012600000 0.3196359873 2.0796999931 24.474399567 135.11439514 0.5515999794 0.0000000000 0.6238999963 0.5368000269
 1251.9123535 2.0000000000 0.0524997711 8.5524997711 8.5000000000 1.3200000525 160838.28125 -0.014000000 0.3279330134 2.0754001141 25.022199631 135.00270081 0.5475999713 0.0000000000 0.6046000123 0.5328000188
 1252.0648193 2.0000000000 0.0388002396 8.5388002396 8.5000000000 1.3200000525 163553.45313 -0.016100001 0.3239989877 2.0741999149 24.987800598 135.04660034 0.5641000271 0.0000000000 0.6068000197 0.5482000113
 1252.2171631 2.0000000000 0.0549001656 8.5549001694 8.5000000000 1.3200000525 178031.93750 -0.017300000 0.3216759861 2.0724000931 24.117599487 134.84829712 0.5669000149 0.0000000000 0.6165000200 0.5507000089
 1252.3696289 2.0000000000 0.0862999037 8.5862998962 8.5000000000 1.3200000525 178385.32813 -0.017700000 0.3259800076 2.0696001053 22.877399445 134.63780212 0.5656999946 0.0000000000 0.6154999733 0.5493999720
 1252.5219727 2.0000000000 0.0885000154 8.5885000229 8.5000000000 1.3200000525 178879.68750 -0.019400002 0.3285139799 2.0631999969 22.663799286 134.62469482 0.5633000135 0.0000000000 0.6151000261 0.5468999743
 1252.6744385 2.0000000000 0.0860004425 8.5860004425 8.5000000000 1.3200000525 179397.40625 -0.018700000 0.3245399892 2.0632998943 23.212299347 134.17269897 0.5615000129 0.0000000000 0.6087999940 0.5450000167
 1252.8267822 2.0000000000 0.0945997164 8.5945997238 8.5000000000 1.3200000525 179937.32813 -0.015600000 0.3181940019 2.0680000782 23.346200943 133.36720276 0.5654000044 0.0000000000 0.5949000120 0.5483999848
 1252.9792480 2.0000000000 0.0945997164 8.5945997238 8.5000000000 1.3200000525 180035.28125 -0.012900000 0.3263140023 2.0734000206 23.365999222 132.51589966 0.5723999739 0.0000000000 0.5990999937 0.5548999906
 1253.1315918 2.0000000000 0.0902004093 8.5902004242 8.5000000000 1.3200000525 175768.95313 -0.012800000 0.3348180056 2.0745000839 23.436599731 132.29159546 0.5781999826 0.0000000000 0.5989000201 0.5601999760
 1253.2840576 2.0000000000 0.0773000792 8.5773000717 8.5000000000 1.3200000525 168474.03125 -0.014600000 0.3351680040 2.0725998878 23.479299545 132.49349976 0.5752999783 0.0000000000 0.6021999717 0.5572000146
 1253.4364014 2.0000000000 0.0705003664 8.5705003738 8.5000000000 1.3200000525 167281.84375 -0.014400000 0.3372479975 2.0699000359 23.881200790 132.33909607 0.5735999942 0.0000000000 0.5867000222 0.5552999973
 1253.5887451 2.0000000000 0.0804004744 8.5804004669 8.5000000000 1.3200000525 166799.42188 -0.012400000 0.3514199853 2.0687003136 24.541400909 132.27420044 0.5787000060 0.0000000000 0.6187000275 0.5597000122
 1253.7412109 2.0000000000 0.1160001978 8.6160001755 8.5000000000 1.3200000525 166318.51563 -0.011200000 0.3635950089 2.0668001175 24.926900864 132.45239258 0.5691999793 0.0000000000 0.5989000201 0.5504999757
 1253.8935547 2.0000000000 0.1612997055 8.6612997055 8.5000000000 1.3200000525 165849.32813 -0.010600000 0.3666070104 2.0671999454 25.172100067 132.95010376 0.5838000178 0.0000000000 0.5823000073 0.5637999773
 1254.0460205 2.0000000000 0.1084003001 8.6084003448 8.5000000000 1.3200000525 152191.71875 -0.007000000 0.3533280194 2.0729000568 24.111900330 132.94340515 0.6024000049 0.0000000000 0.6104000211 0.5807999969
 1254.1983643 2.0000000000 0.0373001099 8.5373001099 8.5000000000 1.3200000525 87143.562500 -0.006700000 0.3377909958 2.0769000053 24.121400833 131.99270630 0.5796999931 0.0000000000 0.5907999873 0.5594000220
 1254.3508301 2.0000000000 -0.005900383 8.4940996170 8.5000000000 1.3200000525 86287.679688 -0.008500000 0.3249700069 2.0801000595 24.480199814 130.86560059 0.5807999969 0.0000000000 0.6072000265 0.5601999760
 1254.5031738 2.0000000000 -0.008700371 8.4912996292 8.5000000000 1.3200000525 86287.679688 -0.010000000 0.3256860077 2.0875000954 25.738300323 130.28480530 0.5996999741 0.0000000000 0.6305000186 0.5776000023
 1254.6556396 2.0000000000 -0.003000259 8.4969997406 8.5000000000 1.3200000525 86287.679688 -0.010500000 0.3169440031 2.0940001011 27.302900314 130.32440186 0.6000000238 0.0000000000 0.6693000197 0.5777999759
 1254.8079834 2.0000000000 -0.004300117 8.4956998825 8.5000000000 1.3200000525 86287.679688 -0.010300000 0.3211469948 2.1020998955 27.688800812 130.08079529 0.6402000189 0.0000000000 0.6980999708 0.6148999929
 1254.9604492 2.0000000000 0.0023002620 8.5023002625 8.5000000000 1.3200000525 101420.75781 -0.009800000 0.3325030208 2.1015999317 27.133800507 130.44650269 0.6574000120 0.0000000000 0.7303000093 0.6309000254
 1255.1127930 2.0000000000 0.0251998939 8.5251998901 8.5000000000 1.3200000525 177805.87500 -0.010600000 0.3451340199 2.0994999409 26.186100006 130.04730225 0.6446999907 0.0000000000 0.7634000182 0.6190999746
 1255.2652588 2.0000000000 0.0430002213 8.5430002213 8.5000000000 1.3200000525 175807.75000 -0.010400000 0.3402419984 2.0957000256 26.520399094 129.40719604 0.6356999874 0.0000000000 0.7281000018 0.6111999750
 1255.4176025 2.0000000000 0.0158004798 8.5158004761 8.5000000000 1.3200000525 175438.43750 -0.009400000 0.3279470205 2.0926001072 27.466299057 128.39100647 0.6363999844 0.0000000000 0.7387999892 0.6121000051
 1255.5699463 2.0000000000 -0.002799988 8.4972000122 8.5000000000 1.3200000525 175438.43750 -0.009500000 0.3171159923 2.0889000893 28.160400391 127.24010468 0.6868000031 0.0000000000 0.8080000281 0.6589999795
 1255.7224121 2.0000000000 -0.003199577 8.4968004227 8.5000000000 1.3200000525 175438.43750 -0.010300000 0.3137829900 2.0850999355 27.345399857 126.53940582 0.6840999722 0.0000000000 0.8418999910 0.6567999721
 1255.8747559 2.0000000000 -0.003600121 8.4963998795 8.5000000000 1.3200000525 175780.37500 -0.010500000 0.3138159811 2.0794000626 26.379400253 126.57230377 0.6862999797 0.0000000000 0.8303999901 0.6593000293
 1256.0272217 2.0000000000 -0.002599716 8.4974002838 8.5000000000 1.3200000525 181711.73438 -0.010000000 0.3137599826 2.0757999420 25.279199600 126.90600586 0.6879000068 0.0000000000 0.8029999733 0.6613000035
 1256.1795654 2.0000000000 -0.000499725 8.4995002747 8.5000000000 1.3200000525 205795.50000 -0.009400000 0.3233589828 2.0732998848 24.586799622 127.17610168 0.6978999972 0.0000000000 0.8144999743 0.6714000106
 1256.3320313 2.0000000000 0.0024003980 8.5024003983 8.5000000000 1.3200000525 214435.79688 -0.008900000 0.3258250058 2.0752999783 24.770500183 126.39701080 0.7027999759 0.0000000000 0.8032000065 0.6768000126
 1256.4843750 2.0000000000 0.0241002999 8.5241003036 8.5000000000 1.3200000525 216277.00000 -0.010000000 0.3312169909 2.0731000900 25.138900757 125.92269897 0.7063999772 0.0000000000 0.8054999709 0.6812999845
 1256.6368408 2.0000000000 0.0451002046 8.5451002121 8.5000000000 1.3200000525 217301.53125 -0.010300000 0.3320060074 2.0690999031 25.550800323 126.10150146 0.7123000026 0.0000000000 0.7925999761 0.6887000203
 1256.7891846 2.0000000000 0.0354003906 8.5354003906 8.5000000000 1.3200000525 218329.96875 -0.010900000 0.3435380161 2.0645000935 25.388900757 126.81540680 0.7281000018 0.0000000000 0.8072999716 0.7053999901
 1256.9416504 2.0000000000 0.0072002411 8.5072002411 8.5000000000 1.3200000525 219365.25000 -0.011900000 0.3482130170 2.0620000362 25.561100006 127.70279694 0.7407000065 0.0000000000 0.8201000094 0.7197999954
 1257.0939941 2.0000000000 -0.008999825 8.4910001755 8.5000000000 1.3200000525 220403.40625 -0.013100000 0.3445449769 2.0620999336 26.629100800 128.63130188 0.7325999737 0.0000000000 0.7914000154 0.7148000002
 1257.2464600 5.0000000000 -0.025099751 8.4749002457 8.5000000000 1.3200000525 221448.65625 -0.011500000 0.3318220079 2.0711998940 30.179899216 129.36349487 0.7073000073 0.0000000000 0.8087999821 0.6931999922
 1257.3988037 5.0000000000 -0.046699520 8.4533004761 8.5000000000 1.3200000525 222495.35938 -0.010000000 0.2994309962 2.1012001038 38.012500763 129.12750244 0.6980999708 0.0000000000 0.8306000233 0.6869999766
