# LAS format log file from PETREL
# Project units are specified as depth units
#==================================================================
~Version information
VERS.   2.0:
WRAP.   NO:
#==================================================================
~Well
STRT .m      1118.6159668 :
STOP .m      2017.3187256 :
STEP .m     0.00000000 :
NULL .        -999.250000 :
COMP.           : COMPANY
WELL.  25/11-15  Grane   : WELL
FLD.            : FIELD
LOC.            : LOCATION
SRVC.           : SERVICE COMPANY
DATE.  2018-09-11 14:48:15   : Log Export Date {yyyy-MM-dd HH:mm:ss}
PROV.           : PROVINCE
UWI.   25/11-15   : UNIQUE WELL ID
API.            : API NUMBER
#==================================================================
~Curve
DEPT .m                   : DEPTH
Lithology_geolink ._      : Lithology_geolink
CALI .in                  : CALI
BS .in                    : BS
MUDWEIGHT ._              : MUDWEIGHT
ROP .m/h                  : ROP
TGAS ._                   : TGAS
DRHO .g/cm3               : DRHO
THOR .ppm                 : THOR
NPHI .m3/m3               : NPHI
RHOB .g/cm3               : RHOB
GR .gAPI                  : GR
URAN .ppm                 : URAN
DTC .us/ft                : DTC
DTE .us/ft                : DTE
RDEP .ohm.m               : RDEP
SP .mV                    : SP
RSHA .ohm.m               : RSHA
RMED .ohm.m               : RMED
~Parameter
#==================================================================
~Ascii
# ...
 1596.3898926  -999.250000 9.8362846375 8.5000000000 1.1299999952 212896.43750 0.0500000007 -0.052131318 6.6093893051 0.4397172928 2.0662426949 95.001304626 -3.755984783 147.99267578 145.12417603 0.6871888638 26.200401306 0.2685729861 0.7411717772
 1596.5423584  -999.250000 9.3890285492 8.5000000000 1.1299999952 212896.43750 0.0500999987 -0.054656815 6.2964506149 0.4475944936 2.0593695641 91.315528870 -3.933158159 148.82652283 145.71621704 0.6820022464 26.200000763 0.3513577580 0.7160174251
 1596.6947021  -999.250000 9.1270608902 8.5000000000 1.1299999952 212896.43750 0.0500999987 -0.054951891 6.0677828789 0.4558016956 2.0202274323 91.627799988 -4.101265430 152.04791260 148.39366150 0.6569406986 26.200000763 0.4521860182 0.7060826421
 1596.8471680  -999.250000 9.2213687897 8.5000000000 1.1299999952 212896.43750 0.0501470715 -0.058202632 6.5548095703 0.4709899127 1.9853498936 96.371803284 -3.989889383 154.90809631 151.38693237 0.6508097649 26.200000763 0.4035209715 0.6677302122
 1596.9995117  -999.250000 9.0734748840 8.5000000000 1.1299999952 212896.43750 0.0502000004 -0.066283882 6.6019625664 0.4935779870 1.9977990389 99.183799744 -3.993596792 154.42410278 151.51789856 0.6459131241 26.699600220 0.3260711730 0.6653146148
 1597.1519775  -999.250000 9.0293130875 8.5000000000 1.1299999952 212896.43750 0.0502000004 -0.075289696 6.7789583206 0.4936990142 2.0464890003 96.689521790 -3.905370474 150.01829529 147.83253479 0.6535864472 27.199600220 0.3420921266 0.6875849962
 1597.3043213  -999.250000 9.1121845245 8.5000000000 1.1299999952 212896.43750 0.0502042733 -0.074351527 6.4960269928 0.4875909984 2.0879988670 96.812400818 -3.981539011 146.32400513 144.10929871 0.6545006037 27.200000763 0.3778241575 0.7064133286
 1597.4566650  -999.250000 9.2743177414 8.5000000000 1.1299999952 212896.43750 0.0502999984 -0.059479013 6.4803247452 0.4587472975 2.0851197243 96.815155029 -3.960034609 146.20480347 143.27153015 0.6586982608 26.700801849 0.4949679673 0.7635711432
 1597.6091309  -999.250000 8.8429183960 8.5000000000 1.1299999952 212896.43750 0.0502999984 -0.039997403 6.8565983772 0.4802767038 2.0599353313 99.808395386 -3.707202673 148.59080505 145.14074707 0.6690706015 28.198799133 0.4476792812 0.7228423953
 1597.7614746  -999.250000 8.6615018845 8.5000000000 1.1299999952 212896.43750 0.0503614172 -0.021844156 6.5336184502 0.4755173028 1.9981750250 96.067420959 -3.702706814 154.78990173 150.56005859 0.6455606222 29.198398590 0.3354261816 0.7445337176
 1597.9139404  -999.250000 8.6638288498 8.5000000000 1.1299999952 215177.31250 0.0504000001 -0.013473755 6.3307619095 0.4908840954 1.9799565077 94.749954224 -3.755957365 155.97439575 152.77700806 0.6453000903 30.199199677 0.3963803649 0.7074273825
 1598.0662842  -999.250000 8.9934425354 8.5000000000 1.1299999952 231905.93750 0.0504000001 -0.014675952 6.3925008774 0.4886099994 2.0153980255 91.943664551 -3.843359947 152.52220154 150.28628540 0.6445001960 29.201602936 0.4786128700 0.7011854649
 1598.2187500  -999.250000 8.9165821075 8.5000000000 1.1299999952 246164.15625 0.0505000018 -0.018759169 6.4147825241 0.4987932146 2.0292928219 94.124313354 -3.822716713 151.32827759 148.56057739 0.6421059966 29.699600220 0.2376258522 0.6696333885
 1598.3710938  -999.250000 8.8600406647 8.5000000000 1.1299999952 250138.09375 0.0505000018 -0.028325027 6.2464351654 0.5084738731 2.0373926163 97.371528625 -3.910329342 150.61489868 147.80464172 0.6476940513 29.700000763 0.3603320420 0.6945790648
 1598.5235596  -999.250000 8.9172582626 8.5000000000 1.1299999952 250028.65625 0.0505000018 -0.043499727 7.0874261856 0.4847218096 2.0374250412 96.125587463 -3.281603813 150.37690735 147.37648010 0.6534905434 29.700000763 0.4070574343 0.6933047175
 1598.6759033  -999.250000 9.5153522491 8.5000000000 1.1299999952 248613.32813 0.0505758524 -0.048843283 6.6959147453 0.4791916013 2.0357193947 94.559005737 -3.562374353 151.68710327 148.40484619 0.6565797329 29.700000763 0.3881349862 0.7071942687
 1598.8283691  -999.250000 10.069609642 8.5000000000 1.1299999952 248850.23438 0.0505999997 -0.047127180 7.0386252403 0.4575276077 2.0516600609 87.068756104 -3.339179039 149.66149902 147.06341553 0.6338418126 28.700801849 0.4205707014 0.7156891227
 1598.9807129  -999.250000 9.6142797470 8.5000000000 1.1299999952 256174.03125 0.0506806113 -0.052612215 7.0767693520 0.4889605045 2.0324504375 88.310607910 -3.238480568 151.92520142 148.52998352 0.6400926709 28.200401306 0.4049452543 0.6957068443
 1599.1331787  -999.250000 9.4042892456 8.5000000000 1.1299999952 270353.37500 0.0506007336 -0.059030533 6.7987227440 0.4736166894 2.0173492432 86.751518250 -3.331425428 153.35749817 150.10601807 0.6467862129 26.701202393 0.7182074785 0.6798151135
 1599.2855225  -999.250000 9.3206424713 8.5000000000 1.1299999952 276206.75000 0.0497162417 -0.063597046 6.8045949936 0.4853749871 2.0430324078 88.684783936 -3.278942108 150.61300659 148.14147949 0.6335279346 26.200401306 0.4754344821 0.6975822449
 1599.4378662  -999.250000 9.5997695923 8.5000000000 1.1299999952 276206.75000 0.0480457880 -0.064378493 6.6228914261 0.4589357972 2.0570836067 86.382034302 -3.473587751 149.30360413 146.62039185 0.6419817209 26.200000763 0.3703986406 0.6907995939
 1599.5903320  -999.250000 9.7923946381 8.5000000000 1.1299999952 276206.75000 0.0462157540 -0.060125574 6.5978198051 0.4701862037 2.0506052971 90.185287476 -3.435230970 149.66050720 146.66781616 0.6460916400 26.200000763 0.2990413904 0.6780205369
 1599.7426758  -999.250000 9.3314895630 8.5000000000 1.1299999952 276206.75000 0.0445731729 -0.056100566 6.6865572929 0.4638890028 2.0489757061 92.064735413 -3.299617529 149.77980042 146.82009888 0.6437147260 25.700801849 0.2660183609 0.7016584873
 1599.8951416  -999.250000 9.4412460327 8.5000000000 1.1299999952 276206.75000 0.0429537222 -0.059568744 6.5760889053 0.4429233968 2.0565898418 98.494865417 -3.433292627 149.18290710 146.24911499 0.6542863250 25.700000763 0.3596618772 0.6973196268
 1600.0474854  -999.250000 9.2986879349 8.5000000000 1.1299999952 247654.00000 0.0414256118 -0.067159913 6.4598865509 0.4504452944 2.0786447525 98.562034607 -3.289630651 146.91700745 144.35740662 0.6678704619 25.200801849 0.4703789651 0.7403088212
 1600.1999512  -999.250000 9.1491060257 8.5000000000 1.1299999952 219018.20313 0.0404006094 -0.067168981 6.5901956558 0.5204445720 2.0941774845 98.059967041 -3.246434689 145.25030518 142.59422302 0.6751862764 26.199199677 0.4160022438 0.7115282416
 1600.3522949  -999.250000 9.1673870087 8.5000000000 1.1299999952 212896.43750 0.0403000005 -0.061362956 6.5155601501 0.5611662865 2.1367537975 88.882049561 -3.234909296 141.19219971 139.03031921 0.6730089188 28.697998047 0.3048913777 0.7275811434
 1600.5047607  -999.250000 9.2937030792 8.5000000000 1.1299999952 212896.43750 0.0402953550 -0.060370687 6.4975142479 0.5699849725 2.1632537842 88.437377930 -3.267973423 138.33869934 135.89949036 0.6804876924 26.701602936 0.3080700636 0.7190001011
 1600.6571045  -999.250000 9.3044309616 8.5000000000 1.1299999952 212896.43750 0.0401999988 -0.063638985 6.2661852837 0.5451263189 2.2301032543 86.630676270 -3.448854923 131.05760193 129.49838257 0.6847776175 27.699199677 0.2186049521 0.6934276223
 1600.8095703  -999.250000 8.8750057220 8.5000000000 1.1299999952 212896.43750 0.0401999988 -0.068929046 6.6635813713 0.5482959747 2.2290799618 93.369461060 -3.258252859 130.81959534 127.86299896 0.6617412567 27.200401306 0.2783415914 0.7047873735
 1600.9619141  -999.250000 8.9061040878 8.5000000000 1.1299999952 212896.43750 0.0401999988 -0.078286104 6.3447561264 0.5432891250 2.2195477486 92.626304626 -3.430261850 132.50320435 129.14718628 0.6630049944 29.198398590 0.2294447571 0.6870584488
 1601.1143799  -999.250000 9.2682380676 8.5000000000 1.1299999952 265256.96875 0.0401999988 -0.083071351 6.1753354073 0.5153260827 2.1933820248 93.873764038 -3.516431093 134.87519836 131.42521667 0.6759788394 29.200000763 0.5181900859 0.7700325847
 1601.2667236  -999.250000 9.5567083359 8.5000000000 1.1299999952 287379.34375 0.0401999988 -0.078863539 6.4659667015 0.5061978102 2.0887420177 92.003089905 -3.334346056 145.37150574 140.15469360 0.6905820966 30.199199677 0.7089073062 0.7631915212
