# LAS format log file from PETREL
# Project units are specified as depth units
#==================================================================
~Version information
VERS.   2.0:
WRAP.   NO:
#==================================================================
~Well
STRT .m      984.14562988 :
STOP .m      1996.3865967 :
STEP .m     0.00000000 :
NULL .        -999.250000 :
COMP.           : COMPANY
WELL.  25/11-23  Balder Appr   : WELL
FLD.            : FIELD
LOC.            : LOCATION
SRVC.           : SERVICE COMPANY
DATE.  2018-09-11 14:48:16   : Log Export Date {yyyy-MM-dd HH:mm:ss}
PROV.           : PROVINCE
UWI.   25/11-23   : UNIQUE WELL ID
API.            : API NUMBER
#==================================================================
~Curve
DEPT .m                   : DEPTH
Lithology_geolink ._      : Lithology_geolink
DCAL .in                  : DCAL
CALI .in                  : CALI
BS .in                    : BS
MUDWEIGHT ._              : MUDWEIGHT
ROP .m/h                  : ROP
DRHO .g/cm3               : DRHO
NPHI .m3/m3               : NPHI
RHOB .g/cm3               : RHOB
GR .gAPI                  : GR
DTC .us/ft                : DTC
RDEP .ohm.m               : RDEP
SP .mV                    : SP
RSHA .ohm.m               : RSHA
RMED .ohm.m               : RMED
~Parameter
#==================================================================
~Ascii
# ...
 1186.2280273 1.0000000000 0.0783004835 8.5783004761 8.5000000000 1.3200000525 173223.07813 -0.019500000 0.3482829928 2.0348999500 21.395500183 144.16090393 0.5442000031 0.0000000000 0.6125000119 0.5268999934
 1186.3803711 1.0000000000 0.0813999102 8.5813999176 8.5000000000 1.3200000525 172916.28125 -0.019800000 0.3573206961 2.0332999229 22.283800125 144.50680542 0.5271000266 0.0000000000 0.5849000216 0.5110999942
 1186.5328369 1.0000000000 0.0790996626 8.5790996552 8.5000000000 1.3200000525 172916.28125 -0.020000000 0.3620849848 2.0329999924 22.273599625 144.98530579 0.5325000286 0.0000000000 0.6134999990 0.5163999796
 1186.6851807 1.0000000000 0.0664997101 8.5664997101 8.5000000000 1.3200000525 172916.28125 -0.019400002 0.3499198258 2.0369999409 21.884000778 144.44599915 0.5525000095 0.0000000000 0.6298000216 0.5356000066
 1186.8376465 1.0000000000 -0.008399963 8.4916000366 8.5000000000 1.3200000525 172916.28125 -0.021100000 0.3452560008 2.0387001038 21.075700760 143.45989990 0.5332000256 0.0000000000 0.6172999740 0.5177000165
 1186.9899902 1.0000000000 -0.029500009 8.4704999924 8.5000000000 1.3200000525 169712.04688 -0.022600001 0.3453438878 2.0390999317 19.834299088 141.89520264 0.5235999823 0.0000000000 0.5875999928 0.5091000199
 1187.1424561 1.0000000000 -0.026499752 8.4735002518 8.5000000000 1.3200000525 134485.34375 -0.022900000 0.3500050008 2.0371000767 19.734500885 141.01489258 0.5274000168 0.0000000000 0.5835999846 0.5130000114
 1187.2947998 1.0000000000 -0.028900150 8.4710998535 8.5000000000 1.3200000525 127573.55469 -0.021299999 0.3489018977 2.0366001129 20.230899811 140.97709656 0.5375999808 0.0000000000 0.6252999902 0.5228999853
 1187.4472656 1.0000000000 -0.014900211 8.4850997925 8.5000000000 1.3200000525 127573.55469 -0.018800000 0.3419240117 2.0401999950 21.207899094 142.18539429 0.5307999849 0.0000000000 0.6427000165 0.5170000196
 1187.5996094 1.0000000000 0.0311002675 8.5311002731 8.5000000000 1.3200000525 127573.55469 -0.016600000 0.3348017037 2.0436999798 21.772800446 142.93980408 0.5271000266 0.0000000000 0.5986999869 0.5138999820
 1187.7520752 1.0000000000 0.0397996940 8.5397996902 8.5000000000 1.3200000525 127573.55469 -0.015400000 0.3238539994 2.0436999798 21.833200455 142.79710388 0.5360000134 0.0000000000 0.6313999891 0.5227000117
 1187.9044189 1.0000000000 0.0272998791 8.5272998810 8.5000000000 1.3200000525 127573.55469 -0.015200000 0.3233364224 2.0392999649 21.680999756 143.66969299 0.5411999822 0.0000000000 0.6496000290 0.5281999707
 1188.0567627 1.0000000000 0.0073995586 8.5073995590 8.5000000000 1.3200000525 138773.43750 -0.016600000 0.3204222918 2.0339999199 21.198099136 143.96870422 0.5234000087 0.0000000000 0.6190000176 0.5116000175
 1188.2092285 1.0000000000 0.0025997157 8.5025997162 8.5000000000 1.3200000525 194125.78125 -0.018200001 0.3218578994 2.0306000710 21.094900131 144.11270142 0.5263000131 0.0000000000 0.6219999790 0.5149000287
 1188.3615723 1.0000000000 0.0244998895 8.5244998932 8.5000000000 1.3200000525 193614.90625 -0.019400002 0.3198066056 2.0294001102 20.438199997 144.53179932 0.5436000228 0.0000000000 0.6564000249 0.5320000052
 1188.5140381 1.0000000000 0.0523996428 8.5523996353 8.5000000000 1.3200000525 193013.42188 -0.020099999 0.3271279931 2.0313999653 19.532100677 143.02059937 0.5386000276 0.0000000000 0.6152999997 0.5278999805
 1188.6663818 1.0000000000 0.0727996826 8.5727996826 8.5000000000 1.3200000525 192485.43750 -0.019600000 0.3274227977 2.0369999409 19.213399887 143.55439758 0.5368000269 0.0000000000 0.6211000085 0.5267000198
 1188.8188477 1.0000000000 0.0778999329 8.5778999329 8.5000000000 1.3200000525 191868.76563 -0.019400002 0.3290930092 2.0399000645 19.399700165 144.40980530 0.5695000291 0.0000000000 0.6493999958 0.5590000153
 1188.9711914 1.0000000000 0.0747003630 8.5747003555 8.5000000000 1.3200000525 193220.85938 -0.019200001 0.3324722946 2.0418999195 20.107400894 143.98370361 0.5625000000 0.0000000000 0.6541000009 0.5529999733
 1189.1236572 1.0000000000 0.0785999298 8.5785999298 8.5000000000 1.3200000525 203401.51563 -0.019400002 0.3358030021 2.0413999557 20.955699921 144.20170593 0.5375999808 0.0000000000 0.6184999943 0.5296000242
 1189.2760010 1.0000000000 0.0986995623 8.5986995697 8.5000000000 1.3200000525 210848.06250 -0.019300001 0.3330572248 2.0425000191 21.165700912 143.61950684 0.5364000201 0.0000000000 0.6017000079 0.5289000273
 1189.4284668 1.0000000000 0.1295996010 8.6295995712 8.5000000000 1.3200000525 211780.43750 -0.019099999 0.3278659880 2.0409998894 21.503599167 143.29069519 0.5429000258 0.0000000000 0.6387000084 0.5358999968
 1189.5808105 2.0000000000 0.1219997033 8.6219997406 8.5000000000 1.3200000525 211780.43750 -0.018900000 0.3324893117 2.0385000706 21.699300766 142.50039673 0.5375000238 0.0000000000 0.6179000139 0.5310000181
 1189.7332764 2.0000000000 0.1131000966 8.6131000519 8.5000000000 1.3200000525 211780.43750 -0.019600000 0.3388580084 2.0373001099 22.564300537 141.96290588 0.5339999795 0.0000000000 0.6050999761 0.5279999971
 1189.8856201 2.0000000000 0.0918998718 8.5918998718 8.5000000000 1.3200000525 211780.43750 -0.020700000 0.3435263038 2.0378000736 22.790199280 141.79080200 0.5447999835 0.0000000000 0.6248999834 0.5386999846
 1190.0379639 2.0000000000 0.0827999115 8.5827999115 8.5000000000 1.3200000525 200848.81250 -0.020600000 0.3451817036 2.0411000252 22.312799454 141.28059387 0.5482000113 0.0000000000 0.6309000254 0.5422000289
 1190.1904297 2.0000000000 0.0829000473 8.5829000473 8.5000000000 1.3200000525 147072.79688 -0.021600001 0.3398162723 2.0450000763 22.299499512 140.61480713 0.5310999751 0.0000000000 0.6076999903 0.5254999995
 1190.3427734 2.0000000000 0.0810003355 8.5810003281 8.5000000000 1.3200000525 143243.28125 -0.023300000 0.3266566098 2.0478000641 23.023099899 141.40409851 0.5349000096 0.0000000000 0.6190000176 0.5291000009
 1190.4952393 2.0000000000 0.0652999878 8.5652999878 8.5000000000 1.3200000525 143243.28125 -0.022399999 0.3084760010 2.0510001183 23.536800385 141.48770142 0.5403000116 0.0000000000 0.6212999821 0.5343999863
 1190.6475830 2.0000000000 0.0369996987 8.5369997025 8.5000000000 1.3200000525 143243.28125 -0.017700000 0.3161867857 2.0568997860 23.339000702 138.19059753 0.5471000075 0.0000000000 0.6186000109 0.5410000086
 1190.8000488 2.0000000000 0.0402002335 8.5402002335 8.5000000000 1.3200000525 143243.28125 -0.014900000 0.3236289918 2.0599000454 23.661100388 137.80891418 0.5536999702 0.0000000000 0.6328999996 0.5475000143
 1190.9523926 2.0000000000 0.0398998298 8.5398998260 8.5000000000 1.3200000525 139648.92188 -0.012800000 0.3426797092 2.0592999458 24.419900894 137.82710266 0.5669000149 0.0000000000 0.6507999897 0.5602999926
 1191.1048584 2.0000000000 0.0306997281 8.5306997299 8.5000000000 1.3200000525 122095.10156 -0.009700001 0.3513460159 2.0585999489 25.328100204 138.62136841 0.5695999861 0.0000000000 0.6934999824 0.5627999902
 1191.2572021 4.0000000000 0.0275001507 8.5275001526 8.5000000000 1.3200000525 120665.80469 -0.008800000 0.3606126010 2.0587000847 26.297599792 138.70239258 0.5658000112 0.0000000000 0.6985999942 0.5590000153
 1191.4096680 4.0000000000 0.0283002928 8.5283002853 8.5000000000 1.3200000525 120393.35938 -0.011700000 0.3646270037 2.0625000000 27.486200333 137.97315979 0.5555999875 0.0000000000 0.6542999744 0.5490000248
 1191.5620117 4.0000000000 0.0277996119 8.5277996063 8.5000000000 1.3200000525 120393.35938 -0.012700000 0.3617752790 2.0664999485 27.611999512 138.16796875 0.5526000261 0.0000000000 0.6841999888 0.5460000038
 1191.7144775 4.0000000000 0.0367002487 8.5367002487 8.5000000000 1.3200000525 120393.35938 -0.012600000 0.3528480232 2.0629999638 26.312999725 138.86714172 0.5529999733 0.0000000000 0.7430999875 0.5464000106
 1191.8668213 4.0000000000 0.0489997901 8.5489997864 8.5000000000 1.3200000525 120578.97656 -0.013700000 0.3382309973 2.0541000366 23.904699326 139.79272461 0.5401999950 0.0000000000 0.7274000049 0.5339000225
 1192.0191650 4.0000000000 0.0640001297 8.5640001297 8.5000000000 1.3200000525 132633.54688 -0.015500000 0.3451100290 2.0476000309 22.216299057 140.57690430 0.5433999896 0.0000000000 0.7253000140 0.5371999741
