# LAS format log file from PETREL
# Project units are specified as depth units
#==================================================================
~Version information
VERS.   2.0:
WRAP.   NO:
#==================================================================
~Well
STRT .m      206.00000000 :
STOP .m      2655.9824219 :
STEP .m     0.00000000 :
NULL .        -999.250000 :
COMP.           : COMPANY
WELL.  25/10-8  Hanz   : WELL
FLD.            : FIELD
LOC.            : LOCATION
SRVC.           : SERVICE COMPANY
DATE.  2018-09-11 14:48:14   : Log Export Date {yyyy-MM-dd HH:mm:ss}
PROV.           : PROVINCE
UWI.   25/10-8   : UNIQUE WELL ID
API.            : API NUMBER
#==================================================================
~Curve
DEPT .m                   : DEPTH
Lithology_geolink ._      : Lithology_geolink
CALI .in                  : CALI
BS .in                    : BS
THOR .ppm                 : THOR
NPHI .m3/m3               : NPHI
RHOB .g/cm3               : RHOB
GR .gAPI                  : GR
URAN .ppm                 : URAN
DTC .us/ft                : DTC
RDEP .ohm.m               : RDEP
RSHA .ohm.m               : RSHA
RMED .ohm.m               : RMED
~Parameter
#==================================================================
~Ascii
# ...
 1778.7679443  -999.250000 12.375930786 12.250000954 4.0514807701 0.0059388271 2.1592550278 45.709732056 1.2912824154 118.04699707 0.6729030609 0.7843866348 0.6604909897
 1778.9204102  -999.250000 12.302677155 12.250000954 3.7110731602 0.0055022915 2.1905984879 44.663085938 1.3067051172 112.80354309 0.7108619213 0.8222165108 0.6973075867
 1779.0727539  -999.250000 12.113441467 12.250000954 3.4334909916 0.0058997502 2.2847719193 43.755172729 1.3174089193 108.22613525 0.7435438633 0.8593399525 0.7393968105
 1779.2252197  -999.250000 12.119544983 12.250000954 3.4114630222 0.0054157781 2.3977928162 41.265426636 1.2942782640 108.16571808 0.7525784969 0.8769857883 0.7661678791
 1779.3775635  -999.250000 12.552960396 12.250000954 4.1900191307 0.0043004714 2.3884654045 47.929397583 1.1186231375 113.56743622 0.7334475517 0.8618974686 0.7601292133
 1779.5300293  -999.250000 12.919219971 12.250000954 5.3575401306 0.0054302043 2.2881665230 56.342803955 0.9157102704 120.83341217 0.6998651028 0.8221666813 0.7285490036
 1779.6823730  -999.250000 12.937534332 12.250000954 6.0017910004 0.0061481656 2.2633900642 55.951553345 0.8671038151 125.52568054 0.6678614616 0.7771134377 0.6918017864
 1779.8348389  -999.250000 12.937534332 12.250000954 6.3264503479 0.0061852173 2.2361102104 58.206756592 0.8859295845 127.29236603 0.6455438137 0.7393639088 0.6626811028
 1779.9871826  -999.250000 12.900909424 12.250000954 6.6122794151 0.0067546419 2.2290260792 59.705703735 0.8979294896 126.47412109 0.6352801323 0.7130246162 0.6453833580
 1780.1396484  -999.250000 12.791026115 12.250000954 6.7785158157 0.0074419901 2.2469091415 60.751678467 0.9191037416 124.28849030 0.6368288994 0.6996581554 0.6411011219
 1780.2919922  -999.250000 12.552960396 12.250000954 6.7856116295 0.0218160916 2.2380483150 62.222381592 0.9420897365 123.97148132 0.6473135948 0.6995744705 0.6485219002
 1780.4443359  -999.250000 12.290469170 12.250000954 6.7226262093 0.0121566970 2.2418968678 62.425018311 0.9259244204 124.11154938 0.6626980305 0.7113480568 0.6633582115
 1780.5968018  -999.250000 12.467494965 12.250000954 6.6077818871 0.0055948854 2.2531051636 60.540771484 0.8808205128 123.63336182 0.6805100441 0.7335307598 0.6816945076
 1780.7491455  -999.250000 12.565165520 12.250000954 6.4524765015 0.0049967500 2.2811365128 58.050354004 0.8326445818 123.55410004 0.6989109516 0.7654454708 0.7022414207
 1780.9016113  -999.250000 12.675045013 12.250000954 6.3728861809 0.0051836958 2.3682773113 56.933258057 0.7504435778 121.98887634 0.7134428024 0.8028030396 0.7225153446
 1781.0539551  -999.250000 12.626209259 12.250000954 6.3824052811 0.0055369232 2.3475711346 52.568725586 0.6246702075 120.53825378 0.7182805538 0.8343052864 0.7357339859
 1781.2064209  -999.250000 12.620105743 12.250000954 6.3817167282 0.0054918160 2.2736272812 50.287490845 0.5331307650 122.27182770 0.7115526199 0.8470139503 0.7363829613
 1781.3587646  -999.250000 12.650627136 12.250000954 6.3060002327 0.0058469567 2.3378400803 53.063964844 0.5350282192 125.79270172 0.6955709457 0.8362331390 0.7256343365
 1781.5112305  -999.250000 12.559062004 12.250000954 6.1978044510 0.0093361549 2.2996509075 55.826339722 0.5985193253 129.09129333 0.6730744839 0.8058776855 0.7066371441
 1781.6635742  -999.250000 12.253840446 12.250000954 6.1388692856 0.0060493900 2.2478685379 54.662078857 0.6853076816 131.47689819 0.6447937489 0.7593853474 0.6817898750
 1781.8160400  -999.250000 12.241634369 12.250000954 6.1681761742 0.0066205412 2.2384202480 56.203674316 0.8268922567 133.20622253 0.6243503094 0.7087111473 0.6485972404
 1781.9683838  -999.250000 12.375930786 12.250000954 6.2739167213 0.0082955109 2.2532770634 61.814361572 0.9998192191 134.92727661 0.6184208393 0.6911280155 0.6388745308
 1782.1208496  -999.250000 12.949741364 12.250000954 6.4183859825 0.0068728286 2.2738676071 61.795318604 1.1038031578 135.89593506 0.6156351566 0.6883361340 0.6359310150
 1782.2731934  -999.250000 12.949741364 12.250000954 6.5648794174 0.0052941209 2.2461194992 59.571289063 1.1184897423 136.11946106 0.6117863655 0.6922318935 0.6327939034
 1782.4255371  -999.250000 12.980262756 12.250000954 6.6937794685 0.0052392553 2.2354004383 58.789382935 1.0831196308 135.31462097 0.6076209545 0.6970829964 0.6280572414
 1782.5780029  -999.250000 12.968055725 12.250000954 6.7783012390 0.0056394748 2.2485706806 60.814941406 1.0330448151 131.59246826 0.6070258617 0.7050757408 0.6250746250
 1782.7303467  -999.250000 12.827654839 12.250000954 6.8394351006 0.0065668607 2.2558810711 58.687057495 0.9118335843 124.93796539 0.6158702374 0.7241189480 0.6285386086
 1782.8828125  -999.250000 12.540747643 12.250000954 6.8517346382 0.0067423983 2.2350516319 51.045989990 0.6668615341 116.49421692 0.6429948807 0.7641944885 0.6460947990
 1783.0351563  -999.250000 12.192798615 12.250000954 6.5292644501 0.0061230431 2.2655408382 43.170883179 0.4369439483 109.95915985 0.6967210770 0.8427107334 0.6891808510
 1783.1876221  -999.250000 12.192798615 12.250000954 5.9048361778 0.0055596051 2.3259723186 37.931060791 0.3509500027 107.58347321 0.7690572739 0.9790270329 0.7648673058
 1783.3399658  -999.250000 12.174484253 12.250000954 5.3727207184 0.0045107310 2.3524670601 37.825698853 0.3618948758 107.31874084 0.8219351768 1.1567754745 0.8495295048
 1783.4924316  -999.250000 12.241634369 12.250000954 5.0191411972 0.0037183862 2.4839246273 37.362426758 0.3935127258 108.08734131 0.8190615177 1.2822780609 0.8805391788
 1783.6447754  -999.250000 12.253840446 12.250000954 4.7463946342 0.0044660550 2.5164880753 38.347015381 0.4289487004 108.74248505 0.7726006508 1.2606558800 0.8374190331
 1783.7972412  -999.250000 12.235530853 12.250000954 4.5816769600 0.0045717699 2.3009133339 40.355514526 0.4837441742 110.46206665 0.7186658382 1.1269054413 0.7695400715
 1783.9495850  -999.250000 12.388137817 12.250000954 4.7801423073 0.0052010207 2.2342524529 47.464065552 0.6039910316 115.10595703 0.6747968197 0.9719097614 0.7108538151
 1784.1020508  -999.250000 12.259948730 12.250000954 5.2378420830 0.0064549702 2.2449402809 55.595489502 0.7848513722 121.18590546 0.6460084915 0.8418526649 0.6674110889
 1784.2543945  -999.250000 12.284362793 12.250000954 5.5674962997 0.0069188173 2.2167215347 57.787399292 0.9446319938 126.72196960 0.6351552010 0.7545695305 0.6432447433
 1784.4068604  -999.250000 12.455287933 12.250000954 5.7872705460 0.0086131152 2.2039589882 56.937240601 1.0418245792 130.33200073 0.6382403374 0.7107861042 0.6392271519
 1784.5592041  -999.250000 12.601791382 12.250000954 6.0408349037 0.0147389797 2.1733005047 58.995697021 1.1070487499 132.56799316 0.6437101364 0.6967129707 0.6450884342
 1784.7115479  -999.250000 12.864280701 12.250000954 6.3633360863 0.0207280722 2.1759202480 58.683502197 1.1574213505 134.27766418 0.6430516243 0.6945002079 0.6466157436
 1784.8640137  -999.250000 13.126770020 12.250000954 6.6654500961 0.0116275633 2.2207248211 56.864425659 1.1394397020 135.03489685 0.6382741928 0.6939716339 0.6402337551
 1785.0163574  -999.250000 13.151187897 12.250000954 6.8531117439 0.0066299471 2.2177841663 60.627349854 1.0281248093 136.08007813 0.6368656158 0.6955225468 0.6336450577
 1785.1688232  -999.250000 13.193916321 12.250000954 6.9582986832 0.0068616671 2.2043426037 60.438262939 0.8812307715 137.66795349 0.6432709694 0.7037432194 0.6347186565
 1785.3211670  -999.250000 13.816566467 12.250000954 6.9745807648 0.0112065095 2.1818628311 58.815963745 0.7462499738 137.63745117 0.6558620930 0.7201631069 0.6450848579
 1785.4736328  -999.250000 14.115680695 12.250000954 6.8398957253 0.0095077008 2.2179839611 55.951248169 0.6579369903 135.55764771 0.6686115265 0.7401938438 0.6602091789
 1785.6259766  -999.250000 12.583479881 12.250000954 6.5663576126 0.0086539714 2.2508513927 54.453613281 0.6923936009 131.79060364 0.6757256985 0.7551484108 0.6725058556
 1785.7784424  -999.250000 12.583479881 12.250000954 6.2919697762 0.0081599494 2.1865077019 55.996322632 0.8477147222 128.27549744 0.6763970852 0.7587430477 0.6771156788
 1785.9307861  -999.250000 12.583479881 12.250000954 6.1292924881 0.0092722243 2.1870689392 54.272583008 1.0377205610 127.62911987 0.6746699810 0.7527966499 0.6760756969
