# LAS format log file from PETREL
# Project units are specified as depth units
#==================================================================
~Version information
VERS.   2.0:
WRAP.   NO:
#==================================================================
~Well
STRT .m      1332.7867432 :
STOP .m      2972.7631836 :
STEP .m     0.00000000 :
NULL .        -999.250000 :
COMP.           : COMPANY
WELL.  25/10-9 Aegis   : WELL
FLD.            : FIELD
LOC.            : LOCATION
SRVC.           : SERVICE COMPANY
DATE.  2018-09-11 14:48:15   : Log Export Date {yyyy-MM-dd HH:mm:ss}
PROV.           : PROVINCE
UWI.   25/10-9   : UNIQUE WELL ID
API.            : API NUMBER
#==================================================================
~Curve
DEPT .m                   : DEPTH
Lithology_geolink ._      : Lithology_geolink
CALI .in                  : CALI
BS .in                    : BS
ROP .m/h                  : ROP
DRHO .g/cm3               : DRHO
NPHI .m3/m3               : NPHI
RHOB .g/cm3               : RHOB
PEF .b/e                  : PEF
GR .gAPI                  : GR
DTC .us/ft                : DTC
DTS .us/ft                : DTS
RDEP .ohm.m               : RDEP
RMED .ohm.m               : RMED
~Parameter
#==================================================================
~Ascii
# ...
 2204.5146484 5.0000000000 12.000000000 12.250000954 82.038024902 -0.025400000 0.3166888058 2.4505999088 4.9528999329 79.268997192 102.77402496 197.60166931 1.2043706179 1.1646797657
 2204.6672363 6.0000000000 12.000000000 12.250000954 80.209976196 -0.035100002 0.3045000136 2.3561999798 4.9979000092 82.473800659 101.02581024 199.05119324 1.2027000189 1.1351000071
 2204.8195801 6.0000000000 12.000000000 12.250000954 76.470886230 -0.027299998 0.2912212908 2.3519999981 5.1929001808 84.047096252 97.195144653 188.32350159 1.2579115629 1.1721405983
 2204.9719238 6.0000000000 12.003701210 12.250000954 72.785438538 0.0065000001 0.3106687367 2.4484999180 5.8295998573 78.639999390 95.245223999 182.00071716 1.3558429480 1.2819238901
 2205.1242676 6.0000000000 12.017800331 12.250000954 69.900947571 -0.004600000 0.2863391042 2.4642999172 6.1936001778 84.869598389 94.792327881 179.65066528 1.3704767227 1.3230342865
 2205.2768555 6.0000000000 12.002300262 12.250000954 68.225067139 -0.006200000 0.2301999927 2.4739999771 5.9243998528 78.231101990 94.718200684 184.27290344 1.3723000288 1.3319000006
 2205.4291992 6.0000000000 12.000000000 12.250000954 69.346130371 -0.017600000 0.2788000107 2.4377999306 5.6778998375 68.484199524 98.331497192 188.84350586 1.3351000547 1.3097000122
 2205.5815430 6.0000000000 12.000000000 12.250000954 74.212341309 -0.025000000 0.2551379204 2.3998999596 5.1957998276 72.000999451 100.89788055 188.58410645 1.2400523424 1.1962817907
 2205.7338867 6.0000000000 12.000000000 12.250000954 76.721710205 -0.028000001 0.2582948804 2.3538000584 4.1918001175 81.828002930 101.94821930 182.08433533 1.2088497877 1.1376936436
 2205.8864746 6.0000000000 12.000000000 12.250000954 78.041999817 -0.024800001 0.2585000098 2.3626999855 4.1701998711 78.149696350 101.26069641 179.08360291 1.2361999750 1.1455999613
 2206.0388184 6.0000000000 12.000000000 12.250000954 82.608924866 -0.022900000 0.2587000132 2.3664000034 4.2561001778 85.804496765 101.44609833 175.89260864 1.2646000385 1.1660000086
 2206.1911621 5.0000000000 12.000000000 12.250000954 82.293815613 -0.019300001 0.2776696086 2.3733999729 4.4910001755 71.949203491 99.850555420 173.69132996 1.2664968967 1.1786797047
 2206.3435059 5.0000000000 12.000000000 12.250000954 75.750656128 -0.016200000 0.3119450510 2.3926000595 4.2139000893 64.737701416 99.011344910 173.57788086 1.2599105835 1.1928771734
 2206.4958496 5.0000000000 12.007800102 12.250000954 71.702026367 -0.021500001 0.2806503177 2.3849000931 4.1083002090 73.313598633 95.208801270 173.50981140 1.2164697647 1.1523650885
 2206.6484375 5.0000000000 12.046199799 12.250000954 72.740158081 -0.009000000 0.2781000137 2.3726000786 4.5652999878 81.712799072 91.611701965 168.83140564 1.2157000303 1.1160000563
 2206.8007813 5.0000000000 12.003499985 12.250000954 82.497161865 -0.011100000 0.2360673547 2.3538000584 4.0626997948 68.136100769 87.783332825 168.17485046 1.3750447035 1.2413990498
 2206.9531250 5.0000000000 12.000000000 12.250000954 94.668487549 -0.008300000 0.1916711479 2.4249000549 4.4649000168 51.133201599 87.432556152 171.11538696 1.6588448286 1.5522015095
 2207.1054688 16.000000000 12.008399963 12.250000954 91.559806824 -0.017899999 0.1631456763 2.4568998814 5.0292000771 50.561401367 90.050094604 178.12965393 1.7545471191 1.7394002676
 2207.2580566 16.000000000 12.084300041 12.250000954 84.263450623 -0.022100000 0.1639000028 2.4379000664 4.6269001961 57.775699615 92.482597351 185.91819763 1.5020999908 1.5355999470
 2207.4104004 16.000000000 12.068400383 12.250000954 76.255249023 -0.007200000 0.1833000034 2.4019000530 4.2006998062 62.973400116 93.988403320 196.90647888 1.2853000164 1.2948999405
 2207.5627441 6.0000000000 12.031399727 12.250000954 69.969718933 0.0046000001 0.2401089519 2.4130001068 4.2836999893 86.272598267 95.208244324 202.54406738 1.2266939878 1.1876717806
 2207.7150879 6.0000000000 12.000000000 12.250000954 66.323425293 -0.010400000 0.3068929613 2.3949999809 4.6648001671 82.423202515 91.927673340 197.58216858 1.2944910526 1.2064696550
 2207.8676758 6.0000000000 12.000000000 12.250000954 61.293960571 -0.012600000 0.2793999910 2.4026000500 4.6887001991 71.589797974 91.151100159 193.79469299 1.4987000227 1.3694000244
 2208.0200195 5.0000000000 12.000000000 12.250000954 56.411422729 -0.000400000 0.2572999895 2.4649999142 5.0767002106 66.453796387 91.564796448 191.17039490 1.8373999596 1.7790000439
 2208.1723633 5.0000000000 12.020999908 12.250000954 51.074825287 -0.013500000 0.2415252924 2.5011000633 5.1195998192 61.528499603 94.493309021 194.27110291 1.7414537668 1.8068554401
 2208.3247070 5.0000000000 12.303799629 12.250000954 46.716300964 -0.019200001 0.2279217988 2.5065000057 5.2817997932 61.558200836 99.631263733 201.34056091 1.3048006296 1.3329608440
 2208.4770508 5.0000000000 12.160400391 12.250000954 48.433910370 0.0046000001 0.2295972705 2.4316999912 4.7137999535 74.761802673 102.68621063 205.91397095 1.1716126204 1.1653677225
 2208.6296387 5.0000000000 12.040300369 12.250000954 55.007213593 -0.002300000 0.2784999907 2.3701000214 4.4381999969 82.645401001 105.42559814 204.97090149 1.1691000462 1.1431000233
 2208.7819824 6.0000000000 12.001299858 12.250000954 59.750926971 -0.009500000 0.2724097371 2.3721001148 3.9481000900 86.173896790 107.49617767 193.15943909 1.1745911837 1.1540822983
 2208.9343262 6.0000000000 12.026300430 12.250000954 59.333030701 -0.018100001 0.2790892720 2.4442000389 4.5265998840 85.441802979 108.54602051 192.12283325 1.1578269005 1.1304379702
 2209.0866699 7.0000000000 12.269000053 12.250000954 54.824825287 -0.012400000 0.3255254924 2.4825000763 6.1387000084 91.178100586 108.87886810 193.36758423 1.0926046371 1.0296616554
 2209.2392578 7.0000000000 12.135999680 12.250000954 46.778217316 -0.000400000 0.3371999860 2.4096999168 5.1884999275 95.143699646 108.81478882 191.17529297 1.0551999807 0.9657999873
 2209.3916016 7.0000000000 12.060400009 12.250000954 41.058071136 0.0004000000 0.3134999871 2.3785998821 4.8394999504 93.258697510 108.35469818 188.23010254 1.0602999926 0.9832999706
 2209.5439453 7.0000000000 12.000000000 12.250000954 37.892215729 -0.005200000 0.3120024204 2.3696000576 4.8424000740 99.455902100 107.51035309 183.99967957 1.1015340090 1.0440027714
 2209.6962891 6.0000000000 12.000398636 12.250000954 36.549392700 -0.007200000 0.3173913658 2.4177000523 5.0773000717 85.509597778 107.13300323 189.83801270 1.1069912910 1.0730534792
 2209.8488770 6.0000000000 12.001199722 12.250000954 36.112861633 -0.017100001 0.2998000085 2.4003999233 5.0332999229 78.162498474 106.56060028 201.35780334 1.0637999773 1.0204000473
 2210.0012207 6.0000000000 12.000000000 12.250000954 36.599082947 -0.017500000 0.3244000077 2.3826000690 4.9689998627 84.112701416 107.03060150 204.49719238 1.0671000481 1.0169999599
 2210.1535645 6.0000000000 12.000000000 12.250000954 35.042850494 -0.009000000 0.3067283034 2.4212999344 4.3491001129 72.972297668 108.01592255 196.50131226 1.0833739042 1.0394639969
 2210.3059082 6.0000000000 12.000000000 12.250000954 31.655696869 -0.041400000 0.3034052849 2.4231998920 4.8537998199 83.101799011 108.17524719 188.14599609 1.0875933170 1.0597674847
 2210.4582520 6.0000000000 12.076799393 12.250000954 29.701618195 -0.043800000 0.3355484009 2.4165000916 5.1972999573 80.281997681 107.55379486 187.41285706 1.0425722599 0.9984983802
 2210.6108398 6.0000000000 12.015299797 12.250000954 31.591537476 -0.026000001 0.3165000081 2.3678998947 4.2094998360 88.285003662 107.43190002 190.22618103 1.0872999430 1.0192999840
 2210.7631836 6.0000000000 12.000000000 12.250000954 34.375457764 -0.011400000 0.3179975748 2.3919999599 4.2076001167 86.591300964 107.01826477 190.04078674 1.1612813473 1.1017677784
 2210.9155273 6.0000000000 12.063199997 12.250000954 33.186298370 -0.028600000 0.3068179488 2.4098000526 5.9232001305 80.289497375 105.98166656 188.34223938 1.1546108723 1.1153783798
 2211.0678711 6.0000000000 12.054699898 12.250000954 30.052268982 -0.008100000 0.3025068939 2.4133999348 5.0015001297 83.119400024 105.41860199 186.24197388 1.1240489483 1.0713707209
