# LAS format log file from PETREL
# Project units are specified as depth units
#==================================================================
~Version information
VERS.   2.0:
WRAP.   NO:
#==================================================================
~Well
STRT .m      1332.7867432 :
STOP .m      2972.7631836 :
STEP .m     0.00000000 :
NULL .        -999.250000 :
COMP.           : COMPANY
WELL.  25/10-9 Aegis   : WELL
FLD.            : FIELD
LOC.            : LOCATION
SRVC.           : SERVICE COMPANY
DATE.  2018-09-11 14:48:15   : Log Export Date {yyyy-MM-dd HH:mm:ss}
PROV.           : PROVINCE
UWI.   25/10-9   : UNIQUE WELL ID
API.            : API NUMBER
#==================================================================
~Curve
DEPT .m                   : DEPTH
Lithology_geolink ._      : Lithology_geolink
CALI .in                  : CALI
BS .in                    : BS
ROP .m/h                  : ROP
DRHO .g/cm3               : DRHO
NPHI .m3/m3               : NPHI
RHOB .g/cm3               : RHOB
PEF .b/e                  : PEF
GR .gAPI                  : GR
DTC .us/ft                : DTC
DTS .us/ft                : DTS
RDEP .ohm.m               : RDEP
RMED .ohm.m               : RMED
~Parameter
#==================================================================
~Ascii
# ...
 2097.2253418 19.000000000 12.000000000 12.250000954 86.590553284 -0.030200001 0.2985000014 2.3657999039 3.9186999798 55.030101776 107.12191010 197.31039429 0.8669999838 0.8305000067
 2097.3776855 19.000000000 12.000000000 12.250000954 78.415023804 -0.011600000 0.3111999929 2.4128999710 4.3631000519 60.318000793 106.20069885 197.29389954 0.8731999993 0.8474000096
 2097.5300293 19.000000000 12.000000000 12.250000954 72.872703552 -0.031700000 0.3025000095 2.4059998989 4.2670001984 53.164398193 104.42489624 195.54760742 0.8761000037 0.8652999997
 2097.6823730 19.000000000 12.000000000 12.250000954 71.067260742 -0.045299999 0.3019999862 2.4079999924 4.9499998093 53.968601227 104.44490051 192.17399597 0.8517000079 0.8341000080
 2097.8349609 19.000000000 12.000000000 12.250000954 72.129592896 -0.034600001 0.3023999929 2.4307000637 4.7734999657 45.235000610 104.49900055 190.46800232 0.8576999903 0.8435999751
 2097.9873047 19.000000000 12.000000000 12.250000954 76.525917053 -0.035599999 0.2770999968 2.4093999863 4.7067999840 42.366100311 104.46269989 187.48320007 0.8457999825 0.8478000164
 2098.1396484 19.000000000 12.010299683 12.250000954 79.345146179 -0.034800000 0.2770999968 2.4031000137 4.4272999763 33.014198303 104.90610504 192.74699402 0.7990000248 0.7896000147
 2098.2919922 19.000000000 12.027699471 12.250000954 82.083007813 -0.031500001 0.3100999892 2.4019000530 4.5602998734 47.134399414 104.51270294 191.65177917 0.7971000075 0.7709000111
 2098.4443359 19.000000000 12.039699554 12.250000954 85.017387390 -0.025599999 0.3055999875 2.3954000473 4.7252001762 49.786399841 105.83379364 192.24510193 0.8048999906 0.7699999809
 2098.5969238 19.000000000 12.000000000 12.250000954 89.899604797 -0.014300000 0.2924999893 2.4258999825 4.5876998901 44.267799377 106.61979675 196.77239990 0.8909000158 0.8579999804
 2098.7492676 19.000000000 12.000000000 12.250000954 96.324470520 -0.045600001 0.2827999890 2.4305999279 5.0699000359 42.100101471 106.75039673 202.00480652 0.8786000013 0.8532000184
 2098.9016113 19.000000000 12.000000000 12.250000954 91.690292358 -0.031199999 0.3125999868 2.4172999859 4.6796998978 45.517799377 107.75450134 208.52311707 0.8356999755 0.8180999756
 2099.0539551 19.000000000 12.000000000 12.250000954 84.930778503 -0.036200002 0.2861999869 2.3492000103 4.1599998474 51.133998871 108.66049957 208.71150208 0.7797999978 0.7451000214
 2099.2065430 19.000000000 12.000000000 12.250000954 79.802162170 -0.023300000 0.2770999968 2.3592998981 3.9820001125 46.250400543 108.55210114 201.54910278 0.8330000043 0.8029000163
 2099.3588867 19.000000000 12.000000000 12.250000954 82.426834106 -0.019800000 0.3115000129 2.3958001137 4.7599000931 34.981399536 108.22599792 199.42379761 0.7973999977 0.7757999897
 2099.5112305 19.000000000 12.037300110 12.250000954 91.130577087 -0.024300000 0.3458000124 2.3993000984 5.2486000061 42.498798370 107.95770264 198.40480042 0.8084999919 0.7631000280
 2099.6635742 19.000000000 12.013299942 12.250000954 92.235893250 -0.029200001 0.3458000124 2.3677999973 4.0738000870 45.917701721 108.18540192 200.86050415 0.8594999909 0.8040000200
 2099.8161621 19.000000000 12.000000000 12.250000954 82.565940857 -0.027500000 0.3023999929 2.3715999126 4.2786998749 46.568298340 107.49079895 195.71220398 0.8458999991 0.7990999818
 2099.9685059 19.000000000 12.000000000 12.250000954 74.362205505 -0.027100001 0.3021999896 2.3870000839 4.6041002274 53.249099731 106.21920013 197.07640076 0.8454999924 0.8174999952
 2100.1208496 19.000000000 12.000000000 12.250000954 71.534118652 -0.015799999 0.2996999919 2.3891000748 4.7739000320 57.108200073 102.97280121 191.60319519 0.8317000270 0.7900000215
 2100.2731934 19.000000000 12.000000000 12.250000954 65.998687744 -0.015300000 0.3059999943 2.3882000446 4.6655998230 53.096298218 101.92070007 183.87109375 0.9060000181 0.8173000216
 2100.4255371 19.000000000 12.000000000 12.250000954 60.620403290 -0.013200000 0.3102999926 2.4156000614 4.5324997902 43.754600525 100.51309967 183.13850403 1.1324000359 1.0846999884
 2100.5781250 19.000000000 12.000000000 12.250000954 56.528213501 -0.023700001 0.2939999998 2.4418001175 4.6638998985 44.785900116 100.29750061 184.27999878 1.0585999489 1.0520999432
 2100.7304688 19.000000000 12.004300117 12.250000954 52.373359680 -0.046100002 0.2928000093 2.4049000740 5.1831002235 42.322498322 102.74220276 191.92070007 0.9538999796 0.9455000162
 2100.8828125 19.000000000 12.022000313 12.250000954 50.458988190 -0.009800000 0.3088999987 2.4277999401 4.3074998856 44.432098389 104.49089813 194.11979675 0.9933999777 0.9645000100
 2101.0351563 19.000000000 12.003299713 12.250000954 51.126312256 -0.021500001 0.3088999987 2.3829998970 4.2154002190 44.155399323 105.20169830 189.56361389 0.9858000278 0.9663000107
 2101.1877441 19.000000000 12.000000000 12.250000954 50.417324066 -0.023399999 0.3120999932 2.3845000267 4.1416997910 48.534000397 104.62020111 194.16430664 0.9409999847 0.9143999815
 2101.3400879 19.000000000 12.000000000 12.250000954 51.311023712 -0.030099999 0.3046999872 2.3668000698 3.7537000179 42.095001221 104.14360046 198.51860046 0.9323999882 0.8867999911
 2101.4924316 19.000000000 12.000000000 12.250000954 54.466861725 -0.038800005 0.2976000011 2.3766000271 4.5542001724 46.001300812 104.51049805 203.81199646 0.9528999925 0.9034000039
 2101.6447754 19.000000000 12.000000000 12.250000954 52.908138275 -0.047899999 0.3154000044 2.3371000290 4.6549000740 42.861801147 103.41159821 207.07220459 0.9544000030 0.9003999829
 2101.7973633 19.000000000 12.000000000 12.250000954 49.310695648 -0.016400000 0.3154000044 2.3589000702 3.7369999886 44.041599274 102.80810547 205.05200195 0.9720000029 0.9338999987
 2101.9497070 19.000000000 12.000000000 12.250000954 48.169620514 -0.013100000 0.2802000046 2.3810000420 3.5915999413 50.754600525 102.00550079 204.15480042 0.9811000228 0.8866000175
 2102.1020508 19.000000000 12.000000000 12.250000954 48.984252930 -0.027600000 0.2802000046 2.3259999752 3.4210999012 51.526199341 101.06770325 196.56080627 1.0162999630 0.7958999872
 2102.2543945 19.000000000 12.001999855 12.250000954 49.467845917 -0.019900000 0.2802000046 2.3131999969 3.6112999916 46.361900330 101.92829895 189.64579773 1.0644999743 0.8899000287
 2102.4067383 19.000000000 12.156099319 12.250000954 47.904529572 -0.015600000 0.2833999991 2.3492999077 3.8703000546 39.643001556 97.641098022 185.62831116 1.5277999640 1.3509000540
 2102.5593262 19.000000000 12.696998596 12.250000954 43.141075134 -0.035599999 0.2531999946 2.3333001137 4.5044999123 31.584800720 97.798500061 192.80369568 1.8061000109 1.7160999775
 2102.7116699 19.000000000 12.458200455 12.250000954 26.908794403 -0.009700001 0.2277999967 2.3496000767 3.2397000790 29.203100204 98.476699829 191.51802063 1.4715000391 1.4307999611
 2102.8640137 19.000000000 12.060099602 12.250000954 17.747375488 -0.022399999 0.2369000018 2.3231999874 3.8399999142 39.754798889 100.34970093 187.31680298 1.2869999409 1.2344000340
 2103.0163574 19.000000000 12.000000000 12.250000954 25.413385391 -0.016500000 0.2369000018 2.3589999676 4.4671001434 42.571399689 101.57089996 183.76989746 1.2028000355 1.1559000015
 2103.1689453 19.000000000 12.000000000 12.250000954 40.343830109 -0.023900000 0.2673999965 2.3536000252 4.4077000618 37.964199066 101.73120117 181.40190125 1.1362999678 1.1007000208
 2103.3212891 19.000000000 12.000000000 12.250000954 48.571849823 -0.021000000 0.2754000127 2.3522000313 3.3401999474 44.732601166 102.21620178 180.60789490 1.0780999660 0.9914000034
 2103.4736328 19.000000000 12.000000000 12.250000954 51.557086945 -0.020300001 0.2678000033 2.3494000435 3.2934000492 36.424800873 103.24079895 179.71180725 1.1188999414 0.9840000272
 2103.6259766 19.000000000 12.000000000 12.250000954 52.222766876 -0.019400002 0.2678000033 2.3898999691 4.3709001541 32.794700623 103.95649719 182.05450439 1.1885000467 1.0630999804
 2103.7785645 19.000000000 12.000000000 12.250000954 51.761486053 -0.022200000 0.2851000130 2.4007000923 4.9570999146 38.006599426 104.38539886 189.33959961 1.0542000532 0.9836999774
