# LAS format log file from PETREL
# Project units are specified as depth units
#==================================================================
~Version information
VERS.   2.0:
WRAP.   NO:
#==================================================================
~Well
STRT .m      1332.7867432 :
STOP .m      2972.7631836 :
STEP .m     0.00000000 :
NULL .        -999.250000 :
COMP.           : COMPANY
WELL.  25/10-9 Aegis   : WELL
FLD.            : FIELD
LOC.            : LOCATION
SRVC.           : SERVICE COMPANY
DATE.  2018-09-11 14:48:15   : Log Export Date {yyyy-MM-dd HH:mm:ss}
PROV.           : PROVINCE
UWI.   25/10-9   : UNIQUE WELL ID
API.            : API NUMBER
#==================================================================
~Curve
DEPT .m                   : DEPTH
Lithology_geolink ._      : Lithology_geolink
CALI .in                  : CALI
BS .in                    : BS
ROP .m/h                  : ROP
DRHO .g/cm3               : DRHO
NPHI .m3/m3               : NPHI
RHOB .g/cm3               : RHOB
PEF .b/e                  : PEF
GR .gAPI                  : GR
DTC .us/ft                : DTC
DTS .us/ft                : DTS
RDEP .ohm.m               : RDEP
RMED .ohm.m               : RMED
~Parameter
#==================================================================
~Ascii
# ...
 1989.9355469 5.0000000000 12.477699280 12.250000954 38.791996002 0.0502999984 0.3772969544 2.3455998898 4.7146000862 47.658401489 137.44651794 306.77151489 0.4871181846 0.4785083532
 1990.0880127 5.0000000000 12.489399910 12.250000954 37.567256927 0.0582000017 0.3820961416 2.3387000561 4.6774997711 49.115001678 137.78042603 316.30285645 0.4678154290 0.4500228167
 1990.2403564 5.0000000000 12.428099632 12.250000954 42.601379395 0.0540000014 0.3966882825 2.3245999813 4.7318000793 53.452201843 136.46395874 325.48403931 0.4551101625 0.4394084811
 1990.3928223 5.0000000000 12.438699722 12.250000954 47.165355682 0.0493000001 0.3990980983 2.3110001087 4.5092000961 63.445999146 135.68342590 325.79736328 0.4373142421 0.4246118665
 1990.5451660 5.0000000000 12.359799385 12.250000954 48.775264740 0.0546999983 0.3996995091 2.3192000389 4.4734997749 57.369701385 134.24375916 324.46887207 0.4355014265 0.4202035069
 1990.6976318 5.0000000000 12.421298981 12.250000954 47.206695557 0.0458000004 0.3833131492 2.3311998844 4.4541001320 51.618598938 134.26577759 314.68875122 0.4705719054 0.4570704699
 1990.8499756 5.0000000000 12.410300255 12.250000954 48.107936859 0.0546999983 0.3865973353 2.3471999168 4.6401000023 44.854301453 134.30506897 312.20779419 0.4794928730 0.4705891907
 1991.0023193 5.0000000000 12.424900055 12.250000954 49.648952484 0.0507000014 0.3983811140 2.3506999016 4.9790000916 48.890998840 133.61889648 317.19808960 0.4886852801 0.4851766229
 1991.1547852 5.0000000000 12.451299667 12.250000954 47.853347778 0.0571000017 0.3876086473 2.3638000488 4.8506999016 49.255401611 132.48620605 319.16204834 0.4974929392 0.4743087292
 1991.3071289 5.0000000000 12.425999641 12.250000954 41.392059326 0.0496000014 0.3858000040 2.3415000439 4.8439002037 51.299301147 131.17190552 317.32675171 0.4838219285 0.4741003215
 1991.4595947 5.0000000000 12.455599785 12.250000954 35.989501953 0.0458999984 0.3878999949 2.3282001019 4.6740999222 48.592800140 131.88522339 312.32528687 0.4764059186 0.4740000963
 1991.6119385 5.0000000000 12.499199867 12.250000954 37.632873535 0.0603000000 0.3774999976 2.3462998867 4.7438998222 48.591300964 134.26898193 309.65716553 0.4781970978 0.4857811034
 1991.7644043 5.0000000000 12.221899986 12.250000954 42.770668030 0.0582999997 0.3804000020 2.4102001190 5.4720997810 47.493301392 134.75561523 302.42318726 0.5369529128 0.5389573574
 1991.9167480 5.0000000000 12.533900261 12.250000954 44.107284546 0.0366000012 0.3675000072 2.4144001007 6.2277998924 42.505798340 134.51800537 289.75555420 0.5684747696 0.5546874404
 1992.0692139 5.0000000000 12.469200134 12.250000954 44.467193604 0.0643000007 0.3467999995 2.3910999298 4.7146000862 44.372600555 133.88310242 298.45761108 0.4938598275 0.4933491647
 1992.2215576 5.0000000000 12.454600334 12.250000954 43.307743073 0.0502000004 0.3671999872 2.3503000736 4.6989002228 48.945499420 134.33593750 305.42190552 0.4714179337 0.4738156199
 1992.3740234 5.0000000000 12.559000015 12.250000954 41.213912964 0.0612999983 0.3799000084 2.3540999889 4.7962999344 53.784698486 134.55711365 308.75360107 0.4627069831 0.4846912622
 1992.5263672 5.0000000000 12.473799706 12.250000954 42.671916962 0.0652000010 0.3709999919 2.3403000832 4.5785999298 54.619098663 134.58956909 308.12081909 0.4662971199 0.4723099172
 1992.6788330 5.0000000000 12.388899803 12.250000954 41.911746979 0.0531000011 0.3749000132 2.3413999081 4.2940998077 52.415298462 134.56103516 307.43005371 0.4780905545 0.4867883623
 1992.8311768 5.0000000000 12.384699821 12.250000954 39.178806305 0.0476999991 0.3673999906 2.3422999382 4.4512000084 55.140998840 134.57588196 309.29190063 0.4841951132 0.4874994457
 1992.9836426 5.0000000000 12.484000206 12.250000954 39.078739166 0.0582999997 0.3770999908 2.3538000584 5.0408000946 57.465198517 134.68681335 306.84295654 0.4796037078 0.4788069725
 1993.1359863 5.0000000000 12.466401100 12.250000954 41.501640320 0.0653000027 0.3763000071 2.3620998859 5.1392998695 51.076499939 134.79861450 307.14700317 0.4834968746 0.4956864715
 1993.2883301 5.0000000000 12.461400032 12.250000954 40.601703644 0.0626000017 0.3705999851 2.3775999546 5.2016000748 51.508800507 135.11169434 308.90069580 0.5098577142 0.5015905499
 1993.4407959 5.0000000000 12.520298958 12.250000954 39.572177887 0.0634000003 0.3648000062 2.3838000298 5.2902998924 50.504199982 135.67373657 306.78588867 0.5338807702 0.5141898990
 1993.5931396 5.0000000000 12.498000145 12.250000954 41.826774597 0.0586000010 0.3704999983 2.3473000526 5.1454000473 49.871498108 136.51315308 308.19448853 0.5030494928 0.4841482043
 1993.7456055 5.0000000000 12.503499985 12.250000954 42.589569092 0.0551999994 0.3797999918 2.3248999119 4.6487002373 48.750400543 136.51609802 316.08740234 0.4618330300 0.4659145772
 1993.8979492 5.0000000000 12.503399849 12.250000954 43.214565277 0.0570000000 0.3797999918 2.3178000450 4.6100001335 48.122501373 135.49165344 321.71939087 0.4732815921 0.4737873673
 1994.0504150 5.0000000000 12.463800430 12.250000954 43.556102753 0.0579000004 0.3795000017 2.3197999001 4.6300001144 48.517200470 135.26278687 318.45159912 0.4732000828 0.4551149905
 1994.2027588 5.0000000000 12.346500397 12.250000954 42.187335968 0.0537000000 0.3874999881 2.3292000294 4.5654997826 47.468601227 135.36981201 308.53295898 0.4874885678 0.4822782278
 1994.3552246 5.0000000000 12.387100220 12.250000954 42.153217316 0.0445999987 0.3813000023 2.3540999889 4.6489000320 45.672500610 134.72880554 312.24539185 0.4925959110 0.5095781088
 1994.5075684 5.0000000000 12.420801163 12.250000954 37.773292542 0.0533000007 0.3837000132 2.3663001060 4.6045999527 47.075298309 134.06469727 314.36068726 0.4901019931 0.4743282795
 1994.6600342 5.0000000000 12.500800133 12.250000954 33.610565186 0.0438000001 0.3725999892 2.3266000748 4.6747999191 47.080600739 134.72360229 323.08026123 0.4541288316 0.4467220902
 1994.8123779 5.0000000000 12.426700592 12.250000954 33.538387299 0.0635000020 0.3711000085 2.3269999027 4.9916000366 46.763000488 135.20950317 328.62170410 0.4487043321 0.4422036111
 1994.9648438 5.0000000000 12.438500404 12.250000954 33.908790588 0.0568999983 0.3754999936 2.3331999779 4.9182000160 48.467300415 134.21499634 324.24166870 0.4768774211 0.4789705276
 1995.1171875 5.0000000000 12.440501213 12.250000954 34.660102844 0.0518000014 0.3754000068 2.3461999893 5.0005998611 48.188098907 133.55900574 320.65548706 0.5067760348 0.5051790476
 1995.2695313 5.0000000000 12.563199043 12.250000954 36.530838013 0.0559000000 0.3783000112 2.3475000858 5.1167001724 47.783100128 133.03559875 314.19580078 0.5010092854 0.4763462842
 1995.4219971 5.0000000000 12.575300217 12.250000954 38.292976379 0.0601999983 0.3704000115 2.3125000000 4.7232999802 49.749698639 132.81939697 316.55828857 0.4990016222 0.4596133828
 1995.5743408 5.0000000000 12.585101128 12.250000954 42.005577087 0.0657000020 0.3732999861 2.3194999695 4.7087998390 53.758998871 132.82009888 315.26809692 0.5133769512 0.4833618701
 1995.7268066 5.0000000000 12.487999916 12.250000954 39.882549286 0.0749000013 0.3817000091 2.3578999043 4.7923002243 50.197498322 133.09559631 313.31210327 0.5231921077 0.5118771791
 1995.8791504 5.0000000000 12.566499710 12.250000954 33.754264832 0.0688999966 0.3815999925 2.3554999828 4.9854998589 53.024898529 132.98330688 313.50039673 0.5501567721 0.5268759727
 1996.0316162 5.0000000000 12.556599617 12.250000954 28.937662125 0.0706999972 0.3662999868 2.3464999199 4.9159002304 45.412998199 132.52780151 309.99752808 0.5451040864 0.5210047364
 1996.1839600 5.0000000000 12.409099579 12.250000954 27.961286545 0.0649999976 0.3644999862 2.3450999260 4.4026999474 43.506900787 133.06809998 308.55810547 0.5649840236 0.5240975022
 1996.3364258 5.0000000000 12.625900269 12.250000954 38.139762878 0.0542999990 0.3713000119 2.3564999104 5.0321998596 48.158100128 133.18099976 301.33700562 0.5825859308 0.5822533965
 1996.4887695 5.0000000000 12.729400635 12.250000954 48.580055237 0.0702000037 0.3594999909 2.3722000122 4.8920001984 48.021198273 133.38499451 291.33419800 0.5506256223 0.5898939371
