# LAS format log file from PETREL
# Project units are specified as depth units
#==================================================================
~Version information
VERS.   2.0:
WRAP.   NO:
#==================================================================
~Well
STRT .m      383.59057617 :
STOP .m      2173.8320313 :
STEP .m     0.00000000 :
NULL .        -999.250000 :
COMP.           : COMPANY
WELL.  25/11-5 Balder Appr   : WELL
FLD.            : FIELD
LOC.            : LOCATION
SRVC.           : SERVICE COMPANY
DATE.  2018-09-11 14:48:16   : Log Export Date {yyyy-MM-dd HH:mm:ss}
PROV.           : PROVINCE
UWI.   25/11-5   : UNIQUE WELL ID
API.            : API NUMBER
#==================================================================
~Curve
DEPT .m                   : DEPTH
Lithology_geolink ._      : Lithology_geolink
DCAL .in                  : DCAL
CALI .in                  : CALI
BS .in                    : BS
MUDWEIGHT ._              : MUDWEIGHT
DRHO .g/cm3               : DRHO
NPHI .m3/m3               : NPHI
RHOB .g/cm3               : RHOB
GR .gAPI                  : GR
DTC .us/ft                : DTC
RDEP .ohm.m               : RDEP
SP .mV                    : SP
RMED .ohm.m               : RMED
~Parameter
#==================================================================
~Ascii
# ...
 980.38848877  -999.250000 0.3310002983 12.581000328 12.250000954 9.1999998093  -999.250000  -999.250000  -999.250000 21.511510849 161.33760071 0.6290023923 36.844089508 0.6470035911
 980.54089355  -999.250000 0.3140000999 12.564000130 12.250000954 9.1999998093  -999.250000  -999.250000  -999.250000 23.067377090 161.97290039 0.6230024099 36.562114716 0.6360043883
 980.69329834  -999.250000 0.3249998391 12.574999809 12.250000954 9.1999998093  -999.250000  -999.250000  -999.250000 22.067399979 164.04254150 0.6170023680 36.411060333 0.6379992366
 980.84570313  -999.250000 0.4149999917 12.664999962 12.250000954 9.1999998093  -999.250000  -999.250000  -999.250000 19.964843750 166.87623596 0.6110023856 36.409000397 0.6619904041
 980.99810791  -999.250000 0.3830004036 12.633000374 12.250000954 9.1999998093  -999.250000  -999.250000  -999.250000 21.122535706 168.53897095 0.6050024033 36.442985535 0.6580016017
 981.15051270  -999.250000 0.4009999931 12.650999069 12.250000954 9.1999998093  -999.250000  -999.250000  -999.250000 20.895092010 169.38102722 0.5960035920 36.601936340 0.6340095997
 981.30285645  -999.250000 0.5810003281 12.831000328 12.250000954 9.1999998093  -999.250000  -999.250000  -999.250000 21.355630875 170.09072876 0.5910040140 36.799839020 0.6320016384
 981.45526123  -999.250000 0.3509997725 12.601000786 12.250000954 9.1999998093  -999.250000  -999.250000  -999.250000 22.071426392 170.25650024 0.5929983854 36.796005249 0.6359967589
 981.60766602  -999.250000 0.2519999146 12.501998901 12.250000954 9.1999998093  -999.250000  -999.250000  -999.250000 22.375755310 169.72204590 0.5949984193 36.598159790 0.6429944038
 981.76007080  -999.250000 0.2869997025 12.536999702 12.250000954 9.1999998093  -999.250000  -999.250000  -999.250000 22.372001648 168.29013062 0.5979987979 36.694961548 0.6509968042
 981.91247559  -999.250000 0.3500004411 12.600000381 12.250000954 9.1999998093  -999.250000  -999.250000  -999.250000 21.869201660 163.69862366 0.6009988189 36.791961670 0.6569976211
 982.06488037  -999.250000 0.3290005028 12.579000473 12.250000954 9.1999998093  -999.250000  -999.250000  -999.250000 20.769439697 161.43511963 0.6019995809 36.869968414 0.6629976034
 982.21728516  -999.250000 0.3019999862 12.552000046 12.250000954 9.1999998093  -999.250000  -999.250000  -999.250000 21.162841797 161.18780518 0.6089972258 36.887992859 0.6689976454
 982.36968994  -999.250000 0.2899999917 12.539999008 12.250000954 9.1999998093  -999.250000  -999.250000  -999.250000 22.090627670 161.01544189 0.6199955940 36.998954773 0.6739979982
 982.52209473  -999.250000 0.2899999917 12.539999008 12.250000954 9.1999998093  -999.250000  -999.250000  -999.250000 22.613790512 160.97235107 0.6309955716 37.295883179 0.6809971929
 982.67449951  -999.250000 0.2700004876 12.520001411 12.250000954 9.1999998093  -999.250000  -999.250000  -999.250000 23.049823761 160.99328613 0.6489927769 37.510913849 0.6899964213
 982.82690430  -999.250000 0.2489995956 12.499000549 12.250000954 9.1999998093  -999.250000  -999.250000  -999.250000 25.970829010 160.45892334 0.6839860082 37.791885376 0.7029948235
 982.97930908  -999.250000 0.2489995956 12.499000549 12.250000954 9.1999998093  -999.250000  -999.250000  -999.250000 27.775276184 159.91194153 0.7239839435 38.089881897 0.7299892306
 983.13171387  -999.250000 0.2569999993 12.506999969 12.250000954 9.1999998093  -999.250000  -999.250000  -999.250000 31.350566864 160.41189575 0.7559871674 38.287918091 0.7989723682
 983.28405762  -999.250000 0.3280001283 12.578000069 12.250000954 9.1999998093  -999.250000  -999.250000  -999.250000 33.605194092 161.19485474 0.7859759927 38.270015717 0.9029166698
 983.43646240  -999.250000 0.3280001283 12.578000069 12.250000954 9.1999998093  -999.250000  -999.250000  -999.250000 36.722499847 158.38429260 0.8119791746 37.841342926 0.9429679513
 983.58886719  -999.250000 0.2799997032 12.529998779 12.250000954 9.1999998093  -999.250000  -999.250000  -999.250000 40.950611115 156.35781860 0.8369799852 37.698116302 0.9020328522
 983.74127197  -999.250000 0.2869997025 12.536999702 12.250000954 9.1999998093  -999.250000  -999.250000  -999.250000 40.991985321 157.99909973 0.8589912057 38.259773254 0.8570179939
 983.89367676  -999.250000 0.2530002892 12.503000259 12.250000954 9.1999998093  -999.250000  -999.250000  -999.250000 37.393440247 155.18098450 0.8809911609 38.189025879 0.8440051675
 984.04608154  -999.250000 0.4829998016 12.732998848 12.250000954 9.1999998093  -999.250000  -999.250000  -999.250000 35.003955841 153.11280823 0.9159860015 38.354934692 0.8899815679
 984.19848633  -999.250000 0.5710000992 12.821000099 12.250000954 9.1999998093  -999.250000  -999.250000  -999.250000 35.482810974 154.54585266 0.9689787626 38.353000641 1.0579327345
 984.35089111  -999.250000 0.3789997101 12.628999710 12.250000954 9.1999998093  -999.250000  -999.250000  -999.250000 38.444812775 153.30918884 1.0289759636 38.520931244 1.3108986616
 984.50329590  -999.250000 0.4090003967 12.658999443 12.250000954 9.1999998093  -999.250000  -999.250000  -999.250000 44.772468567 150.72355652 1.0949735641 38.845870972 1.4679372311
 984.65570068  -999.250000 0.6499996781 12.900000572 12.250000954 9.1999998093  -999.250000  -999.250000  -999.250000 49.160240173 146.97399902 1.1669712067 39.541721344 1.5109828711
 984.80810547  -999.250000 0.5950003266 12.845000267 12.250000954 9.1999998093  -999.250000  -999.250000  -999.250000 50.369514465 142.95042419 1.2539651394 40.111770630 1.4910080433
 984.96051025  -999.250000 0.4099998176 12.659999847 12.250000954 9.1999998093  -999.250000  -999.250000  -999.250000 50.066123962 139.47929382 1.3409651518 40.281932831 1.4310240746
 985.11291504  -999.250000 0.3170004189 12.566999435 12.250000954 9.1999998093  -999.250000  -999.250000  -999.250000 48.624576569 138.88475037 1.4059740305 40.420944214 1.3720235825
 985.26531982  -999.250000 0.5570002198 12.806999207 12.250000954 9.1999998093  -999.250000  -999.250000  -999.250000 46.743751526 138.63160706 1.4539808035 41.009761810 1.3480097055
 985.41766357  -999.250000 0.7980002761 13.048000336 12.250000954 9.1999998093  -999.250000  -999.250000  -999.250000 44.376895905 138.62409973 1.4599952698 41.412673950 1.3619887829
 985.57006836  -999.250000 0.6520003676 12.902000427 12.250000954 9.1999998093  -999.250000  -999.250000  -999.250000 46.292461395 139.08982849 1.4390168190 41.465957642 1.3649976254
 985.72247314  -999.250000 0.3430004120 12.593000412 12.250000954 9.1999998093  -999.250000  -999.250000  -999.250000 49.966056824 138.98219299 1.4070255756 41.315120697 1.3620023727
 985.87487793  -999.250000 0.4230002463 12.673000336 12.250000954 9.1999998093  -999.250000  -999.250000  -999.250000 52.281074524 138.09085083 1.3730136156 41.362979889 1.3490052223
 986.02728271  -999.250000 0.4160003662 12.666000366 12.250000954 9.1999998093  -999.250000  -999.250000  -999.250000 52.873764038 138.32791138 1.3380141258 41.160079956 1.3230103254
 986.17968750  -999.250000 0.3749999702 12.624999046 12.250000954 9.1999998093  -999.250000  -999.250000  -999.250000 52.720062256 139.37059021 1.3130099773 40.753162384 1.2920124531
 986.33209229  -999.250000 0.3249998391 12.574999809 12.250000954 9.1999998093  -999.250000  -999.250000  -999.250000 52.715003967 139.97235107 1.2960067987 40.363155365 1.2790052891
 986.48449707  -999.250000 0.3059997857 12.555999756 12.250000954 9.1999998093  -999.250000  -999.250000  -999.250000 53.936511993 140.71051025 1.2840048075 40.559921265 1.2790000439
 986.63690186  -999.250000 0.3730000854 12.623000145 12.250000954 9.1999998093  -999.250000  -999.250000  -999.250000 55.604331970 141.09394836 1.2849996090 40.419055939 1.2839980125
 986.78930664  -999.250000 0.4130001068 12.663000107 12.250000954 9.1999998093  -999.250000  -999.250000  -999.250000 56.210754395 140.26023865 1.2939964533 40.666900635 1.2969948053
 986.94171143  -999.250000 0.3990002275 12.649000168 12.250000954 9.1999998093  -999.250000  -999.250000  -999.250000 56.802764893 139.58287048 1.3119928837 41.413703918 1.3099946976
