# LAS format log file from PETREL
# Project units are specified as depth units
#==================================================================
~Version information
VERS.   2.0:
WRAP.   NO:
#==================================================================
~Well
STRT .m      1118.6159668 :
STOP .m      2017.3187256 :
STEP .m     0.00000000 :
NULL .        -999.250000 :
COMP.           : COMPANY
WELL.  25/11-15  Grane   : WELL
FLD.            : FIELD
LOC.            : LOCATION
SRVC.           : SERVICE COMPANY
DATE.  2018-09-11 14:48:15   : Log Export Date {yyyy-MM-dd HH:mm:ss}
PROV.           : PROVINCE
UWI.   25/11-15   : UNIQUE WELL ID
API.            : API NUMBER
#==================================================================
~Curve
DEPT .m                   : DEPTH
Lithology_geolink ._      : Lithology_geolink
CALI .in                  : CALI
BS .in                    : BS
MUDWEIGHT ._              : MUDWEIGHT
ROP .m/h                  : ROP
TGAS ._                   : TGAS
DRHO .g/cm3               : DRHO
THOR .ppm                 : THOR
NPHI .m3/m3               : NPHI
RHOB .g/cm3               : RHOB
GR .gAPI                  : GR
URAN .ppm                 : URAN
DTC .us/ft                : DTC
DTE .us/ft                : DTE
RDEP .ohm.m               : RDEP
SP .mV                    : SP
RSHA .ohm.m               : RSHA
RMED .ohm.m               : RMED
~Parameter
#==================================================================
~Ascii
# ...
 1475.6892090  -999.250000 10.890009880 8.5000000000 1.1100000143 278069.03125 0.0398891456 -0.013511532 7.3902001381 0.5140141845 2.1167540550 109.18769836 -2.102499962 146.56030273 142.56590271 0.7480177283 20.200000763 0.1726375818 0.8080011010
 1475.8415527  -999.250000 11.030920029 8.5000000000 1.1100000143 277866.09375 0.0400415137 -0.000751849 7.6283998489 0.5306786895 2.1014609337 109.93769836 -1.878200054 148.46899414 145.09521484 0.7292155027 18.200000763 0.2336687297 0.7929903865
 1475.9940186  -999.250000 10.760430336 8.5000000000 1.1100000143 275284.81250 0.0401939005 0.0018341300 7.6545000076 0.5147175789 2.0994439125 110.62490082 -1.865200043 148.94551086 145.85186768 0.7201098800 20.200000763 0.2982393801 0.7627037168
 1476.1463623  -999.250000 10.634340286 8.5000000000 1.1100000143 236758.03125 0.0397220030 0.0015751775 7.9204001427 0.5158997178 2.0984919071 111.81179810 -1.831300020 149.06480408 146.09982300 0.7264961004 21.200000763 0.3935314119 0.7669019103
 1476.2988281  -999.250000 10.798170090 8.5000000000 1.1100000143 205473.70313 0.0385098904 0.0013448746 8.0151996613 0.5192959905 2.1018900871 108.87550354 -1.755399942 149.06460571 146.12431335 0.7361887097 21.200000763 0.4265672863 0.7743986249
 1476.4511719  -999.250000 10.512900352 8.5000000000 1.1100000143 199797.07813 0.0371395610 -0.004205295 8.3536996841 0.5041128993 2.0993199348 108.12560272 -1.508999944 149.42329407 146.35734558 0.7527874112 22.700000763 0.2714509368 0.7866008282
 1476.6035156  -999.250000 9.9621591568 8.5000000000 1.1100000143 198494.85938 0.0357717052 -0.018616945 7.3660001755 0.4936156869 2.0587880611 111.31359863 -2.308199883 153.59269714 149.72993469 0.7726798058 23.200000763 0.4599991739 0.7913187146
 1476.7559814  -999.250000 8.9876451492 8.5000000000 1.1100000143 197961.95313 0.0344967023 -0.017518809 7.3758001328 0.5035011768 2.0434079170 113.37500000 -2.337500095 153.83500671 150.83169556 0.7712967992 23.200000763 0.3133139610 0.8257989287
 1476.9083252  -999.250000 9.3591260910 8.5000000000 1.1100000143 197957.56250 0.0332501829 -0.008623021 7.2116999626 0.5135136247 2.0369899273 113.06109619 -2.417599916 154.42689514 151.36343384 0.7451804876 23.200000763 0.2825466394 0.8166959882
 1477.0607910  -999.250000 10.225910187 8.5000000000 1.1100000143 229539.51563 0.0323963426 -0.006767964 7.6333999634 0.5411974192 2.0281999111 110.12500000 -2.254499912 155.02729797 151.83256531 0.7064998150 20.700000763 0.2775018811 0.8085966110
 1477.2131348  -999.250000 10.438320160 8.5000000000 1.1100000143 272361.50000 0.0332045183 0.0031514214 7.4654998779 0.4971035123 2.0480639935 110.12500000 -2.441299915 153.71128845 150.92881775 0.7027049065 20.700000763 0.2444447130 0.7524951100
 1477.3656006  -999.250000 10.027299881 8.5000000000 1.1100000143 285517.09375 0.0344908312 0.0228686612 7.2200999260 0.5053998828 2.0563640594 110.06250000 -2.613100052 152.76159668 149.96124268 0.7142999172 20.200000763 0.2257150710 0.7410001159
 1477.5179443  -999.250000 10.090069771 8.5000000000 1.1100000143 285421.46875 0.0357615389 0.0246058013 7.1118001938 0.4814079106 2.0804750919 108.81269836 -2.563699961 150.25469971 147.76666260 0.7538080215 20.200000763 0.3761479557 0.7677131891
 1477.6704102  -999.250000 10.289689064 8.5000000000 1.1100000143 284047.87500 0.0372045189 0.0142524382 6.8461999893 0.5029985905 2.1212170124 109.37500000 -2.573499918 146.20300293 144.07823181 0.7760984898 19.200000763 1.2830684185 0.8046975136
 1477.8227539  -999.250000 10.096011162 8.5000000000 1.1100000143 283655.15625 0.0386271067 0.0109536899 6.9825000763 0.5002955198 2.1466751099 109.62439728 -2.449100018 143.34469604 140.92892456 0.8254954815 17.700000763 0.5336272120 0.8559029102
 1477.9752197  -999.250000 9.8027381897 8.5000000000 1.1100000143 283655.15625 0.0402273498 0.0001701277 7.1455998421 0.4854018986 2.1611258984 107.56279755 -2.399800062 142.02909851 139.28309631 0.8107019067 17.200000763 0.3360778987 0.8653988242
 1478.1275635  -999.250000 10.099679947 8.5000000000 1.1100000143 275534.78125 0.0416747257 -0.012426253 6.7344999313 0.4781996906 2.1455209255 106.81189728 -2.458199978 143.81759644 140.44396973 0.7322927713 16.200000763 0.2206878960 0.8313872814
 1478.2800293  -999.250000 10.836460114 8.5000000000 1.1100000143 266193.25000 0.0434396826 -0.015611779 6.7704000473 0.4771001935 2.1430048943 104.43800354 -2.358400106 143.58349609 140.60639954 0.7031055093 16.200000763 0.2024179548 0.7801095247
 1478.4323730  -999.250000 11.647689819 8.5000000000 1.1100000143 265034.50000 0.0449559204 -0.016123731 6.9433999062 0.4857037067 2.1073639393 107.06330109 -2.231899977 147.15649414 143.37528992 0.7035059929 16.700000763 0.2595651746 0.7373998165
 1478.5848389  -999.250000 11.001769066 8.5000000000 1.1100000143 265034.50000 0.0467183143 -0.010752304 6.9818000793 0.5065947175 2.1275789738 111.37390137 -2.266900063 145.37120056 142.72019958 0.7384908795 17.200000763 0.3297237158 0.7365003228
 1478.7371826  -999.250000 10.620418549 8.5000000000 1.1100000143 263752.00000 0.0485468842 -0.001430829 7.0956001282 0.5229989886 2.1435968876 115.74960327 -2.256000042 143.81759644 141.11621094 0.7661030889 17.700000763 0.2954233289 0.7933021784
 1478.8895264  -999.250000 10.810348511 8.5000000000 1.1100000143 263172.25000 0.0502846353 0.0081810253 6.8319001198 0.5139942169 2.1530539989 112.50039673 -2.400000095 142.98550415 140.21032715 0.7944054008 18.200000763 0.2609276772 0.8135191798
 1479.0419922  -999.250000 9.6776971817 8.5000000000 1.1100000143 263172.25000 0.0515520163 0.0087130591 6.8596000671 0.5019978285 2.1923367977 113.31259918 -2.486799955 138.57069397 136.52484131 0.8057001829 19.200000763 0.4631299078 0.8543999195
 1479.1943359  -999.250000 9.6257686615 8.5000000000 1.1100000143 263172.25000 0.0518999994 0.0073856758 7.4791002274 0.4591999054 2.1858429909 115.68990326 -2.335900068 139.29379272 136.18344116 0.8103926778 19.200000763 0.3326751888 0.8535094857
 1479.3468018  -999.250000 10.262989044 8.5000000000 1.1100000143 261864.56250 0.0517532378 0.0041581257 7.5022997856 0.4589999914 2.1920149326 121.49990082 -2.448600054 139.40539551 136.43280029 0.7932001948 19.700000763 0.2601588070 0.8763996959
 1479.4991455  -999.250000 10.623128891 8.5000000000 1.1100000143 261310.31250 0.0515019521 -0.000013199 7.8051996231 0.4807094038 2.1944150925 116.56169891 -2.316400051 139.17649841 136.28205872 0.7704973221 20.700000763 0.2398619503 0.8606916070
 1479.6516113  -999.250000 10.139340401 8.5000000000 1.1100000143 261310.31250 0.0513484105 -0.004793767 7.9640002251 0.5070980191 2.1487810612 114.43769836 -2.473299980 144.29429626 140.34007263 0.7629004717 21.200000763 0.3383123279 0.8375015855
 1479.8039551  -999.250000 9.7276372910 8.5000000000 1.1100000143 261310.31250 0.0510959774 -0.004649777 7.8186993599 0.5365982056 2.1194500923 113.68849945 -2.789400101 147.39739990 143.71408081 0.7532917261 21.700000763 0.4442757070 0.8082960248
 1479.9564209  -999.250000 10.193341255 8.5000000000 1.1100000143 261274.17188 0.0509435907 0.0024985559 7.9628000259 0.5306007862 2.0825920105 117.18699646 -2.700500011 150.73390198 147.05532837 0.7255036831 20.700000763 0.7053461671 0.7946019173
 1480.1087646  -999.250000 11.495478630 8.5000000000 1.1100000143 259974.48438 0.0507614650 -0.000407332 7.7775001526 0.5247917175 2.0664439201 115.62359619 -2.735599995 152.40310669 149.13490295 0.7157992721 20.200000763 0.5418314338 0.7877950072
 1480.2612305  -999.250000 11.834528923 8.5000000000 1.1100000143 259448.40625 0.0521952398 -0.007494946 7.7571992874 0.4889071882 2.0997710228 109.81369781 -2.747999907 149.06530762 146.74037170 0.7128006220 20.700000763 0.5417999625 0.7666041851
 1480.4135742  -999.250000 11.257539749 8.5000000000 1.1100000143 259448.40625 0.0539490841 -0.006815699 7.7767000198 0.4576008022 2.1131179333 111.00039673 -2.723099947 147.75259399 144.98921204 0.7120035887 21.200000763 0.2906078398 0.7803019881
 1480.5660400  -999.250000 9.7309017181 8.5000000000 1.1100000143 259448.40625 0.0557576828 -0.000267377 7.8249993324 0.4625987113 2.1388800144 113.24939728 -2.640000105 145.24940491 142.76408386 0.7334942818 21.200000763 0.3306886852 0.7921969295
