# LAS format log file from PETREL
# Project units are specified as depth units
#==================================================================
~Version information
VERS.   2.0:
WRAP.   NO:
#==================================================================
~Well
STRT .m      353.26309204 :
STOP .m      2468.2702637 :
STEP .m     0.00000000 :
NULL .        -999.250000 :
COMP.           : COMPANY
WELL.  25/11-1  Balder   : WELL
FLD.            : FIELD
LOC.            : LOCATION
SRVC.           : SERVICE COMPANY
DATE.  2018-09-11 14:48:15   : Log Export Date {yyyy-MM-dd HH:mm:ss}
PROV.           : PROVINCE
UWI.   25/11-1   : UNIQUE WELL ID
API.            : API NUMBER
#==================================================================
~Curve
DEPT .m                   : DEPTH
Lithology_geolink ._      : Lithology_geolink
CALI .in                  : CALI
MUDWEIGHT ._              : MUDWEIGHT
ROP .m/h                  : ROP
DRHO .g/cm3               : DRHO
RHOB .g/cm3               : RHOB
GR .gAPI                  : GR
DTC .us/ft                : DTC
DTE .us/ft                : DTE
RDEP .ohm.m               : RDEP
SP .mV                    : SP
RSHA .ohm.m               : RSHA
RMED .ohm.m               : RMED
~Parameter
#==================================================================
~Ascii
# ...
 500.78628540  -999.250000 18.176000595  -999.250000 0.3254593313  -999.250000  -999.250000 138.70181274 170.13821411 170.13821411 1.5505009890 33.731555939 1.0064990520 1.4282004833
 500.93869019  -999.250000 18.197200775  -999.250000 0.3254593313  -999.250000  -999.250000 136.00003052 170.13800049 170.13800049 1.5575000048 33.744556427 0.9956982732 1.4260004759
 501.09109497  -999.250000 18.239200592  -999.250000 0.3254593313  -999.250000  -999.250000 131.48649597 170.13789368 170.13789368 1.5611000061 33.757556915 0.9697008729 1.4240003824
 501.24349976  -999.250000 18.305500031  -999.250000 0.3254593313  -999.250000  -999.250000 128.51860046 170.13780212 170.13780212 1.5600999594 33.770557404 0.9987000823 1.4234001637
 501.39587402  -999.250000 18.353300095  -999.250000 0.3254593313  -999.250000  -999.250000 131.38275146 170.13760376 170.13760376 1.5575000048 33.757827759 1.0358010530 1.4242000580
 501.54827881  -999.250000 18.377799988  -999.250000 0.3257849514  -999.250000  -999.250000 132.07206726 170.13749695 170.13749695 1.5549000502 33.654968262 1.0399969816 1.4248000383
 501.70068359  -999.250000 18.375499725  -999.250000 0.3257873952  -999.250000  -999.250000 131.47381592 170.13740540 170.13740540 1.5523999929 33.734672546 1.0201989412 1.4243999720
 501.85308838  -999.250000 18.344299316  -999.250000 0.3257873952  -999.250000  -999.250000 128.97869873 170.13720703 170.13720703 1.5496000051 33.918605804 1.0099999905 1.4242999554
 502.00549316  -999.250000 18.328100204  -999.250000 0.3257873952  -999.250000  -999.250000 128.82223511 170.13710022 170.13710022 1.5467000008 33.759029388 1.0123989582 1.4251999855
 502.15789795  -999.250000 18.321399689  -999.250000 0.3257873952  -999.250000  -999.250000 127.31700897 170.13699341 170.13699341 1.5436999798 33.585231781 0.9937996864 1.4264999628
 502.31030273  -999.250000 18.258199692  -999.250000 0.3261131346  -999.250000  -999.250000 126.53675079 170.13679504 170.13679504 1.5406999588 33.642639160 0.9720004201 1.4292000532
 502.46267700  -999.250000 18.201599121  -999.250000 0.3261154890  -999.250000  -999.250000 128.35746765 170.13670349 170.13670349 1.5407019854 33.742889404 0.9663007855 1.4347009659
 502.61508179  -999.250000 18.166490555  -999.250000 0.3261154890  -999.250000  -999.250000 130.86599731 170.13659668 170.13659668 1.5534030199 33.857414246 0.9712967873 1.4433009624
 502.76748657  -999.250000 18.121400833  -999.250000 0.3261154890  -999.250000  -999.250000 134.41958618 170.13650513 170.13650513 1.5795030594 33.899555206 0.9448016882 1.4525010586
 502.91989136  -999.250000 18.095899582  -999.250000 0.3261154890  -999.250000  -999.250000 138.24093628 170.13630676 170.13630676 1.6097019911 33.909614563 0.9643024802 1.4622009993
 503.07229614  -999.250000 18.055299759  -999.250000 0.3264412284  -999.250000  -999.250000 139.33638000 170.13619995 170.13619995 1.6403009892 33.899501801 1.0095009804 1.4779009819
 503.22470093  -999.250000 17.995000839  -999.250000 0.3264435828  -999.250000  -999.250000 137.99577332 170.13609314 170.13609314 1.6734000444 33.858238220 1.0599999428 1.4987000227
 503.37710571  -999.250000 17.948999405  -999.250000 0.3264435828  -999.250000  -999.250000 131.97399902 170.13592529 170.13589478 1.7094990015 33.779560089 1.1230980158 1.5163990259
 503.52947998  -999.250000 17.934499741  -999.250000 0.3264435828  -999.250000  -999.250000 129.99739075 170.13581848 170.13581848 1.7465050220 33.744976044 1.1660200357 1.5281020403
 503.68188477  -999.250000 17.938610077  -999.250000 0.3264435828  -999.250000  -999.250000 127.40571594 170.13568115 170.13568115 1.7836029530 33.672637939 1.3274090290 1.5403020382
 503.83428955  -999.250000 18.038209915  -999.250000 0.3267692327  -999.250000  -999.250000 123.79412842 170.13560486 170.13560486 1.8200019598 33.803104401 1.4240950346 1.5563009977
 503.98669434  -999.250000 18.227899551  -999.250000 0.3267716765  -999.250000  -999.250000 117.10164642 170.13540649 170.13540649 1.8551009893 34.072174072 1.3507959843 1.5694999695
 504.13909912  -999.250000 18.151500702  -999.250000 0.3267716765  -999.250000  -999.250000 114.87814331 170.13531494 170.13529968 1.8710000515 34.052703857 1.2388000488 1.5752999783
 504.29150391  -999.250000 18.016599655  -999.250000 0.3267716765  -999.250000  -999.250000 113.22103119 170.13519287 170.13519287 1.8582999706 34.048145294 1.2017010450 1.5757000446
 504.44387817  -999.250000 17.986000061  -999.250000 0.3267716765  -999.250000  -999.250000 110.10375214 170.14799500 170.14797974 1.8324960470 34.196456909 1.2103010416 1.5728989840
 504.59628296  -999.250000 17.990600586  -999.250000 0.3391464949  -999.250000  -999.250000 113.09560394 170.17399597 170.17398071 1.8044970036 34.255554199 1.2165009975 1.5659990311
 504.74868774  -999.250000 18.011199951  -999.250000 0.3392388523  -999.250000  -999.250000 117.26246643 170.19990540 170.19989014 1.7759979963 34.268554688 1.2254960537 1.5580990314
 504.90109253  -999.250000 18.031700134  -999.250000 0.3392388523  -999.250000  -999.250000 120.17911530 170.22579956 170.22578430 1.7479989529 34.281555176 1.1757980585 1.5514990091
 505.05349731  -999.250000 18.076200485  -999.250000 0.3395645916  -999.250000  -999.250000 123.38015747 170.25169373 170.25167847 1.7208000422 34.293823242 1.1352000237 1.5413999557
 505.20590210  -999.250000 18.147800446  -999.250000 0.3395669460  -999.250000  -999.250000 129.07846069 170.25320435 170.25320435 1.6921000481 34.280090332 1.1247999668 1.5269999504
 505.35830688  -999.250000 18.228500366  -999.250000 0.3395669460  -999.250000  -999.250000 132.52709961 170.25320435 170.25320435 1.6560020447 34.137248993 1.1332999468 1.5105010271
 505.51068115  -999.250000 18.470270157  -999.250000 0.3395669460  -999.250000  -999.250000 130.31489563 170.25320435 170.25320435 1.6178970337 33.946865082 1.1374969482 1.4922980070
 505.66308594  -999.250000 19.052440643  -999.250000 0.3395669460  -999.250000  -999.250000 127.30079651 170.25320435 170.25320435 1.5899980068 33.763683319 1.1102980375 1.4730989933
 505.81549072  -999.250000 19.483409882  -999.250000 0.3519417644  -999.250000  -999.250000 124.22080231 170.25320435 170.25320435 1.5703990459 33.604267120 1.0854959488 1.4573990107
 505.96789551  -999.250000 19.626899719  -999.250000 0.3520341218  -999.250000  -999.250000 122.83670044 170.25320435 170.25320435 1.5516990423 33.573554993 1.0240989923 1.4484000206
 506.12030029  -999.250000 19.613899231  -999.250000 0.3399825692  -999.250000  -999.250000 119.81919861 170.25320435 170.25320435 1.5319999456 33.560821533 1.0016000271 1.4420000315
 506.27270508  -999.250000 19.008420944  -999.250000 0.3398950398  -999.250000  -999.250000 114.84320068 170.25320435 170.25320435 1.5124009848 33.443206787 1.0111999512 1.4344999790
 506.42510986  -999.250000 18.619129181  -999.250000 0.3398950398  -999.250000  -999.250000 108.62860107 170.25320435 170.25320435 1.4933010340 33.412563324 1.0232989788 1.4280999899
 506.57748413  -999.250000 18.902969360  -999.250000 0.3398950398  -999.250000  -999.250000 104.01930237 170.25320435 170.25320435 1.4744980335 33.451293945 1.0485980511 1.4229990244
 506.72988892  -999.250000 19.555929184  -999.250000 0.3402206600  -999.250000  -999.250000 102.26349640 170.25320435 170.25320435 1.4601999521 33.594879150 1.0333030224 1.4160989523
 506.88229370  -999.250000 19.947612762  -999.250000 0.3402231038  -999.250000  -999.250000 102.06210327 170.25320435 170.25320435 1.4546999931 33.651557922 1.0760999918 1.4052000046
 507.03469849  -999.250000 20.149311066  -999.250000 0.3402231038  -999.250000  -999.250000 103.11219788 170.25320435 170.25320435 1.4548000097 33.696174622 1.0873990059 1.3974000216
 507.18710327  -999.250000 20.491989136  -999.250000 0.3402231038  -999.250000  -999.250000 106.59880066 170.25320435 170.25320435 1.4560999870 33.891914368 1.0098019838 1.3969000578
 507.33950806  -999.250000 20.789176941  -999.250000 0.3402231038  -999.250000  -999.250000 110.95559692 170.25320435 170.25320435 1.4573999643 34.064380646 0.9971007109 1.3970999718
