# LAS format log file from PETREL
# Project units are specified as depth units
#==================================================================
~Version information
VERS.   2.0:
WRAP.   NO:
#==================================================================
~Well
STRT .m      3054.5593262 :
STOP .m      3397.3076172 :
STEP .m     0.00000000 :
NULL .        -999.250000 :
COMP.           : COMPANY
WELL.  25/10-8A  Hanz Appr   : WELL
FLD.            : FIELD
LOC.            : LOCATION
SRVC.           : SERVICE COMPANY
DATE.  2018-09-11 14:48:15   : Log Export Date {yyyy-MM-dd HH:mm:ss}
PROV.           : PROVINCE
UWI.   25/10-8 A   : UNIQUE WELL ID
API.            : API NUMBER
#==================================================================
~Curve
DEPT .m                   : DEPTH
Lithology_geolink ._      : Lithology_geolink
NPHI .m3/m3               : NPHI
RHOB .g/cm3               : RHOB
GR .gAPI                  : GR
RDEP .ohm.m               : RDEP
RSHA .ohm.m               : RSHA
~Parameter
#==================================================================
~Ascii
# ...
 3094.3356934 6.0000000000 0.1610199958 2.3413367271 84.754531860 3.9974524975 3.4008700848
 3094.4882813 6.0000000000 0.1590899974 2.3478384018 87.332435608 3.7098209858 3.9221692085
 3094.6406250 6.0000000000 0.1756800115 2.3480751514 88.662963867 3.3278570175 3.6079130173
 3094.7929688 6.0000000000 0.1985199898 2.3398056030 87.665542603 3.1046826839 3.0100586414
 3094.9453125 6.0000000000 0.2119000107 2.3238751888 85.928894043 3.0185472965 2.7587130070
 3095.0979004 6.0000000000 0.2195200026 2.3069851398 84.731491089 3.0059909821 2.6047356129
 3095.2502441 6.0000000000 0.2253099978 2.2943019867 83.477935791 3.0733017921 2.4277582169
 3095.4025879 6.0000000000 0.2273599952 2.2868170738 81.852416992 3.1213290691 2.3934974670
 3095.5549316 6.0000000000 0.2268899977 2.2833282948 80.144477844 3.0086936951 2.5454168320
 3095.7072754 5.0000000000 0.2275400013 2.2810366154 77.816154480 2.7896761894 2.6556622982
 3095.8598633 5.0000000000 0.2301000059 2.2785549164 75.937217712 2.5996689796 2.6167058945
 3096.0122070 5.0000000000 0.2327399999 2.2734031677 74.616851807 2.5146615505 2.4754903316
 3096.1645508 5.0000000000 0.2346799970 2.2675051689 73.985816956 2.4894034863 2.3856220245
 3096.3168945 5.0000000000 0.2311199903 2.2624330521 74.181587219 2.4528744221 2.3041522503
 3096.4694824 5.0000000000 0.2219199985 2.2616767883 74.644989014 2.4654054642 2.3082671165
 3096.6218262 5.0000000000 0.2181100100 2.2667887211 75.465415955 2.6518142223 2.5922365189
 3096.7741699 5.0000000000 0.2222899944 2.2712595463 76.221618652 2.7839097977 2.7911870480
 3096.9265137 5.0000000000 0.2195599973 2.2690615654 76.827140808 2.7567214966 2.7609004974
 3097.0791016 5.0000000000 0.2124000043 2.2624874115 77.171562195 2.6582303047 2.7123715878
 3097.2314453 5.0000000000 0.2095700055 2.2531528473 77.202598572 2.5640771389 2.6307566166
 3097.3837891 5.0000000000 0.2095299959 2.2475917339 76.772468567 2.5180611610 2.5616714954
 3097.5361328 5.0000000000 0.2095900029 2.2499167919 76.121200562 2.4823744297 2.5030512810
 3097.6884766 5.0000000000 0.2048999965 2.2599949837 75.404335022 2.4234063625 2.4137942791
 3097.8410645 5.0000000000 0.1967799962 2.2804021835 74.408592224 2.3517351151 2.3632607460
 3097.9934082 5.0000000000 0.1802300066 2.3080523014 73.596900940 2.3900973797 2.2751748562
 3098.1457520 5.0000000000 0.1586800069 2.3396108150 72.927909851 2.4364767075 2.3078432083
 3098.2980957 5.0000000000 0.1387899965 2.3816928864 72.226745605 2.4518489838 2.3527262211
 3098.4506836 5.0000000000 0.1214500070 2.4305181503 71.664161682 2.4480097294 2.3873956203
 3098.6030273 5.0000000000 0.1098700017 2.4696652889 70.867698669 2.4690740108 2.3984797001
 3098.7553711 5.0000000000 0.0980000049 2.4915177822 70.057518005 2.6382541656 2.3771250248
 3098.9077148 5.0000000000 0.1021300033 2.4959089756 69.868736267 2.9074110985 2.4169185162
 3099.0603027 5.0000000000 0.1180300042 2.4813804626 70.516403198 3.3619956970 2.5757763386
 3099.2126465 5.0000000000 0.1324699968 2.4489445686 71.916519165 3.8439652920 2.8058259487
 3099.3649902 5.0000000000 0.1474699974 2.4163382053 73.374855042 4.1771688461 3.0845527649
 3099.5173340 5.0000000000 0.1772699952 2.3879265785 73.869956970 4.3531122208 3.7128863335
 3099.6696777 5.0000000000 0.1947299987 2.3665552139 72.330970764 4.3080434799 4.3862857819
 3099.8222656 5.0000000000 0.2074399889 2.3512363434 69.033546448 4.0787749290 5.0270185471
 3099.9746094 5.0000000000 0.2225999981 2.3416080475 66.505020142 3.8669238091 5.7993025780
 3100.1269531 5.0000000000 0.2280299962 2.3372633457 65.176361084 3.8031466007 6.3168406487
 3100.2792969 5.0000000000 0.2116900086 2.3363285065 65.499114990 3.8552050591 6.3144779205
 3100.4318848 6.0000000000 0.1941599995 2.3367798328 69.743560791 4.0768194199 5.5387587547
 3100.5842285 6.0000000000 0.1898999959 2.3362245560 80.332611084 4.0480198860 4.6194972992
 3100.7365723 6.0000000000 0.1894399971 2.3332679272 92.652389526 3.7624199390 3.9543120861
 3100.8889160 6.0000000000 0.1932799965 2.3288779259 100.17142487 3.5487997532 3.2738771439
 3101.0415039 6.0000000000 0.1973800063 2.3245437145 103.41252899 3.4592535496 2.8167495728
 3101.1938477 6.0000000000 0.1949500144 2.3228602409 105.44355774 3.2962965965 2.8391189575
 3101.3461914 6.0000000000 0.1907999963 2.3260898590 105.97349548 3.1658799648 2.7737352848
 3101.4985352 6.0000000000 0.1829700023 2.3369145393 101.58383942 3.1796009541 2.5041947365
 3101.6511230 6.0000000000 0.1763100028 2.3508870602 94.482147217 3.2130746841 2.3292624950
 3101.8034668 6.0000000000 0.1760499924 2.3665897846 87.408065796 3.1902534962 2.3273396492
 3101.9558105 5.0000000000 0.1776899844 2.3785257339 80.333038330 3.1433379650 2.4826898575
 3102.1081543 5.0000000000 0.1796800047 2.3835618496 73.383102417 3.1747446060 2.6974432468
 3102.2604980 5.0000000000 0.1815000027 2.3829858303 69.435394287 3.2325446606 2.8739871979
 3102.4130859 5.0000000000 0.1826799959 2.3786556721 73.929412842 3.2408177853 3.0621778965
 3102.5654297 5.0000000000 0.1825799942 2.3744623661 82.480537415 3.2417840958 3.2944581509
 3102.7177734 6.0000000000 0.1811099946 2.3702676296 89.327682495 3.2641675472 3.5018460751
 3102.8701172 6.0000000000 0.1772400141 2.3670225143 92.922615051 3.2263877392 3.6385564804
 3103.0227051 6.0000000000 0.1724299937 2.3678658009 94.531913757 3.1812355518 3.5764200687
 3103.1750488 6.0000000000 0.1683299989 2.3726003170 95.059532166 3.1431064606 3.4597442150
 3103.3273926 6.0000000000 0.1645099968 2.3785216808 94.293586731 3.0713250637 3.2649335861
 3103.4797363 6.0000000000 0.1612199992 2.3800835609 92.342781067 3.0089190006 3.1687042713
 3103.6323242 6.0000000000 0.1701000035 2.3725512028 88.885314941 2.9640736580 3.7062063217
 3103.7846680 6.0000000000 0.1921100020 2.3570232391 85.723144531 2.9141728878 4.0145034790
 3103.9370117 6.0000000000 0.2080999911 2.3390178680 83.384529114 2.8758196831 4.0242004395
 3104.0893555 6.0000000000 0.2105100006 2.3259112835 80.955421448 2.8629078865 4.0031566620
 3104.2416992 5.0000000000 0.2058899999 2.3237047195 78.375930786 2.8598513603 3.9210014343
 3104.3942871 5.0000000000 0.2001199871 2.3291928768 76.788436890 2.8567981720 3.8389568329
 3104.5466309 5.0000000000 0.1940900087 2.3387422562 75.890213013 2.8537540436 3.7572467327
 3104.6989746 5.0000000000 0.1915300041 2.3507001400 75.814147949 2.8507218361 3.6739029884
 3104.8513184 5.0000000000 0.1886599958 2.3636369705 76.802932739 2.8479666710 3.5444641113
 3105.0039063 5.0000000000 0.1852499992 2.3749916553 78.488471985 2.8462293148 3.2729105949
 3105.1562500 6.0000000000 0.1812700033 2.3873360157 80.422164917 2.8929240704 3.0241732597
 3105.3085938 6.0000000000 0.1623499990 2.4054751396 82.729583740 2.9808547497 2.8471856117
 3105.4609375 6.0000000000 0.1371199936 2.4229168892 84.738922119 3.0740847588 2.7133080959
 3105.6135254 6.0000000000 0.1233600080 2.4471435547 86.306388855 3.2971138954 2.6916704178
 3105.7658691 6.0000000000 0.1140799969 2.4747517109 87.103950500 3.5730443001 2.7928659916
 3105.9182129 6.0000000000 0.1035000011 2.5027422905 86.541992188 3.6501858234 3.1029660702
 3106.0705566 6.0000000000 0.0929599926 2.5249812603 84.791107178 3.6419785023 3.3858418465
 3106.2229004 6.0000000000 0.0863300040 2.5332939625 82.107582092 3.7105627060 3.4767880440
 3106.3754883 6.0000000000 0.0878800005 2.5201227665 77.169189453 3.8090748787 3.4844264984
 3106.5278320 6.0000000000 0.0990299955 2.4871158600 69.659561157 3.9146192074 3.4697310925
 3106.6801758 16.000000000 0.1301099956 2.4537103176 63.066757202 4.0108098984 3.4836411476
 3106.8325195 16.000000000 0.1563799977 2.4292628765 59.006633759 4.1126146317 3.5957987309
 3106.9851074 16.000000000 0.1686699986 2.4307863712 57.600654602 4.2024850845 4.3043699265
 3107.1374512 16.000000000 0.1759099960 2.4637479782 58.616580963 4.2036261559 4.7454128265
 3107.2897949 16.000000000 0.1798399985 2.4838554859 61.611072540 4.0424647331 4.4759092331
 3107.4421387 16.000000000 0.1822900027 2.4587914944 64.876060486 3.8835544586 4.1428289413
