# LAS format log file from PETREL
# Project units are specified as depth units
#==================================================================
~Version information
VERS.   2.0:
WRAP.   NO:
#==================================================================
~Well
STRT .m      383.59057617 :
STOP .m      2173.8320313 :
STEP .m     0.00000000 :
NULL .        -999.250000 :
COMP.           : COMPANY
WELL.  25/11-5 Balder Appr   : WELL
FLD.            : FIELD
LOC.            : LOCATION
SRVC.           : SERVICE COMPANY
DATE.  2018-09-11 14:48:16   : Log Export Date {yyyy-MM-dd HH:mm:ss}
PROV.           : PROVINCE
UWI.   25/11-5   : UNIQUE WELL ID
API.            : API NUMBER
#==================================================================
~Curve
DEPT .m                   : DEPTH
Lithology_geolink ._      : Lithology_geolink
DCAL .in                  : DCAL
CALI .in                  : CALI
BS .in                    : BS
MUDWEIGHT ._              : MUDWEIGHT
DRHO .g/cm3               : DRHO
NPHI .m3/m3               : NPHI
RHOB .g/cm3               : RHOB
GR .gAPI                  : GR
DTC .us/ft                : DTC
RDEP .ohm.m               : RDEP
SP .mV                    : SP
RMED .ohm.m               : RMED
~Parameter
#==================================================================
~Ascii
# ...
 1811.8823242 2.0000000000 0.1190004051 8.6190004349 8.5000000000 10.000000000 0.0069967951 0.3429299891 2.0879824162 22.181999207 106.37567139 0.3600000143 36.945999146 0.5180000067
 1812.0346680 2.0000000000 0.1129999012 8.6129999161 8.5000000000 10.000000000 0.0070000002 0.3391399980 2.0939433575 22.010999680 106.32188416 0.3600000143 36.894001007 0.5170016289
 1812.1871338 2.0000000000 0.1059999019 8.6059999466 8.5000000000 10.000000000 0.0030032052 0.3357999921 2.0959823132 21.972999573 106.33389282 0.3600000143 36.797000885 0.5170000196
 1812.3394775 2.0000000000 -0.013999941 8.4860000610 8.5000000000 10.000000000 -0.000993595 0.3331899941 2.0890662670 21.792999268 106.30744171 0.3600000143 36.849998474 0.5160015821
 1812.4919434 2.0000000000 -0.036999699 8.4630002975 8.5000000000 10.000000000 -0.002998397 0.3301599920 2.0840430260 21.211999893 106.16041565 0.3600000143 37.002998352 0.5159999728
 1812.6442871 2.0000000000 0.0909996033 8.5909996033 8.5000000000 10.000000000 -0.003999199 0.3265100121 2.0820178986 21.313999176 106.23954010 0.3600000143 37.070999146 0.5150007606
 1812.7967529 2.0000000000 0.1540002972 8.6540002823 8.5000000000 10.000000000 -0.004999199 0.3235000074 2.0810086727 21.413999557 106.45143127 0.3600000143 37.064998627 0.5149999857
 1812.9490967 2.0000000000 0.1590003967 8.6590003967 8.5000000000 10.000000000 -0.005999199 0.3225600123 2.0810000896 22.305000305 106.59488678 0.3600000143 36.998001099 0.5140007734
 1813.1015625 2.0000000000 0.1560000926 8.6560001373 8.5000000000 10.000000000 -0.005000800 0.3237000108 2.0800087452 22.868000031 106.75697327 0.3609991968 36.949001312 0.5139999986
 1813.2539063 2.0000000000 0.1529998928 8.6529998779 8.5000000000 10.000000000 -0.004000802 0.3258099854 2.0819823742 22.705999374 106.92916870 0.3610000014 36.973999023 0.5130007863
 1813.4063721 2.0000000000 0.1499996036 8.6499996185 8.5000000000 10.000000000 -0.001002402 0.3273699880 2.0839822292 22.902999878 106.79220581 0.3619991839 36.974998474 0.5130000114
 1813.5587158 2.0000000000 0.1450005025 8.6450004578 8.5000000000 10.000000000 0.0009983975 0.3267900050 2.0859823227 23.218999863 106.71875763 0.3619999886 36.900001526 0.5120007992
 1813.7110596 2.0000000000 0.1400002986 8.6400003433 8.5000000000 10.000000000 0.0029967974 0.3235999942 2.0850095749 23.288999557 106.71949768 0.3629983962 36.806999207 0.5120000243
 1813.8635254 2.0000000000 0.1339997947 8.6339998245 8.5000000000 10.000000000 0.0030000000 0.3200800121 2.0840086937 22.555999756 106.54523468 0.3630000055 36.687000275 0.5110007524
 1814.0158691 2.0000000000 0.1289996952 8.6289997101 8.5000000000 10.000000000 0.0030000000 0.3217700124 2.0820193291 21.920000076 106.36318970 0.3630000055 36.508998871 0.5109999776
 1814.1683350 2.0000000000 0.1239996180 8.6239995956 8.5000000000 10.000000000 0.0039991988 0.3312000036 2.0800175667 21.791999817 106.19933319 0.3639991879 36.330001831 0.5109999776
 1814.3206787 2.0000000000 0.1180000007 8.6180000305 8.5000000000 10.000000000 0.0040000002 0.3410399854 2.0799999237 20.579999924 105.95539093 0.3639999926 36.277999878 0.5100015998
 1814.4731445 2.0000000000 0.1140002906 8.6140003204 8.5000000000 10.000000000 0.0030008012 0.3447200060 2.0790088177 20.125999451 105.82590485 0.3649992049 36.476001740 0.5099999905
 1814.6254883 2.0000000000 0.1129999012 8.6129999161 8.5000000000 10.000000000 0.0020008013 0.3408600092 2.0789999962 21.099000931 105.85997009 0.3650000095 36.722999573 0.5090007782
 1814.7779541 2.0000000000 0.1120005101 8.6120004654 8.5000000000 10.000000000 0.0029991993 0.3299199939 2.0780088902 21.785999298 105.77936554 0.3659991920 36.720001221 0.5090000033
 1814.9302979 2.0000000000 0.1120005101 8.6120004654 8.5000000000 10.000000000 0.0079959938 0.3161500096 2.0819659233 21.892999649 105.40639496 0.3659999967 36.599998474 0.5080007911
 1815.0827637 2.0000000000 0.1110001057 8.6110000610 8.5000000000 10.000000000 0.0129959974 0.3064300120 2.0899305344 22.201000214 104.98644257 0.3669992089 36.563999176 0.5080000162
 1815.2351074 2.0000000000 0.1110001057 8.6110000610 8.5000000000 10.000000000 0.0149983969 0.3051399887 2.0979316235 23.472999573 104.89387512 0.3670000136 36.673999786 0.5070008039
 1815.3875732 2.0000000000 0.1099997088 8.6099996567 8.5000000000 10.000000000 0.0159991998 0.3100399971 2.1059305668 22.919000626 105.06275940 0.3670000136 36.877998352 0.5070000291
 1815.5399170 2.0000000000 0.1099997088 8.6099996567 8.5000000000 10.000000000 0.0169992000 0.3190500140 2.1119482517 22.329000473 105.38384247 0.3679991961 37.019001007 0.5060007572
 1815.6922607 2.0000000000 0.1090001985 8.6090002060 8.5000000000 10.000000000 0.0179983974 0.3262400031 2.1149721146 22.253999710 105.77117920 0.3680000007 37.106998444 0.5059999824
 1815.8447266 2.0000000000 0.1079998016 8.6079998016 8.5000000000 10.000000000 0.0199983977 0.3280299902 2.1130175591 22.763999939 106.05627441 0.3689991832 37.257999420 0.5069992542
 1815.9970703 2.0000000000 0.1079998016 8.6079998016 8.5000000000 10.000000000 0.0209983978 0.3277699947 2.1159722805 22.875999451 106.28993225 0.3689999878 37.290000916 0.5149871707
 1816.1495361 2.0000000000 0.1070004031 8.6070003510 8.5000000000 10.000000000 0.0219991989 0.3274900019 2.1189746857 22.888000488 106.55978394 0.3699992001 37.191001892 0.5249919891
 1816.3018799 2.0000000000 0.1070004031 8.6070003510 8.5000000000 10.000000000 0.0229983982 0.3269999921 2.1170191765 22.899999619 106.71215057 0.3700000048 37.159000397 0.5309904218
 1816.4543457 2.0000000000 0.1059999019 8.6059999466 8.5000000000 10.000000000 0.0239991993 0.3258599937 2.1150176525 22.913000107 106.48157501 0.3700000048 37.261001587 0.5310000181
 1816.6066895 2.0000000000 0.1059999019 8.6059999466 8.5000000000 10.000000000 0.0249991994 0.3244000077 2.1150000095 22.676000595 106.22711182 0.3700000048 37.361999512 0.5280023813
 1816.7591553 2.0000000000 0.1049994975 8.6049995422 8.5000000000 10.000000000 0.0250000004 0.3236800134 2.1150000095 22.638000488 106.20292664 0.3700000048 37.410999298 0.5260016322
 1816.9114990 2.0000000000 0.1049994975 8.6049995422 8.5000000000 10.000000000 0.0230016019 0.3239600062 2.1130175591 23.264999390 106.07409668 0.3709991872 37.486000061 0.5230023861
 1817.0639648 2.0000000000 0.1040000916 8.6040000916 8.5000000000 10.000000000 0.0160056055 0.3235900104 2.1080429554 23.781999588 105.82490540 0.3729983866 37.358001709 0.5220007896
 1817.2163086 2.0000000000 0.1029997021 8.6029996872 8.5000000000 10.000000000 0.0090056090 0.3224500120 2.1000683308 22.995000839 105.46958160 0.3749983907 37.051998138 0.5279951692
 1817.3687744 2.0000000000 0.1029997021 8.6029996872 8.5000000000 10.000000000 0.0060024019 0.3233000040 2.0990090370 21.715000153 104.80613708 0.3759991825 36.782001495 0.5389911532
 1817.5211182 2.0000000000 0.1020001993 8.6020002365 8.5000000000 10.000000000 0.0069991988 0.3260099888 2.1039569378 22.135999680 104.14003754 0.3769991994 36.638000488 0.5499911904
 1817.6735840 2.0000000000 0.1020001993 8.6020002365 8.5000000000 10.000000000 0.0099975979 0.3279699981 2.1059823036 23.281000137 103.74871826 0.3779991865 36.613998413 0.5579936504
 1817.8259277 2.0000000000 0.1009997949 8.6009998322 8.5000000000 10.000000000 0.0099999998 0.3284600079 2.1030254364 23.152000427 103.72932434 0.3789992034 36.652000427 0.5560016036
 1817.9782715 2.0000000000 0.1009997949 8.6009998322 8.5000000000 10.000000000 0.0090016006 0.3280799985 2.0960662365 21.798999786 104.25056458 0.3799983859 36.678001404 0.5470144153
 1818.1307373 2.0000000000 0.1000003964 8.6000003815 8.5000000000 10.000000000 0.0089999996 0.3269900084 2.0890607834 21.551000595 104.94374084 0.3799999952 36.700000763 0.5360088348
 1818.2830811 2.0000000000 0.0989999622 8.5989999771 8.5000000000 10.000000000 0.0099983988 0.3248800039 2.0929627419 21.562999725 105.30811310 0.3799999952 36.700000763 0.5270144343
 1818.4355469 2.0000000000 0.0989999622 8.5989999771 8.5000000000 10.000000000 0.0099999998 0.3218399882 2.0999395847 21.409999847 105.12675476 0.3799999952 36.685001373 0.5210048556
