# LAS format log file from PETREL
# Project units are specified as depth units
#==================================================================
~Version information
VERS.   2.0:
WRAP.   NO:
#==================================================================
~Well
STRT .m      1118.6159668 :
STOP .m      2017.3187256 :
STEP .m     0.00000000 :
NULL .        -999.250000 :
COMP.           : COMPANY
WELL.  25/11-15  Grane   : WELL
FLD.            : FIELD
LOC.            : LOCATION
SRVC.           : SERVICE COMPANY
DATE.  2018-09-11 14:48:15   : Log Export Date {yyyy-MM-dd HH:mm:ss}
PROV.           : PROVINCE
UWI.   25/11-15   : UNIQUE WELL ID
API.            : API NUMBER
#==================================================================
~Curve
DEPT .m                   : DEPTH
Lithology_geolink ._      : Lithology_geolink
CALI .in                  : CALI
BS .in                    : BS
MUDWEIGHT ._              : MUDWEIGHT
ROP .m/h                  : ROP
TGAS ._                   : TGAS
DRHO .g/cm3               : DRHO
THOR .ppm                 : THOR
NPHI .m3/m3               : NPHI
RHOB .g/cm3               : RHOB
GR .gAPI                  : GR
URAN .ppm                 : URAN
DTC .us/ft                : DTC
DTE .us/ft                : DTE
RDEP .ohm.m               : RDEP
SP .mV                    : SP
RSHA .ohm.m               : RSHA
RMED .ohm.m               : RMED
~Parameter
#==================================================================
~Ascii
# ...
 1953.4631348 13.000000000 8.2876939774 8.5000000000 1.1599999666 123059.23438 0.0206000004 -0.087686583 15.560117722 0.4315699935 2.3079214096 121.93344879 -2.167630196 115.43648529 114.20687103 1.2508350611 72.699600220 1.6282685995 1.2095971107
 1953.6154785 13.000000000 8.2720909119 8.5000000000 1.1599999666 123604.05469 0.0206000004 -0.086037040 15.105964661 0.4307807982 2.3109159470 124.36695099 -2.346356630 117.43499756 115.89998627 1.1348899603 75.197990417 1.3311657906 1.2065982819
 1953.7679443 13.000000000 8.2604103088 8.5000000000 1.1599999666 124961.67188 0.0206000004 -0.084110357 14.695927620 0.4057117105 2.3334939480 116.69145203 -2.504473448 115.79382324 114.94381714 1.1147800684 75.199996948 1.5015583038 1.2015790939
 1953.9202881 13.000000000 8.2891016006 8.5000000000 1.1599999666 124665.29688 0.0206000004 -0.083137579 11.834294319 0.3708162010 2.3661968708 110.74966431 -2.710035324 112.89882660 112.41349792 1.2447328568 76.698791504 1.7864645720 1.4258791208
 1954.0726318 13.000000000 8.2904243469 8.5000000000 1.1599999666 114956.71875 0.0206000004 -0.083716288 11.582000732 0.3464795947 2.3972721100 103.75510406 -2.757923365 104.47422028 105.03350067 1.4892709255 77.698394775 2.2334783077 1.6590284109
 1954.2250977 13.000000000 8.3118553162 8.5000000000 1.1599999666 112344.83594 0.0206000004 -0.084075831 11.114574432 0.3065307140 2.4171950817 98.252395630 -2.867512226 100.88896179 100.52165985 1.7903637886 78.199592590 3.0835309029 2.0667922497
 1954.3774414 12.000000000 8.3946447372 8.5000000000 1.1599999666 112344.83594 0.0206000004 -0.084632345 11.165617943 0.2941010892 2.4337716103 95.249214172 -2.832556248 99.457916260 98.604667664 1.9449014664 77.201599121 2.9560804367 2.2524867058
 1954.5299072 12.000000000 8.4375000000 8.5000000000 1.1599999666 112460.39063 0.0206000004 -0.084320083 10.916799545 0.2836177051 2.4322082996 89.880645752 -2.894250393 99.058219910 98.092521667 2.0430786610 78.698791504 2.9323978424 2.3353717327
 1954.6822510 12.000000000 8.4375000000 8.5000000000 1.1599999666 113736.34375 0.0206000004 -0.084922299 10.951843262 0.2958992124 2.4430766106 92.061866760 -2.642104626 98.224388123 97.224365234 2.1303911209 80.197593689 3.0655653477 2.3984308243
 1954.8347168 12.000000000 8.4375000000 8.5000000000 1.1599999666 114206.75781 0.0206693523 -0.086387739 10.853178978 0.3073971868 2.4367079735 94.999870300 -2.607127666 98.304092407 97.163787842 2.1473653316 81.199195862 3.2539391518 2.4312498569
 1954.9870605 12.000000000 8.4374961853 8.5000000000 1.1599999666 114206.75781 0.0212352853 -0.088856906 10.781058311 0.3228827119 2.4428858757 99.058792114 -2.627783298 98.580497742 97.408195496 2.1397202015 78.702003479 3.0588755608 2.3876640797
 1955.1395264 12.000000000 8.4328775406 8.5000000000 1.1599999666 96219.070313 0.0223155059 -0.089293711 10.532799721 0.3205013871 2.4333095551 98.561454773 -2.721125126 98.263748169 97.107910156 2.1465845108 81.697593689 2.9715697765 2.3113770485
 1955.2918701 12.000000000 8.3874435425 8.5000000000 1.1599999666 88138.078125 0.0235345550 -0.088042468 10.349946976 0.3185026944 2.4376943111 95.560226440 -2.778154135 98.222221375 97.164604187 2.1386125088 82.199592590 2.9712862968 2.3456943035
 1955.4443359 12.000000000 8.4375000000 8.5000000000 1.1599999666 88231.007813 0.0248978026 -0.086310804 10.166147232 0.3193067908 2.4348053932 90.065933228 -2.752520561 97.310363770 96.288284302 2.1359281540 82.699600220 3.3252441883 2.3717870712
 1955.5966797 12.000000000 8.4375000000 8.5000000000 1.1599999666 89527.687500 0.0262692310 -0.084092423 10.268117905 0.3373751938 2.4417982101 87.754508972 -2.609015226 97.626487732 96.411354065 2.1934199333 81.700798035 3.1598567963 2.3917109966
 1955.7491455 12.000000000 8.4375000000 8.5000000000 1.1599999666 90000.000000 0.0277902447 -0.082496516 10.133008957 0.3283055127 2.4470968246 91.123931885 -2.633580208 98.262390137 96.948272705 2.2215445042 80.700798035 3.0650417805 2.4257879257
 1955.9014893 12.000000000 8.4375000000 8.5000000000 1.1599999666 90257.937500 0.0294067245 -0.081102468 9.8993873596 0.3189926147 2.4494991302 95.686119080 -2.650086880 96.552413940 95.798225403 2.2050213814 79.700798035 3.2538366318 2.4678633213
 1956.0538330 12.000000000 8.4375000000 8.5000000000 1.1599999666 122188.59375 0.0298461542 -0.082193933 9.6189489365 0.2963191867 2.4506850243 98.800804138 -2.723681927 95.093467712 94.215148926 2.1937100887 77.703201294 3.3759384155 2.4640102386
 1956.2062988 12.000000000 8.4374971390 8.5000000000 1.1599999666 134689.67188 0.0289439559 -0.083668202 9.3954792023 0.2936154902 2.4389045238 92.691864014 -2.800338745 99.056205750 97.162033081 2.1759712696 79.698394775 3.0587115288 2.3783826828
 1956.3586426 12.000000000 8.4328403473 8.5000000000 1.1599999666 134689.67188 0.0274553113 -0.086210206 9.0822029114 0.3130866885 2.4306850433 91.872238159 -2.886961222 100.52445221 99.099014282 2.0873820782 77.204002380 2.8502907753 2.2526965141
 1956.5111084 12.000000000 8.3749494553 8.5000000000 1.1599999666 134621.98438 0.0258901101 -0.086741142 8.7651538849 0.3186914027 2.4039134979 87.939483643 -2.932763338 98.105079651 97.508773804 1.9505865574 79.198394775 2.4527854919 2.0630099773
 1956.6634521 12.000000000 8.2891016006 8.5000000000 1.1599999666 133283.93750 0.0243663006 -0.084989563 7.7466325760 0.3134737015 2.3900082111 85.997352600 -3.032340288 97.310195923 96.256271362 1.8586512804 80.198394775 2.3970448971 1.9944447279
 1956.8159180 12.000000000 8.2904071808 8.5000000000 1.1599999666 132827.40625 0.0229582414 -0.082111917 7.2975587845 0.2811335027 2.3757081032 80.063385010 -3.141912222 96.712104797 95.741226196 1.7720004320 80.699592590 2.0673034191 1.9285447598
 1956.9682617 12.000000000 8.3033866882 8.5000000000 1.1599999666 132827.40625 0.0214505494 -0.080476910 6.5388078690 0.2845937014 2.3692882061 72.877700806 -3.233526468 93.687629700 93.134834290 1.6746759415 80.699996948 1.6344659328 1.9136599302
 1957.1207275 12.000000000 8.2891006470 8.5000000000 1.1599999666 132517.37500 0.0216238108 -0.078633517 6.8708333969 0.2814080119 2.3504140377 69.500022888 -2.754184008 90.872146606 90.373283386 1.5709201097 82.198799133 1.4461565018 1.7528579235
 1957.2730713 12.000000000 8.2891006470 8.5000000000 1.1599999666 128345.10938 0.0228301585 -0.077257290 7.8838877678 0.2915884852 2.3475093842 63.882301331 -1.891991019 90.826736450 89.662109375 1.4421312809 84.697990417 1.4584640265 1.6089702845
 1957.4255371 12.000000000 8.2891006470 8.5000000000 1.1599999666 127241.27344 0.0242551900 -0.076609232 8.5630559921 0.2898044884 2.3554074764 67.187065125 -1.541380405 94.684143066 92.817481995 1.4448257685 84.699996948 1.6802492142 1.5561182499
 1957.5778809 12.000000000 8.2891054153 8.5000000000 1.1599999666 127241.27344 0.0259336587 -0.077507444 9.0037469864 0.2964875996 2.3886911869 72.566978455 -1.221156597 97.744369507 96.098106384 1.5213756561 85.199592590 2.3298981190 1.7510856390
 1957.7303467 12.000000000 8.2956266403 8.5000000000 1.1599999666 127241.27344 0.0275936518 -0.079069003 8.6923494339 0.2890107036 2.4113848209 83.805580139 -1.403154016 99.336349487 97.822677612 1.6716506481 85.199996948 2.6273150444 2.0899667740
 1957.8826904 13.000000000 8.3730440140 8.5000000000 1.1599999666 127241.27344 0.0299035367 -0.082856223 13.131639481 0.2986137867 2.4206836224 89.753822327 -1.124723434 101.72178650 100.09767914 1.7242639065 84.200798035 2.4973154068 2.2011950016
 1958.0351563 13.000000000 8.4341897964 8.5000000000 1.1599999666 128520.74219 0.0305000003 -0.086885408 14.542672157 0.3308762908 2.4079053402 101.68104553 -0.530775785 104.34380341 102.61592865 1.6664453745 84.699600220 1.7028414011 1.9210416079
 1958.1875000 13.000000000 8.3983993530 8.5000000000 1.1599999666 129103.55469 0.0305000003 -0.085937701 12.611149788 0.3581782877 2.3889081478 112.62513733 -1.307177067 106.21800232 104.76750183 1.4788793325 85.199592590 1.7205393314 1.6520055532
 1958.3398438 13.000000000 8.3970775604 8.5000000000 1.1599999666 129103.55469 0.0304000005 -0.083220564 12.337436676 0.3657771945 2.3785893917 126.16390228 -1.442284346 106.61196899 105.34011841 1.3990768194 82.204803467 1.8047829866 1.4930975437
