# LAS format log file from PETREL
# Project units are specified as depth units
#==================================================================
~Version information
VERS.   2.0:
WRAP.   NO:
#==================================================================
~Well
STRT .m      383.59057617 :
STOP .m      2173.8320313 :
STEP .m     0.00000000 :
NULL .        -999.250000 :
COMP.           : COMPANY
WELL.  25/11-5 Balder Appr   : WELL
FLD.            : FIELD
LOC.            : LOCATION
SRVC.           : SERVICE COMPANY
DATE.  2018-09-11 14:48:16   : Log Export Date {yyyy-MM-dd HH:mm:ss}
PROV.           : PROVINCE
UWI.   25/11-5   : UNIQUE WELL ID
API.            : API NUMBER
#==================================================================
~Curve
DEPT .m                   : DEPTH
Lithology_geolink ._      : Lithology_geolink
DCAL .in                  : DCAL
CALI .in                  : CALI
BS .in                    : BS
MUDWEIGHT ._              : MUDWEIGHT
DRHO .g/cm3               : DRHO
NPHI .m3/m3               : NPHI
RHOB .g/cm3               : RHOB
GR .gAPI                  : GR
DTC .us/ft                : DTC
RDEP .ohm.m               : RDEP
SP .mV                    : SP
RMED .ohm.m               : RMED
~Parameter
#==================================================================
~Ascii
# ...
 745.69268799  -999.250000 0.1619996876 12.411999702 12.250000954 9.1999998093  -999.250000  -999.250000  -999.250000 46.592998505 142.92630005 1.2830003500 35.696998596 1.2059971094
 745.84509277  -999.250000 0.1619996876 12.411999702 12.250000954 9.1999998093  -999.250000  -999.250000  -999.250000 45.097000122 142.78625488 1.2829999924 35.897998810 1.2119976282
 745.99749756  -999.250000 0.1800003052 12.430000305 12.250000954 9.1999998093  -999.250000  -999.250000  -999.250000 44.675998688 142.74061584 1.2849991322 36.162998199 1.2199968100
 746.14990234  -999.250000 0.2069997936 12.456999779 12.250000954 9.1999998093  -999.250000  -999.250000  -999.250000 46.120998383 142.75019836 1.2879987955 36.562000275 1.2289963961
 746.30230713  -999.250000 0.2379999012 12.487999916 12.250000954 9.1999998093  -999.250000  -999.250000  -999.250000 46.256000519 142.66293335 1.2899991274 37.011001587 1.2369967699
 746.45471191  -999.250000 0.2550001144 12.505000114 12.250000954 9.1999998093  -999.250000  -999.250000  -999.250000 43.673000336 142.62551880 1.2909996510 37.219001770 1.2449967861
 746.60705566  -999.250000 0.2410002053 12.491000175 12.250000954 9.1999998093  -999.250000  -999.250000  -999.250000 44.715000153 142.75209045 1.2890015841 37.116001129 1.2519943714
 746.75946045  -999.250000 0.2410002053 12.491000175 12.250000954 9.1999998093  -999.250000  -999.250000  -999.250000 45.747001648 142.91906738 1.2840040922 37.039001465 1.2549976110
 746.91186523  -999.250000 0.2399997860 12.489999771 12.250000954 9.1999998093  -999.250000  -999.250000  -999.250000 46.289001465 143.08027649 1.2790040970 37.258998871 1.2470064163
 747.06427002  -999.250000 0.2500000000 12.500000000 12.250000954 9.1999998093  -999.250000  -999.250000  -999.250000 45.761001587 143.14537048 1.2740020752 37.456001282 1.2320059538
 747.21667480  -999.250000 0.2510004044 12.501000404 12.250000954 9.1999998093  -999.250000  -999.250000  -999.250000 44.173999786 143.42768860 1.2690020800 37.551998138 1.2120000124
 747.36907959  -999.250000 0.2290001065 12.479000092 12.250000954 9.1999998093  -999.250000  -999.250000  -999.250000 42.257999420 143.69079590 1.2670007944 37.564998627 1.1990000010
 747.52148438  -999.250000 0.2469996959 12.496999741 12.250000954 9.1999998093  -999.250000  -999.250000  -999.250000 39.889999390 143.88092041 1.2669999599 37.373001099 1.2000000477
 747.67388916  -999.250000 0.2740001976 12.524001122 12.250000954 9.1999998093  -999.250000  -999.250000  -999.250000 40.498001099 144.96675110 1.2660003901 37.393001556 1.2079999447
 747.82629395  -999.250000 0.2790003121 12.529000282 12.250000954 9.1999998093  -999.250000  -999.250000  -999.250000 43.563999176 146.07795715 1.2669996023 37.105998993 1.2150000334
 747.97869873  -999.250000 0.2790003121 12.529000282 12.250000954 9.1999998093  -999.250000  -999.250000  -999.250000 45.256999969 144.19236755 1.2749967575 36.841999054 1.2059999704
 748.13110352  -999.250000 0.2790003121 12.529000282 12.250000954 9.1999998093  -999.250000  -999.250000  -999.250000 44.948001862 143.19699097 1.2889944315 36.442001343 1.1970000267
 748.28350830  -999.250000 0.2790003121 12.529000282 12.250000954 9.1999998093  -999.250000  -999.250000  -999.250000 45.248001099 143.30105591 1.3019948006 35.979999542 1.1970000267
 748.43591309  -999.250000 0.2790003121 12.529000282 12.250000954 9.1999998093  -999.250000  -999.250000  -999.250000 45.698001862 143.28419495 1.3139952421 35.978000641 1.2100000381
 748.58831787  -999.250000 0.2779999077 12.527998924 12.250000954 9.1999998093  -999.250000  -999.250000  -999.250000 46.445999146 143.22731018 1.3209971189 36.278999329 1.2430000305
 748.74066162  -999.250000 0.2779999077 12.527998924 12.250000954 9.1999998093  -999.250000  -999.250000  -999.250000 46.672000885 143.17344666 1.3289999962 36.313999176 1.2669999599
 748.89306641  -999.250000 0.2749995887 12.524999619 12.250000954 9.1999998093  -999.250000  -999.250000  -999.250000 46.647998810 143.07087708 1.3339999914 36.318000793 1.2790000439
 749.04547119  -999.250000 0.2709999084 12.520999908 12.250000954 9.1999998093  -999.250000  -999.250000  -999.250000 47.645999908 142.96777344 1.3339999914 36.202999115 1.2760000229
 749.19787598  -999.250000 0.2679995894 12.517999649 12.250000954 9.1999998093  -999.250000  -999.250000  -999.250000 46.855998993 142.94181824 1.3339999914 35.948001862 1.2669999599
 749.35028076  -999.250000 0.2639999092 12.513999939 12.250000954 9.1999998093  -999.250000  -999.250000  -999.250000 43.736999512 142.97927856 1.3329999447 35.909000397 1.2680000067
 749.50268555  -999.250000 0.2600001991 12.510000229 12.250000954 9.1999998093  -999.250000  -999.250000  -999.250000 43.618000031 142.89663696 1.3329999447 36.259998322 1.2749999762
 749.65509033  -999.250000 0.2569999993 12.506999969 12.250000954 9.1999998093  -999.250000  -999.250000  -999.250000 44.229999542 142.79205322 1.3320000172 36.701999664 1.2799999714
 749.80749512  -999.250000 0.2569999993 12.506999969 12.250000954 9.1999998093  -999.250000  -999.250000  -999.250000 43.971000671 142.63316345 1.3320000172 36.969001770 1.2790000439
 749.95989990  -999.250000 0.2569999993 12.506999969 12.250000954 9.1999998093  -999.250000  -999.250000  -999.250000 45.096000671 142.30734253 1.3309999704 37.194999695 1.2790000439
 750.11230469  -999.250000 0.2569999993 12.506999969 12.250000954 9.1999998093  -999.250000  -999.250000  -999.250000 46.304000854 141.91575623 1.3309999704 37.390998840 1.2949999571
 750.26470947  -999.250000 0.2569999993 12.506999969 12.250000954 9.1999998093  -999.250000  -999.250000  -999.250000 46.465999603 141.85981750 1.3309999704 37.388000488 1.3059999943
 750.41711426  -999.250000 0.2569999993 12.506999969 12.250000954 9.1999998093  -999.250000  -999.250000  -999.250000 44.356998444 142.00694275 1.3339999914 37.384998322 1.3009999990
 750.56951904  -999.250000 0.2559995949 12.505998611 12.250000954 9.1999998093  -999.250000  -999.250000  -999.250000 43.629001617 141.97161865 1.3470000029 37.513000488 1.2920000553
 750.72186279  -999.250000 0.2559995949 12.505998611 12.250000954 9.1999998093  -999.250000  -999.250000  -999.250000 45.743000031 141.68162537 1.3660000563 37.293998718 1.3079999685
 750.87426758  -999.250000 0.2550001144 12.505000114 12.250000954 9.1999998093  -999.250000  -999.250000  -999.250000 46.770000458 141.09487915 1.3849999905 36.901000977 1.3420000076
 751.02667236  -999.250000 0.2489995956 12.499000549 12.250000954 9.1999998093  -999.250000  -999.250000  -999.250000 46.403999329 140.26976013 1.4029999971 36.431999207 1.3669999838
 751.17907715  -999.250000 0.2430000007 12.493000031 12.250000954 9.1999998093  -999.250000  -999.250000  -999.250000 44.421001434 139.89585876 1.4229999781 36.227001190 1.3780000210
 751.33148193  -999.250000 0.2370004952 12.487000465 12.250000954 9.1999998093  -999.250000  -999.250000  -999.250000 42.903999329 139.37921143 1.4440000057 36.212001801 1.3769999743
 751.48388672  -999.250000 0.2290001065 12.479000092 12.250000954 9.1999998093  -999.250000  -999.250000  -999.250000 40.937999725 138.72245789 1.4609999657 36.112998962 1.3750000000
 751.63629150  -999.250000 0.2209996879 12.470999718 12.250000954 9.1999998093  -999.250000  -999.250000  -999.250000 38.784999847 138.37854004 1.4680000544 35.959999084 1.3689999580
 751.78869629  -999.250000 0.2240000069 12.473999977 12.250000954 9.1999998093  -999.250000  -999.250000  -999.250000 39.391998291 138.65539551 1.4670000076 36.008998871 1.3600000143
 751.94110107  -999.250000 0.2500000000 12.500000000 12.250000954 9.1999998093  -999.250000  -999.250000  -999.250000 41.423999786 138.83802795 1.4670000076 35.949001312 1.3539999723
 752.09350586  -999.250000 0.2550001144 12.505000114 12.250000954 9.1999998093  -999.250000  -999.250000  -999.250000 44.138000488 138.80331421 1.4659999609 35.893001556 1.3569999933
 752.24591064  -999.250000 0.2550001144 12.505000114 12.250000954 9.1999998093  -999.250000  -999.250000  -999.250000 44.449001312 138.73263550 1.4700000286 35.838001251 1.3639999628
