# LAS format log file from PETREL
# Project units are specified as depth units
#==================================================================
~Version information
VERS.   2.0:
WRAP.   NO:
#==================================================================
~Well
STRT .m      353.26309204 :
STOP .m      2468.2702637 :
STEP .m     0.00000000 :
NULL .        -999.250000 :
COMP.           : COMPANY
WELL.  25/11-1  Balder   : WELL
FLD.            : FIELD
LOC.            : LOCATION
SRVC.           : SERVICE COMPANY
DATE.  2018-09-11 14:48:15   : Log Export Date {yyyy-MM-dd HH:mm:ss}
PROV.           : PROVINCE
UWI.   25/11-1   : UNIQUE WELL ID
API.            : API NUMBER
#==================================================================
~Curve
DEPT .m                   : DEPTH
Lithology_geolink ._      : Lithology_geolink
CALI .in                  : CALI
MUDWEIGHT ._              : MUDWEIGHT
ROP .m/h                  : ROP
DRHO .g/cm3               : DRHO
RHOB .g/cm3               : RHOB
GR .gAPI                  : GR
DTC .us/ft                : DTC
DTE .us/ft                : DTE
RDEP .ohm.m               : RDEP
SP .mV                    : SP
RSHA .ohm.m               : RSHA
RMED .ohm.m               : RMED
~Parameter
#==================================================================
~Ascii
# ...
 1613.9157715  -999.250000 20.108089447 10.100000381 2.3135221004 0.0000000000 2.0530979633 51.028331757 154.20002747 154.19992065 0.4734007120 60.076656342 0.4384262264 0.6290001273
 1614.0682373  -999.250000 19.859601974 10.100000381 1.6332247257 0.0000000000 2.0636873245 51.348514557 155.92491150 155.92550659 0.4902932942 59.894599915 0.4318077862 0.6307992935
 1614.2205811  -999.250000 19.431909561 10.100000381 1.6177895069 0.0007315705 2.0682964325 50.634693146 155.72685242 155.72686768 0.5046997070 59.748821259 0.4300014377 0.6345999241
 1614.3730469  -999.250000 19.206300735 10.100000381 1.6174614429 0.0010000000 2.0654034615 48.205245972 154.62106323 154.62059021 0.5087981820 59.641258240 0.4467787445 0.6390979886
 1614.5253906  -999.250000 19.112009048 10.100000381 1.6171333790 -0.001926282 2.0593049526 45.973880768 153.04734802 153.04727173 0.5052003264 59.598846436 0.5118420720 0.6407998800
 1614.6778564  -999.250000 18.786069870 10.100000381 1.6289929152 -0.011049640 2.0505111217 44.717456818 151.45167542 151.45088196 0.4997028112 59.604755402 0.4758467674 0.6401004195
 1614.8302002  -999.250000 18.587129593 10.100000381 1.6289443970 -0.016926281 2.0423076153 45.461589813 150.55412292 150.55401611 0.4938007891 59.611202240 0.4516228139 0.6406999230
 1614.9826660  -999.250000 18.776790619 10.100000381 1.6289370060 -0.015804643 2.0450959206 47.875965118 156.20416260 156.20747375 0.4877035022 59.614204407 0.4824567735 0.6440979838
 1615.1350098  -999.250000 18.821289063 10.100000381 1.4839701653 -0.013536859 2.0415039063 48.607067108 155.09150696 155.09120178 0.4820011854 59.657585144 0.4801024199 0.6471992731
 1615.2873535  -999.250000 17.857120514 10.100000381 1.3116220236 -0.010807046 2.0208461285 48.427009583 156.62710571 156.62812805 0.4783023894 59.902000427 0.3908946812 0.6450014114
 1615.4398193  -999.250000 16.541660309 10.100000381 1.3035733700 -0.008536859 2.0037186146 47.755016327 159.38827515 159.38899231 0.4761005938 60.127433777 0.4785032272 0.6372020841
 1615.5921631  -999.250000 16.076530457 10.100000381 1.3191931248 -0.035777424 1.9974141121 48.996929169 159.51280212 159.51290894 0.4725024998 60.032203674 0.5822532177 0.6297053099
 1615.7446289  -999.250000 16.085500717 10.100000381 1.3311001062 -0.048194710 1.9872112274 51.248645782 159.53178406 159.53178406 0.4650025070 59.865112305 0.5557302237 0.6261011958
 1615.8969727  -999.250000 16.263959885 10.100000381 1.3310441971 -0.045345075 1.9659501314 51.250301361 159.55047607 159.55047607 0.4516100883 59.826202393 0.6203439236 0.6256003976
 1616.0494385  -999.250000 17.115659714 10.100000381 1.3307161331 -0.038147435 1.9464236498 49.951850891 159.56918335 159.56918335 0.4315077960 59.962932587 0.6157057285 0.6279991269
 1616.2017822  -999.250000 19.017349243 10.100000381 1.3300672770 -0.034538031 1.9366078377 47.053001404 159.58789063 159.58789063 0.4075007141 60.271167755 0.4979973733 0.6314998865
 1616.3542480  -999.250000 20.360679626 10.100000381 1.3419194221 -0.032536861 1.9351022243 43.309417725 159.60658264 159.60658264 0.3915072083 60.484035492 0.4356766641 0.6305004954
 1616.5065918  -999.250000 21.147729874 10.100000381 1.3418709040 -0.031268429 1.9286062717 41.637489319 159.62519836 159.62519836 0.3950996995 60.641532898 0.4081244469 0.6229007244
 1616.6590576  -999.250000 21.617359161 10.100000381 1.3412220478 -0.030268215 1.9129204750 43.411647797 159.64389038 159.64398193 0.4136900902 60.610256195 0.4214821756 0.6143044829
 1616.8114014  -999.250000 21.969049454 10.100000381 1.3412073851 -0.029999999 1.8985135555 43.087810516 159.66256714 159.66259766 0.4368962944 60.482681274 0.4448775649 0.6102005839
 1616.9638672  -999.250000 22.243839264 10.100000381 1.2401777506 -0.029999999 1.8865166903 43.225608826 159.68128967 159.68128967 0.4620848894 60.687004089 0.4853428900 0.6120988727
 1617.1162109  -999.250000 22.280590057 10.100000381 0.8558796048 -0.024147436 1.9263590574 43.326801300 159.69999695 159.69999695 0.4884940982 60.838607788 0.4934917092 0.6212980151
 1617.2685547  -999.250000 21.521991730 10.100000381 0.7141193151 -0.006649320 1.9839706421 43.902797699 159.71867371 159.71867371 0.5138831139 60.809154510 0.4621699452 0.6350908875
 1617.4210205  -999.250000 20.145490646 10.100000381 0.6663775444 0.0026578526 2.0364429951 46.339366913 159.73739624 159.73739624 0.5378931165 60.853141785 0.5196367502 0.6465967894
 1617.5733643  -999.250000 18.034400940 10.100000381 0.6489974260 0.0047309846 2.0706212521 50.036540985 159.75607300 159.75607300 0.5603836775 60.872329712 0.4555456638 0.6486985087
 1617.7258301  -999.250000 16.437250137 10.100000381 0.6479806304 0.0057315705 2.0795898438 56.493816376 159.77476501 159.77479553 0.5800930858 60.497734070 0.3932696581 0.6413025260
 1617.8781738  -999.250000 16.119449615 10.100000381 0.6598326564 0.0067309849 2.0815956593 60.306644440 159.79347229 159.79347229 0.5916910172 59.968006134 0.4426799715 0.6357042789
 1618.0306396  -999.250000 16.267740250 10.100000381 0.6597842574 0.0091947112 2.0836973190 59.568996429 159.77133179 159.77133179 0.5851026177 59.724334717 0.4593798816 0.6397982836
 1618.1829834  -999.250000 16.454790115 10.100000381 0.6594561934 0.0114619695 2.0862977505 58.123218536 159.42329407 159.42327881 0.5594009161 59.867874146 0.4733882546 0.6494997144
 1618.3354492  -999.250000 16.477790833 10.100000381 0.6591280699 0.0149262827 2.0946893692 57.776039124 159.07507324 159.07496643 0.5256152749 60.246013641 0.5361185670 0.6589955091
 1618.4877930  -999.250000 16.381610870 10.100000381 0.6584792733 0.0108790062 2.1011936665 58.310813904 158.72665405 158.72657776 0.4941030145 60.363407135 0.6033391356 0.6666991711
 1618.6402588  -999.250000 16.250270844 10.100000381 0.6501256227 0.0024139311 2.1015996933 57.554004669 158.37846375 158.37828064 0.4701124132 60.110767365 0.5694446564 0.6716973782
 1618.7926025  -999.250000 15.393341064 10.100000381 0.6576316953 -0.001463141 2.0968048573 55.652935028 157.14988708 157.14968872 0.4550023973 60.013126373 0.5137531161 0.6723998785
 1618.9450684  -999.250000 14.630649567 10.100000381 0.6574876308 -0.002000000 2.0883049965 54.343830109 156.41169739 156.41130066 0.4486036897 60.260089874 0.4683620334 0.6700013876
 1619.0974121  -999.250000 14.326169014 10.100000381 0.6571595669 -0.002000000 2.0757029057 53.531433105 155.82827759 155.82817078 0.4477002025 60.422683716 0.5010661483 0.6676005125
 1619.2497559  -999.250000 14.205181122 10.100000381 0.6568318009 -0.002730985 2.0682051182 51.544185638 155.84297180 155.84297180 0.4498985112 60.463680267 0.5913907886 0.6662008762
 1619.4022217  -999.250000 14.257779121 10.100000381 0.6561827064 -0.004463141 2.0605020523 50.290363312 153.58671570 153.58601379 0.4544985890 60.278110504 0.6405461431 0.6664999127
 1619.5545654  -999.250000 14.529808998 10.100000381 0.6561679840 -0.006461970 2.0483090878 51.772750854 152.59376526 152.59309387 0.4607954025 59.922748566 0.5562916994 0.6653009057
 1619.7070313  -999.250000 14.840290070 10.100000381 0.6555265188 -0.010657853 2.0382030010 57.025047302 155.05113220 155.05203247 0.4680973887 59.859382629 0.4802854657 0.6600018740
 1619.8593750  -999.250000 14.854490280 10.100000381 0.6555117965 -0.014923939 2.0351018906 59.716487885 153.61380005 153.61270142 0.4765932858 60.041347504 0.4875823855 0.6550037861
 1620.0118408  -999.250000 14.516341209 10.100000381 0.6670580506 -0.020389423 2.0339999199 59.013957977 155.33460999 155.33531189 0.4866957963 60.070404053 0.4974879622 0.6535006166
 1620.1641846  -999.250000 14.268610001 10.100000381 0.6830382943 -0.024192955 2.0225999355 55.428936005 157.10517883 157.10528564 0.4984995127 59.945934296 0.5382653475 0.6508001089
 1620.3166504  -999.250000 14.305580139 10.100000381 0.9082300067 -0.029389422 2.0069069862 50.565906525 158.32022095 158.32081604 0.5113937855 59.921161652 0.5699591041 0.6448029280
 1620.4689941  -999.250000 14.677061081 10.100000381 1.0253182650 -0.033194713 1.9983010292 48.095039368 158.32890320 158.32890320 0.5252984762 59.925529480 0.6584189534 0.6424003243
