# LAS format log file from PETREL
# Project units are specified as depth units
#==================================================================
~Version information
VERS.   2.0:
WRAP.   NO:
#==================================================================
~Well
STRT .m      460.12496948 :
STOP .m      2548.7502441 :
STEP .m     0.00000000 :
NULL .        -999.250000 :
COMP.           : COMPANY
WELL.  25/10-4R  Balder Appr   : WELL
FLD.            : FIELD
LOC.            : LOCATION
SRVC.           : SERVICE COMPANY
DATE.  2018-09-11 14:48:14   : Log Export Date {yyyy-MM-dd HH:mm:ss}
PROV.           : PROVINCE
UWI.   25/10-4 R   : UNIQUE WELL ID
API.            : API NUMBER
#==================================================================
~Curve
DEPT .m                   : DEPTH
Lithology_geolink ._      : Lithology_geolink
CALI .in                  : CALI
MUDWEIGHT ._              : MUDWEIGHT
ROP .m/h                  : ROP
DRHO .g/cm3               : DRHO
NPHI .m3/m3               : NPHI
RHOB .g/cm3               : RHOB
GR .gAPI                  : GR
DTC .us/ft                : DTC
RDEP .ohm.m               : RDEP
SP .mV                    : SP
RSHA .ohm.m               : RSHA
RMED .ohm.m               : RMED
~Parameter
#==================================================================
~Ascii
# ...
 1296.1250000  -999.250000 15.606999397 1.1299999952 6.6304955482 0.0460000001 0.5056599975 1.8470000029 44.043998718 159.03199768 0.8450000286 31.734001160  -999.250000 1.5579999685
 1296.2500000  -999.250000 15.691999435 1.1299999952 6.6284461021 0.0469999984 0.4828499854 1.8079999685 42.381999969 159.04800415 0.8169999719 32.178001404  -999.250000 1.5410000086
 1296.3750000  -999.250000 15.781999588 1.1299999952 6.6263947487 0.0419999994 0.4604399800 1.7699999809 41.064998627 159.06300354 0.7870000005 32.636001587  -999.250000 1.5279999971
 1296.5000000  -999.250000 15.871999741 1.1299999952 6.6246724129 0.0340000018 0.4491299689 1.7350000143 40.076999664 159.07899475 0.7570000291 33.193000793  -999.250000 1.5149999857
 1296.6251221  -999.250000 15.935999870 1.1299999952 6.6226205826 0.0250000004 0.4532199800 1.7059999704 39.365001678 159.09500122 0.7279999852 33.682998657  -999.250000 1.5039999485
 1296.7498779  -999.250000 15.982000351 1.1299999952 6.6205725670 0.0170000009 0.4729499817 1.6870000362 38.404998779 159.11000061 0.7009999752 33.820999146  -999.250000 1.4900000095
 1296.8750000  -999.250000 16.035999298 1.1299999952 6.6185188293 0.0089999996 0.5055500269 1.6790000200 36.277999878 159.12600708 0.6759999990 33.657001495  -999.250000 1.4670000076
 1297.0000000  -999.250000 16.086999893 1.1299999952 6.6167979240 0.0030000000 0.5441200137 1.6790000200 33.527000427 159.14199829 0.6549999714 33.305000305  -999.250000 1.4329999685
 1297.1250000  -999.250000 16.108999252 1.1299999952 6.6147470474 0.0000000000 0.5653499961 1.6859999895 30.924999237 159.15798950 0.6389999986 32.595001221  -999.250000 1.3949999809
 1297.2500000  -999.250000 16.118000031 1.1299999952 6.6126971245 -0.001000000 0.5565299988 1.7070000172 28.747999191 159.17300415 0.6280000210 31.975000381  -999.250000 1.3530000448
 1297.3750000  -999.250000 16.124000549 1.1299999952 6.6108927727 0.0010000000 0.5336300135 1.7380000353 27.122999191 159.18899536 0.6259999871 32.133998871  -999.250000 1.3140000105
 1297.5000000  -999.250000 16.128999710 1.1299999952 6.6089239120 0.0060000001 0.5153900385 1.7749999762 25.996999741 159.20498657 0.6330000162 32.487998962  -999.250000 1.2799999714
 1297.6250000  -999.250000 16.134000778 1.1299999952 6.6068749428 0.0140000004 0.5122299790 1.8150000572 25.200000763 159.22000122 0.6489999890 33.576999664  -999.250000 1.2530000210
 1297.7501221  -999.250000 16.138999939 1.1299999952 6.6048221588 0.0289999992 0.5141800046 1.8470000029 25.246000290 159.23599243 0.6710000038 34.925998688  -999.250000 1.2330000401
 1297.8748779  -999.250000 16.143999100 1.1299999952 6.6030197144 0.0410000011 0.5143600106 1.8509999514 26.114000320 159.25199890 0.6940000057 36.207000732  -999.250000 1.2189999819
 1298.0000000  -999.250000 16.149000168 1.1299999952 6.6010503769 0.0439999998 0.5098800063 1.8339999914 27.695999146 159.26699829 0.7160000205 36.201999664  -999.250000 1.2100000381
 1298.1250000  -999.250000 16.152000427 1.1299999952 6.5989985466 0.0410000011 0.5005899668 1.8059999943 29.447000504 159.28300476 0.7329999804 36.008998871  -999.250000 1.2059999704
 1298.2500000  -999.250000 16.153999329 1.1299999952 6.5971121788 0.0340000018 0.4877000153 1.7799999714 30.625999451 159.29899597 0.7490000129 35.888000488  -999.250000 1.2039999962
 1298.3750000  -999.250000 16.155000687 1.1299999952 6.5952262878 0.0280000009 0.4728799760 1.7580000162 31.474000931 159.31501770 0.7570000291 36.208000183  -999.250000 1.2029999495
 1298.5000000  -999.250000 16.156999588 1.1299999952 6.5931758881 0.0240000002 0.4584000111 1.7430000305 32.125999451 159.33000183 0.7609999776 36.842998505  -999.250000 1.2050000429
 1298.6250000  -999.250000 16.159000397 1.1299999952 6.5911254883 0.0240000002 0.4532699883 1.7359999418 32.611999512 159.34599304 0.7620000243 37.770999908  -999.250000 1.2100000381
 1298.7500000  -999.250000 16.160999298 1.1299999952 6.5892395973 0.0270000007 0.4610699713 1.7410000563 32.668998718 159.36201477 0.7580000162 38.708000183  -999.250000 1.2170000076
 1298.8750000  -999.250000 16.163000107 1.1299999952 6.5873527527 0.0340000018 0.4794100225 1.7530000210 32.222000122 159.37699890 0.7480000257 39.644001007  -999.250000 1.2239999771
 1299.0001221  -999.250000 16.165000916 1.1299999952 6.5853018761 0.0410000011 0.5020800233 1.7669999599 31.781999588 159.39300537 0.7360000014 40.333000183  -999.250000 1.2280000448
 1299.1248779  -999.250000 16.166999817 1.1299999952 6.5833344460 0.0450000018 0.5213100314 1.7819999456 31.701000214 159.40898132 0.7239999771 40.379001617  -999.250000 1.2280000448
 1299.2500000  -999.250000 16.170000076 1.1299999952 6.5815277100 0.0469999984 0.5144100189 1.7979999781 32.196998596 159.42399597 0.7139999866 40.366001129  -999.250000 1.2239999771
 1299.3750000  -999.250000 16.172000885 1.1299999952 6.5794787407 0.0460000001 0.4908100069 1.8150000572 33.027000427 159.44000244 0.7099999785 40.265998840  -999.250000 1.2200000286
 1299.5000000  -999.250000 16.174999237 1.1299999952 6.5774283409 0.0469999984 0.4584199786 1.8439999819 33.939998627 159.45597839 0.7129999995 40.150001526  -999.250000 1.2170000076
 1299.6250000  -999.250000 16.177999496 1.1299999952 6.5754594803 0.0509999990 0.4248300195 1.8819999695 34.814998627 159.47200012 0.7200000286 40.030998230  -999.250000 1.2159999609
 1299.7500000  -999.250000 16.180999756 1.1299999952 6.5736551285 0.0610000007 0.4029099941 1.9119999409 35.770999908 159.48699951 0.7300000191 39.875999451  -999.250000 1.2170000076
 1299.8750000  -999.250000 16.184999466 1.1299999952 6.5716047287 0.0750000030 0.4070200026 1.9279999733 36.798000336 159.50300598 0.7400000095 39.667999268  -999.250000 1.2189999819
 1300.0000000  -999.250000 16.188999176 1.1299999952 6.5695533752 0.0839999989 0.4226199985 1.9290000200 37.241001129 159.51899719 0.7490000129 39.501998901  -999.250000 1.2220000029
 1300.1251221  -999.250000 16.194000244 1.1299999952 6.5697178841 0.0829999968 0.4490599930 1.8999999762 36.766998291 159.53399658 0.7559999824 39.397998810  -999.250000 1.2259999514
 1300.2498779  -999.250000 16.195999146 1.1299999952 6.5705370903 0.0750000030 0.4777500033 1.8550000191 35.527000427 159.55000305 0.7590000033 39.368999481  -999.250000 1.2300000191
 1300.3750000  -999.250000 16.190999985 1.1299999952 6.5713586807 0.0640000030 0.4927899837 1.8150000572 34.118999481 159.56600952 0.7630000114 39.438999176  -999.250000 1.2369999886
 1300.5000000  -999.250000 16.180000305 1.1299999952 6.5721788406 0.0529999994 0.4853599966 1.7849999666 33.124000549 159.58099365 0.7680000067 39.498001099  -999.250000 1.2450000048
 1300.6250000  -999.250000 16.167999268 1.1299999952 6.5726704597 0.0430000015 0.4708499908 1.7619999647 33.111000061 159.59700012 0.7710000277 39.330001831  -999.250000 1.2539999485
 1300.7500000  -999.250000 16.156000137 1.1299999952 6.5734910965 0.0350000001 0.4618500173 1.7690000534 33.612998962 159.61300659 0.7720000148 39.123001099  -999.250000 1.2599999905
 1300.8750000  -999.250000 16.145000458 1.1299999952 6.5743112564 0.0309999995 0.4632200003 1.7960000038 34.290000916 159.62899780 0.7720000148 38.924999237  -999.250000 1.2610000372
 1301.0000000  -999.250000 16.134000778 1.1299999952 6.5748028755 0.0350000001 0.4743700027 1.8359999657 35.047000885 159.64399719 0.7689999938 38.738998413  -999.250000 1.2599999905
 1301.1250000  -999.250000 16.124000549 1.1299999952 6.5756230354 0.0480000004 0.4897899926 1.8880000114 36.047000885 159.66000366 0.7639999986 38.701999664  -999.250000 1.2560000420
 1301.2500000  -999.250000 16.122999191 1.1299999952 6.5764431953 0.0649999976 0.4973300099 1.9309999943 37.786998749 159.67599487 0.7630000114 38.893001556  -999.250000 1.2530000210
 1301.3748779  -999.250000 16.128000259 1.1299999952 6.5770177841 0.0769999996 0.4964599907 1.9359999895 39.384998322 159.69099426 0.7659999728 39.355998993  -999.250000 1.2530000210
 1301.5000000  -999.250000 16.131000519 1.1299999952 6.5777559280 0.0820000023 0.4952999949 1.9199999571 40.076999664 159.70700073 0.7689999938 39.808998108  -999.250000 1.2549999952
