# LAS format log file from PETREL
# Project units are specified as depth units
#==================================================================
~Version information
VERS.   2.0:
WRAP.   NO:
#==================================================================
~Well
STRT .m      353.26309204 :
STOP .m      2468.2702637 :
STEP .m     0.00000000 :
NULL .        -999.250000 :
COMP.           : COMPANY
WELL.  25/11-1  Balder   : WELL
FLD.            : FIELD
LOC.            : LOCATION
SRVC.           : SERVICE COMPANY
DATE.  2018-09-11 14:48:15   : Log Export Date {yyyy-MM-dd HH:mm:ss}
PROV.           : PROVINCE
UWI.   25/11-1   : UNIQUE WELL ID
API.            : API NUMBER
#==================================================================
~Curve
DEPT .m                   : DEPTH
Lithology_geolink ._      : Lithology_geolink
CALI .in                  : CALI
MUDWEIGHT ._              : MUDWEIGHT
ROP .m/h                  : ROP
DRHO .g/cm3               : DRHO
RHOB .g/cm3               : RHOB
GR .gAPI                  : GR
DTC .us/ft                : DTC
DTE .us/ft                : DTE
RDEP .ohm.m               : RDEP
SP .mV                    : SP
RSHA .ohm.m               : RSHA
RMED .ohm.m               : RMED
~Parameter
#==================================================================
~Ascii
# ...
 1895.5511475 11.000000000 12.118000031 11.300000191 30.608474731 0.0033258607 2.4607999325 9.4715356827 70.143463135 70.142509460 3.6913790703 60.727104187 3.8670480251 3.2790560722
 1895.7034912 11.000000000 12.136400223 11.300000191 31.321790695 0.0052676280 2.4736011028 9.5332126617 70.970718384 70.970138550 3.7780079842 60.546340942 4.1702370644 3.4118070602
 1895.8559570 11.000000000 12.191080093 11.300000191 32.002170563 0.0035348278 2.4885940552 9.7508192062 70.142417908 70.142761230 3.9044520855 60.478519440 4.8546237946 3.5346529484
 1896.0083008 11.000000000 12.229800224 11.300000191 32.379943848 0.0015352565 2.5002000332 9.8877992630 69.159049988 69.159782410 4.0600991249 60.496196747 5.8680939674 3.6473999023
 1896.1607666 11.000000000 12.238299370 11.300000191 32.489894867 -0.000465172 2.5060970783 9.8110332489 68.115661621 68.116035461 4.2165298462 60.546459198 6.3686709404 3.7467560768
 1896.3131104 11.000000000 12.235600471 11.300000191 32.532730103 -0.003929487 2.5032000542 9.7342042923 68.478279114 68.478012085 4.3628888130 60.641849518 6.0720200539 3.8334939480
 1896.4655762 11.000000000 12.213509560 11.300000191 32.619533539 -0.005000000 2.5032000542 9.1763782501 68.489051819 68.489089966 4.5001301765 60.776187897 5.4681859016 3.9212560654
 1896.6179199 11.000000000 12.204399109 11.300000191 32.656883240 -0.003535256 2.5117990971 8.7725515366 68.928939819 68.928649902 4.6329817772 60.931690216 4.9952588081 4.0180869102
 1896.7702637 11.000000000 12.228110313 11.300000191 32.698085785 -0.000804644 2.5151009560 8.5709400177 69.826148987 69.824966431 4.7686381340 60.919612885 5.0774221420 4.1214261055
 1896.9227295 11.000000000 12.268289566 11.300000191 32.599407196 0.0021971154 2.5203990936 8.7406673431 68.886436462 68.887054443 4.9264688492 60.779365540 5.6149902344 4.2326779366
 1897.0750732 11.000000000 12.317509651 11.300000191 32.366622925 0.0044647437 2.5299010277 8.7856435776 67.740570068 67.742630005 5.1446428299 60.722770691 6.3902311325 4.3501210213
 1897.2275391 11.000000000 12.372890472 11.300000191 32.150856018 0.0057325861 2.5366981030 9.0334358215 66.596496582 66.596199036 5.3908348083 60.801856995 7.1786861420 4.4691700935
 1897.3798828 11.000000000 12.422100067 11.300000191 31.885129929 0.0081971148 2.5443010330 9.0431280136 65.517990112 65.518096924 5.5958189964 60.905498505 6.9004139900 4.5836119652
 1897.5323486 11.000000000 12.449890137 11.300000191 31.838321686 0.0104651721 2.5506980419 9.2897205353 64.982681274 64.982498169 5.7746419907 61.041603088 7.0220599174 4.6922650337
 1897.6846924 11.000000000 12.444499016 11.300000191 31.837589264 0.0117323715 2.5566999912 9.2981996536 65.112159729 65.112197876 5.9389071465 61.189044952 6.6634340286 4.7980060577
 1897.8371582 11.000000000 12.424409866 11.300000191 31.837921143 0.0127325859 2.5604979992 9.3065967560 65.227722168 65.227798462 6.0754480362 61.294200897 7.3661170006 4.9076581001
 1897.9895020 11.000000000 12.416299820 11.300000191 31.838245392 0.0100705130 2.5590000153 9.3149995804 65.228782654 65.228797913 6.2086992264 61.378269196 8.2109889984 5.0231990814
 1898.1419678 11.000000000 12.404109955 11.300000191 31.838575363 0.0024067252 2.5534019470 9.5627889633 64.995758057 64.995697021 6.3229479790 61.452960968 9.7059783936 5.1299519539
 1898.2943115 11.000000000 12.395999908 11.300000191 31.838903427 -0.004394231 2.5469009876 9.4914045334 64.104843140 64.104797363 6.3873949051 61.531536102 10.374449730 5.2199931145
 1898.4467773 11.000000000 12.395799637 11.300000191 31.899379730 -0.008930344 2.5490989685 8.6220417023 63.048892975 63.048400879 6.4155859947 61.622879028 11.125100136 5.2962598801
 1898.5991211 11.000000000 12.417798996 11.300000191 31.841138840 -0.004141026 2.5650980473 8.6298990250 63.640548706 63.640598297 6.3792061806 61.799530029 11.223190308 5.3603911400
 1898.7515869 11.000000000 12.446180344 11.300000191 31.719591141 0.0023955165 2.5817899704 8.8776588440 64.652099609 64.652702332 6.3038430214 62.046775818 8.7185554504 5.4080729485
 1898.9039307 11.000000000 12.443499565 11.300000191 30.243778229 0.0010705129 2.5918979645 8.8861980438 64.909858704 64.909896851 6.3161969185 62.302837372 10.803529739 5.4385938644
 1899.0562744 11.000000000 12.411298752 11.300000191 28.013063431 -0.001463571 2.5930991173 9.1341009140 64.458229065 64.458297729 6.4436268806 62.510379791 14.099909782 5.4599027634
 1899.2087402 11.000000000 12.420599937 11.300000191 27.835182190 0.0023942308 2.5892009735 9.1424980164 63.857604980 63.857398987 6.6063570976 62.605133057 10.519419670 5.4793939590
 1899.3610840 11.000000000 12.459898949 11.300000191 27.832660675 0.0091266027 2.5718979836 8.9114255905 63.604309082 63.604099274 6.7805199623 62.643783569 8.6864995956 5.5057039261
 1899.5135498 11.000000000 12.463199615 11.300000191 27.872959137 0.0124651724 2.5534060001 9.1592187881 65.433273315 65.433898926 6.9815330505 62.631404877 6.9762001038 5.5518851280
 1899.6658936 11.000000000 12.439000130 11.300000191 27.894155502 0.0108028846 2.5427000523 9.1676998138 67.074913025 67.074897766 7.1837091446 62.580635071 6.6163330078 5.6264038086
 1899.8183594 11.000000000 12.455789566 11.300000191 27.895322800 0.0063370694 2.5378019810 9.1759967804 67.170036316 67.170097351 7.3943171501 62.440685272 7.4688467979 5.7237620354
 1899.9707031 11.000000000 12.486300468 11.300000191 27.895339966 0.0071971156 2.5425999165 9.1843996048 65.949760437 65.949699402 7.6711950302 62.402614594 7.6205968857 5.8347969055
 1900.1231689 11.000000000 12.530079842 11.300000191 27.895660400 0.0109303445 2.5523960590 9.7468452454 64.264328003 64.263603210 8.0461263657 62.482234955 7.7721309662 5.9475488663
 1900.2755127 11.000000000 12.553899765 11.300000191 27.115015030 0.0105352560 2.5653989315 10.304750443 63.956001282 63.956001282 8.4820613861 62.526901245 9.2461662292 6.0682902336
 1900.4279785 11.000000000 12.521220207 11.300000191 25.350524902 0.0092674140 2.5757949352 10.889800072 63.305488586 63.305198669 8.8499069214 62.555801392 9.7341423035 6.2020301819
 1900.5803223 11.000000000 12.495900154 11.300000191 24.725566864 0.0082676280 2.5741000175 11.120969772 62.399089813 62.398994446 9.0510864258 62.613285065 9.4003477097 6.3333802223
 1900.7327881 11.000000000 12.493499756 11.300000191 24.490188599 0.0080000004 2.5639059544 10.636779785 61.411991119 61.411399841 9.0718584061 62.583179474 9.9162940979 6.4454350471
 1900.8851318 11.000000000 12.515200615 11.300000191 24.399866104 0.0043381411 2.5565009117 10.025629997 61.081516266 61.081501007 8.9923877716 62.535846710 7.1362910271 6.5483779907
 1901.0374756 11.000000000 12.461589813 11.300000191 24.262418747 -0.007244996 2.5562028885 10.703669548 61.830841064 61.830699921 8.9573936462 62.444889069 10.047189713 6.6515140533
 1901.1899414 11.000000000 12.378319740 11.300000191 24.259496689 -0.008802885 2.5770940781 11.123490334 62.579196930 62.579399109 9.0546226501 62.371128082 18.558509827 6.7375769615
 1901.3422852 11.000000000 12.317000389 11.300000191 24.359891891 -0.003605769 2.6029009819 10.309129715 62.952884674 62.952999115 9.2399530411 62.352062225 22.914270401 6.7915019989
 1901.4947510 11.000000000 12.328801155 11.300000191 24.608045578 0.0016629304 2.6143960953 9.5824432373 61.221981049 61.221401215 9.4107017517 62.348056793 17.272129059 6.8168921471
 1901.6470947 11.000000000 12.364600182 11.300000191 24.910196304 0.0008028846 2.6059000492 10.064999580 58.491741180 58.491699219 9.4860496521 62.330829620 12.937780380 6.8178992271
 1901.7995605 11.000000000 12.372499466 11.300000191 26.541967392 -0.003662930 2.6068990231 10.071900368 59.549308777 59.549701691 9.4252834320 62.260269165 12.540760040 6.7990069389
 1901.9519043 11.000000000 12.384300232 11.300000191 28.166063309 -0.005000000 2.6359989643 9.4990158081 60.606880188 60.606899261 9.2492218018 62.219360352 12.349309921 6.7659020424
 1902.1043701 11.000000000 12.374300003 11.300000191 28.568881989 0.0008606886 2.6596889496 9.1498603821 60.330776215 60.330699921 9.0203371048 62.215206146 18.388429642 6.7160229683
