# LAS format log file from PETREL
# Project units are specified as depth units
#==================================================================
~Version information
VERS.   2.0:
WRAP.   NO:
#==================================================================
~Well
STRT .m      1118.6159668 :
STOP .m      2017.3187256 :
STEP .m     0.00000000 :
NULL .        -999.250000 :
COMP.           : COMPANY
WELL.  25/11-15  Grane   : WELL
FLD.            : FIELD
LOC.            : LOCATION
SRVC.           : SERVICE COMPANY
DATE.  2018-09-11 14:48:15   : Log Export Date {yyyy-MM-dd HH:mm:ss}
PROV.           : PROVINCE
UWI.   25/11-15   : UNIQUE WELL ID
API.            : API NUMBER
#==================================================================
~Curve
DEPT .m                   : DEPTH
Lithology_geolink ._      : Lithology_geolink
CALI .in                  : CALI
BS .in                    : BS
MUDWEIGHT ._              : MUDWEIGHT
ROP .m/h                  : ROP
TGAS ._                   : TGAS
DRHO .g/cm3               : DRHO
THOR .ppm                 : THOR
NPHI .m3/m3               : NPHI
RHOB .g/cm3               : RHOB
GR .gAPI                  : GR
URAN .ppm                 : URAN
DTC .us/ft                : DTC
DTE .us/ft                : DTE
RDEP .ohm.m               : RDEP
SP .mV                    : SP
RSHA .ohm.m               : RSHA
RMED .ohm.m               : RMED
~Parameter
#==================================================================
~Ascii
# ...
 1832.7623291 11.000000000 8.2891006470 8.5000000000 1.1499999762 32640.347656 0.0296999998 -0.030202257 2.2243771553 0.2070887983 2.4699909687 44.343475342 -3.926099062 72.147361755 71.051757813 2.1907544136 85.699996948 1.3483430147 2.0208652020
 1832.9147949 11.000000000 8.2891006470 8.5000000000 1.1499999762 33005.320313 0.0296999998 -0.026470037 2.1383688450 0.2124945968 2.4516010284 42.626396179 -4.030616283 72.143676758 70.944816589 2.2148625851 86.199996948 1.1397718191 1.9726455212
 1833.0671387 11.000000000 8.2891006470 8.5000000000 1.1499999762 38122.023438 0.0297671556 -0.014654252 2.0536680222 0.2078008950 2.4635062218 43.249069214 -4.010116577 70.596969604 69.828872681 2.3799717426 85.699996948 1.3069099188 2.1995120049
 1833.2196045 11.000000000 8.2891006470 8.5000000000 1.1499999762 39724.199219 0.0297999997 -0.019518582 1.9674690962 0.1987091005 2.4777989388 42.188381195 -4.018892765 70.295677185 69.191596985 2.5492932796 83.699996948 1.7180566788 2.4457948208
 1833.3719482 11.000000000 8.2891006470 8.5000000000 1.1499999762 39724.199219 0.0297999997 -0.032995224 2.1621439457 0.2053955048 2.4778079987 44.310939789 -3.897597313 70.477897644 69.356048584 2.4859290123 84.699996948 1.6300958395 2.4845070839
 1833.5242920 11.000000000 8.2891006470 8.5000000000 1.1499999762 39724.199219 0.0297999997 -0.031185899 2.1567089558 0.2114980072 2.5014009476 44.716751099 -3.878330708 70.654769897 69.499206543 2.5332202911 84.199996948 1.4238835573 2.3089435101
 1833.6767578 11.000000000 8.2891006470 8.5000000000 1.1499999762 39724.199219 0.0297999997 -0.031330220 2.0467882156 0.2170913965 2.5025880337 42.751384735 -3.938151836 72.147178650 70.751472473 2.5945158005 83.699996948 1.6567999125 2.2560291290
 1833.8291016 11.000000000 8.2891006470 8.5000000000 1.1499999762 39724.199219 0.0297999997 -0.037709489 2.4365746975 0.2058043033 2.4598770142 42.062751770 -3.778556108 71.488830566 70.468536377 2.6844537258 83.199996948 2.4882388115 2.5940778255
 1833.9815674 11.000000000 8.2891006470 8.5000000000 1.1499999762 39724.199219 0.0297999997 -0.026757985 2.6181547642 0.1953092963 2.4248061180 40.751728058 -3.698264122 71.012039185 69.967430115 2.8207807541 83.199996948 2.4456942081 2.9580974579
 1834.1339111 11.000000000 8.2891006470 8.5000000000 1.1499999762 38298.277344 0.0298339017 -0.008660508 2.1858935356 0.1907085031 2.4538071156 43.932174683 -3.973358393 72.386047363 70.903091431 2.9297564030 81.699996948 2.2628793716 2.9052770138
 1834.2863770 11.000000000 8.2891006470 8.5000000000 1.1499999762 36057.445313 0.0298999995 -0.004558531 2.1559233665 0.1976951957 2.4651989937 43.562702179 -3.955714464 72.682533264 71.544242859 2.8257744312 81.199996948 2.0753471851 2.7263224125
 1834.4387207 11.000000000 8.2891006470 8.5000000000 1.1499999762 35447.757813 0.0298999995 -0.007109744 2.1396131516 0.2114859074 2.4609999657 42.874923706 -3.984176874 72.147636414 71.160217285 2.7575006485 79.699996948 2.0572984219 2.5892138481
 1834.5911865 11.000000000 8.2891006470 8.5000000000 1.1499999762 35447.757813 0.0298999995 -0.011106658 2.3386404514 0.2103008032 2.4611001015 41.657245636 -3.866394520 72.682693481 71.375274658 2.7172710896 79.199996948 2.4415869713 2.5969905853
 1834.7435303 11.000000000 8.2891006470 8.5000000000 1.1499999762 35447.757813 0.0298999995 -0.017645290 2.2758505344 0.2065021992 2.4637959003 41.375164032 -3.886383772 73.578529358 72.323417664 2.7109489441 78.699996948 2.3876683712 2.5643062592
 1834.8959961 11.000000000 8.2891006470 8.5000000000 1.1499999762 35447.757813 0.0298999995 -0.024064936 2.4150884151 0.2033032030 2.4558000565 41.250129700 -3.716036558 73.876083374 72.683876038 2.7954502106 78.699996948 2.2285335064 2.5206360817
 1835.0483398 11.000000000 8.2891006470 8.5000000000 1.1499999762 35455.417969 0.0298999995 -0.032303568 2.0419991016 0.2055958956 2.4692039490 42.373470306 -3.886663437 73.756500244 72.672241211 2.8295497894 80.199996948 2.5012371540 2.5681989193
 1835.2008057 11.000000000 8.2891006470 8.5000000000 1.1499999762 35584.960938 0.0298999995 -0.038301524 2.0418000221 0.2008049041 2.4807000160 40.782634735 -3.859421730 73.160026550 72.100044250 2.8550534248 80.199996948 2.9296398163 2.6630198956
 1835.3531494 11.000000000 8.2891006470 8.5000000000 1.1499999762 35631.722656 0.0298999995 -0.046147782 1.9925392866 0.1972030997 2.4845030308 39.968181610 -3.871690035 72.624633789 71.639823914 2.9990296364 81.699996948 2.9926707745 2.7711713314
 1835.5054932 11.000000000 8.2904129028 8.5000000000 1.1499999762 35631.722656 0.0298999995 -0.057623968 1.9215136766 0.1957996935 2.4932999611 36.162143707 -3.883281469 73.398376465 72.055725098 3.2687118053 81.699996948 2.4999923706 2.9528179169
 1835.6579590 11.000000000 8.3086137772 8.5000000000 1.1499999762 35631.722656 0.0298999995 -0.057599656 2.0467994213 0.1934019029 2.4931039810 35.781730652 -3.772888422 72.921020508 71.891899109 3.4270634651 81.199996948 2.9704551697 3.4282031059
 1835.8103027 11.000000000 8.3587484360 8.5000000000 1.1499999762 35631.722656 0.0298999995 -0.059955467 1.8547083139 0.1918005049 2.5081040859 36.282154083 -3.820523262 71.846946716 70.876419067 3.5973629951 82.199996948 4.5016736984 3.7536175251
 1835.9627686 11.000000000 8.4354953766 8.5000000000 1.1499999762 35631.722656 0.0298999995 -0.067744479 1.6987248659 0.1901002973 2.5149939060 38.873065948 -3.847877741 71.489219666 70.495887756 3.7609901428 82.699996948 4.3941502571 3.6602082253
 1836.1151123 11.000000000 8.4107761383 8.5000000000 1.1499999762 61400.261719 0.0298999995 -0.063818038 1.6617591381 0.1835040003 2.4838130474 39.530250549 -3.808862686 71.908737183 70.651878357 3.6703815460 83.699996948 2.7143778801 3.3482573032
 1836.2675781 11.000000000 8.3690910339 8.5000000000 1.1499999762 82915.320313 0.0298999995 -0.062480226 1.8204727173 0.1792045981 2.5060930252 39.531429291 -3.692792892 71.727867126 70.699996948 3.1065051556 85.699996948 2.8602356911 3.1080222130
 1836.4199219 11.000000000 8.3000707626 8.5000000000 1.1499999762 86275.796875 0.0298999995 -0.068087570 1.7715393305 0.1823056936 2.4558811188 40.406417847 -3.658527374 72.028152466 70.795722961 2.4892816544 85.199996948 2.0087478161 2.6562540531
 1836.5723877 11.000000000 8.2414922714 8.5000000000 1.1499999762 86275.796875 0.0298999995 -0.053233501 1.8265558481 0.1993837059 2.4179999828 41.998775482 -3.588955879 72.085800171 70.996543884 2.2723753452 84.699996948 1.4501140118 1.9693341255
 1836.7247314 11.000000000 8.1477975845 8.5000000000 1.1499999762 87556.070313 0.0298999995 -0.035482872 1.8208045959 0.2040954977 2.4107899666 42.592601776 -3.602389336 71.073966980 70.144676208 2.1629705429 84.199996948 1.0899984837 1.7834256887
 1836.8771973 11.000000000 8.1406002045 8.5000000000 1.1499999762 88138.078125 0.0298999995 -0.021651285 1.9381061792 0.2042997926 2.3884999752 41.001243591 -3.543247461 70.773063660 69.759750366 2.1110954285 85.699996948 1.1115864515 1.9627602100
 1837.0295410 11.000000000 8.1406002045 8.5000000000 1.1499999762 88138.078125 0.0298999995 -0.007923245 1.9603821039 0.2014041990 2.4040040970 39.409015656 -3.503631592 71.193328857 70.039955139 2.3052573204 85.199996948 1.3736978769 2.1829545498
 1837.1820068 11.000000000 8.1406002045 8.5000000000 1.1499999762 88138.078125 0.0298999995 -0.001121984 1.7270869017 0.2049963027 2.4142990112 43.121852875 -3.631197691 71.131103516 69.959754944 2.3130857944 84.199996948 1.3936831951 2.2660295963
 1837.3343506 11.000000000 8.1405992508 8.5000000000 1.1499999762 88138.078125 0.0298999995 0.0006707318 1.7974433899 0.2097959965 2.4187009335 44.343631744 -3.488114834 71.489288330 70.351585388 2.0821611881 85.699996948 1.3761370182 2.1672980785
 1837.4866943 11.000000000 8.1386861801 8.5000000000 1.1499999762 88138.078125 0.0298999995 -0.001957511 1.7264139652 0.2120033950 2.4226920605 46.838161469 -3.484405756 71.966743469 70.715698242 1.9351215363 84.699996948 1.1592937708 1.9320251942
 1837.6391602 11.000000000 8.1185045242 8.5000000000 1.1499999762 89423.179688 0.0298999995 -0.005435328 1.7683662176 0.2199932039 2.4105000496 44.471618652 -3.419552088 72.266792297 71.115974426 1.8541316986 85.199996948 1.0833675861 1.7248668671
