# LAS format log file from PETREL
# Project units are specified as depth units
#==================================================================
~Version information
VERS.   2.0:
WRAP.   NO:
#==================================================================
~Well
STRT .m      353.26309204 :
STOP .m      2468.2702637 :
STEP .m     0.00000000 :
NULL .        -999.250000 :
COMP.           : COMPANY
WELL.  25/11-1  Balder   : WELL
FLD.            : FIELD
LOC.            : LOCATION
SRVC.           : SERVICE COMPANY
DATE.  2018-09-11 14:48:15   : Log Export Date {yyyy-MM-dd HH:mm:ss}
PROV.           : PROVINCE
UWI.   25/11-1   : UNIQUE WELL ID
API.            : API NUMBER
#==================================================================
~Curve
DEPT .m                   : DEPTH
Lithology_geolink ._      : Lithology_geolink
CALI .in                  : CALI
MUDWEIGHT ._              : MUDWEIGHT
ROP .m/h                  : ROP
DRHO .g/cm3               : DRHO
RHOB .g/cm3               : RHOB
GR .gAPI                  : GR
DTC .us/ft                : DTC
DTE .us/ft                : DTE
RDEP .ohm.m               : RDEP
SP .mV                    : SP
RSHA .ohm.m               : RSHA
RMED .ohm.m               : RMED
~Parameter
#==================================================================
~Ascii
# ...
 2036.3686523 3.0000000000 11.988900185 11.399999619 4.2378091812 0.0163859073 2.1854999065 36.834300995 91.618553162 91.619476318 0.6366117001 50.725605011 0.8093941212 0.5896999240
 2036.5211182 16.000000000 11.988400459 11.399999619 4.8333859444 0.0179999992 2.1861999035 36.823101044 90.195861816 90.196838379 0.6750953197 50.667816162 0.7907022238 0.5896000266
 2036.6734619 16.000000000 11.995599747 11.399999619 4.8497190475 0.0172690153 2.1913011074 36.572631836 85.351913452 85.360160828 0.6765918136 50.649505615 0.8191065788 0.5895000100
 2036.8259277 16.000000000 12.012598991 11.399999619 4.9103755951 0.0184631404 2.1958990097 37.096809387 83.540336609 83.541450500 0.6444057226 50.576591492 0.8460950255 0.5893999934
 2036.9782715 3.0000000000 12.084619522 11.399999619 4.9127120972 0.0182690136 2.1902968884 37.790328979 82.272888184 82.274131775 0.5911877155 50.523334503 0.8280007243 0.5842974186
 2037.1307373 3.0000000000 12.187080383 11.399999619 4.9130487442 0.0106842946 2.1753029823 37.974948883 86.528427124 86.526092529 0.5292143822 50.653495789 0.8314992189 0.5705034137
 2037.2830811 3.0000000000 12.258710861 11.399999619 4.9140152931 0.0036105772 2.1642000675 38.203208923 91.219970703 91.215835571 0.4691931903 50.765735626 0.8644008040 0.5558984876
 2037.4355469 3.0000000000 12.349169731 11.399999619 4.9143610001 -0.001658927 2.1612010002 39.093730927 94.438171387 94.436622620 0.4180149138 50.690166473 0.8705980778 0.5438036919
 2037.5878906 3.0000000000 12.467900276 11.399999619 4.9150085449 -0.004463141 2.1580998898 38.935020447 98.064102173 98.061096191 0.3789981902 50.616046906 0.8775002956 0.5291991830
 2037.7403564 3.0000000000 12.488089561 11.399999619 4.9156646729 -0.005000000 2.1541008949 37.691261292 99.983497620 99.982658386 0.3508101106 50.526969910 0.8822981715 0.5161048174
 2037.8927002 3.0000000000 12.348501205 11.399999619 4.9163208008 -0.005000000 2.1524999142 36.953601837 102.36090851 102.35900116 0.3321000040 50.552227020 0.8618000746 0.5091999769
 2038.0451660 3.0000000000 12.219458580 11.399999619 4.9169774055 -0.003536429 2.1478021145 36.131759644 105.98690033 105.98550415 0.3235037029 50.791000366 0.8341118097 0.5027027726
 2038.1975098 3.0000000000 12.149000168 11.399999619 4.9173140526 -0.003000000 2.1421999931 35.352050781 106.12929535 106.12918854 0.3242000043 50.866321564 0.8224006891 0.4946005046
 2038.3498535 3.0000000000 12.099499702 11.399999619 4.9182791710 -0.004461970 2.1391000748 34.371200562 105.32519531 105.32659149 0.3319036961 51.145030975 0.8306056857 0.4898996949
 2038.5023193 3.0000000000 12.082999229 11.399999619 4.9588384628 -0.002805288 2.1387999058 34.043640137 104.88149261 104.88176727 0.3443984091 51.225402832 0.8493975997 0.4889000952
 2038.6546631 3.0000000000 12.070599556 11.399999619 5.0805144310 0.0016549239 2.1430010796 33.811748505 104.93959808 104.93950653 0.3662083149 51.103340149 0.8706030250 0.4933021069
 2038.8071289 3.0000000000 12.050101280 11.399999619 5.3444123268 0.0051947115 2.1493990421 34.020961761 104.80550385 104.80560303 0.4022927880 51.109809875 0.8828976750 0.5018984079
 2038.9594727 3.0000000000 12.041700363 11.399999619 7.3718991280 0.0074619697 2.1545009613 34.451080322 104.60910034 104.60941315 0.4468064904 51.243125916 0.8620982766 0.5073025823
 2039.1119385 3.0000000000 12.041199684 11.399999619 8.6489191055 0.0080000004 2.1616981030 36.550369263 104.17259979 104.17285156 0.4845901132 51.384300232 0.8526024222 0.5218961835
 2039.2642822 3.0000000000 12.040800095 11.399999619 8.8436012268 0.0087309843 2.1881051064 39.226871490 102.47389984 102.47555542 0.5021988153 51.551563263 0.8507009745 0.5530043840
 2039.4167480 3.0000000000 12.040399551 11.399999619 8.9489498138 0.0075368593 2.2340860367 41.542968750 100.38670349 100.38777161 0.4914034009 51.904262543 0.8592972755 0.5921872258
 2039.5690918 3.0000000000 12.039899826 11.399999619 9.0373029709 0.0062684296 2.2752020359 43.506160736 100.73310089 100.73271942 0.4580979049 52.578472137 1.2749229670 0.6248999238
 2039.7215576 3.0000000000 12.039500237 11.399999619 9.0550174713 0.0045364294 2.3069880009 44.708049774 102.52210236 102.52136230 0.4209134877 53.282192230 1.7815749645 0.6247001290
 2039.8739014 3.0000000000 12.063099861 11.399999619 9.0560836792 0.0040000002 2.3136000633 45.195999146 104.13500214 104.13381195 0.3921001852 53.754024506 1.8979990482 0.5859004259
 2040.0263672 3.0000000000 12.101980209 11.399999619 9.0570602417 0.0054635708 2.2794148922 43.943649292 105.97540283 105.97471619 0.3730081916 53.927429199 1.6348079443 0.5310230255
 2040.1787109 3.0000000000 12.129899979 11.399999619 8.8975133896 0.0052684294 2.2126049995 40.390960693 106.58679962 106.58631134 0.3573010862 53.322345734 1.1784280539 0.4795035124
 2040.3310547 3.0000000000 12.114800453 11.399999619 8.2444219589 0.0028070456 2.1446909904 35.771259308 105.58139801 105.58300781 0.3398945928 52.763050079 0.7661573291 0.4443944097
 2040.4835205 3.0000000000 12.101799965 11.399999619 6.4365901947 0.0056578526 2.1140038967 32.261470795 105.34189606 105.34198761 0.3223023117 52.654769897 0.6353160143 0.4257025123
 2040.6358643 3.0000000000 12.111600876 11.399999619 5.3280858994 0.0099239396 2.1152009964 30.373819351 105.34120178 105.34120178 0.3101994991 52.347366333 0.6949039102 0.4146986902
 2040.7883301 3.0000000000 12.128701210 11.399999619 5.0779995918 0.0124631412 2.1200990677 29.620950699 105.41480255 105.41474152 0.3080003858 52.002555847 0.7115967274 0.4090011120
 2040.9406738 3.0000000000 12.154709816 11.399999619 4.9923830032 0.0217718184 2.1214020252 28.626249313 105.53970337 105.53950500 0.3127006888 51.545623779 0.7009984851 0.4032984972
 2041.0931396 3.0000000000 12.195791245 11.399999619 4.9907960892 0.0301209949 2.1300981045 27.153280258 105.53900146 105.53900146 0.3167988956 51.143985748 0.6927021742 0.3945023119
 2041.2454834 3.0000000000 12.295008659 11.399999619 4.9914522171 0.0254211370 2.1418011189 25.937030792 105.46330261 105.46336365 0.3181002140 50.951717377 0.6542003155 0.3887997866
 2041.3979492 3.0000000000 12.364480019 11.399999619 4.9921083450 0.0186105780 2.1496970654 26.201709747 105.17359924 105.17372131 0.3194994926 50.851531982 0.6573989987 0.3875004053
 2041.5502930 3.0000000000 12.375000954 11.399999619 5.0527639389 0.0104158660 2.1530001163 27.111679077 104.61750031 104.61794281 0.3230001926 50.789779663 0.6863998771 0.3873000145
 2041.7027588 3.0000000000 12.368201256 11.399999619 4.9950995445 0.0028775022 2.1555991173 28.776060104 104.39080048 104.39089203 0.3277981877 50.669342041 0.6838009953 0.3871001005
 2041.8551025 3.0000000000 12.266400337 11.399999619 4.8140788078 0.0010000000 2.1619999409 29.244289398 105.73470306 105.73362732 0.3312999010 50.484737396 0.6663002968 0.3869000077
 2042.0075684 3.0000000000 12.124461174 11.399999619 4.5696902275 0.0024635708 2.1633989811 29.472400665 105.43959808 105.43973541 0.3285011947 50.429794312 0.6820927858 0.3867000937
 2042.1599121 3.0000000000 12.028309822 11.399999619 4.3236327171 0.0030000000 2.1600999832 29.461099625 107.23249817 107.23116302 0.3186008036 50.957145691 0.7002984881 0.3954992890
 2042.3123779 3.0000000000 11.981220245 11.399999619 4.1573529243 0.0037317856 2.1686959267 29.452699661 106.00070190 106.00108337 0.3100042939 51.163185120 0.7075961828 0.4126909971
 2042.4647217 3.0000000000 11.996800423 11.399999619 4.0587391853 -0.000389423 2.2148931026 28.349859238 99.466781616 99.471130371 0.3069004118 51.020412445 0.9036685228 0.4235984087
 2042.6170654 3.0000000000 12.070930481 11.399999619 4.0117764473 -0.004923939 2.2871038914 26.653610229 94.940284729 94.947845459 0.3009976149 50.861896515 2.2207889557 0.4256998897
 2042.7695313 3.0000000000 12.223170280 11.399999619 4.0108175278 -0.000879006 2.3032970428 25.834869385 93.735153198 93.735870361 0.2907019854 50.717342377 12.971010208 0.4255000055
 2042.9218750 3.0000000000 12.337610245 11.399999619 4.0714645386 0.0024619696 2.2449879646 25.826400757 92.903678894 92.903434753 0.2852005064 50.753234863 9.3498096466 0.4207979143
