# LAS format log file from PETREL
# Project units are specified as depth units
#==================================================================
~Version information
VERS.   2.0:
WRAP.   NO:
#==================================================================
~Well
STRT .m      460.12496948 :
STOP .m      2548.7502441 :
STEP .m     0.00000000 :
NULL .        -999.250000 :
COMP.           : COMPANY
WELL.  25/10-4R  Balder Appr   : WELL
FLD.            : FIELD
LOC.            : LOCATION
SRVC.           : SERVICE COMPANY
DATE.  2018-09-11 14:48:14   : Log Export Date {yyyy-MM-dd HH:mm:ss}
PROV.           : PROVINCE
UWI.   25/10-4 R   : UNIQUE WELL ID
API.            : API NUMBER
#==================================================================
~Curve
DEPT .m                   : DEPTH
Lithology_geolink ._      : Lithology_geolink
CALI .in                  : CALI
MUDWEIGHT ._              : MUDWEIGHT
ROP .m/h                  : ROP
DRHO .g/cm3               : DRHO
NPHI .m3/m3               : NPHI
RHOB .g/cm3               : RHOB
GR .gAPI                  : GR
DTC .us/ft                : DTC
RDEP .ohm.m               : RDEP
SP .mV                    : SP
RSHA .ohm.m               : RSHA
RMED .ohm.m               : RMED
~Parameter
#==================================================================
~Ascii
# ...
 1708.6250000 19.000000000 8.9270000458 1.1100000143 8.4660434723 0.1459999979 0.3443199992 2.3150000572 31.849000931 110.06400299 1.5230000019 38.016998291 2.4159998894 2.5360000134
 1708.7500000 19.000000000 8.9040002823 1.1100000143 8.4668636322 0.1410000026 0.3372700214 2.3029999733 33.354000092 112.44400024 1.5000000000 37.500999451 2.2969999313 2.4779999256
 1708.8750000 19.000000000 8.8800001144 1.1100000143 8.4120960236 0.1309999973 0.3261100054 2.2790000439 36.000999451 115.29799652 1.4689999819 37.465000153 2.2520000935 2.4500000477
 1709.0000000 19.000000000 8.8559999466 1.1100000143 8.3946857452 0.1190000027 0.3139100075 2.2439999580 39.046001434 118.18499756 1.4440000057 37.540000916 2.2790000439 2.4539999962
 1709.1251221 19.000000000 8.8310003281 1.1100000143 5.8083949089 0.1080000028 0.3042799830 2.2039999962 41.634998322 120.65999603 1.4379999638 37.271999359 2.3529999256 2.4749999046
 1709.2498779 19.000000000 8.8039999008 1.1100000143 4.9991798401 0.1040000021 0.3005100191 2.1760001183 43.180999756 122.41000366 1.4570000172 36.736999512 2.3849999905 2.5020000935
 1709.3750000 19.000000000 8.8079996109 1.1100000143 4.9998364449 0.1059999987 0.3025499880 2.1710000038 43.485000610 123.70499420 1.5000000000 36.157001495 2.3659999371 2.5239999294
 1709.5000000 19.000000000 8.8229999542 1.1100000143 5.0003280640 0.1080000028 0.3061600029 2.1760001183 42.817001343 124.52200317 1.5609999895 36.110000610 2.3069999218 2.5320000648
 1709.6250000 19.000000000 8.8400001526 1.1100000143 5.0450296402 0.1099999994 0.3100999892 2.1800000668 41.985000610 124.46800232 1.6230000257 36.645000458 2.2160000801 2.5290000439
 1709.7500000 19.000000000 8.8579998016 1.1100000143 5.0319881439 0.1089999974 0.3155599833 2.1809999943 41.473999023 123.19699860 1.6729999781 37.555000305 2.0929999352 2.5239999294
 1709.8750000 19.000000000 8.8760004044 1.1100000143 5.0061569214 0.1059999987 0.3244900107 2.1800000668 40.993999481 120.27500153 1.7059999704 38.584999084 2.0529999733 2.5190000534
 1710.0000000 19.000000000 8.8950004578 1.1100000143 5.0026245117 0.1040000021 0.3383200169 2.1860001087 40.162998199 116.38700104 1.7200000286 39.470001221 2.1170001030 2.5150001049
 1710.1250000 19.000000000 8.9139995575 1.1100000143 4.9776301384 0.1059999987 0.3508999944 2.2079999447 38.368999481 111.95500183 1.7280000448 39.888999939 2.3110001087 2.5099999905
 1710.2501221 19.000000000 8.9340000153 1.1100000143 4.9598097801 0.1150000021 0.3564899862 2.2400000095 36.117000580 108.74400330 1.7430000305 39.876998901 2.6170001030 2.5030000210
 1710.3748779 19.000000000 8.9499998093 1.1100000143 4.9597277641 0.1260000020 0.3572600186 2.2690000534 33.908000946 107.20800018 1.7669999599 39.591999054 2.8480000496 2.4920001030
 1710.5000000 19.000000000 8.9610004425 1.1100000143 4.9593176842 0.1340000033 0.3574700058 2.2829999924 32.080001831 107.23000336 1.7920000553 39.222000122 2.9809999466 2.4790000916
 1710.6250000 19.000000000 8.9689998627 1.1100000143 4.9589076042 0.1340000033 0.3604600132 2.2760000229 30.909999847 108.31099701 1.8140000105 38.904998779 3.0460000038 2.4619998932
 1710.7500000 19.000000000 8.9759998322 1.1100000143 4.9584975243 0.1299999952 0.3677700162 2.2630000114 30.510999680 110.36100006 1.8200000525 38.842998505 3.0590000153 2.4460000992
 1710.8750000 19.000000000 8.9829998016 1.1100000143 4.9580869675 0.1250000000 0.3831100166 2.2550001144 31.006999969 112.25299835 1.8170000315 38.995998383 2.9930000305 2.4370000362
 1711.0000000 19.000000000 8.9899997711 1.1100000143 4.9573493004 0.1230000034 0.4000700116 2.2539999485 31.975999832 113.62400055 1.8120000362 39.245998383 2.7960000038 2.4360001087
 1711.1250000 19.000000000 8.9949998856 1.1100000143 4.9569392204 0.1230000034 0.4118600190 2.2560000420 32.957000732 114.47200012 1.8120000362 39.488998413 2.5280001163 2.4440000057
 1711.2500000 19.000000000 8.9980001450 1.1100000143 4.9565291405 0.1230000034 0.4143100083 2.2550001144 33.661998749 114.60700226 1.8179999590 39.668998718 2.2490000725 2.4609999657
 1711.3750000 19.000000000 9.0000000000 1.1100000143 4.9561185837 0.1250000000 0.4066299796 2.2460000515 33.534999847 114.08999634 1.8329999447 39.694000244 2.0239999294 2.4890000820
 1711.5001221 19.000000000 9.0010004044 1.1100000143 4.9557085037 0.1250000000 0.3974000216 2.2269999981 32.881000519 112.99199677 1.8420000076 39.650001526 1.9689999819 2.5179998875
 1711.6248779 19.000000000 9.0030002594 1.1100000143 4.9552173615 0.1239999980 0.3930899799 2.2039999962 31.913000107 111.60399628 1.8400000334 39.571998596 2.0720000267 2.5399999619
 1711.7500000 19.000000000 9.0050001144 1.1100000143 4.9545602798 0.1199999973 0.3957199752 2.1800000668 30.679000854 110.38301086 1.8270000219 39.471000671 2.2590000629 2.5480000973
 1711.8750000 19.000000000 9.0069999695 1.1100000143 4.9541501999 0.1150000021 0.4037099779 2.1630001068 29.124000549 109.82398987 1.8040000200 39.340999603 2.3750000000 2.5420000553
 1712.0000000 19.000000000 9.0089998245 1.1100000143 4.9537401199 0.1089999974 0.4128499925 2.1570000648 27.173999786 110.23100281 1.7740000486 39.173000336 2.3350000381 2.5179998875
 1712.1250000 19.000000000 9.0109996796 1.1100000143 4.9533300400 0.1040000021 0.4190900028 2.1559998989 25.752000809 112.44599915 1.7410000563 39.041999817 2.1319999695 2.4820001125
 1712.2500000 19.000000000 9.0089998245 1.1100000143 4.9529199600 0.0989999995 0.4194499850 2.1589999199 25.150999069 115.46700287 1.7029999495 38.973999023 1.9390000105 2.4449999332
 1712.3750000 19.000000000 8.9980001450 1.1100000143 4.9522638321 0.0949999988 0.4140399992 2.1670000553 25.309000015 118.66400909 1.6610000134 38.949001312 1.9259999990 2.4100000858
 1712.5000000 19.000000000 8.9790000916 1.1100000143 4.9517717361 0.0930000022 0.4037300050 2.1809999943 26.055999756 121.75199890 1.6160000563 38.936000824 2.0250000954 2.3810000420
 1712.6251221 19.000000000 8.9580001831 1.1100000143 4.9513616562 0.0939999968 0.3899999857 2.1989998817 27.270000458 124.67400360 1.5720000267 38.909999847 2.1359999180 2.3599998951
 1712.7498779 19.000000000 8.9370002747 1.1100000143 4.9509515762 0.0989999995 0.3753599823 2.2190001011 29.084999084 127.84999847 1.5390000343 38.839000702 2.2079999447 2.3599998951
 1712.8750000 19.000000000 8.9160003662 1.1100000143 4.9505410194 0.1019999981 0.3657400012 2.2309999466 31.408000946 130.44500732 1.5140000582 38.742000580 2.2650001049 2.3680000305
 1713.0000000 19.000000000 8.8950004578 1.1100000143 4.9501314163 0.1030000001 0.3593600094 2.2309999466 33.655998230 132.31799316 1.4939999580 38.620998383 2.3859999180 2.3780000210
 1713.1250000 19.000000000 8.8739995956 1.1100000143 4.9496388435 0.1019999981 0.3532199860 2.2239999771 35.345001221 133.42199707 1.4780000448 38.481998444 2.5850000381 2.3880000114
 1713.2500000 19.000000000 8.8540000916 1.1100000143 4.9489827156 0.1019999981 0.3459299803 2.2170000076 36.006000519 133.22000122 1.4659999609 38.352001190 2.7030000687 2.3949999809
 1713.3750000 19.000000000 8.8330001831 1.1100000143 4.9485726357 0.1019999981 0.3378500044 2.2139999866 34.916999817 130.13000488 1.4559999704 38.304000854 2.5759999752 2.3970000744
 1713.5000000 19.000000000 8.8229999542 1.1100000143 4.9481630325 0.1000000015 0.3320899904 2.2160000801 34.140998840 126.00299835 1.4500000477 38.402000427 2.3729999065 2.3929998875
 1713.6250000 19.000000000 8.8290004730 1.1100000143 4.9477529526 0.0970000029 0.3305599988 2.2170000076 33.889999390 121.83399963 1.4470000267 38.583000183 2.1930000782 2.3870000839
 1713.7500000 19.000000000 8.8430004120 1.1100000143 4.9473423958 0.0920000002 0.3312000036 2.2149999142 34.016998291 118.37200165 1.4429999590 38.847999573 2.1180000305 2.3800001144
 1713.8748779 19.000000000 8.8579998016 1.1100000143 4.9466867447 0.0850000009 0.3316600025 2.2100000381 33.956001282 115.96700287 1.4379999638 39.229000092 2.1459999084 2.3719999790
 1714.0000000 19.000000000 8.8710002899 1.1100000143 4.9461941719 0.0810000002 0.3306600153 2.2049999237 33.004001617 114.19599915 1.4259999990 39.756000519 2.2000000477 2.3589999676
