# LAS format log file from PETREL
# Project units are specified as depth units
#==================================================================
~Version information
VERS.   2.0:
WRAP.   NO:
#==================================================================
~Well
STRT .m      460.12496948 :
STOP .m      2548.7502441 :
STEP .m     0.00000000 :
NULL .        -999.250000 :
COMP.           : COMPANY
WELL.  25/10-4R  Balder Appr   : WELL
FLD.            : FIELD
LOC.            : LOCATION
SRVC.           : SERVICE COMPANY
DATE.  2018-09-11 14:48:14   : Log Export Date {yyyy-MM-dd HH:mm:ss}
PROV.           : PROVINCE
UWI.   25/10-4 R   : UNIQUE WELL ID
API.            : API NUMBER
#==================================================================
~Curve
DEPT .m                   : DEPTH
Lithology_geolink ._      : Lithology_geolink
CALI .in                  : CALI
MUDWEIGHT ._              : MUDWEIGHT
ROP .m/h                  : ROP
DRHO .g/cm3               : DRHO
NPHI .m3/m3               : NPHI
RHOB .g/cm3               : RHOB
GR .gAPI                  : GR
DTC .us/ft                : DTC
RDEP .ohm.m               : RDEP
SP .mV                    : SP
RSHA .ohm.m               : RSHA
RMED .ohm.m               : RMED
~Parameter
#==================================================================
~Ascii
# ...
 1989.1250000 5.0000000000 9.4379997253 1.1499999762  -999.250000 0.0860000029 0.2786099911 2.3420000076 74.036003113 103.30400085 0.6750000119 32.306999207  -999.250000 1.7419999838
 1989.2501221 5.0000000000 9.4359998703 1.1499999762  -999.250000 0.0860000029 0.2714399993 2.3570001125 74.327003479 103.02900696 0.7030000091 33.388000488  -999.250000 1.7840000391
 1989.3750000 5.0000000000 9.4340000153 1.1499999762  -999.250000 0.0850000009 0.2672800124 2.3740000725 74.597999573 102.30599976 0.7419999838 35.095001221  -999.250000 1.8279999495
 1989.5000000 5.0000000000 9.4320001602 1.1499999762  -999.250000 0.0839999989 0.2689900100 2.3929998875 74.942001343 101.49900055 0.7919999957 37.292999268  -999.250000 1.8669999838
 1989.6250000 5.0000000000 9.4300003052 1.1499999762  -999.250000 0.0839999989 0.2776100039 2.4059998989 74.601997375 100.79700470 0.8470000029 39.192001343  -999.250000 1.8940000534
 1989.7500000 5.0000000000 9.4280004501 1.1499999762  -999.250000 0.0839999989 0.2892400026 2.4079999924 73.945999146 100.52200317 0.8949999809 40.527999878  -999.250000 1.9090000391
 1989.8750000 6.0000000000 9.4259996414 1.1499999762  -999.250000 0.0850000009 0.2995599806 2.4040000439 73.555000305 100.87799835 0.9300000072 41.221000671  -999.250000 1.9119999409
 1990.0000000 6.0000000000 9.4239997864 1.1499999762  -999.250000 0.0879999995 0.3056499958 2.3970000744 74.030998230 101.96600342 0.9459999800 41.312000275  -999.250000 1.9060000181
 1990.1250000 6.0000000000 9.4219999313 1.1499999762  -999.250000 0.0930000022 0.3067200184 2.3940000534 76.358001709 103.61699677 0.9309999943 40.818000793  -999.250000 1.8910000324
 1990.2500000 6.0000000000 9.4189996719 1.1499999762  -999.250000 0.0989999995 0.3053900003 2.3980000019 80.019996643 105.35099792 0.8889999986 40.368000031  -999.250000 1.8669999838
 1990.3751221 6.0000000000 9.4160003662 1.1499999762  -999.250000 0.1040000021 0.3066599965 2.4049999714 83.053001404 106.43799591 0.8399999738 40.153999329  -999.250000 1.8409999609
 1990.4998779 6.0000000000 9.4130001068 1.1499999762  -999.250000 0.1059999987 0.3109599948 2.4089999199 84.648002625 106.47699738 0.7919999957 40.140998840  -999.250000 1.8179999590
 1990.6250000 6.0000000000 9.4099998474 1.1499999762  -999.250000 0.1049999967 0.3155300021 2.4040000439 84.574996948 105.76699829 0.7500000000 40.208000183  -999.250000 1.7999999523
 1990.7500000 6.0000000000 9.4069995880 1.1499999762  -999.250000 0.0989999995 0.3167800009 2.3840000629 82.777000427 104.40299988 0.7200000286 40.198001862  -999.250000 1.7960000038
 1990.8750000 6.0000000000 9.4069995880 1.1499999762  -999.250000 0.0909999982 0.3119400144 2.3559999466 79.847000122 103.09899139 0.7110000253 39.504001617  -999.250000 1.8200000525
 1991.0000000 6.0000000000 9.4099998474 1.1499999762  -999.250000 0.0810000002 0.3039299846 2.3229999542 76.910003662 101.78600311 0.7139999866 38.377998352  -999.250000 1.8710000515
 1991.1250000 5.0000000000 9.4180002213 1.1499999762  -999.250000 0.0710000023 0.2978700101 2.2929999828 73.835998535 100.24199677 0.7289999723 37.041000366  -999.250000 1.9429999590
 1991.2500000 5.0000000000 9.4259996414 1.1499999762  -999.250000 0.0610000007 0.2951000035 2.2909998894 70.703002930 98.388999939 0.7519999743 35.687000275  -999.250000 2.0290000439
 1991.3750000 5.0000000000 9.4329996109 1.1499999762  -999.250000 0.0529999994 0.2943499982 2.3139998913 67.815002441 96.333999634 0.7829999924 34.504001617  -999.250000 2.1210000515
 1991.5001221 5.0000000000 9.4390001297 1.1499999762  -999.250000 0.0540000014 0.2929300070 2.3680000305 65.899002075 94.559997559 0.8220000267 33.840000153  -999.250000 2.2009999752
 1991.6248779 5.0000000000 9.4399995804 1.1499999762  -999.250000 0.0630000010 0.2885299921 2.4360001087 65.917999268 93.911003113 0.8640000224 33.502998352  -999.250000 2.2490000725
 1991.7500000 5.0000000000 9.4359998703 1.1499999762  -999.250000 0.0759999976 0.2847599983 2.4960000515 66.325996399 94.246002197 0.9079999924 33.333999634  -999.250000 2.2739999294
 1991.8750000 5.0000000000 9.4309997559 1.1499999762  -999.250000 0.0860000029 0.2846100032 2.5399999619 66.532997131 95.138999939 0.9499999881 33.293998718  -999.250000 2.2799999714
 1992.0000000 5.0000000000 9.4270000458 1.1499999762  -999.250000 0.0920000002 0.2886199951 2.5469999313 66.231002808 96.317001343 0.9840000272 33.391998291  -999.250000 2.2750000954
 1992.1250000 5.0000000000 9.4149999619 1.1499999762  -999.250000 0.0860000029 0.2960700095 2.5269999504 65.412002563 97.436996460 1.0049999952 33.703998566  -999.250000 2.2699999809
 1992.2500000 5.0000000000 9.3999996185 1.1499999762  -999.250000 0.0799999982 0.3058300018 2.4930000305 66.373001099 98.545997620 1.0190000534 34.705001831  -999.250000 2.2899999619
 1992.3750000 5.0000000000 9.3830003738 1.1499999762  -999.250000 0.0790000036 0.3165000081 2.4590001106 69.538002014 99.742996216 1.0399999619 36.276000977  -999.250000 2.3359999657
 1992.5000000 6.0000000000 9.3649997711 1.1499999762  -999.250000 0.0829999968 0.3260999918 2.4389998913 74.595001221 100.71800232 1.0729999542 38.326000214  -999.250000 2.4279999733
 1992.6250000 6.0000000000 9.3479995728 1.1499999762  -999.250000 0.0879999995 0.3330300152 2.4400000572 80.712997437 101.07900238 1.1260000467 40.685001373  -999.250000 2.5620000362
 1992.7501221 6.0000000000 9.3310003281 1.1499999762  -999.250000 0.0879999995 0.3357599974 2.4500000477 86.372001648 100.16500092 1.2059999704 42.917999268  -999.250000 2.7349998951
 1992.8748779 6.0000000000 9.3159999847 1.1499999762  -999.250000 0.0790000036 0.3324700296 2.4649999142 88.542999268 96.401000977 1.3209999800 43.903999329  -999.250000 2.9769999981
 1993.0000000 6.0000000000 9.3079996109 1.1499999762  -999.250000 0.0659999996 0.3191300035 2.4839999676 87.032997131 91.231010437 1.4500000477 43.451000214  -999.250000 3.2829999924
 1993.1250000 6.0000000000 9.3090000153 1.1499999762  -999.250000 0.0529999994 0.2947400212 2.5050001144 82.904998779 85.027999878 1.5770000219 41.862998962  -999.250000 3.6180000305
 1993.2500000 6.0000000000 9.3120002747 1.1499999762  -999.250000 0.0450000018 0.2627699971 2.5339999199 77.005996704 78.937995911 1.6859999895 39.298999786  -999.250000 3.9519999027
 1993.3750000 16.000000000 9.3149995804 1.1499999762  -999.250000 0.0439999998 0.2278300077 2.5669999123 70.174003601 73.735000610 1.7419999838 36.222999573  -999.250000 4.2350001335
 1993.5000000 16.000000000 9.3179998398 1.1499999762  -999.250000 0.0500000007 0.1939399838 2.5959999561 63.016998291 70.085998535 1.7000000477 33.276000977  -999.250000 4.4039998055
 1993.6250000 16.000000000 9.3210000992 1.1499999762  -999.250000 0.0599999987 0.1632799953 2.6110000610 55.876998901 68.114997864 1.5809999704 31.091999054  -999.250000 4.3239998817
 1993.7500000 16.000000000 9.3229999542 1.1499999762  -999.250000 0.0729999989 0.1424199939 2.6089999676 49.839000702 68.808998108 1.4229999781 29.569999695  -999.250000 4.0789999962
 1993.8751221 16.000000000 9.3210000992 1.1499999762  -999.250000 0.0879999995 0.1319400072 2.5940001011 45.754001617 71.232002258 1.2439999580 28.701000214  -999.250000 3.7039999962
 1993.9998779 5.0000000000 9.3149995804 1.1499999762  -999.250000 0.0979999974 0.1310600042 2.5639998913 44.895000458 75.810997009 1.0679999590 28.481000900  -999.250000 3.2560000420
 1994.1250000 5.0000000000 9.3079996109 1.1499999762  -999.250000 0.1049999967 0.1393499970 2.5250000954 47.431999207 81.500999451 0.9150000215 28.757999420  -999.250000 2.8129999638
 1994.2500000 5.0000000000 9.3000001907 1.1499999762  -999.250000 0.1080000028 0.1562400013 2.4779999256 51.847999573 87.181007385 0.7979999781 29.204999924  -999.250000 2.4690001011
 1994.3750000 5.0000000000 9.2930002213 1.1499999762  -999.250000 0.1070000008 0.1795700043 2.4279999733 57.318000793 91.927001953 0.7129999995 29.599000931  -999.250000 2.2269999981
 1994.5000000 5.0000000000 9.2860002518 1.1499999762  -999.250000 0.1040000021 0.2085999995 2.3819999695 61.817001343 95.491996765 0.6529999971 29.812000275  -999.250000 2.0669999123
