# LAS format log file from PETREL
# Project units are specified as depth units
#==================================================================
~Version information
VERS.   2.0:
WRAP.   NO:
#==================================================================
~Well
STRT .m      984.14562988 :
STOP .m      1996.3865967 :
STEP .m     0.00000000 :
NULL .        -999.250000 :
COMP.           : COMPANY
WELL.  25/11-23  Balder Appr   : WELL
FLD.            : FIELD
LOC.            : LOCATION
SRVC.           : SERVICE COMPANY
DATE.  2018-09-11 14:48:16   : Log Export Date {yyyy-MM-dd HH:mm:ss}
PROV.           : PROVINCE
UWI.   25/11-23   : UNIQUE WELL ID
API.            : API NUMBER
#==================================================================
~Curve
DEPT .m                   : DEPTH
Lithology_geolink ._      : Lithology_geolink
DCAL .in                  : DCAL
CALI .in                  : CALI
BS .in                    : BS
MUDWEIGHT ._              : MUDWEIGHT
ROP .m/h                  : ROP
DRHO .g/cm3               : DRHO
NPHI .m3/m3               : NPHI
RHOB .g/cm3               : RHOB
GR .gAPI                  : GR
DTC .us/ft                : DTC
RDEP .ohm.m               : RDEP
SP .mV                    : SP
RSHA .ohm.m               : RSHA
RMED .ohm.m               : RMED
~Parameter
#==================================================================
~Ascii
# ...
 1519.0697021 5.0000000000 -0.013600351 8.4863996506 8.5000000000 1.3200000525 375993.75000 -0.010400881 0.5035920143 2.1517949104 57.206100464 144.62397766 0.7695903778 0.0000000000 0.7834711671 0.7850899696
 1519.2220459 5.0000000000 -0.020099636 8.4799003601 8.5000000000 1.3200000525 299798.28125 -0.011500721 0.5275930166 2.1455965042 57.079799652 143.84312439 0.7575673461 0.0000000000 0.7475051284 0.7725660205
 1519.3745117 5.0000000000 -0.019000050 8.4809999466 8.5000000000 1.3200000525 299798.28125 -0.012401042 0.5198509693 2.1411979198 55.587299347 143.12370300 0.7168120742 0.0000000000 0.7539095283 0.7302125692
 1519.5268555 5.0000000000 -0.021200182 8.4787998199 8.5000000000 1.3200000525 299798.28125 -0.013700000 0.5087969899 2.1386044025 54.658699036 142.63688660 0.7319179177 0.0000000000 0.7658391595 0.7459187508
 1519.6793213 5.0000000000 -0.024800301 8.4751996994 8.5000000000 1.3200000525 299798.28125 -0.013700000 0.5055299997 2.1439113617 54.984500885 141.87300110 0.7542951703 0.0000000000 0.8147088289 0.7692953348
 1519.8316650 5.0000000000 -0.027299879 8.4727001190 8.5000000000 1.3200000525 299798.28125 -0.013699920 0.5083459616 2.1511034966 56.444400787 140.93916321 0.7512508035 0.0000000000 0.8201045394 0.7663490772
 1519.9841309 5.0000000000 -0.029299740 8.4707002640 8.5000000000 1.3200000525 284915.28125 -0.013601761 0.5165969729 2.1554834843 58.452301025 142.26748657 0.6898780465 0.0000000000 0.7010174394 0.7028771043
 1520.1364746 16.000000000 -0.029899601 8.4701004028 8.5000000000 1.3200000525 171204.17188 -0.014699680 0.5243160129 2.1452913284 58.358299255 139.63587952 0.6762213707 0.0000000000 0.7119249701 0.6886221766
 1520.2889404 16.000000000 -0.029800422 8.4701995850 8.5000000000 1.3200000525 149979.10938 -0.014295837 0.5434120297 2.1345880032 56.562099457 137.87100220 0.7028430104 0.0000000000 0.7429775000 0.7162410617
 1520.4412842 16.000000000 -0.027099608 8.4729003906 8.5000000000 1.3200000525 150751.17188 -0.011697756 0.5495790243 2.1271958351 53.344699860 136.62843323 0.6673111320 0.0000000000 0.6666328311 0.6795116067
 1520.5936279 16.000000000 -0.026499752 8.4735002518 8.5000000000 1.3200000525 151556.01563 -0.008897678 0.5248839855 2.1220974922 49.444599152 135.67890930 0.6812419295 0.0000000000 0.7076792717 0.6940433979
 1520.7460938 16.000000000 -0.025899891 8.4741001129 8.5000000000 1.3200000525 152367.67188 -0.005997516 0.4992415905 2.1188015938 47.711399078 136.44682312 0.7334792614 0.0000000000 0.8066253066 0.7481783628
 1520.8984375 16.000000000 -0.022399899 8.4776000977 8.5000000000 1.3200000525 153181.23438 -0.002899199 0.4981018901 2.1212048531 47.787200928 137.34001160 0.7075594068 0.0000000000 0.8380865455 0.7211579680
 1521.0509033 5.0000000000 -0.015399930 8.4846000671 8.5000000000 1.3200000525 187658.95313 -0.001903045 0.5163193941 2.1272985935 48.776199341 138.34875488 0.6568588018 0.0000000000 0.6964387894 0.6686573625
 1521.2032471 5.0000000000 -0.005499840 8.4945001602 8.5000000000 1.3200000525 351791.50000 -0.005703202 0.5367355943 2.1255929470 49.759601593 141.41131592 0.6055226922 0.0000000000 0.6201359034 0.6155232787
 1521.3557129 5.0000000000 -0.001600266 8.4983997345 8.5000000000 1.3200000525 360896.96875 -0.009701764 0.5449234247 2.1167945862 51.228199005 143.04713440 0.6338960528 0.0000000000 0.6649056077 0.6445962787
 1521.5080566 5.0000000000 -0.002599716 8.4974002838 8.5000000000 1.3200000525 363806.78125 -0.011900401 0.5324940085 2.1099021435 53.664001465 144.58784485 0.6289767623 0.0000000000 0.6718943119 0.6399763823
 1521.6605225 5.0000000000 -0.003299713 8.4967002869 8.5000000000 1.3200000525 365159.43750 -0.012400561 0.5114178061 2.1126177311 54.165401459 145.01821899 0.6000491381 0.0000000000 0.6647944450 0.6105514765
 1521.8128662 5.0000000000 -0.007599831 8.4924001694 8.5000000000 1.3200000525 366596.21875 -0.013096956 0.4811872244 2.1347589493 52.594299316 143.28666687 0.6613330841 0.0000000000 0.6579021215 0.6748346090
 1521.9653320 16.000000000 0.0135002090 8.5135002136 8.5000000000 1.3200000525 368956.34375 -0.009280785 0.4193961024 2.2082965374 48.529598236 139.99113464 0.7027233243 0.0000000000 0.6610665917 0.7181293964
 1522.1176758 16.000000000 -0.032799721 8.4672002792 8.5000000000 1.3200000525 381128.53125 0.0027119392 0.3740403056 2.3308844566 44.953201294 136.95040894 0.7795608640 0.0000000000 0.9519228339 0.7987590432
 1522.2701416 16.000000000 -0.072099693 8.4279003143 8.5000000000 1.3200000525 397648.09375 0.0175990388 0.3807960749 2.4361388683 43.820201874 135.57369995 0.7305567265 0.0000000000 0.8553999066 0.7475500703
 1522.4224854 5.0000000000 -0.064700127 8.4352998734 8.5000000000 1.3200000525 400511.90625 0.0169947129 0.4645038843 2.3980138302 45.885299683 135.70317078 0.6411813498 0.0000000000 0.6682641506 0.6540805101
 1522.5749512 5.0000000000 -0.055899620 8.4441003799 8.5000000000 1.3200000525 400511.90625 0.0103990389 0.5596305132 2.2904877663 49.165100098 137.03292847 0.6178795099 0.0000000000 0.6236232519 0.6297792196
 1522.7272949 5.0000000000 -0.053199776 8.4468002319 8.5000000000 1.3200000525 400511.90625 0.0097997598 0.5873928666 2.2204818726 50.546901703 137.30235291 0.6051053405 0.0000000000 0.6381146312 0.6168057919
 1522.8796387 5.0000000000 -0.041399959 8.4586000443 8.5000000000 1.3200000525 400511.90625 0.0094968770 0.5605115891 2.1979911327 51.815601349 137.49635315 0.6118011475 0.0000000000 0.6562876105 0.6240011454
 1523.0321045 5.0000000000 -0.031800270 8.4681997299 8.5000000000 1.3200000525 400511.90625 0.0055952724 0.5328611135 2.1868844032 53.553100586 145.06047058 0.6132054329 0.0000000000 0.6408073902 0.6254053116
 1523.1844482 5.0000000000 -0.027099608 8.4729003906 8.5000000000 1.3200000525 388236.56250 -0.000302322 0.5113403201 2.1676878929 55.694801331 149.02484131 0.6200022697 0.0000000000 0.6500071883 0.6320018768
 1523.3369141 5.0000000000 -0.021900181 8.4780998230 8.5000000000 1.3200000525 292952.75000 -0.003202884 0.4920024872 2.1523942947 56.015098572 148.44325256 0.6227979660 0.0000000000 0.6589788198 0.6342973709
 1523.4892578 5.0000000000 -0.023599621 8.4764003754 8.5000000000 1.3200000525 274848.50000 -0.006801842 0.4703584015 2.1452984810 54.909801483 147.38166809 0.6203021407 0.0000000000 0.6326125860 0.6310018897
 1523.6417236 5.0000000000 -0.031800270 8.4681997299 8.5000000000 1.3200000525 274848.50000 -0.009100481 0.4700641930 2.1435003281 54.224700928 145.47189331 0.6230173111 0.0000000000 0.6483070254 0.6334175467
 1523.7940674 5.0000000000 -0.042599685 8.4574003220 8.5000000000 1.3200000525 274848.50000 -0.009700482 0.4822742045 2.1438963413 53.960800171 142.10519409 0.6446177363 0.0000000000 0.6571329832 0.6553179622
 1523.9465332 5.0000000000 -0.045499802 8.4545001984 8.5000000000 1.3200000525 275808.93750 -0.010300321 0.5054019094 2.1394889355 55.036098480 141.47377014 0.6667997241 0.0000000000 0.6981855631 0.6776988506
 1524.0988770 5.0000000000 -0.044300076 8.4556999207 8.5000000000 1.3200000525 280575.46875 -0.010497997 0.5127431154 2.1325981617 56.773300171 140.57723999 0.6665841937 0.0000000000 0.6891849041 0.6769832373
 1524.2513428 16.000000000 -0.045800209 8.4541997910 8.5000000000 1.3200000525 284931.50000 -0.007996798 0.5070731044 2.1300983429 57.629699707 139.62034607 0.6469025612 0.0000000000 0.6704368591 0.6561017632
 1524.4036865 16.000000000 -0.045800209 8.4541997910 8.5000000000 1.3200000525 287027.96875 -0.005997195 0.4984439015 2.1291100979 54.922798157 141.77432251 0.6485553980 0.0000000000 0.6934402585 0.6572567225
 1524.5561523 16.000000000 -0.047599785 8.4524002075 8.5000000000 1.3200000525 285967.53125 -0.002491994 0.4624925852 2.1415884495 50.590400696 142.80868530 0.7177802920 0.0000000000 0.7436874509 0.7281852365
 1524.7084961 16.000000000 -0.029199600 8.4708003998 8.5000000000 1.3200000525 284715.62500 0.0025054486 0.4263319075 2.1968562603 47.557998657 142.55464172 0.8303266168 0.0000000000 0.7983978391 0.8438308239
 1524.8608398 5.0000000000 -0.019499779 8.4805002213 8.5000000000 1.3200000525 283633.00000 0.0093031228 0.4254056811 2.2671175003 47.140300751 143.11340332 0.9881184101 0.0000000000 1.0450240374 1.0069153309
