# LAS format log file from PETREL
# Project units are specified as depth units
#==================================================================
~Version information
VERS.   2.0:
WRAP.   NO:
#==================================================================
~Well
STRT .m      460.12496948 :
STOP .m      2548.7502441 :
STEP .m     0.00000000 :
NULL .        -999.250000 :
COMP.           : COMPANY
WELL.  25/10-4R  Balder Appr   : WELL
FLD.            : FIELD
LOC.            : LOCATION
SRVC.           : SERVICE COMPANY
DATE.  2018-09-11 14:48:14   : Log Export Date {yyyy-MM-dd HH:mm:ss}
PROV.           : PROVINCE
UWI.   25/10-4 R   : UNIQUE WELL ID
API.            : API NUMBER
#==================================================================
~Curve
DEPT .m                   : DEPTH
Lithology_geolink ._      : Lithology_geolink
CALI .in                  : CALI
MUDWEIGHT ._              : MUDWEIGHT
ROP .m/h                  : ROP
DRHO .g/cm3               : DRHO
NPHI .m3/m3               : NPHI
RHOB .g/cm3               : RHOB
GR .gAPI                  : GR
DTC .us/ft                : DTC
RDEP .ohm.m               : RDEP
SP .mV                    : SP
RSHA .ohm.m               : RSHA
RMED .ohm.m               : RMED
~Parameter
#==================================================================
~Ascii
# ...
 597.62500000  -999.250000 15.734000206 1.1000000238 1.6955380440  -999.250000  -999.250000  -999.250000 37.599998474 147.55499268 1.2530000210 26.069000244  -999.250000 1.6460000277
 597.75000000  -999.250000 15.734999657 1.1000000238 1.6955380440  -999.250000  -999.250000  -999.250000 37.863998413 148.95700073 1.2480000257 26.302000046  -999.250000 1.6460000277
 597.87500000  -999.250000 15.730999947 1.1000000238 1.6955380440  -999.250000  -999.250000  -999.250000 38.316001892 150.35897827 1.2419999838 26.506999969  -999.250000 1.6460000277
 598.00000000  -999.250000 15.716000557 1.1000000238 1.6955380440  -999.250000  -999.250000  -999.250000 38.257999420 151.33798218 1.2369999886 26.726999283  -999.250000 1.6469999552
 598.12500000  -999.250000 15.697999954 1.1000000238 1.6958661079  -999.250000  -999.250000  -999.250000 37.032001495 151.70100403 1.2339999676 26.926000595  -999.250000 1.6410000324
 598.25000000  -999.250000 15.678999901 1.1000000238 1.6958661079  -999.250000  -999.250000  -999.250000 35.812000275 151.18400574 1.2339999676 26.252000809  -999.250000 1.6339999437
 598.37500000  -999.250000 15.661001205 1.1000000238 1.6958661079  -999.250000  -999.250000  -999.250000 34.910999298 149.95300293 1.2350000143 25.858999252  -999.250000 1.6319999695
 598.50000000  -999.250000 15.642000198 1.1000000238 1.6961942911  -999.250000  -999.250000  -999.250000 34.922000885 148.72300720 1.2359999418 25.465999603  -999.250000 1.6330000162
 598.62500000  -999.250000 15.624000549 1.1000000238 1.6961942911  -999.250000  -999.250000  -999.250000 35.833000183 147.53300476 1.2369999886 25.072999954  -999.250000 1.6330000162
 598.75000000  -999.250000 15.605999947 1.1000000238 1.6888123751  -999.250000  -999.250000  -999.250000 36.929000854 147.12500000 1.2389999628 24.718999863  -999.250000 1.6330000162
 598.87500000  -999.250000 15.607999802 1.1000000238 1.6814304590  -999.250000  -999.250000  -999.250000 37.435001373 147.19799805 1.2389999628 24.930000305  -999.250000 1.6390000582
 599.00000000  -999.250000 15.621999741 1.1000000238 1.6814304590  -999.250000  -999.250000  -999.250000 37.351001740 147.65400696 1.2339999676 25.326999664  -999.250000 1.6469999552
 599.12500000  -999.250000 15.640000343 1.1000000238 1.6780653000  -999.250000  -999.250000  -999.250000 36.631000519 148.29200745 1.2269999981 25.718999863  -999.250000 1.6490000486
 599.25000000  -999.250000 15.656999588 1.1000000238 1.6669946909  -999.250000  -999.250000  -999.250000 36.217998505 149.51100159 1.2209999561 25.978000641  -999.250000 1.6490000486
 599.37500000  -999.250000 15.673999786 1.1000000238 1.6672407389  -999.250000  -999.250000  -999.250000 36.119998932 151.08200073 1.2150000334 25.966999054  -999.250000 1.6490000486
 599.50000000  -999.250000 15.690999985 1.1000000238 1.6525591612  -999.250000  -999.250000  -999.250000 36.105998993 152.65299988 1.2109999657 25.780000687  -999.250000 1.6490000486
 599.62500000  -999.250000 15.675999641 1.1000000238 1.6526411772  -999.250000  -999.250000  -999.250000 35.626998901 154.22399902 1.2120000124 25.561000824  -999.250000 1.6499999762
 599.75000000  -999.250000 15.633000374 1.1000000238 1.6528871059  -999.250000  -999.250000  -999.250000 35.000999451 155.72900391 1.2189999819 25.344999313  -999.250000 1.6499999762
 599.87500000  -999.250000 15.527999878 1.1000000238 1.6528871059  -999.250000  -999.250000  -999.250000 34.433998108 156.47000122 1.2300000191 25.156999588  -999.250000 1.6499999762
 600.00000000  -999.250000 15.407999992 1.1000000238 1.6528871059  -999.250000  -999.250000  -999.250000 34.097000122 155.28999329 1.2380000353 25.037000656  -999.250000 1.6499999762
 600.12500000  -999.250000 15.305999756 1.1000000238 1.6528871059  -999.250000  -999.250000  -999.250000 34.012001038 153.24499512 1.2480000257 25.238000870  -999.250000 1.6510000229
 600.25000000  -999.250000 15.290000916 1.1000000238 1.6527230740  -999.250000  -999.250000  -999.250000 37.012001038 151.18099976 1.2580000162 25.686000824  -999.250000 1.6510000229
 600.37500000  -999.250000 15.316999435 1.1000000238 1.6525591612  -999.250000  -999.250000  -999.250000 38.965999603 149.11701965 1.2619999647 26.306999207  -999.250000 1.6510000229
 600.50000000  -999.250000 15.411000252 1.1000000238 1.6522309780  -999.250000  -999.250000  -999.250000 39.757999420 147.85400391 1.2539999485 27.011999130  -999.250000 1.6510000229
 600.62500000  -999.250000 15.514999390 1.1000000238 1.6522309780  -999.250000  -999.250000  -999.250000 39.965000153 147.53999329 1.2339999676 27.687000275  -999.250000 1.6510000229
 600.75000000  -999.250000 15.574999809 1.1000000238 1.6520669460  -999.250000  -999.250000  -999.250000 39.199001312 147.58299255 1.2209999561 28.034999847  -999.250000 1.6560000181
 600.87500000  -999.250000 15.616999626 1.1000000238 1.6519027948  -999.250000  -999.250000  -999.250000 38.355998993 147.80999756 1.2120000124 27.794000626  -999.250000 1.6649999619
 601.00000000  -999.250000 15.637998581 1.1000000238 1.6515748501  -999.250000  -999.250000  -999.250000 37.546001434 148.48199463 1.2070000172 27.406999588  -999.250000 1.6670000553
 601.12500000  -999.250000 15.652999878 1.1000000238 1.6514928341  -999.250000  -999.250000  -999.250000 37.111000061 149.52999878 1.2100000381 26.920000076  -999.250000 1.6679999828
 601.25000000  -999.250000 15.649999619 1.1000000238 1.6512467861  -999.250000  -999.250000  -999.250000 37.993999481 150.70399475 1.2150000334 26.214000702  -999.250000 1.6679999828
 601.37500000  -999.250000 15.631000519 1.1000000238 1.6510004997  -999.250000  -999.250000  -999.250000 39.569999695 152.15899658 1.2230000496 25.013999939  -999.250000 1.6759999990
 601.50000000  -999.250000 15.609999657 1.1000000238 1.6509186029  -999.250000  -999.250000  -999.250000 40.153999329 153.61399841 1.2309999466 24.379999161  -999.250000 1.6829999685
 601.62500000  -999.250000 15.581999779 1.1000000238 1.6505905390  -999.250000  -999.250000  -999.250000 39.615001678 155.06900024 1.2410000563 24.777999878  -999.250000 1.6840000153
 601.75000000  -999.250000 15.522999763 1.1000000238 1.6505905390  -999.250000  -999.250000  -999.250000 38.486000061 156.52398682 1.2500000000 25.299999237  -999.250000 1.6840000153
 601.87500000  -999.250000 15.437999725 1.1000000238 1.6503446102  -999.250000  -999.250000  -999.250000 37.442001343 157.82299805 1.2599999905 25.850999832  -999.250000 1.6840000153
 602.00000000  -999.250000 15.298999786 1.1000000238 1.6502625942  -999.250000  -999.250000  -999.250000 37.416000366 157.84698486 1.2699999809 26.385000229  -999.250000 1.6849999428
 602.12500000  -999.250000 15.055000305 1.1000000238 1.6499344110  -999.250000  -999.250000  -999.250000 38.694000244 156.65499878 1.2799999714 26.860000610  -999.250000 1.6849999428
 602.25000000  -999.250000 14.796000481 1.1000000238 1.6497702599  -999.250000  -999.250000  -999.250000 39.734001160 154.57200623 1.2899999619 26.966999054  -999.250000 1.6849999428
 602.37500000  -999.250000 14.598999977 1.1000000238 1.6496062279  -999.250000  -999.250000  -999.250000 40.040000916 152.47599792 1.3009999990 26.885000229  -999.250000 1.6849999428
 602.50000000  -999.250000 14.416999817 1.1000000238 1.6492781639  -999.250000  -999.250000  -999.250000 38.652999878 150.38099670 1.3079999685 26.597999573  -999.250000 1.6849999428
 602.62500000  -999.250000 14.276000023 1.1000000238 1.6491961479  -999.250000  -999.250000  -999.250000 35.494998932 148.28599548 1.3059999943 25.805000305  -999.250000 1.6840000153
 602.75000000  -999.250000 14.265000343 1.1000000238 1.6489502192  -999.250000  -999.250000  -999.250000 32.743999481 146.40100098 1.3009999990 24.874000549  -999.250000 1.6740000248
 602.87500000  -999.250000 14.326000214 1.1000000238 1.6489502192  -999.250000  -999.250000  -999.250000 31.087999344 145.91900635 1.2940000296 24.375999451  -999.250000 1.6710000038
 603.00000000  -999.250000 14.397999763 1.1000000238 1.6486220360  -999.250000  -999.250000  -999.250000 30.496999741 146.22500610 1.2840000391 23.982000351  -999.250000 1.6679999828
