# LAS format log file from PETREL
# Project units are specified as depth units
#==================================================================
~Version information
VERS.   2.0:
WRAP.   NO:
#==================================================================
~Well
STRT .m      1456.9927979 :
STOP .m      2094.7868652 :
STEP .m     0.00000000 :
NULL .        -999.250000 :
COMP.           : COMPANY
WELL.  25/11-24 Jakob South   : WELL
FLD.            : FIELD
LOC.            : LOCATION
SRVC.           : SERVICE COMPANY
DATE.  2018-09-11 14:48:16   : Log Export Date {yyyy-MM-dd HH:mm:ss}
PROV.           : PROVINCE
UWI.   25/11-24   : UNIQUE WELL ID
API.            : API NUMBER
#==================================================================
~Curve
DEPT .m                   : DEPTH
Lithology_geolink ._      : Lithology_geolink
DCAL .in                  : DCAL
CALI .in                  : CALI
BS .in                    : BS
ROP .m/h                  : ROP
DRHO .g/cm3               : DRHO
NPHI .m3/m3               : NPHI
RHOB .g/cm3               : RHOB
PEF .b/e                  : PEF
GR .gAPI                  : GR
DTC .us/ft                : DTC
DTS .us/ft                : DTS
RDEP .ohm.m               : RDEP
RMIC .ohm.m               : RMIC
RMED .ohm.m               : RMED
~Parameter
#==================================================================
~Ascii
# ...
 1748.2292480 5.0000000000 -0.031499859 8.4685001373 8.5000000000 47.445541382 0.0038999999 0.4896965325 2.2393000126 3.0578999519 198.86940002 135.64549255 340.06710815 0.9866508245 1.0315999985 0.9966999888
 1748.3817139 5.0000000000 -0.020299910 8.4797000885 8.5000000000 47.445541382 0.0031999999 0.4853982329 2.2253999710 3.0318999290 200.83219910 136.87797546 346.49288940 0.9251432419 0.9976000190 0.9341999888
 1748.5340576 6.0000000000 0.0066995621 8.5066995621 8.5000000000 47.445541382 0.0016000000 0.4832075536 2.1803998947 3.2123999596 204.79049683 137.96896362 355.80319214 0.7296965718 0.6387000084 0.7336999774
 1748.6865234 6.0000000000 -0.136899903 8.3631000519 8.5000000000 47.445541382 0.0014000000 0.4926390052 2.1998999119 3.3152999878 206.44340515 139.16030884 357.36608887 0.7254516482 0.6802999973 0.7300999761
 1748.8388672 6.0000000000 -0.082300194 8.4176998138 8.5000000000 47.445541382 0.0044000000 0.5412858725 2.2221000195 3.3770999908 209.40480042 140.42390442 363.98498535 0.7898775935 0.8026000261 0.7954000235
 1748.9913330 6.0000000000 -0.097499855 8.4025001526 8.5000000000 47.462200165 0.0080000004 0.5237318873 2.2023999691 3.4949998856 209.54260254 140.55506897 368.82391357 0.7619109154 0.7203999758 0.7666000128
 1749.1436768 6.0000000000 -0.069600113 8.4303998947 8.5000000000 57.849079132 0.0146000003 0.5435765982 2.1863999367 3.6614999771 209.88699341 139.91044617 371.60189819 0.7686837912 0.7329000235 0.7731999755
 1749.2961426 6.0000000000 -0.133099601 8.3669004440 8.5000000000 57.849079132 0.0231999997 0.5144264102 2.1140999794 3.3178999424 203.92959595 138.45433044 371.05331421 0.7485081553 0.7731999755 0.7527999878
 1749.4484863 5.0000000000 -0.166099519 8.3339004517 8.5000000000 57.849079132 0.0337000005 0.5308740139 2.1468000412 3.5023999214 196.56019592 137.53636169 369.36608887 0.7537328005 0.6360999942 0.7597000003
 1749.6009521 5.0000000000 -0.140700296 8.3592996597 8.5000000000 57.849079132 0.0329999998 0.4985017478 2.2195000648 3.3336000443 194.42520142 136.38383484 365.37109375 0.9193040133 0.7748000026 0.9247999787
 1749.7532959 5.0000000000 -0.082300194 8.4176998138 8.5000000000 57.849079132 0.0251000002 0.4995877445 2.2353000641 2.9238998890 193.59880066 135.71765137 361.37930298 0.9217513204 0.9161999822 0.9266999960
 1749.9056396 5.0000000000 -0.028900150 8.4710998535 8.5000000000 57.849079132 0.0119000003 0.4843144715 2.1605999470 3.1159000397 192.04910278 135.40405273 358.66018677 0.8610445857 0.6811000109 0.8629000187
 1750.0581055 5.0000000000 -0.001999855 8.4980001450 8.5000000000 57.846450806 0.0049999999 0.5024027228 2.2395999432 3.0320999622 196.25030518 135.72656250 361.40701294 0.9167053103 0.5691999793 0.9135000110
 1750.2104492 6.0000000000 0.0193996392 8.5193996429 8.5000000000 54.568901062 0.0016000000 0.5058247447 2.2430999279 3.0014998913 200.89920044 136.42399597 365.61010742 0.9232793450 0.8184000254 0.9208999872
 1750.3629150 6.0000000000 0.0139999408 8.5139999390 8.5000000000 54.568901062 0.0015000000 0.5367034674 2.1960999966 2.9979999065 206.06449890 136.67654419 369.34799194 0.8974335790 1.0566999912 0.8937000036
 1750.5152588 6.0000000000 0.0219001807 8.5219001770 8.5000000000 54.568901062 0.0011000000 0.5409920812 2.1861000061 3.2211999893 199.12100220 136.73759460 371.28091431 0.8146765828 1.1332000494 0.8079000115
 1750.6677246 6.0000000000 0.1717997044 8.6717996597 8.5000000000 54.568901062 0.0051000002 0.5310840011 2.2813000679 2.8710999489 198.73660278 136.35388184 373.60186768 0.9102280736 0.9172000289 0.8986999989
 1750.8200684 5.0000000000 0.0208997708 8.5208997726 8.5000000000 54.568901062 0.0161000006 0.5111905336 2.1463999748 3.1036999226 196.70489502 135.95967102 374.75671387 0.8204414248 0.4659000039 0.8090999722
 1750.9725342 5.0000000000 0.0289001502 8.5289001465 8.5000000000 54.576919556 0.0294000003 0.4993900657 2.2128999233 3.2455000877 193.73089600 135.67697144 374.51599121 0.7474951148 0.3671000004 0.7375000119
 1751.1248779 5.0000000000 -0.013699528 8.4863004684 8.5000000000 59.577426910 0.0412000008 0.4932056069 2.2825000286 3.1723999977 185.81619263 135.22215271 373.83950806 0.8067498207 0.7608000040 0.7965999842
 1751.2773438 5.0000000000 -0.028900150 8.4710998535 8.5000000000 59.577426910 0.0417999998 0.5002084374 2.2021000385 3.3152999878 183.68119812 135.40402222 372.71908569 0.7442400455 0.6908000112 0.7350000143
 1751.4296875 5.0000000000 0.1590995938 8.6590995789 8.5000000000 59.577426910 0.0370000005 0.5055328012 2.1856000423 3.3455998898 187.22810364 135.54539490 370.79119873 0.7691819072 0.5622000098 0.7592999935
 1751.5821533 5.0000000000 -0.050000194 8.4499998093 8.5000000000 59.577426910 0.0248000007 0.5463417172 2.1264998913 3.2046000957 190.61439514 135.54562378 368.60940552 0.7468780875 0.5543000102 0.7366999984
 1751.7344971 5.0000000000 0.0016002660 8.5016002655 8.5000000000 59.577426910 0.0121999998 0.5100095272 2.1826999187 3.1681001186 189.38540649 135.68632507 369.96560669 0.9203872085 0.3411999941 0.9096999764
 1751.8868408 5.0000000000 0.0059995656 8.5059995651 8.5000000000 59.577426910 0.0034000000 0.5218964815 2.2288000584 2.8907001019 185.49409485 136.22209167 375.05151367 1.0289801359 0.5579000115 1.0214999914
 1752.0393066 6.0000000000 0.0208997708 8.5208997726 8.5000000000 59.568187714 0.0048000002 0.5175365806 2.1826000214 2.8589000702 189.58039856 136.34347534 380.52731323 0.8794230223 0.3316000104 0.8752999902
 1752.1916504 6.0000000000 0.0370998383 8.5370998383 8.5000000000 48.044620514 0.0088999998 0.5631942153 2.0906000137 3.0255000591 199.31509399 136.19209290 383.44137573 0.7835173011 0.3075999916 0.7800999880
 1752.3441162 6.0000000000 0.1820002198 8.6820001602 8.5000000000 48.044620514 0.0115999999 0.5559898019 2.1733999252 2.8550000191 209.57699585 135.80841064 384.13101196 0.8051449060 0.6732000113 0.8030999899
 1752.4964600 6.0000000000 0.0549001656 8.5549001694 8.5000000000 48.044620514 0.0071000000 0.5432687998 2.2177999020 2.7876000404 211.94979858 135.45452881 381.16799927 0.8611553311 0.8482000232 0.8611999750
 1752.6489258 6.0000000000 0.0066995621 8.5066995621 8.5000000000 48.044620514 0.0055000000 0.5044072270 2.2276000977 2.6863999367 210.87930298 135.49481201 381.57238770 0.9301845431 0.9825999737 0.9268000126
 1752.8012695 6.0000000000 -0.053999901 8.4460000992 8.5000000000 48.044620514 0.0070000002 0.5133958459 2.1972000599 2.7669000626 204.99470520 135.63645935 380.21618652 0.9107471108 0.9176999927 0.9067000151
 1752.9537354 6.0000000000 -0.049200062 8.4507999420 8.5000000000 48.047294617 0.0102000004 0.5081916451 2.1619000435 2.9518001080 200.59010315 135.71691895 376.44070435 0.7201523185 0.6984000206 0.7146000266
 1753.1060791 6.0000000000 -0.102600083 8.3973999023 8.5000000000 49.713581085 0.0087000001 0.5029860735 2.1916999817 3.0401999950 195.87539673 135.91920471 374.35549927 0.7528601885 0.6955000162 0.7495999932
 1753.2585449 5.0000000000 -0.048299789 8.4517002106 8.5000000000 49.713581085 0.0043000001 0.4855881333 2.1888000965 2.7846999168 194.14970398 135.31323242 372.03439331 0.8279075027 0.8899000287 0.8299999833
 1753.4108887 5.0000000000 -0.034000400 8.4659996033 8.5000000000 49.713581085 0.0002000000 0.4781993330 2.2241001129 2.7376999855 194.52699280 134.02058411 367.07949829 0.8327130079 0.8021000028 0.8356999755
 1753.5633545 5.0000000000 -0.018799780 8.4812002182 8.5000000000 49.713581085 0.0002000000 0.4774219394 2.2416999340 2.6847999096 190.60130310 133.13148499 362.17855835 0.9736513495 0.9887999892 0.9761000276
 1753.7156982 5.0000000000 0.0396995507 8.5396995544 8.5000000000 49.713581085 0.0020000001 0.4910924733 2.2892000675 2.7492001057 188.81069946 131.87940979 359.33670044 1.0056438446 1.2474000454 1.0119999647
 1753.8680420 5.0000000000 0.0549001656 8.5549001694 8.5000000000 49.713581085 0.0029000000 0.4816963971 2.2544999123 2.6960999966 182.68260193 131.65602112 359.38238525 0.9354989529 1.1186000109 0.9430000186
 1754.0205078 5.0000000000 0.0370998383 8.5370998383 8.5000000000 49.714080811 0.0016000000 0.4771875739 2.2446999550 2.8129999638 183.81889343 132.68582153 361.60189819 0.8093847036 0.9506999850 0.8188999891
