# LAS format log file from PETREL
# Project units are specified as depth units
#==================================================================
~Version information
VERS.   2.0:
WRAP.   NO:
#==================================================================
~Well
STRT .m      1090.1660156 :
STOP .m      2511.1435547 :
STEP .m     0.00000000 :
NULL .        -999.250000 :
COMP.           : COMPANY
WELL.  25/10-10  Balder Triassic   : WELL
FLD.            : FIELD
LOC.            : LOCATION
SRVC.           : SERVICE COMPANY
DATE.  2018-09-11 14:48:14   : Log Export Date {yyyy-MM-dd HH:mm:ss}
PROV.           : PROVINCE
UWI.   25/10-10   : UNIQUE WELL ID
API.            : API NUMBER
#==================================================================
~Curve
DEPT .m                   : DEPTH
Lithology_geolink ._      : Lithology_geolink
CALI .in                  : CALI
BS .in                    : BS
ROP .m/h                  : ROP
DRHO .g/cm3               : DRHO
THOR .ppm                 : THOR
NPHI .m3/m3               : NPHI
RHOB .g/cm3               : RHOB
PEF .b/e                  : PEF
GR .gAPI                  : GR
URAN .ppm                 : URAN
DTC .us/ft                : DTC
DTS .us/ft                : DTS
RDEP .ohm.m               : RDEP
RSHA .ohm.m               : RSHA
RMED .ohm.m               : RMED
~Parameter
#==================================================================
~Ascii
# ...
 2308.1467285 4.0000000000 12.094300270 12.250000954 40.769687653 0.0392000005 4.0349001884 0.1542269289 2.4131999016 5.8313999176 60.649101257 0.5184999704 72.715759277 137.65589905 1.7074999809 1.2071000338 1.6521999836
 2308.2993164 4.0000000000 12.094300270 12.250000954 37.423206329 0.0461999997 4.2039999962 0.1493999958 2.4339001179 5.8031997681 62.090801239 0.6536999941 70.450302124 129.98500061 1.9894000292 1.3919999599 1.9289000034
 2308.4516602 4.0000000000 12.094300270 12.250000954 39.458015442 0.0549999997 4.0039000511 0.1418000013 2.4618000984 5.8344001770 60.710601807 0.6184999943 69.419799805 124.81349945 2.6593000889 1.8181999922 2.5555999279
 2308.6040039 5.0000000000 12.101699829 12.250000954 41.707126617 0.0560999997 3.9433999062 0.1403024048 2.4714999199 5.8927001953 62.665599823 0.7258999944 68.591323853 122.46620178 3.5299999714 2.2881000042 3.4054000378
 2308.7563477 5.0000000000 12.094300270 12.250000954 37.473423004 0.0573000014 3.6624999046 0.1389022470 2.4811999798 5.9510002136 60.034999847 0.5401999950 67.761627197 120.11889648 4.4825000763 2.6008000374 4.3642997742
 2308.9089355 5.0000000000 12.079400063 12.250000954 32.343795776 0.0645999983 3.4798998833 0.1248999983 2.5116999149 6.0971999168 59.518100739 0.4219999909 68.809700012 122.59420013 3.8808000088 2.4314000607 3.8564999104
 2309.0612793 5.0000000000 12.094300270 12.250000954 28.424732208 0.0653000027 3.5980000496 0.1089000031 2.5021998882 6.3642001152 58.735198975 0.3255999982 68.602996826 123.60209656 2.5274999142 1.9682999849 2.6249001026
 2309.2136230 5.0000000000 12.064399719 12.250000954 20.571842194 0.0679000020 3.5371999741 0.0946228802 2.4993999004 6.4221000671 56.855098724 0.6613000035 67.368072510 123.58319855 3.4093000889 2.0722000599 3.3968999386
 2309.3659668 6.0000000000 12.049500465 12.250000954 20.362205505 0.0590999983 3.5007998943 0.0934019238 2.4825000763 6.4474000931 58.593601227 0.8532999754 66.329460144 119.27680206 1.9098000526 1.6821999550 2.0041999817
 2309.5183105 6.0000000000 12.027199745 12.250000954 19.213254929 0.0502000004 3.5845000744 0.0922019258 2.4656999111 6.4727997780 58.483898163 1.1203000546 65.291061401 114.97039795 2.6988999844 1.9219000340 2.7897000313
 2309.6708984 6.0000000000 12.049500465 12.250000954 17.573198318 0.0390999988 3.7836000919 0.0982000008 2.4319999218 6.0423002243 63.057399750 1.6427999735 66.361503601 122.88900757 1.7386000156 1.4653999805 1.8215999603
 2309.8232422 6.0000000000 12.071900368 12.250000954 18.614656448 0.0291000009 3.5834999084 0.1010953560 2.4158000946 5.7019000053 73.838600159 2.4256999493 69.380363464 127.74659729 1.1842999458 1.1548999548 1.2587000132
 2309.9755859 6.0000000000 12.049500465 12.250000954 17.277887344 0.0368000008 4.9352998734 0.1047940701 2.4138000011 5.4979000092 90.077796936 2.7804000378 68.131317139 133.75090027 1.5585999489 1.3995000124 1.6636999846
 2310.1279297 7.0000000000 12.194999695 12.250000954 17.569553375 0.0494999997 7.1743001938 0.1095923111 2.4468998909 5.5190000534 111.05030060 3.1059000492 68.598846436 131.55039978 2.3296000957 1.8871999979 2.4605000019
 2310.2805176 7.0000000000 12.250900269 12.250000954 17.874113083 0.0560999997 7.9701004028 0.1194999963 2.4749000072 5.6217999458 119.71089935 3.1744999886 70.173797607 121.38330078 2.1275999546 1.8499000072 2.2843000889
 2310.4328613 7.0000000000 12.295700073 12.250000954 19.581779480 0.0540999994 7.8127994537 0.1333000064 2.5067000389 5.6796998978 122.33010101 3.3078999519 72.555397034 130.19909668 1.9182000160 1.7766000032 2.0943999290
 2310.5852051 7.0000000000 12.310600281 12.250000954 27.201347351 0.0432999991 8.4790000916 0.1421857476 2.5055000782 5.6396999359 118.61409760 3.0525000095 77.555389404 144.43899536 1.8142999411 1.7035000324 1.9895999432
 2310.7375488 7.0000000000 12.325498581 12.250000954 28.573163986 0.0362000018 8.7264003754 0.1629666686 2.5002000332 5.5244998932 114.81999969 2.8949999809 83.796295166 163.02259827 1.7542999983 1.7114000320 1.9378999472
 2310.8901367 7.0000000000 12.317999840 12.250000954 34.331199646 0.0491999984 9.1062002182 0.2343000025 2.5046000481 5.5212998390 115.54560089 2.8405001163 93.664299011 179.06790161 1.6649999619 1.6701999903 1.8418999910
 2311.0424805 7.0000000000 12.347900391 12.250000954 47.330081940 0.0520000011 9.9764995575 0.2572000027 2.4925999641 5.6767001152 116.51799774 2.6040999889 96.793098450 183.02279663 1.5743000507 1.6029000282 1.7331000566
 2311.1948242 7.0000000000 12.355299950 12.250000954 60.024101257 0.0577000007 10.275400162 0.2673836648 2.4869999886 5.8036999702 121.86219788 2.6389999390 97.839027405 185.05731201 1.5537999868 1.5965000391 1.6943000555
 2311.3471680 7.0000000000 12.362799644 12.250000954 62.371063232 0.0555000007 10.132200241 0.2673001587 2.4839999676 6.1016998291 122.56089783 2.3710999489 98.456405640 185.73890686 1.7899999619 1.8033000231 1.9395999908
 2311.4995117 7.0000000000 12.370200157 12.250000954 96.748687744 0.0560999997 10.274499893 0.2772839665 2.4876999855 6.1631999016 118.92179871 2.0978999138 98.067726135 183.29890442 2.0657999516 2.1577999592 2.2105998993
 2311.6520996 6.0000000000 12.373999596 12.250000954 95.445457458 0.0478999987 9.9710998535 0.2939999998 2.4888999462 6.1371002197 112.57920074 1.8892999887 98.013702393 180.63801575 2.0134999752 2.2095000744 2.1363000870
 2311.8044434 6.0000000000 12.385199547 12.250000954 90.515968323 0.0524000004 8.7076997757 0.2989920080 2.5048000813 6.0364999771 105.21849823 2.0046999454 93.202011108 178.70669556 1.8948999643 2.1433999538 1.9969999790
 2311.9567871 6.0000000000 12.407500267 12.250000954 106.82775879 0.0442999974 9.1161003113 0.2905136049 2.5181000233 5.6662998199 102.36219788 1.7831000090 90.043952942 174.32910156 1.8545999527 2.1175000668 1.9394999743
 2312.1091309 6.0000000000 12.414999962 12.250000954 91.066932678 0.0392000005 9.3022003174 0.2740264237 2.5185999870 5.4112000465 102.54940033 1.8980000019 86.047210693 167.42109680 1.8831000328 2.1696999073 1.9490000010
 2312.2617188 5.0000000000 12.392600060 12.250000954 86.167762756 0.0401000008 8.4219999313 0.2623000145 2.5265998840 5.2319002151 100.43550110 2.0824000835 86.443702698 165.50459290 1.9751000404 2.2169001102 2.0202000141
 2312.4140625 5.0000000000 12.400099754 12.250000954 78.871200562 0.0450000018 7.3867998123 0.2579999864 2.5304000378 5.4619002342 97.617698669 2.2204999924 92.108802795 165.08450317 2.0525000095 2.2671000957 2.0755999088
 2312.5664063 5.0000000000 12.385199547 12.250000954 71.182617188 0.0395000018 6.1589999199 0.2634912133 2.5181999207 5.6767001152 91.138999939 2.0155000687 93.338729858 165.24279785 2.5453999043 2.7306001186 2.5385000706
 2312.7187500 5.0000000000 12.385199547 12.250000954 67.011810303 0.0329999998 5.1284999847 0.2657963037 2.5064001083 5.8875999451 87.469902039 2.1384000778 93.220291138 163.12849426 3.1556999683 2.9846999645 3.1113998890
 2312.8713379 5.0000000000 12.407500267 12.250000954 54.070808411 0.0355000012 4.7323999405 0.2608000040 2.5016000271 6.0048999786 83.299102783 2.1222999096 86.029602051 159.96629333 2.6884999275 2.8152999878 2.6277000904
 2313.0236816 5.0000000000 12.422499657 12.250000954 53.215824127 0.0485000014 4.8738999367 0.2459000051 2.5262000561 6.0673999786 82.161903381 2.0104999542 79.441299438 155.31120300 2.6238000393 2.7360000610 2.5344998837
 2313.1760254 5.0000000000 12.407500267 12.250000954 52.361270905 0.0529000014 4.5138001442 0.1937835217 2.5380001068 5.8387999535 85.219299316 2.2441000938 78.112525940 151.97709656 2.6856000423 2.7518000603 2.5590000153
 2313.3283691 5.0000000000 12.463500023 12.250000954 51.778541565 0.0518999994 4.1030998230 0.1830171496 2.5202000141 5.7715001106 86.355499268 2.4635999203 78.529830933 153.51660156 2.6545999050 2.7012999058 2.5116999149
 2313.4807129 5.0000000000 12.508199692 12.250000954 47.237861633 0.0535000004 4.3583998680 0.1760112196 2.5000000000 6.0220999718 87.943298340 2.4372000694 80.858261108 152.05020142 2.5025000572 2.5743999481 2.3682000637
 2313.6333008 5.0000000000 12.586600304 12.250000954 41.369724274 0.0568999983 3.2400000095 0.1798000038 2.4793999195 6.3171000481 85.982597351 2.8217999935 80.584197998 151.83099365 2.5262999535 2.5847001076 2.3938000202
