# LAS format log file from PETREL
# Project units are specified as depth units
#==================================================================
~Version information
VERS.   2.0:
WRAP.   NO:
#==================================================================
~Well
STRT .m      1090.1660156 :
STOP .m      2511.1435547 :
STEP .m     0.00000000 :
NULL .        -999.250000 :
COMP.           : COMPANY
WELL.  25/10-10  Balder Triassic   : WELL
FLD.            : FIELD
LOC.            : LOCATION
SRVC.           : SERVICE COMPANY
DATE.  2018-09-11 14:48:14   : Log Export Date {yyyy-MM-dd HH:mm:ss}
PROV.           : PROVINCE
UWI.   25/10-10   : UNIQUE WELL ID
API.            : API NUMBER
#==================================================================
~Curve
DEPT .m                   : DEPTH
Lithology_geolink ._      : Lithology_geolink
CALI .in                  : CALI
BS .in                    : BS
ROP .m/h                  : ROP
DRHO .g/cm3               : DRHO
THOR .ppm                 : THOR
NPHI .m3/m3               : NPHI
RHOB .g/cm3               : RHOB
PEF .b/e                  : PEF
GR .gAPI                  : GR
URAN .ppm                 : URAN
DTC .us/ft                : DTC
DTS .us/ft                : DTS
RDEP .ohm.m               : RDEP
RSHA .ohm.m               : RSHA
RMED .ohm.m               : RMED
~Parameter
#==================================================================
~Ascii
# ...
 1467.9655762 5.0000000000 12.507200241 12.250000954 122.61614990 0.0307999998  -999.250000 0.4730954468 2.1953001022 6.4530000687 50.990600586  -999.250000 128.12553406  -999.250000 0.5613999963 0.5515999794 0.5511999726
 1468.1179199 5.0000000000 12.459199905 12.250000954 120.99410248 0.0353000015  -999.250000 0.4985591769 2.1110000610 6.0721001625 48.634899139  -999.250000 132.61309814  -999.250000 0.5490999818 0.5167999864 0.5357999802
 1468.2703857 5.0000000000 12.392600060 12.250000954 111.14895630 0.0263000000  -999.250000 0.5143873692 2.0717999935 6.0998997688 47.519699097  -999.250000 135.91946411  -999.250000 0.5759999752 0.5346999764 0.5483000278
 1468.4227295 5.0000000000 12.402299881 12.250000954 107.51870728 0.0307999998  -999.250000 0.5234854817 2.0806999207 6.4233999252 47.739498138  -999.250000 138.13844299  -999.250000 0.6771000028 0.6266999841 0.6035000086
 1468.5751953 5.0000000000 12.411599159 12.250000954 100.48228455 0.0337999985  -999.250000 0.5244992375 2.1410999298 7.2203001976 49.501399994  -999.250000 137.67527771  -999.250000 0.6105999947 0.5819000006 0.5781999826
 1468.7275391 5.0000000000 12.562100410 12.250000954 100.36351776 0.0445000008  -999.250000 0.5040328503 2.2295000553 7.8025999069 54.690200806  -999.250000 137.41889954  -999.250000 0.5616999865 0.5540999770 0.5455999970
 1468.8800049 5.0000000000 12.484600067 12.250000954 104.67224884 0.0456999987  -999.250000 0.4953069687 2.2456998825 7.3969998360 59.510299683  -999.250000 137.90739441  -999.250000 0.5573999882 0.5540999770 0.5425000191
 1469.0323486 5.0000000000 12.440501213 12.250000954 100.17782593 0.0414000005  -999.250000 0.5216788650 2.1819999218 6.5987000465 57.610599518  -999.250000 140.14619446  -999.250000 0.5580000281 0.5436000228 0.5399000049
 1469.1848145 5.0000000000 12.444499016 12.250000954 97.441596985 0.0368999988  -999.250000 0.5502771139 2.1108000278 6.2203001976 51.866699219  -999.250000 142.35099792  -999.250000 0.5591999888 0.5411999822 0.5375999808
 1469.3371582 5.0000000000 12.476499557 12.250000954 96.689636230 0.0272999983  -999.250000 0.5711832643 2.0820999146 6.1792998314 48.793598175  -999.250000 145.94149780  -999.250000 0.5859000087 0.5544999838 0.5396000147
 1469.4896240 5.0000000000 12.446200371 12.250000954 91.773292542 0.0208000001  -999.250000 0.5499170423 2.0690999031 5.9633998871 48.436000824  -999.250000 146.68420410  -999.250000 0.5849999785 0.5605999827 0.5849999785
 1469.6419678 5.0000000000 12.431500435 12.250000954 85.452095032 0.0198999997  -999.250000 0.5406074524 2.0739998817 5.5356001854 51.341499329  -999.250000 147.41760254  -999.250000 0.6026999950 0.5738000274 0.5726000071
 1469.7944336 5.0000000000 12.419400215 12.250000954 87.794296265 0.0232999995  -999.250000 0.5402002931 2.0804998875 5.3579001427 56.504299164  -999.250000 145.06539917  -999.250000 0.5655000210 0.5590999722 0.5432000160
 1469.9467773 5.0000000000 12.409099579 12.250000954 82.797897339 0.0255999994  -999.250000 0.5315069556 2.0841000080 5.2574000359 57.845298767  -999.250000 141.59060669  -999.250000 0.5688999891 0.5389999747 0.5412999988
 1470.0991211 5.0000000000 12.401200294 12.250000954 84.983268738 0.0229000002  -999.250000 0.5195192099 2.0731999874 5.3045001030 54.917400360  -999.250000 142.13679504  -999.250000 0.5630000234 0.5500000119 0.5407000184
 1470.2515869 5.0000000000 12.436300278 12.250000954 84.428146362 0.0208999999  -999.250000 0.5191003084 2.0725998878 5.4636998177 54.124000549  -999.250000 145.50810242  -999.250000 0.5565000176 0.5264999866 0.5314000249
 1470.4039307 5.0000000000 12.506798744 12.250000954 87.770339966 0.0229000002  -999.250000 0.5465559363 2.0799002647 5.7355999947 56.124298096  -999.250000 146.48440552  -999.250000 0.5455999970 0.5297999978 0.5286999941
 1470.5563965 5.0000000000 12.576800346 12.250000954 86.696525574 0.0280000009  -999.250000 0.5695815682 2.0913000107 6.0942997932 57.074199677  -999.250000 148.23039246  -999.250000 0.5788999796 0.5383999944 0.5425999761
 1470.7087402 5.0000000000 12.526200294 12.250000954 92.237861633 0.0333000049  -999.250000 0.5294643641 2.1024999619 6.0665001869 57.889900208  -999.250000 147.27749634  -999.250000 0.5821999907 0.5637000203 0.5601000190
 1470.8612061 5.0000000000 12.487299919 12.250000954 94.061027527 0.0340000018  -999.250000 0.4899316430 2.1096000671 5.7076997757 58.471099854  -999.250000 146.90679932  -999.250000 0.5868999958 0.5547999740 0.5546000004
 1471.0135498 5.0000000000 12.480799675 12.250000954 95.535110474 0.0243999995  -999.250000 0.5010910034 2.1084001064 5.0996999741 57.957000732  -999.250000 145.15280151  -999.250000 0.5864999890 0.5731999874 0.5608999729
 1471.1660156 5.0000000000 12.510199547 12.250000954 101.84317780 0.0156999994  -999.250000 0.5611519217 2.1054000854 4.7164001465 55.766700745  -999.250000 141.33410645  -999.250000 0.5781999826 0.5630999804 0.5604000092
 1471.3183594 5.0000000000 12.471300125 12.250000954 101.67158508 0.0136000002  -999.250000 0.5778865814 2.1003999710 4.8756999969 52.492500305  -999.250000 144.34849548  -999.250000 0.5738999844 0.5464000106 0.5396999717
 1471.4708252 5.0000000000 12.523900032 12.250000954 110.85990906 0.0203000009  -999.250000 0.5597145557 2.1013998985 5.2196998596 52.570701599  -999.250000 144.81370544  -999.250000 0.5713000298 0.5476999879 0.5421000123
 1471.6231689 5.0000000000 12.624400139 12.250000954 114.45735168 0.0310999993  -999.250000 0.5519062877 2.1015999317 6.0134000778 52.395599365  -999.250000 144.70919800  -999.250000 0.5832999945 0.5493000150 0.5523999929
 1471.7756348 5.0000000000 12.576899529 12.250000954 117.28083801 0.0366000012  -999.250000 0.5579951406 2.1012001038 6.4590001106 49.151199341  -999.250000 145.18040466  -999.250000 0.5928999782 0.5652999878 0.5582000017
 1471.9279785 5.0000000000 12.596199989 12.250000954 107.13582611 0.0364000015  -999.250000 0.5356179476 2.0975000858 6.9218001366 49.419399261  -999.250000 143.38310242  -999.250000 0.5867999792 0.5547000170 0.5540000200
 1472.0803223 5.0000000000 12.591600418 12.250000954 114.12729645 0.0397000015  -999.250000 0.5390943885 2.1063001156 6.9463000298 51.398300171  -999.250000 142.82809448  -999.250000 0.5820000172 0.5604000092 0.5651000142
 1472.2327881 5.0000000000 12.617899895 12.250000954 117.53445435 0.0399000011  -999.250000 0.5137203336 2.1022000313 7.0798001289 50.665401459  -999.250000 147.10299683  -999.250000 0.5809000134 0.5512999892 0.5475999713
 1472.3851318 5.0000000000 12.655599594 12.250000954 104.45046234 0.0438000001  -999.250000 0.5277774334 2.1050000191 7.4595999718 49.952999115  -999.250000 147.58619690  -999.250000 0.5691000223 0.5288000107 0.5449000001
 1472.5375977 5.0000000000 12.639699936 12.250000954 100.67520142 0.0397999994  -999.250000 0.5055179000 2.0906000137 7.4991002083 51.788501740  -999.250000 148.58090210  -999.250000 0.5681999922 0.5333999991 0.5192999840
 1472.6899414 5.0000000000 12.581999779 12.250000954 96.357284546 0.0348999985  -999.250000 0.5003083348 2.0817000866 7.4022002220 55.364398956  -999.250000 148.23950195  -999.250000 0.5365999937 0.5275999904 0.5315999985
 1472.8424072 5.0000000000 12.565999985 12.250000954 97.529861450 0.0318999998  -999.250000 0.4817149043 2.0734000206 7.4054999352 57.219501495  -999.250000 147.00090027  -999.250000 0.5479999781 0.5141000152 0.5284000039
 1472.9947510 5.0000000000 12.549999237 12.250000954 94.547569275 0.0355000012  -999.250000 0.4879949689 2.0750999451 7.7225999832 55.654998779  -999.250000 145.36720276  -999.250000 0.5544999838 0.5310999751 0.5368999839
 1473.1472168 5.0000000000 12.703100204 12.250000954 87.328414917 0.0390999988  -999.250000 0.5148785114 2.0841000080 7.8723998070 51.631999969  -999.250000 145.05470276  -999.250000 0.5544999838 0.5310999751 0.5368999839
 1473.2995605 5.0000000000 12.529700279 12.250000954 78.531166077 0.0401000008  -999.250000 0.5675578117 2.0780000687 7.8559999466 50.626300812  -999.250000 145.76890564  -999.250000 0.5568000078 0.5400999784 0.5444999933
 1473.4520264 5.0000000000 12.595899582 12.250000954 77.435691833 0.0386000015  -999.250000 0.5771923065 2.0743999481 7.7765002251 54.124000549  -999.250000 147.08059692  -999.250000 0.5613999963 0.5317000151 0.5285000205
