# LAS format log file from PETREL
# Project units are specified as depth units
#==================================================================
~Version information
VERS.   2.0:
WRAP.   NO:
#==================================================================
~Well
STRT .m      1456.9927979 :
STOP .m      2094.7868652 :
STEP .m     0.00000000 :
NULL .        -999.250000 :
COMP.           : COMPANY
WELL.  25/11-24 Jakob South   : WELL
FLD.            : FIELD
LOC.            : LOCATION
SRVC.           : SERVICE COMPANY
DATE.  2018-09-11 14:48:16   : Log Export Date {yyyy-MM-dd HH:mm:ss}
PROV.           : PROVINCE
UWI.   25/11-24   : UNIQUE WELL ID
API.            : API NUMBER
#==================================================================
~Curve
DEPT .m                   : DEPTH
Lithology_geolink ._      : Lithology_geolink
DCAL .in                  : DCAL
CALI .in                  : CALI
BS .in                    : BS
ROP .m/h                  : ROP
DRHO .g/cm3               : DRHO
NPHI .m3/m3               : NPHI
RHOB .g/cm3               : RHOB
PEF .b/e                  : PEF
GR .gAPI                  : GR
DTC .us/ft                : DTC
DTS .us/ft                : DTS
RDEP .ohm.m               : RDEP
RMIC .ohm.m               : RMIC
RMED .ohm.m               : RMED
~Parameter
#==================================================================
~Ascii
# ...
 1878.9884033 1.0000000000 0.0040998459 8.5040998459 8.5000000000 84.205383301 0.0044999998 0.2994031310 2.1394000053 2.1177000999 110.53929901 106.18170166 209.01071167 0.3412980139 0.1870000064 0.3140000105
 1879.1408691 1.0000000000 -0.046699520 8.4533004761 8.5000000000 84.205383301 0.0014000000 0.3033057749 2.1312999725 2.2906000614 110.98719788 106.06110382 209.69529724 0.3388044238 0.1863999963 0.3100000024
 1879.2932129 1.0000000000 -0.056900021 8.4430999756 8.5000000000 84.205383301 -0.003300000 0.3104998469 2.1343998909 2.1870999336 111.43479919 105.67667389 210.26210022 0.3443000913 0.1612000018 0.3129000068
 1879.4456787 1.0000000000 -0.079700470 8.4202995300 8.5000000000 84.205383301 0.0007000000 0.3102946281 2.1187996864 2.3055999279 112.74340057 105.89866638 210.88778687 0.3444014192 0.1483000070 0.3142000139
 1879.5980225 1.0000000000 -0.041600231 8.4583997726 8.5000000000 84.195663452 0.0010000000 0.3035938442 2.1257998943 2.2683999538 112.75669861 106.22211456 211.48397827 0.3461997509 0.1591999978 0.3161999881
 1879.7504883 1.0000000000 -0.001000404 8.4989995956 8.5000000000 72.069221497 -0.001600000 0.2959007025 2.1407999992 2.3657000065 112.13690186 106.36360168 211.89840698 0.3458971083 0.1894000024 0.3170000017
 1879.9028320 1.0000000000 0.0066995621 8.5066995621 8.5000000000 72.069221497 -0.003800000 0.2967931032 2.1224999428 2.2025001049 110.20850372 106.36364746 212.00000000 0.3422996104 0.1861999929 0.3124000132
 1880.0552979 1.0000000000 0.0549001656 8.5549001694 8.5000000000 72.069221497 -0.001300000 0.2882007957 2.1217000484 2.1475999355 110.64260101 106.42414856 211.73789978 0.3417939246 0.1750999987 0.3124000132
 1880.2076416 1.0000000000 0.0753002167 8.5753002167 8.5000000000 72.069221497 -0.001000000 0.2887071371 2.1184999943 2.1552000046 110.33270264 106.63643646 212.16050720 0.3379966319 0.1821999997 0.3091999888
 1880.3601074 1.0000000000 0.0320997201 8.5320997238 8.5000000000 72.069221497 -0.003800000 0.2976129651 2.1282000542 2.1877000332 111.34980011 106.67671204 213.28089905 0.3337980807 0.1756999940 0.3055000007
 1880.5124512 1.0000000000 -0.011099821 8.4889001846 8.5000000000 72.069221497 -0.005800000 0.3057031333 2.1152000427 2.2541000843 114.96549988 106.79808044 213.89840698 0.3326043189 0.1673000008 0.3037999868
 1880.6649170 1.0000000000 -0.102600083 8.3973999023 8.5000000000 72.069221497 -0.004000000 0.3096004725 2.0947000980 2.4300999641 120.30310059 106.76763153 214.26210022 0.3380027115 0.1598999947 0.3088999987
 1880.8172607 1.0000000000 -0.161000296 8.3389997482 8.5000000000 72.067222595 -0.004800000 0.3098983169 2.1368999481 2.4131999016 124.59320068 106.90911865 215.28089905 0.3397000134 0.1653999984 0.3109000027
 1880.9696045 1.0000000000 -0.051799767 8.4482002258 8.5000000000 69.571533203 -0.007600000 0.3078047931 2.1240000725 2.2223000526 120.21990204 106.92937469 216.42259216 0.3396963179 0.1819999963 0.3115000129
 1881.1220703 1.0000000000 -0.056900021 8.4430999756 8.5000000000 69.571533203 -0.009900000 0.3138071299 2.0998001099 2.2983999252 117.15509796 107.14079285 217.25140381 0.3350983858 0.1641000062 0.3072000146
 1881.2744141 1.0000000000 0.0088996887 8.5088996887 8.5000000000 69.571533203 -0.010900000 0.3227032721 2.0982999802 2.1693000793 116.60009766 107.63633728 217.19250488 0.3331002295 0.1597999930 0.3045000136
 1881.4268799 1.0000000000 0.0895004272 8.5895004272 8.5000000000 69.571533203 -0.010600000 0.3267888427 2.1108999252 2.2186000347 118.25299835 107.55593872 216.82879639 0.3334030509 0.1659999937 0.3045000136
 1881.5792236 1.0000000000 -0.051799767 8.4482002258 8.5000000000 69.571533203 -0.009600000 0.3129020035 2.1168000698 2.1619000435 117.83979797 107.35326385 216.98930359 0.3371933401 0.1726000011 0.3079000115
 1881.7316895 1.0000000000 -0.036499981 8.4635000229 8.5000000000 69.571586609 -0.007400000 0.3153988123 2.1101000309 2.1637001038 112.39800262 107.67660522 218.13922119 0.3289024830 0.1864999980 0.3003000021
 1881.8840332 1.0000000000 -0.042599685 8.4574003220 8.5000000000 69.633529663 -0.006200000 0.3139132261 2.1022000313 2.3501000404 110.90059662 107.81822968 218.80749512 0.3320068717 0.1912000030 0.3039999902
 1882.0364990 1.0000000000 -0.128000304 8.3719997406 8.5000000000 69.633529663 -0.006500000 0.3303828537 2.1352000237 2.3304998875 111.96810150 107.85881805 219.95739746 0.3406062722 0.1612000018 0.3111000061
 1882.1888428 1.0000000000 -0.112799600 8.3872003555 8.5000000000 69.633529663 -0.008200000 0.3196924627 2.1117000580 2.2184998989 115.55030060 108.18114471 221.41189575 0.3444916606 0.1659000069 0.3143000007
 1882.3413086 1.0000000000 -0.122900002 8.3770999908 8.5000000000 69.633529663 -0.010300000 0.3103080094 2.1043999195 2.2641000748 116.77220154 108.85865021 222.60441589 0.3341003358 0.1656000018 0.3052999973
 1882.4936523 1.0000000000 -0.102600083 8.3973999023 8.5000000000 69.633529663 -0.011200000 0.3153137565 2.0903000832 2.2495000362 116.25569916 109.08049011 223.69529724 0.3343016207 0.1665000021 0.3059000075
 1882.6461182 1.0000000000 -0.112799600 8.3872003555 8.5000000000 69.633529663 -0.012600000 0.3325179517 2.0750000477 2.1805000305 114.80940247 109.44415283 224.52409363 0.3363038301 0.1740999967 0.3068000078
 1882.7984619 1.0000000000 -0.112799600 8.3872003555 8.5000000000 69.639335632 -0.013000000 0.3436882198 2.0915999413 2.1637001038 115.37770081 109.60655975 224.98930359 0.3386935890 0.1814000010 0.3082000017
 1882.9508057 1.0000000000 -0.092399590 8.4076004028 8.5000000000 76.881561279 -0.012700000 0.3290022314 2.0701999664 2.0875999928 114.98750305 109.18170929 224.56680298 0.3306998610 0.1748999953 0.3001999855
 1883.1032715 1.0000000000 -0.056900021 8.4430999756 8.5000000000 76.881561279 -0.011000000 0.3317945600 2.0987000465 2.2395000458 115.05639648 109.08114624 223.57739258 0.3305065036 0.1837999970 0.3000999987
 1883.2556152 1.0000000000 -0.122599609 8.3774003983 8.5000000000 76.881561279 -0.011300000 0.3250038326 2.0851998329 2.1675000191 115.07350159 108.64687347 222.74859619 0.3385991156 0.1771000028 0.3073000014
 1883.4080811 1.0000000000 -0.128000304 8.3719997406 8.5000000000 76.881561279 -0.012000000 0.3297918439 2.0871999264 2.1754999161 114.67160034 108.48430634 222.41439819 0.3374983966 0.1685999930 0.3059000075
 1883.5604248 1.0000000000 -0.138199806 8.3618001938 8.5000000000 76.881561279 -0.012800000 0.3195947111 2.0836000443 2.2922999859 114.29280090 108.86885834 222.10159302 0.3354977667 0.1601999998 0.3039999902
 1883.7128906 1.0000000000 -0.143300101 8.3566999435 8.5000000000 76.873802185 -0.011900000 0.3129946291 2.0989999771 2.2460999489 111.53800201 108.68710327 221.60690308 0.3327006698 0.1635999978 0.3014999926
 1883.8652344 1.0000000000 -0.125499696 8.3745002747 8.5000000000 67.199806213 -0.011300000 0.3062910438 2.0910000801 2.2641999722 112.63990021 108.68626404 221.58561707 0.3335082531 0.1644999981 0.3014000058
 1884.0177002 1.0000000000 -0.123200394 8.3767995834 8.5000000000 67.199806213 -0.010900000 0.2951072156 2.1024000645 2.1250998974 114.15509796 109.14089203 221.63639832 0.3437960148 0.1825000048 0.3091000021
 1884.1700439 1.0000000000 -0.131199807 8.3688001633 8.5000000000 67.199806213 -0.010400000 0.2995988131 2.0859000683 2.2304999828 116.01460266 108.63792419 221.63639832 0.3412997723 0.2172999978 0.3055000007
 1884.3225098 1.0000000000 -0.122900002 8.3770999908 8.5000000000 67.199806213 -0.010500000 0.2981213033 2.0931000710 2.1652998924 114.70610046 107.54521942 221.89840698 0.3409969509 0.2083999962 0.3032999933
 1884.4748535 1.0000000000 -0.117899902 8.3821001053 8.5000000000 67.199806213 -0.011100000 0.3113997579 2.0864999294 2.1907999516 109.43740082 108.18176270 221.86900330 0.3390994370 0.1879000068 0.2980999947
 1884.6273193 1.0000000000 -0.079700470 8.4202995300 8.5000000000 67.199806213 -0.011900000 0.3111205101 2.0678000450 2.2801001072 107.95659637 108.14146423 221.03199768 0.3384193778 0.1627999991 0.2982000113
 1884.7796631 1.0000000000 -0.044199940 8.4558000565 8.5000000000 67.214607239 -0.011500000 0.3238954544 2.0764000416 2.2223999500 107.99109650 107.99989319 219.67900085 0.3505038321 0.1616999954 0.3077000082
