# LAS format log file from PETREL
# Project units are specified as depth units
#==================================================================
~Version information
VERS.   2.0:
WRAP.   NO:
#==================================================================
~Well
STRT .m      1118.6159668 :
STOP .m      2017.3187256 :
STEP .m     0.00000000 :
NULL .        -999.250000 :
COMP.           : COMPANY
WELL.  25/11-15  Grane   : WELL
FLD.            : FIELD
LOC.            : LOCATION
SRVC.           : SERVICE COMPANY
DATE.  2018-09-11 14:48:15   : Log Export Date {yyyy-MM-dd HH:mm:ss}
PROV.           : PROVINCE
UWI.   25/11-15   : UNIQUE WELL ID
API.            : API NUMBER
#==================================================================
~Curve
DEPT .m                   : DEPTH
Lithology_geolink ._      : Lithology_geolink
CALI .in                  : CALI
BS .in                    : BS
MUDWEIGHT ._              : MUDWEIGHT
ROP .m/h                  : ROP
TGAS ._                   : TGAS
DRHO .g/cm3               : DRHO
THOR .ppm                 : THOR
NPHI .m3/m3               : NPHI
RHOB .g/cm3               : RHOB
GR .gAPI                  : GR
URAN .ppm                 : URAN
DTC .us/ft                : DTC
DTE .us/ft                : DTE
RDEP .ohm.m               : RDEP
SP .mV                    : SP
RSHA .ohm.m               : RSHA
RMED .ohm.m               : RMED
~Parameter
#==================================================================
~Ascii
# ...
 1299.6671143  -999.250000 15.075400352 12.250000954  -999.250000 220344.84375  -999.250000 -0.084296271 6.8243918419 0.4592153132 2.1133008003 110.12194824 -4.103443146 148.10960388 145.44975281 1.5607435703 17.700000763  -999.250000 1.2962274551
 1299.8195801  -999.250000 15.434850693 12.250000954  -999.250000 220445.06250  -999.250000 -0.091657393 6.9755787849 0.4732877016 2.1417930126 108.25210571 -4.066629410 145.00990295 142.63653564 1.5373497009 16.700801849  -999.250000 1.2709193230
 1299.9719238  -999.250000 15.043990135 12.250000954  -999.250000 221827.93750  -999.250000 -0.095062479 6.7812557220 0.4842905104 2.1666898727 113.12219238 -4.256247997 142.63070679 140.08001709 1.6033771038 16.200401306  -999.250000 1.2630633116
 1300.1242676  -999.250000 14.827380180 12.250000954  -999.250000 224986.60938  -999.250000 -0.088921100 6.7607331276 0.4867896140 2.1541659832 115.37280273 -4.334275246 143.69679260 140.49671936 1.5926722288 16.200000763  -999.250000 1.3814082146
 1300.2767334  -999.250000 14.686079979 12.250000954  -999.250000 228998.45313  -999.250000 -0.078986630 6.5102009773 0.4776976109 2.1723034382 116.93515015 -4.620769978 141.79609680 139.23252869 1.7672759295 16.699600220  -999.250000 1.3794298172
 1300.4290771  -999.250000 15.100330353 12.250000954  -999.250000 229655.15625  -999.250000 -0.073315956 6.4249362946 0.4520288110 2.1683990955 114.37151337 -4.665328979 141.90950012 138.94026184 1.7376418114 15.701601028  -999.250000 1.4454441071
 1300.5815430  -999.250000 15.136260033 12.250000954  -999.250000 229655.15625  -999.250000 -0.068992540 6.2475419044 0.4567041099 2.1697299480 105.00870514 -4.839360237 141.67149353 138.73556519 1.6939729452 16.699199677  -999.250000 1.3851283789
 1300.7338867  -999.250000 14.749319077 12.250000954  -999.250000 228378.12500  -999.250000 -0.066936746 6.1309866905 0.4799906909 2.1586499214 108.24649811 -4.901401043 142.62420654 139.32015991 1.6806921959 17.199199677  -999.250000 1.3325282335
 1300.8863525  -999.250000 14.777120590 12.250000954  -999.250000 227793.25000  -999.250000 -0.075137109 6.8331370354 0.4980759025 2.1711320877 110.56254578 -4.659893513 141.20060730 138.50433350 1.6248687506 17.699600220  -999.250000 1.2597463131
 1301.0386963  -999.250000 15.166810036 12.250000954  -999.250000 222506.56250  -999.250000 -0.082837395 6.4358191490 0.4773164093 2.1708292961 116.68029785 -4.848248959 142.03039551 138.89869690 1.5306655169 16.700801849  -999.250000 1.2218294144
 1301.1911621  -999.250000 15.322131157 12.250000954  -999.250000 159608.10938  -999.250000 -0.085502915 6.8489685059 0.4715993106 2.1456212997 113.31459808 -4.612189293 144.17550659 140.72381592 1.5278891325 16.700000763  -999.250000 1.2199923992
 1301.3435059  -999.250000 15.863949776 12.250000954  -999.250000 136551.59375  -999.250000 -0.086577877 6.6528573036 0.4464418888 2.1512544155 110.75334930 -4.654066086 144.06340027 141.07499695 1.4686455727 18.198799133  -999.250000 1.1854207516
 1301.4959717  -999.250000 16.908849716 12.250000954  -999.250000 136551.59375  -999.250000 -0.089419529 6.7787990570 0.4743770957 2.0950469971 112.87369537 -4.648504257 149.42478943 145.35485840 1.3746712208 19.698799133  -999.250000 1.1735035181
 1301.6483154  -999.250000 16.657159805 12.250000954  -999.250000 136551.59375  -999.250000 -0.089213952 7.1241230965 0.4984919131 1.9651311636 115.06134796 -4.329755783 161.21621704 155.84373474 1.3988676071 20.699199677  -999.250000 1.1427056789
 1301.8007813  -999.250000 17.295549393 12.250000954  -999.250000 136551.59375  -999.250000 -0.090965204 7.0489606857 0.5262755752 2.0173759460 116.06230164 -4.272345543 157.05418396 154.93666077 1.4182565212 21.699199677  -999.250000 1.1099241972
 1301.9531250  -999.250000 16.844820023 12.250000954  -999.250000 141031.81250  -999.250000 -0.093592167 7.0658860207 0.5487676263 2.0564157963 121.24533844 -4.195561409 153.47270203 151.20938110 1.3436218500 18.702404022  -999.250000 1.0915057659
 1302.1054688  -999.250000 17.696470261 12.250000954  -999.250000 247554.23438  -999.250000 -0.097127609 4.9720582962 0.5277209282 2.0720710754 120.18980408 -4.168044090 152.04209900 149.26718140 1.3221323490 19.199199677  -999.250000 1.0729566813
 1302.2579346  -999.250000 17.551059723 12.250000954  -999.250000 289241.28125  -999.250000 -0.098403685 5.4508132935 0.5280948281 2.0976555347 120.93340302 -3.758128881 147.39570618 145.33010864 1.2958000898 18.200801849  -999.250000 1.1040999889
 1302.4102783  -999.250000 16.767030716 12.250000954  -999.250000 289241.28125  -999.250000 -0.097446755 5.1102471352 0.5170080066 2.1207101345 112.76260376 -3.935914278 145.60549927 143.01338196 1.4249248505 19.198398590  -999.250000 1.1640028954
 1302.5627441  -999.250000 16.934619904 12.250000954  -999.250000 289241.28125  -999.250000 -0.095949605 4.8107399940 0.5134053230 2.1302394867 112.18795013 -4.052406788 144.29769897 141.62100220 1.5000449419 17.701202393  -999.250000 1.1621075869
 1302.7150879  -999.250000 16.715950012 12.250000954  -999.250000 290547.46875  -999.250000 -0.092771411 4.6564469337 0.5182777047 2.1435058117 112.18840027 -4.071269989 142.62429810 140.01733398 1.4414680004 16.701602936  -999.250000 1.1792075634
 1302.8675537  -999.250000 16.507640839 12.250000954  -999.250000 291103.56250  -999.250000 -0.091393791 4.6580986977 0.4944235086 2.1545701027 113.37484741 -4.092982769 141.31900024 138.65635681 1.4632284641 17.199600220  -999.250000 1.2269676924
 1303.0198975  -999.250000 16.313669205 12.250000954  -999.250000 290293.65625  -999.250000 -0.089581802 4.5514855385 0.4950729012 2.1693580151 116.05794525 -4.184326649 139.75869751 137.12355042 1.7030167580 16.700401306  -999.250000 1.2476254702
 1303.1723633  -999.250000 15.078650475 12.250000954  -999.250000 279194.53125  -999.250000 -0.084943213 4.5022397041 0.4558348060 2.2281427383 112.43910217 -4.204883575 133.20449829 131.57012939 1.7690153122 15.700800896  -999.250000 1.4769473076
 1303.3247070  -999.250000 14.461549759 12.250000954  -999.250000 265962.87500  -999.250000 -0.083064981 4.5377712250 0.4410994053 2.2212264538 106.93860626 -4.256458282 133.93550110 130.83337402 1.9087429047 15.699999809  -999.250000 1.6103211641
 1303.4771729  -999.250000 14.379940033 12.250000954  -999.250000 261310.31250  -999.250000 -0.090295322 4.8624396324 0.4165304899 2.1648480892 101.56760406 -4.044769764 140.11459351 135.79209900 1.8945674896 16.699199677  -999.250000 1.4963474274
 1303.6295166  -999.250000 16.258159637 12.250000954  -999.250000 262586.12500  -999.250000 -0.094165467 5.4137578011 0.4527933896 2.1335489750 106.12414551 -3.649916649 143.70300293 140.02189636 1.5929758549 16.200401306  -999.250000 1.2707598209
 1303.7819824  -999.250000 16.545640945 12.250000954  -999.250000 263172.25000  -999.250000 -0.095048517 5.5317058563 0.5055524707 2.1321260929 111.24639893 -3.611230850 144.41400146 141.32432556 1.4852911234 15.200800896  -999.250000 1.2333258390
 1303.9343262  -999.250000 16.851310730 12.250000954  -999.250000 264677.03125  -999.250000 -0.095414571 5.6673913002 0.5405626893 2.1297998428 115.24669647 -3.593513966 144.77619934 141.74691772 1.4859813452 16.199199677  -999.250000 1.2003364563
 1304.0866699  -999.250000 16.658220291 12.250000954  -999.250000 267816.96875  -999.250000 -0.092545614 5.6826758385 0.5339714885 2.1061539650 115.12749481 -3.595696449 147.27749634 143.81788635 1.4514822960 16.699199677  -999.250000 1.2217286825
 1304.2391357  -999.250000 17.380439758 12.250000954  -999.250000 275183.40625  -999.250000 -0.088486001 5.5644950867 0.4930360019 2.0879085064 117.81095123 -3.591903210 149.06469727 145.69538879 1.4437950850 16.200401306  -999.250000 1.1794828176
 1304.3914795  -999.250000 17.478080750 12.250000954  -999.250000 278069.03125  -999.250000 -0.090019979 5.7291359901 0.4834947884 2.0841388702 119.30979919 -3.512027979 149.30369568 146.31138611 1.4009107351 17.697599411  -999.250000 1.0657483339
 1304.5439453  -999.250000 16.062679291 12.250000954  -999.250000 277974.53125  -999.250000 -0.089861393 5.4943885803 0.4652231038 2.0809977055 118.87615204 -3.718834162 149.77958679 146.73236084 1.4009009600 17.700000763  -999.250000 1.1521005630
