# LAS format log file from PETREL
# Project units are specified as depth units
#==================================================================
~Version information
VERS.   2.0:
WRAP.   NO:
#==================================================================
~Well
STRT .m      984.14562988 :
STOP .m      1996.3865967 :
STEP .m     0.00000000 :
NULL .        -999.250000 :
COMP.           : COMPANY
WELL.  25/11-23  Balder Appr   : WELL
FLD.            : FIELD
LOC.            : LOCATION
SRVC.           : SERVICE COMPANY
DATE.  2018-09-11 14:48:16   : Log Export Date {yyyy-MM-dd HH:mm:ss}
PROV.           : PROVINCE
UWI.   25/11-23   : UNIQUE WELL ID
API.            : API NUMBER
#==================================================================
~Curve
DEPT .m                   : DEPTH
Lithology_geolink ._      : Lithology_geolink
DCAL .in                  : DCAL
CALI .in                  : CALI
BS .in                    : BS
MUDWEIGHT ._              : MUDWEIGHT
ROP .m/h                  : ROP
DRHO .g/cm3               : DRHO
NPHI .m3/m3               : NPHI
RHOB .g/cm3               : RHOB
GR .gAPI                  : GR
DTC .us/ft                : DTC
RDEP .ohm.m               : RDEP
SP .mV                    : SP
RSHA .ohm.m               : RSHA
RMED .ohm.m               : RMED
~Parameter
#==================================================================
~Ascii
# ...
 1049.5252686 6.0000000000 0.0322999991 8.5322999954 8.5000000000  -999.250000 162077.73438 -0.000002562 0.3925577700 2.1957991123 89.494598389 128.14016724 1.5931088924 0.0000000000 1.4462300539 1.6368092299
 1049.6776123 6.0000000000 0.0471000709 8.5471000671 8.5000000000  -999.250000 162457.09375 -0.003200000 0.3797539771 2.1946001053 91.881797791 127.85090637 1.6042000055 0.0000000000 1.4837000370 1.6483000517
 1049.8300781 6.0000000000 0.0523996428 8.5523996353 8.5000000000  -999.250000 162833.76563 -0.004599600 0.3831821084 2.1917958260 90.530899048 127.56291962 1.6326322556 0.0000000000 1.4950492382 1.6778337955
 1049.9824219 6.0000000000 0.0684003830 8.5684003830 8.5000000000  -999.250000 162175.93750 -0.004100000 0.3795589805 2.1865000725 87.659500122 127.32900238 1.6728999615 0.0000000000 1.5564999580 1.7199000120
 1050.1348877 6.0000000000 0.0853004456 8.5853004456 8.5000000000  -999.250000 155371.14063 -0.004000080 0.3842089474 2.1801986694 87.374099731 127.18423462 1.6945695877 0.0000000000 1.5671658516 1.7422676086
 1050.2872314 7.0000000000 0.0923995897 8.5923995972 8.5000000000  -999.250000 154561.87500 -0.004099280 0.3878680170 2.1783025265 89.194198608 126.74099731 1.6566185951 0.0000000000 1.5247157812 1.7019194365
 1050.4396973 7.0000000000 0.0727996826 8.5727996826 8.5000000000  -999.250000 155220.60938 -0.003197115 0.3803685606 2.1817038059 93.224197388 126.48874664 1.6798475981 0.0000000000 1.5444447994 1.7261499166
 1050.5920410 7.0000000000 0.0475997850 8.5475997925 8.5000000000  -999.250000 155871.20313 0.0004018415 0.3673627079 2.1864042282 94.910598755 126.79833221 1.7391681671 0.0000000000 1.6003670692 1.7884660959
 1050.7443848 7.0000000000 0.0729999468 8.5729999542 8.5000000000  -999.250000 155642.78125 0.0027000001 0.3719810247 2.1918001175 97.405403137 127.33879852 1.6993999481 0.0000000000 1.5592999458 1.7461999655
 1050.8968506 7.0000000000 0.1349000931 8.6349000931 8.5000000000  -999.250000 152872.87500 0.0031986388 0.3989271522 2.1960043907 98.666297913 127.53203583 1.6780576706 0.0000000000 1.5148726702 1.7233550549
 1051.0491943 7.0000000000 0.1743002087 8.6743001938 8.5000000000  -999.250000 148196.59375 0.0015000000 0.4240579903 2.2012999058 99.397697449 127.57149506 1.6252000332 0.0000000000 1.4808000326 1.6672999859
 1051.2016602 7.0000000000 0.1426001042 8.6426000595 8.5000000000  -999.250000 145326.56250 0.0020980784 0.4335809350 2.2031991482 99.115402222 127.68610382 1.6215183735 0.0000000000 1.4986129999 1.6629188061
 1051.3540039 7.0000000000 0.1160001978 8.6160001755 8.5000000000  -999.250000 144879.84375 -0.000300000 0.4222549796 2.2019999027 96.743301392 127.70690155 1.6444000006 0.0000000000 1.5147999525 1.6864000559
 1051.5064697 7.0000000000 0.1370000988 8.6370000839 8.5000000000  -999.250000 144447.23438 -0.002799760 0.4048153758 2.1969981194 96.637901306 127.79459381 1.6411882639 0.0000000000 1.5137871504 1.6827876568
 1051.6588135 7.0000000000 0.1410999000 8.6410999298 8.5000000000  -999.250000 144044.93750 -0.002500000 0.3953070045 2.1947000027 95.769302368 128.03579712 1.6266000271 0.0000000000 1.4976999760 1.6672999859
 1051.8112793 6.0000000000 0.1662998050 8.6662998199 8.5000000000  -999.250000 143611.10938 -0.002801601 0.4095421433 2.1857910156 94.769203186 128.63790894 1.5647308826 0.0000000000 1.4372069836 1.6024320126
 1051.9636230 6.0000000000 0.1583003998 8.6583003998 8.5000000000  -999.250000 139071.92188 -0.004800000 0.4097280204 2.1744000912 92.726303101 129.40530396 1.6032999754 0.0000000000 1.4459999800 1.6425000429
 1052.1160889 6.0000000000 0.1185998991 8.6185998917 8.5000000000  -999.250000 116293.32813 -0.003799199 0.3920789957 2.1687970161 90.214698792 129.88153076 1.6049153805 0.0000000000 1.4724357128 1.6437157393
 1052.2684326 6.0000000000 0.0996999666 8.5996999741 8.5000000000  -999.250000 111269.42188 -0.002799359 0.3883834481 2.1647982597 89.354499817 129.41622925 1.6241081953 0.0000000000 1.5169771910 1.6634083986
 1052.4208984 6.0000000000 0.1625003964 8.6625003815 8.5000000000  -999.250000 110374.20313 -0.001997196 0.3964118063 2.1625013351 86.595397949 129.56126404 1.6344333887 0.0000000000 1.4886169434 1.6738345623
 1052.5732422 6.0000000000 0.1103001013 8.6103000641 8.5000000000  -999.250000 110374.20313 0.0015005604 0.4123905301 2.1644005775 85.975898743 128.89341736 1.6761091948 0.0000000000 1.5097229481 1.7170093060
 1052.7255859 6.0000000000 0.0395002440 8.5395002365 8.5000000000  -999.250000 110374.20313 0.0022000000 0.4205400050 2.1649000645 88.775703430 128.41099548 1.6875000000 0.0000000000 1.5384999514 1.7286000252
 1052.8780518 6.0000000000 0.0326995812 8.5326995850 8.5000000000  -999.250000 116580.10938 0.0007989592 0.4225548208 2.1658027172 92.250801086 128.76309204 1.6635947227 0.0000000000 1.5329030752 1.7030942440
 1053.0303955 7.0000000000 0.0754995272 8.5754995346 8.5000000000  -999.250000 154259.81250 -0.000500000 0.4186069965 2.1689999104 95.019699097 128.86869812 1.6570999622 0.0000000000 1.5367000103 1.6958999634
 1053.1828613 7.0000000000 0.1050997004 8.6050996780 8.5000000000  -999.250000 160627.67188 -0.000600400 0.4054322839 2.1748008728 95.123298645 129.00985718 1.6733034849 0.0000000000 1.5310029984 1.7125033140
 1053.3352051 7.0000000000 0.1051997840 8.6051998138 8.5000000000  -999.250000 160252.39063 -0.001100000 0.4008089900 2.1761000156 96.767097473 129.33410645 1.6776000261 0.0000000000 1.5347000360 1.7165999413
 1053.4876709 7.0000000000 0.0994997025 8.5994997025 8.5000000000  -999.250000 159858.18750 0.0005008007 0.3964052796 2.1733949184 96.180000305 129.58538818 1.6860986948 0.0000000000 1.5406000614 1.7249984741
 1053.6400146 7.0000000000 0.0806999132 8.5806999207 8.5000000000  -999.250000 159465.95313 0.0015000000 0.3992179930 2.1672000885 94.696098328 129.56509399 1.6844999790 0.0000000000 1.5406999588 1.7230000496
 1053.7924805 7.0000000000 0.0544996299 8.5544996262 8.5000000000  -999.250000 159074.28125 0.0011996798 0.4011136591 2.1622996330 92.942497253 129.35981750 1.6676931381 0.0000000000 1.5283131599 1.7048925161
 1053.9448242 7.0000000000 0.0977001265 8.5977001190 8.5000000000  -999.250000 158721.70313 0.0008000000 0.4006670117 2.1616001129 91.499000549 128.98930359 1.6590000391 0.0000000000 1.5447000265 1.6955000162
 1054.0972900 7.0000000000 0.1600999981 8.6601476669 8.5000000000  -999.250000 158385.07813 0.0010987179 0.3941025138 2.1652047634 89.975196838 128.96231079 1.6751968861 0.0000000000 1.5376799107 1.7120964527
 1054.2496338 7.0000000000 0.2192000896 8.7192268372 8.5000000000  -999.250000 153855.25000 -0.000502402 0.3822523355 2.1711041927 87.031196594 128.85151672 1.6712938547 0.0000000000 1.5125374794 1.7076932192
 1054.4020996 6.0000000000 0.2522000968 8.7521667480 8.5000000000  -999.250000 149613.06250 -0.003500481 0.3763971031 2.1766028404 85.493797302 128.75946045 1.6634807587 0.0000000000 1.5591918230 1.6991797686
 1054.5544434 6.0000000000 0.2103995681 8.7103652954 8.5000000000  -999.250000 150290.51563 -0.004099119 0.3727900386 2.1802997589 85.779502869 128.96662903 1.6396032572 0.0000000000 1.5490047932 1.6739031076
 1054.7067871 6.0000000000 0.1681004018 8.6681003571 8.5000000000  -999.250000 150963.14063 -0.003000000 0.3790900111 2.1800000668 88.383102417 129.00619507 1.6435999870 0.0000000000 1.5549999475 1.6777000427
 1054.8592529 6.0000000000 0.1460999995 8.6460666656 8.5000000000  -999.250000 151519.84375 -0.002196877 0.3725399673 2.1724941730 90.701103210 128.56933594 1.6889270544 0.0000000000 1.5624397993 1.7247281075
 1055.0115967 6.0000000000 0.1038999930 8.6038999557 8.5000000000  -999.250000 158429.60938 0.0017000000 0.3762069941 2.1652998924 90.735900879 127.61559296 1.7226999998 0.0000000000 1.6121000051 1.7598999739
 1055.1640625 6.0000000000 0.0565996245 8.5566024780 8.5000000000  -999.250000 234132.42188 0.0054005608 0.3905828297 2.1607017517 90.452598572 126.57164001 1.7254872322 0.0000000000 1.6129071712 1.7626867294
 1055.3164063 6.0000000000 0.0602998696 8.5602998734 8.5000000000  -999.250000 247567.65625 0.0060999999 0.3978340030 2.1628000736 89.877197266 125.62248993 1.7095999718 0.0000000000 1.6218999624 1.7460999489
