# LAS format log file from PETREL
# Project units are specified as depth units
#==================================================================
~Version information
VERS.   2.0:
WRAP.   NO:
#==================================================================
~Well
STRT .m      206.00000000 :
STOP .m      2655.9824219 :
STEP .m     0.00000000 :
NULL .        -999.250000 :
COMP.           : COMPANY
WELL.  25/10-8  Hanz   : WELL
FLD.            : FIELD
LOC.            : LOCATION
SRVC.           : SERVICE COMPANY
DATE.  2018-09-11 14:48:14   : Log Export Date {yyyy-MM-dd HH:mm:ss}
PROV.           : PROVINCE
UWI.   25/10-8   : UNIQUE WELL ID
API.            : API NUMBER
#==================================================================
~Curve
DEPT .m                   : DEPTH
Lithology_geolink ._      : Lithology_geolink
CALI .in                  : CALI
BS .in                    : BS
THOR .ppm                 : THOR
NPHI .m3/m3               : NPHI
RHOB .g/cm3               : RHOB
GR .gAPI                  : GR
URAN .ppm                 : URAN
DTC .us/ft                : DTC
RDEP .ohm.m               : RDEP
RSHA .ohm.m               : RSHA
RMED .ohm.m               : RMED
~Parameter
#==================================================================
~Ascii
# ...
 1135.0303955  -999.250000 12.510227203 12.250000954 1.5762748718 0.0051840190 1.9758023024 33.430770874 1.0891233683 150.44174194 0.5089251995 0.6761956215 0.5176570415
 1135.1828613  -999.250000 12.522433281 12.250000954 1.5840423107 0.0049169990 1.9727412462 33.299072266 1.0909072161 150.16426086 0.5025386810 0.6533243656 0.5067124367
 1135.3352051  -999.250000 12.516331673 12.250000954 1.6105012894 0.0040989327 1.9777102470 32.668182373 1.1118954420 149.09541321 0.5033016205 0.6402385235 0.5068013668
 1135.4876709  -999.250000 12.546852112 12.250000954 1.5942078829 0.0048141805 1.9975047112 32.168304443 1.1430504322 147.52017212 0.5038764477 0.6316003799 0.5105190277
 1135.6400146  -999.250000 12.516331673 12.250000954 1.5304493904 0.0045896634 2.0213286877 31.913040161 1.1463172436 145.93830872 0.5004334450 0.6204543114 0.5101852417
 1135.7924805  -999.250000 12.522433281 12.250000954 1.4334584475 0.0041392585 2.0099210739 30.619316101 1.1040841341 144.62205505 0.4949865341 0.6055417061 0.5050644875
 1135.9448242  -999.250000 12.455287933 12.250000954 1.3176884651 0.0047309101 1.9906977415 29.602493286 1.0612688065 143.35290527 0.4912909269 0.5908432007 0.4995309114
 1136.0972900  -999.250000 12.467494965 12.250000954 1.2215286493 0.0040715202 2.0189328194 30.496665955 1.0541838408 143.15490723 0.4909223318 0.5802853107 0.4968107939
 1136.2496338  -999.250000 12.455287933 12.250000954 1.1752338409 0.0040219296 2.0319848061 30.070396423 1.0693538189 144.61135864 0.4934421778 0.5755207539 0.4971606731
 1136.4020996  -999.250000 12.424766541 12.250000954 1.1776573658 0.0041952538 2.0316390991 29.666015625 1.1037409306 146.46722412 0.4979013205 0.5766291618 0.4998247623
 1136.5544434  -999.250000 12.436973572 12.250000954 1.2278324366 0.0044324007 2.0111739635 30.382408142 1.1308069229 147.44929504 0.5030500889 0.5825459957 0.5040442944
 1136.7067871  -999.250000 12.461391449 12.250000954 1.3154869080 0.0043030861 2.0201573372 30.417213440 1.1151455641 146.91154480 0.5073120594 0.5904738903 0.5083692074
 1136.8592529  -999.250000 12.449184418 12.250000954 1.4047595263 0.0041579772 2.0183761120 31.134147644 1.0668784380 145.33398438 0.5099127293 0.5970804691 0.5111553669
 1137.0115967  -999.250000 12.461391449 12.250000954 1.4784973860 0.0033840386 2.0175838470 32.090026855 1.0132563114 143.90959167 0.5118167400 0.6012458801 0.5124580860
 1137.1640625  -999.250000 12.461391449 12.250000954 1.5311130285 0.0040490264 2.0462124348 31.789031982 0.9882374406 143.02772522 0.5144963264 0.6047725677 0.5140788555
 1137.3164063  -999.250000 12.516331673 12.250000954 1.5549771786 0.0038674134 2.0347139835 33.611938477 1.0299030542 143.01463318 0.5179562569 0.6095399857 0.5171625614
 1137.4688721  -999.250000 12.504123688 12.250000954 1.5755417347 0.0034917973 2.0063130856 32.643142700 1.1248832941 143.53074646 0.5205702782 0.6149408817 0.5205624104
 1137.6212158  -999.250000 12.455287933 12.250000954 1.6127254963 0.0039416058 1.9898684025 29.994743347 1.2316108942 144.03666687 0.5210242271 0.6186306477 0.5220918655
 1137.7736816  -999.250000 12.418663025 12.250000954 1.6369811296 0.0043455716 2.0071320534 31.027191162 1.3186870813 144.61706543 0.5199732780 0.6195325851 0.5211844444
 1137.9260254  -999.250000 12.455287933 12.250000954 1.6594482660 0.0049880375 2.0050039291 33.296340942 1.3522065878 144.90618896 0.5193731785 0.6191639900 0.5196123123
 1138.0784912  -999.250000 12.436973572 12.250000954 1.7415828705 0.0041788053 2.0123844147 34.266677856 1.3081983328 145.10890198 0.5204627514 0.6198713779 0.5195083618
 1138.2308350  -999.250000 12.443077087 12.250000954 1.8780953884 0.0035486356 2.0060636997 32.657821655 1.2059297562 145.63775635 0.5226771832 0.6223444939 0.5213041306
 1138.3833008  -999.250000 12.394245148 12.250000954 2.0510163307 0.0041551362 2.0084888935 32.344284058 1.0643630028 145.94856262 0.5243110657 0.6251041889 0.5235767365
 1138.5356445  -999.250000 12.388137817 12.250000954 2.2416503429 0.0035690186 1.9894934893 34.290557861 0.9115516543 145.58731079 0.5239939690 0.6259992123 0.5244567394
 1138.6879883  -999.250000 12.357616425 12.250000954 2.3355495930 0.0054087597 1.9722306728 33.761093140 0.8261208534 144.71253967 0.5217213631 0.6241424084 0.5231559277
 1138.8404541  -999.250000 12.290469170 12.250000954 2.2408795357 0.0044457135 1.9905906916 30.803428650 0.8552007079 144.30281067 0.5188632011 0.6207709312 0.5204570293
 1138.9927979  -999.250000 12.302677155 12.250000954 2.0292065144 0.0035641105 2.0147333145 30.607055664 0.9672003388 145.07798767 0.5175092220 0.6188263893 0.5182738304
 1139.1452637  -999.250000 12.296572685 12.250000954 1.7866659164 0.0034708055 2.0077002048 30.660133362 1.1169797182 146.04556274 0.5193974972 0.6217327118 0.5188601017
 1139.2976074  -999.250000 12.302677155 12.250000954 1.5049802065 0.0038379952 1.9842199087 28.383071899 1.2918909788 146.69006348 0.5244424343 0.6315310001 0.5234839916
 1139.4499512  -999.250000 12.302677155 12.250000954 1.2631547451 0.0042152596 1.9791412354 29.738265991 1.4200570583 147.21534729 0.5300712585 0.6466758251 0.5308086872
 1139.6024170  -999.250000 12.290469170 12.250000954 1.2117303610 0.0041394373 1.9952197075 30.792701721 1.4257159233 146.90072632 0.5329349041 0.6616241932 0.5369830132
 1139.7547607  -999.250000 12.296572685 12.250000954 1.3546049595 0.0039211232 2.0028777122 31.083984375 1.3137391806 146.30192566 0.5320382118 0.6706752777 0.5389089584
 1139.9072266  -999.250000 12.290469170 12.250000954 1.5658925772 0.0042714914 1.9979784489 31.251159668 1.1381205320 145.91677856 0.5294022560 0.6727418900 0.5373017788
 1140.0595703  -999.250000 12.278259277 12.250000954 1.7576708794 0.0044158422 2.0007030964 29.510360718 0.9698122144 145.03282166 0.5276389122 0.6713862419 0.5352072716
 1140.2120361  -999.250000 12.302677155 12.250000954 1.9034767151 0.0040193950 2.0235929489 30.297607422 0.8639666438 144.11407471 0.5278649330 0.6703627110 0.5346536636
 1140.3643799  -999.250000 12.296572685 12.250000954 1.9817119837 0.0053849248 2.0095446110 30.851097107 0.8407696486 143.56878662 0.5297546387 0.6707921028 0.5356853008
 1140.5167236  -999.250000 12.296572685 12.250000954 1.9751716852 0.0052664517 2.0134797096 33.169982910 0.9001076818 143.13754272 0.5326974392 0.6716163158 0.5374088287
 1140.6691895  -999.250000 12.302677155 12.250000954 1.9342979193 0.0039906991 2.0211279392 34.569213867 0.9943047166 142.54071045 0.5364530087 0.6715557575 0.5393416882
 1140.8215332  -999.250000 12.284362793 12.250000954 1.8911809921 0.0035507162 2.0123775005 34.280776978 1.0679495335 142.09155273 0.5404617786 0.6701524258 0.5414512157
 1140.9739990  -999.250000 12.284362793 12.250000954 1.8171135187 0.0039751465 1.9910588264 34.791427612 1.1132841110 142.26411438 0.5432198048 0.6667673588 0.5427849293
 1141.1263428  -999.250000 12.290469170 12.250000954 1.7151089907 0.0040717786 2.0016508102 35.055480957 1.1395653486 142.61932373 0.5438668728 0.6600100994 0.5415501595
 1141.2788086  -999.250000 12.308780670 12.250000954 1.6121834517 0.0044050361 2.0308535099 32.575500488 1.1689133644 143.33906555 0.5453822613 0.6500983238 0.5382246971
 1141.4311523  -999.250000 12.284362793 12.250000954 1.5611568689 0.0050088940 2.0191397667 31.501251221 1.2086895704 143.86706543 0.5559461117 0.6420333385 0.5385313034
 1141.5836182  -999.250000 12.290469170 12.250000954 1.5321515799 0.0048620449 2.0098435879 32.062561035 1.2536315918 142.87971497 0.5868053436 0.6459186077 0.5526487827
 1141.7359619  -999.250000 12.302677155 12.250000954 1.6685407162 0.0048081288 2.0533649921 33.984924316 1.3080110550 140.43742371 0.6478195190 0.6729962826 0.5914704800
 1141.8884277  -999.250000 12.308780670 12.250000954 2.2518820763 0.0044856961 2.0784263611 41.508239746 1.4648034573 137.02239990 0.7405984402 0.7286813259 0.6613783836
 1142.0407715  -999.250000 12.284362793 12.250000954 3.1528453827 0.0060120942 2.0932116508 53.721252441 2.0319910049 133.96589661 0.8551526070 0.8051397800 0.7572033405
 1142.1932373  -999.250000 12.284362793 12.250000954 3.9799301624 0.0054777246 2.1256926060 69.622924805 2.9964148998 132.56822205 0.9817521572 0.8837184906 0.8635685444
