# LAS format log file from PETREL
# Project units are specified as depth units
#==================================================================
~Version information
VERS.   2.0:
WRAP.   NO:
#==================================================================
~Well
STRT .m      3054.5593262 :
STOP .m      3397.3076172 :
STEP .m     0.00000000 :
NULL .        -999.250000 :
COMP.           : COMPANY
WELL.  25/10-8A  Hanz Appr   : WELL
FLD.            : FIELD
LOC.            : LOCATION
SRVC.           : SERVICE COMPANY
DATE.  2018-09-11 14:48:15   : Log Export Date {yyyy-MM-dd HH:mm:ss}
PROV.           : PROVINCE
UWI.   25/10-8 A   : UNIQUE WELL ID
API.            : API NUMBER
#==================================================================
~Curve
DEPT .m                   : DEPTH
Lithology_geolink ._      : Lithology_geolink
NPHI .m3/m3               : NPHI
RHOB .g/cm3               : RHOB
GR .gAPI                  : GR
RDEP .ohm.m               : RDEP
RSHA .ohm.m               : RSHA
~Parameter
#==================================================================
~Ascii
# ...
 3253.4416504 2.0000000000 0.2378000021 2.1537728310 47.633083344 0.3000338972 0.3220633566
 3253.5939941 2.0000000000 0.2337700129 2.1518864632 47.830486298 0.2988519669 0.3216177821
 3253.7465820 2.0000000000 0.2251999974 2.1505198479 48.209812164 0.2966329157 0.3173380792
 3253.8989258 2.0000000000 0.2194200009 2.1504817009 48.630046844 0.2950865626 0.3131421804
 3254.0512695 2.0000000000 0.2159900069 2.1518492699 48.898906708 0.2955166101 0.3114787638
 3254.2036133 2.0000000000 0.2126099914 2.1538844109 49.044319153 0.2959623635 0.3127869070
 3254.3562012 2.0000000000 0.2135400027 2.1546964645 49.078884125 0.2950901091 0.3127390146
 3254.5085449 2.0000000000 0.2158000022 2.1537711620 49.045253754 0.2949448526 0.3119734228
 3254.6608887 2.0000000000 0.2173100114 2.1531004906 48.965175629 0.2948854566 0.3113473654
 3254.8132324 2.0000000000 0.2185499966 2.1535208225 48.722255707 0.2948205471 0.3104410172
 3254.9658203 2.0000000000 0.2259099931 2.1536705494 48.563919067 0.2958607972 0.3093981147
 3255.1181641 2.0000000000 0.2353499979 2.1526861191 48.583290100 0.2979125679 0.3093867302
 3255.2705078 2.0000000000 0.2429099977 2.1522901058 48.665904999 0.2996433973 0.3098860383
 3255.4228516 2.0000000000 0.2475900054 2.1521267891 48.939285278 0.3023444116 0.3128027320
 3255.5751953 2.0000000000 0.2475200146 2.1504652500 49.320354462 0.3036233187 0.3120577037
 3255.7277832 2.0000000000 0.2466799915 2.1491880417 49.668830872 0.3038865626 0.3084600568
 3255.8801270 2.0000000000 0.2470299900 2.1486694813 49.901371002 0.3055031598 0.3092392087
 3256.0324707 2.0000000000 0.2471500039 2.1482124329 50.032386780 0.3049386740 0.3109340072
 3256.1848145 2.0000000000 0.2404800057 2.1487412453 50.180458069 0.3039480448 0.3129202724
 3256.3374023 2.0000000000 0.2318499982 2.1502428055 50.291179657 0.3039780557 0.3128086627
 3256.4897461 2.0000000000 0.2290199995 2.1508140564 50.235473633 0.3044182062 0.3128066063
 3256.6420898 2.0000000000 0.2306900024 2.1528797150 50.013797760 0.3055843115 0.3144536316
 3256.7944336 2.0000000000 0.2331900001 2.1555380821 49.964859009 0.3066160381 0.3161087334
 3256.9470215 2.0000000000 0.2342000008 2.1575169563 50.130680084 0.3054974675 0.3172180653
 3257.0993652 2.0000000000 0.2343199849 2.1591947079 50.186317444 0.3040201962 0.3162077069
 3257.2517090 2.0000000000 0.2342900038 2.1611487865 50.114379883 0.3029195070 0.3162791729
 3257.4040527 2.0000000000 0.2334700078 2.1619732380 49.994964600 0.3010820150 0.3197074533
 3257.5563965 2.0000000000 0.2315500081 2.1613910198 49.865116119 0.2997134924 0.3250491917
 3257.7089844 2.0000000000 0.2254400104 2.1615836620 49.507427216 0.3013859987 0.3238655925
 3257.8613281 2.0000000000 0.2186200023 2.1638801098 49.311012268 0.3061174154 0.3196009398
 3258.0136719 2.0000000000 0.2163899988 2.1673436165 49.528564453 0.3081776500 0.3176083565
 3258.1660156 2.0000000000 0.2175000012 2.1697540283 49.780086517 0.3072767854 0.3154627085
 3258.3186035 2.0000000000 0.2185700089 2.1707916260 50.004711151 0.3084971309 0.3157525957
 3258.4709473 2.0000000000 0.2216500044 2.1716551781 50.303878784 0.3101842999 0.3174695373
 3258.6232910 2.0000000000 0.2304199934 2.1726040840 50.614620209 0.3126750588 0.3155543804
 3258.7756348 2.0000000000 0.2280900031 2.1733293533 50.611682892 0.3168024421 0.3116511405
 3258.9282227 2.0000000000 0.2223699987 2.1751081944 50.197860718 0.3211937845 0.3110895157
 3259.0805664 2.0000000000 0.2220000029 2.1777029037 49.775489807 0.3214405179 0.3080107868
 3259.2329102 2.0000000000 0.2222200036 2.1815431118 49.023792267 0.3212921619 0.3092556298
 3259.3852539 2.0000000000 0.2152100056 2.1864569187 47.835803986 0.3192138076 0.3154379427
 3259.5375977 2.0000000000 0.2063899934 2.1914336681 46.847377777 0.3153917491 0.3149819076
 3259.6901855 2.0000000000 0.2079800069 2.1960592270 46.136272430 0.3181333542 0.3035426140
 3259.8425293 2.0000000000 0.1965399981 2.2027852535 45.687721252 0.4172640443 0.2974681556
 3259.9948730 2.0000000000 0.1743000001 2.2123386860 45.420921326 1.0605720282 0.5888632536
 3260.1472168 2.0000000000 0.1438799948 2.2288115025 44.906513214 2.4603931904 2.4247872829
 3260.2998047 2.0000000000 0.1119900048 2.2582828999 44.055541992 3.5662171841 9.5466785431
 3260.4521484 2.0000000000 0.0836500004 2.3105254173 43.030776978 3.2973711491 14.666961670
 3260.6044922 2.0000000000 0.0644600019 2.3717834949 42.152236938 3.3890724182 12.788845062
 3260.7568359 2.0000000000 0.0576299988 2.4410958290 41.689270020 3.7605900764 10.300561905
 3260.9094238 2.0000000000 0.0565899983 2.4871912003 41.813503265 3.9150819778 9.4029397964
 3261.0617676 2.0000000000 0.0587699972 2.4882142544 42.525909424 4.5294694901 9.2521629333
 3261.2141113 2.0000000000 0.0712599978 2.4649429321 43.825283051 5.8561763763 15.338253975
 3261.3664551 2.0000000000 0.0876599997 2.4226119518 45.178482056 4.9789772034 40.667613983
 3261.5190430 2.0000000000 0.1136299968 2.3633513451 46.565914154 2.5198011398 25.963729858
 3261.6713867 2.0000000000 0.1407600045 2.2851848602 47.608188629 1.0734283924 3.7545802593
 3261.8237305 2.0000000000 0.1619400084 2.2207930088 48.223758698 0.6707891822 0.8081142902
 3261.9760742 2.0000000000 0.1852400005 2.1879680157 48.564609528 0.5550834537 0.6523069143
 3262.1284180 2.0000000000 0.2145299911 2.1755886078 48.708827972 0.4502801895 0.5626014471
 3262.2810059 2.0000000000 0.2265300006 2.1743049622 48.660167694 0.3739053011 0.4336515665
 3262.4333496 2.0000000000 0.2151400000 2.1824300289 48.168273926 0.3427358866 0.3093664050
 3262.5856934 2.0000000000 0.2058200091 2.1984047890 47.350780487 0.4172359109 0.2501062751
 3262.7380371 2.0000000000 0.1844199896 2.2267470360 46.532703400 0.8637480140 0.2992023230
 3262.8906250 2.0000000000 0.1536100060 2.2722601891 45.968776703 2.1888399124 3.2131586075
 3263.0429688 2.0000000000 0.1385300010 2.3391253948 46.450904846 4.0281195641 61.055175781
 3263.1953125 2.0000000000 0.1067800075 2.4155747890 48.304851532 3.8928291798 71.654747009
 3263.3476563 2.0000000000 0.0789700001 2.4947519302 52.788219452 3.3678200245 30.136720657
 3263.5002441 5.0000000000 0.0695100054 2.5487976074 58.189941406 4.9409823418 14.366102219
 3263.6525879 5.0000000000 0.0709199980 2.5765187740 64.789260864 7.1425724030 14.100581169
 3263.8049316 5.0000000000 0.0787200034 2.5825607777 71.301330566 9.6455211639 12.625601768
 3263.9572754 5.0000000000 0.0852700025 2.5683858395 77.455856323 12.203583717 11.718583107
 3264.1096191 5.0000000000 0.0988700017 2.5445935726 84.810592651 10.285505295 11.662102699
 3264.2622070 6.0000000000 0.1101199985 2.5168614388 91.306694031 6.7265791893 9.6913070679
 3264.4145508 6.0000000000 0.1179100052 2.4909374714 96.987815857 5.0067958832 5.9156055450
 3264.5668945 6.0000000000 0.1331900060 2.4631314278 101.20872498 4.5172824860 4.0192780495
 3264.7192383 6.0000000000 0.1499399990 2.4403455257 103.88056183 4.3915853500 3.5914430618
 3264.8718262 6.0000000000 0.1642000079 2.4261834621 104.82296753 4.3391065598 3.2020347118
 3265.0241699 6.0000000000 0.1755599976 2.4170207977 103.90786743 4.3284587860 2.8248493671
 3265.1765137 6.0000000000 0.1846699864 2.4122428894 101.71347809 4.0880413055 2.7752439976
 3265.3288574 6.0000000000 0.1895299852 2.4123857021 98.141983032 3.8393626213 2.8757178783
 3265.4814453 6.0000000000 0.1883900017 2.4161214828 94.560523987 3.7797613144 2.8823454380
 3265.6337891 5.0000000000 0.1725099981 2.4234042168 90.769523621 3.6309401989 3.1043076515
 3265.7861328 5.0000000000 0.1499200016 2.4350430965 87.022850037 3.4119105339 3.5391089916
 3265.9384766 5.0000000000 0.1404400021 2.4525761604 84.107521057 3.2511439323 3.8432199955
 3266.0908203 5.0000000000 0.1306000054 2.4688737392 82.402946472 3.1584935188 3.8973934650
 3266.2434082 5.0000000000 0.1241600066 2.4815039635 82.292716980 3.1542255878 3.7663462162
 3266.3957520 5.0000000000 0.1256700009 2.4843091965 83.800628662 3.1477789879 3.5960087776
 3266.5480957 5.0000000000 0.1291300058 2.4765846729 86.850784302 3.1195483208 3.4476404190
