# LAS format log file from PETREL
# Project units are specified as depth units
#==================================================================
~Version information
VERS.   2.0:
WRAP.   NO:
#==================================================================
~Well
STRT .m      1090.1660156 :
STOP .m      2511.1435547 :
STEP .m     0.00000000 :
NULL .        -999.250000 :
COMP.           : COMPANY
WELL.  25/10-10  Balder Triassic   : WELL
FLD.            : FIELD
LOC.            : LOCATION
SRVC.           : SERVICE COMPANY
DATE.  2018-09-11 14:48:14   : Log Export Date {yyyy-MM-dd HH:mm:ss}
PROV.           : PROVINCE
UWI.   25/10-10   : UNIQUE WELL ID
API.            : API NUMBER
#==================================================================
~Curve
DEPT .m                   : DEPTH
Lithology_geolink ._      : Lithology_geolink
CALI .in                  : CALI
BS .in                    : BS
ROP .m/h                  : ROP
DRHO .g/cm3               : DRHO
THOR .ppm                 : THOR
NPHI .m3/m3               : NPHI
RHOB .g/cm3               : RHOB
PEF .b/e                  : PEF
GR .gAPI                  : GR
URAN .ppm                 : URAN
DTC .us/ft                : DTC
DTS .us/ft                : DTS
RDEP .ohm.m               : RDEP
RSHA .ohm.m               : RSHA
RMED .ohm.m               : RMED
~Parameter
#==================================================================
~Ascii
# ...
 2026.2069092 5.0000000000 12.407699585 12.250000954 81.247230530 0.0276999995  -999.250000 0.3226000071 2.3303000927 4.6651000977 70.383499146  -999.250000 112.79170227  -999.250000 0.7534000278 0.6341000199 0.6972000003
 2026.3591309 5.0000000000 12.401200294 12.250000954 65.201446533 0.0222044066  -999.250000 0.3193026483 2.3315989971 4.7783093452 69.255706787  -999.250000 108.29840088  -999.250000 0.7720850110 0.7051430345 0.7214804888
 2026.5114746 5.0000000000 12.387000084 12.250000954 61.940948486 0.0044142627  -999.250000 0.3340881467 2.3235063553 4.8999028206 75.574737549  -999.250000 107.83956909  -999.250000 0.7599097490 0.7383733988 0.7074113488
 2026.6639404 5.0000000000 12.392600060 12.250000954 64.094490051 0.0083967969  -999.250000 0.3133166730 2.3222010136 4.9590525627 74.865173340  -999.250000 107.70460510  -999.250000 0.8066624999 0.7925565839 0.7603575587
 2026.8162842 5.0000000000 12.454001427 12.250000954 70.012466431 0.0115974359  -999.250000 0.3445748985 2.2890267372 5.0240478516 70.476318359  -999.250000 107.56990814  -999.250000 0.7640342116 0.7946983576 0.7412153482
 2026.9687500 5.0000000000 12.450599670 12.250000954 75.716209412 0.0238901526  -999.250000 0.3620859981 2.2858026028 4.9471616745 79.480079651  -999.250000  -999.250000  -999.250000 0.6773694158 0.6940806508 0.6650610566
 2027.1210938 5.0000000000 12.447099686 12.250000954 73.408790588 0.0237001609  -999.250000 0.4048657119 2.2618193626 4.9710807800 92.458297729  -999.250000  -999.250000  -999.250000 0.6446262002 0.6725172400 0.6375220418
 2027.2735596 5.0000000000 12.421799660 12.250000954 73.283142090 0.0265976768  -999.250000 0.3740247488 2.2765879631 4.8697810173 92.338508606  -999.250000  -999.250000  -999.250000 0.6490964293 0.6603097916 0.6463928223
 2027.4259033 5.0000000000 12.396100044 12.250000954 73.784446716 0.0285983980  -999.250000 0.3087523282 2.2906887531 4.8370261192 87.194625854  -999.250000  -999.250000  -999.250000 0.6874692440 0.6724902391 0.6766757369
 2027.5782471 5.0000000000 12.412799835 12.250000954 76.404853821 0.0216112100  -999.250000 0.2660683692 2.2927966118 4.4905552864 82.348365784  -999.250000  -999.250000  -999.250000 0.8443484902 0.7946041226 0.7839280367
 2027.7307129 5.0000000000 12.445400238 12.250000954 103.97441101 0.0095096948  -999.250000 0.2514117062 2.2954978943 3.8018519878 74.546745300  -999.250000  -999.250000  -999.250000 0.9403232336 0.8436608315 0.8888159990
 2027.8830566 5.0000000000 12.346699715 12.250000954 119.20340729 0.0049073659  -999.250000 0.2869429886 2.2822213173 3.6018199921 70.323165894  -999.250000  -999.250000  -999.250000 0.7883439064 0.7505494356 0.7661967874
 2028.0355225 5.0000000000 12.392000198 12.250000954 128.75262451 0.0116945505  -999.250000 0.3315642774 2.2960886955 3.8414075375 73.409317017  -999.250000  -999.250000  -999.250000 0.6917772293 0.6794568896 0.6660801172
 2028.1878662 5.0000000000 12.432399750 12.250000954 127.29888916 0.0294714980  -999.250000 0.3767276108 2.2995941639 4.5098280907 81.924644470  -999.250000  -999.250000  -999.250000 0.6151228547 0.6303786039 0.6082925797
 2028.3403320 5.0000000000 12.435000420 12.250000954 121.52690887 0.0286007207  -999.250000 0.3733027875 2.2873098850 4.5341815948 89.358047485  -999.250000  -999.250000  -999.250000 0.5792286992 0.5641530752 0.5575406551
 2028.4926758 5.0000000000 12.399299622 12.250000954 121.92946625 0.0239037666  -999.250000 0.3749986291 2.2711129189 4.5124177933 89.299751282  -999.250000 130.27029419  -999.250000 0.6078770161 0.5734924674 0.5795822740
 2028.6451416 6.0000000000 12.363599777 12.250000954 122.33202362 0.0192037635  -999.250000 0.3767985702 2.2549128532 4.4906177521 89.235549927  -999.250000 129.14450073  -999.250000 0.6365770102 0.5829923749 0.6016823053
 2028.7974854 6.0000000000 12.373200417 12.250000954 123.63025665 0.0070097758  -999.250000 0.3795977533 2.2447080612 4.4123630524 86.427253723  -999.250000 123.70885468  -999.250000 0.7741896510 0.6350582838 0.6634504795
 2028.9499512 6.0000000000 12.394300461 12.250000954 130.70242310 0.0091982391  -999.250000 0.3507231176 2.2668821812 4.3970122337 88.083175659  -999.250000 110.38317108  -999.250000 0.8070737123 0.6709712744 0.7096629739
 2029.1022949 6.0000000000 12.370400429 12.250000954 131.36943054 0.0107987178  -999.250000 0.3326145113 2.2873835564 4.2553133965 88.799125671  -999.250000 114.90016937  -999.250000 1.0358165503 0.6130464673 0.7178934216
 2029.2547607 6.0000000000 12.349301338 12.250000954 132.29035950 0.0134978388  -999.250000 0.3309013844 2.2793064117 3.9354562759 85.382835388  -999.250000 136.47071838  -999.250000 0.9450728297 0.7099223137 0.7920405865
 2029.4071045 6.0000000000 12.352799416 12.250000954 138.79232788 0.0104024839  -999.250000 0.3584778905 2.2559187412 3.7782258987 84.620811462  -999.250000 141.38278198  -999.250000 1.0869861841 0.8281052709 0.9130030274
 2029.5594482 6.0000000000 12.263699532 12.250000954 169.40486145 0.0137945553  -999.250000 0.3762715161 2.2594943047 3.6425173283 86.628479004  -999.250000 144.86152649  -999.250000 0.9616012573 0.7162795067 0.8215468526
 2029.7119141 6.0000000000 12.237799644 12.250000954 173.78215027 0.0146992793  -999.250000 0.3855925500 2.2555031776 3.7886826992 90.070846558  -999.250000 140.61061096  -999.250000 0.8892578483 0.6019914746 0.7647454143
 2029.8642578 6.0000000000 12.337200165 12.250000954 179.84777832 0.0084100878  -999.250000 0.3910911679 2.2518060207 3.7902975082 94.826477051  -999.250000 139.21842957  -999.250000 0.9645791054 0.5750430822 0.7167769074
 2030.0167236 6.0000000000 12.412500381 12.250000954 193.33923340 0.0058020833  -999.250000 0.4025907815 2.2559967041 3.8041887283 99.188804626  -999.250000 130.77317810  -999.250000 0.9144402742 0.5957832932 0.7282906771
 2030.1690674 5.0000000000 12.387700081 12.250000954 191.38615417 0.0072975983  -999.250000 0.4014019072 2.2764670849 3.6792004108 99.147666931  -999.250000 126.43244934  -999.250000 0.8232461810 0.5883119702 0.6824734807
 2030.3215332 5.0000000000 12.342399597 12.250000954 191.17060852 0.0034031251  -999.250000 0.4127908647 2.2821955681 3.8591554165 92.537300110  -999.250000 126.75254059  -999.250000 0.7099907398 0.5719131231 0.6011651754
 2030.4738770 5.0000000000 12.356100082 12.250000954 181.81954956 0.0020011219  -999.250000 0.3987112939 2.3006851673 3.9921934605 82.750740051  -999.250000 121.68926239  -999.250000 0.7426736951 0.5512165427 0.5812159777
 2030.6263428 5.0000000000 12.371299744 12.250000954 190.03149414 -0.002496397  -999.250000 0.4063938260 2.3159878254 4.4042701721 72.939155579  -999.250000 121.20938110  -999.250000 0.7401021123 0.6027587056 0.6382542849
 2030.7786865 5.0000000000 12.383899689 12.250000954 172.66830444 -0.002500000  -999.250000 0.4048012793 2.3145012856 4.6866741180 66.388145447  -999.250000 121.23867798  -999.250000 0.8802875876 0.6659493446 0.7314253449
 2030.9311523 5.0000000000 12.392100334 12.250000954 149.04298401 0.0160851087  -999.250000 0.4094962478 2.3482728004 4.5749897957 66.382896423  -999.250000 117.30635071  -999.250000 1.0122942924 0.7917991877 0.7708684802
 2031.0834961 5.0000000000 12.399199486 12.250000954 148.36975098 0.0106044067  -999.250000 0.4061027169 2.4061534405 4.3837532997 72.032768250  -999.250000 114.75614166  -999.250000 0.7942749262 0.6603055000 0.6446012855
 2031.2359619 5.0000000000 12.409000397 12.250000954 139.84088135 0.0110995993  -999.250000 0.3616356254 2.4761440754 4.5247869492 75.074462891  -999.250000 116.66586304  -999.250000 0.8693397641 0.7099601030 0.7571097612
 2031.3883057 5.0000000000 12.386099815 12.250000954 137.70275879 -0.001389984  -999.250000 0.3323234916 2.4588139057 4.7463226318 73.000061035  -999.250000 114.55000305  -999.250000 1.2038317919 0.9389164448 1.0091979504
 2031.5407715 5.0000000000 12.472599983 12.250000954 118.04101563 0.0009980785  -999.250000 0.3142144978 2.3875570297 4.9038739204 71.077842712  -999.250000 109.32617950  -999.250000 1.1248635054 0.9803669453 0.9651354551
 2031.6931152 5.0000000000 12.352799416 12.250000954 92.005249023 0.0216834135  -999.250000 0.3362822831 2.3497302532 4.9899306297 71.656936646  -999.250000 104.79412842  -999.250000 1.1247999668 0.9804000258 0.9650999904
