# LAS format log file from PETREL
# Project units are specified as depth units
#==================================================================
~Version information
VERS.   2.0:
WRAP.   NO:
#==================================================================
~Well
STRT .m      1332.7867432 :
STOP .m      2972.7631836 :
STEP .m     0.00000000 :
NULL .        -999.250000 :
COMP.           : COMPANY
WELL.  25/10-9 Aegis   : WELL
FLD.            : FIELD
LOC.            : LOCATION
SRVC.           : SERVICE COMPANY
DATE.  2018-09-11 14:48:15   : Log Export Date {yyyy-MM-dd HH:mm:ss}
PROV.           : PROVINCE
UWI.   25/10-9   : UNIQUE WELL ID
API.            : API NUMBER
#==================================================================
~Curve
DEPT .m                   : DEPTH
Lithology_geolink ._      : Lithology_geolink
CALI .in                  : CALI
BS .in                    : BS
ROP .m/h                  : ROP
DRHO .g/cm3               : DRHO
NPHI .m3/m3               : NPHI
RHOB .g/cm3               : RHOB
PEF .b/e                  : PEF
GR .gAPI                  : GR
DTC .us/ft                : DTC
DTS .us/ft                : DTS
RDEP .ohm.m               : RDEP
RMED .ohm.m               : RMED
~Parameter
#==================================================================
~Ascii
 1332.7867432 4.0000000000 12.000000000 17.500000000 14.271653175  -999.250000  -999.250000  -999.250000  -999.250000 61.652198792  -999.250000  -999.250000 1.1327999830 1.0329999924
 1332.9392090 5.0000000000 12.000000000 17.500000000 26.915683746  -999.250000  -999.250000  -999.250000  -999.250000 62.764099121  -999.250000  -999.250000 1.1542999744 1.0511000156
 1333.0915527 5.0000000000 12.742900848 17.500000000 33.997375488 -0.054499999  -999.250000  -999.250000  -999.250000 63.879100800  -999.250000  -999.250000 1.1542999744 1.0511000156
 1333.2440186 5.0000000000 12.942899704 17.500000000 35.830051422 -0.050900001  -999.250000  -999.250000  -999.250000 62.476001740  -999.250000  -999.250000 1.1676000357 1.0616999865
 1333.3963623 5.0000000000 13.068599701 17.500000000 37.732940674 -0.047899999  -999.250000  -999.250000  -999.250000 74.277702332  -999.250000  -999.250000 1.1808999777 1.0721999407
 1333.5488281 5.0000000000 13.194399834 17.500000000 44.074474335 -0.045000002  -999.250000  -999.250000  -999.250000 74.277702332  -999.250000  -999.250000 1.1942000389 1.0827000141
 1333.7011719 5.0000000000 13.194399834 17.500000000 50.971130371 -0.045000002  -999.250000  -999.250000  -999.250000 65.209999084  -999.250000  -999.250000 1.1849000454 1.0684000254
 1333.8536377 5.0000000000 12.796199799 17.500000000 65.164039612 -0.048099998  -999.250000  -999.250000  -999.250000 64.762802124  -999.250000  -999.250000 1.1039999723 0.9869999886
 1334.0059814 5.0000000000 12.398098946 17.500000000 122.50262451 -0.051199999  -999.250000  -999.250000  -999.250000 62.980098724  -999.250000  -999.250000 1.0364999771 0.9314000010
 1334.1584473 5.0000000000 12.000000000 17.500000000 185.86122131 -0.054200001  -999.250000  -999.250000  -999.250000 68.343498230  -999.250000  -999.250000 1.0785000324 0.9685999751
 1334.3107910 5.0000000000 12.000000000 17.500000000 156.38844299 -0.054200001  -999.250000  -999.250000  -999.250000 63.436199188  -999.250000  -999.250000 1.0973999500 1.0017000437
 1334.4632568 5.0000000000 12.000000000 17.500000000 105.13352966 -0.054499999  -999.250000  -999.250000  -999.250000 62.759101868  -999.250000  -999.250000 1.0863000154 0.9890999794
 1334.6156006 5.0000000000 12.000000000 17.500000000 93.164703369 -0.054800000  -999.250000  -999.250000  -999.250000 64.421997070  -999.250000  -999.250000 1.0487999916 0.9595000148
 1334.7680664 5.0000000000 12.032199860 17.500000000 84.327102661 -0.052999999  -999.250000  -999.250000  -999.250000 64.681999207  -999.250000  -999.250000 1.0343999863 0.9455000162
 1334.9204102 5.0000000000 12.097599983 17.500000000 59.927497864 -0.049300000  -999.250000  -999.250000  -999.250000 64.941902161  -999.250000  -999.250000 1.0314999819 0.9362000227
 1335.0727539 5.0000000000 12.047200203 17.500000000 65.388122559 -0.054000001  -999.250000  -999.250000  -999.250000 65.201896667  -999.250000  -999.250000 1.0313999653 0.9376000166
 1335.2252197 5.0000000000 12.000000000 17.500000000 61.232612610 -0.061200000  -999.250000  -999.250000  -999.250000 65.461799622  -999.250000  -999.250000 1.0396000147 0.9308999777
 1335.3775635 5.0000000000 12.000000000 17.500000000 50.038387299 -0.062300000  -999.250000  -999.250000  -999.250000 65.721801758  -999.250000  -999.250000 1.0542000532 0.9235000014
 1335.5300293 5.0000000000 12.000000000 17.500000000 40.974411011 -0.062300000  -999.250000  -999.250000  -999.250000 65.981796265  -999.250000  -999.250000 1.0283000469 0.9358999729
 1335.6823730 5.0000000000 12.000000000 17.500000000 33.082019806 -0.058400001  -999.250000  -999.250000  -999.250000 66.241699219  -999.250000  -999.250000 0.9983999729 0.9239000082
 1335.8348389 5.0000000000 12.000000000 17.500000000 37.447505951 -0.056499999  -999.250000  -999.250000  -999.250000 66.501701355  -999.250000  -999.250000 0.9491999745 0.8677999973
 1335.9871826 5.0000000000 12.000000000 17.500000000 54.603347778 -0.059200000  -999.250000  -999.250000  -999.250000 66.761596680  -999.250000  -999.250000 0.9297000170 0.8363999724
 1336.1396484 5.0000000000 12.000000000 17.500000000 54.364173889 -0.060300000  -999.250000  -999.250000  -999.250000 65.388496399  -999.250000  -999.250000 0.9315999746 0.8251000047
 1336.2919922 5.0000000000 12.005200386 17.500000000 52.194225311 -0.058400001  -999.250000  -999.250000  -999.250000 60.207599640  -999.250000  -999.250000 0.9531999826 0.8309999704
 1336.4444580 5.0000000000 12.764599800 17.500000000 68.236549377 -0.051899999  -999.250000  -999.250000  -999.250000 60.853500366  -999.250000  -999.250000 1.0082999468 0.8858000040
 1336.5968018 5.0000000000 13.741400719 17.500000000 68.527893066 -0.054699998  -999.250000  -999.250000  -999.250000 68.882202148  -999.250000  -999.250000 1.0338000059 0.9031999707
 1336.7492676 5.0000000000 15.028100014 17.500000000 77.178482056 -0.055700000  -999.250000  -999.250000  -999.250000 70.467102051  -999.250000  -999.250000 1.0608999729 0.9157000184
 1336.9016113 5.0000000000 15.632599831 17.500000000 65.599411011 -0.059599999  -999.250000  -999.250000  -999.250000 64.607398987  -999.250000  -999.250000 1.0921000242 0.9438999891
 1337.0539551 5.0000000000 15.505599976 17.500000000 63.163715363 -0.073200002  -999.250000  -999.250000  -999.250000 59.315399170  -999.250000  -999.250000 1.1784000397 1.0419000387
 1337.2064209 5.0000000000 15.653499603 17.500000000 65.124671936 -0.068899997  -999.250000  -999.250000  -999.250000 68.826499939  -999.250000  -999.250000 1.2168999910 1.0978000164
 1337.3587646 5.0000000000 15.030599594 17.500000000 105.69685364 -0.067699999  -999.250000  -999.250000  -999.250000 70.765602112  -999.250000  -999.250000 1.2136000395 1.1158000231
 1337.5112305 5.0000000000 13.580100060 17.500000000 208.15255737 -0.036899999  -999.250000  -999.250000  -999.250000 72.534103394  -999.250000  -999.250000 1.2016999722 1.1067999601
 1337.6635742 5.0000000000 13.469499588 17.500000000 232.04428101 -0.036499999  -999.250000  -999.250000  -999.250000 73.590400696  -999.250000  -999.250000 1.1491999626 1.0533000231
 1337.8160400 5.0000000000 14.725399971 17.500000000 232.03085327 -0.036499999  -999.250000  -999.250000  -999.250000 74.925003052 155.17359924  -999.250000 1.2487000227 1.1167000532
 1337.9683838 5.0000000000 14.725399971 17.500000000 231.73361206 -0.036499999  -999.250000  -999.250000  -999.250000 73.644203186 156.94970703  -999.250000 1.2762000561 1.1407999992
 1338.1208496 5.0000000000 14.725399971 17.500000000 251.60659790 -0.036499999  -999.250000  -999.250000  -999.250000 70.791603088 150.64909363  -999.250000 1.3644000292 1.2209000587
 1338.2731934 5.0000000000 14.272700310 17.500000000 268.24771118 -0.051899999  -999.250000  -999.250000  -999.250000 64.171501160 145.86650085  -999.250000 1.3652000427 1.2244000435
 1338.4256592 5.0000000000 14.272700310 17.500000000 278.46554565 -0.051899999  -999.250000  -999.250000  -999.250000 69.090698242 147.68840027  -999.250000  -999.250000  -999.250000
 1338.5780029 5.0000000000 12.097700119 17.500000000 292.30807495 -0.045899998  -999.250000  -999.250000  -999.250000 73.893699646 150.47749329  -999.250000  -999.250000  -999.250000
 1338.7304688 5.0000000000 12.830800056 17.500000000 286.65814209 -0.045400001  -999.250000  -999.250000  -999.250000 74.363098145 146.83810425  -999.250000  -999.250000  -999.250000
 1338.8828125 5.0000000000 14.665398598 17.500000000 286.06494141 -0.047300000  -999.250000  -999.250000  -999.250000 72.672599792 144.79849243  -999.250000  -999.250000  -999.250000
 1339.0351563 5.0000000000 15.517600060 17.500000000 230.61056519 -0.052800000  -999.250000  -999.250000  -999.250000 70.270202637 143.32179260  -999.250000  -999.250000  -999.250000
 1339.1876221 5.0000000000 16.135700226 17.500000000 161.72015381 -0.056299999  -999.250000  -999.250000  -999.250000 70.849601746 144.71789551  -999.250000  -999.250000  -999.250000
 1339.3399658 5.0000000000 12.654199600 17.500000000 128.53149414 -0.042399999  -999.250000  -999.250000  -999.250000 70.306602478 147.30969238  -999.250000  -999.250000  -999.250000
