# LAS format log file from PETREL
# Project units are specified as depth units
#==================================================================
~Version information
VERS.   2.0:
WRAP.   NO:
#==================================================================
~Well
STRT .m      383.59057617 :
STOP .m      2173.8320313 :
STEP .m     0.00000000 :
NULL .        -999.250000 :
COMP.           : COMPANY
WELL.  25/11-5 Balder Appr   : WELL
FLD.            : FIELD
LOC.            : LOCATION
SRVC.           : SERVICE COMPANY
DATE.  2018-09-11 14:48:16   : Log Export Date {yyyy-MM-dd HH:mm:ss}
PROV.           : PROVINCE
UWI.   25/11-5   : UNIQUE WELL ID
API.            : API NUMBER
#==================================================================
~Curve
DEPT .m                   : DEPTH
Lithology_geolink ._      : Lithology_geolink
DCAL .in                  : DCAL
CALI .in                  : CALI
BS .in                    : BS
MUDWEIGHT ._              : MUDWEIGHT
DRHO .g/cm3               : DRHO
NPHI .m3/m3               : NPHI
RHOB .g/cm3               : RHOB
GR .gAPI                  : GR
DTC .us/ft                : DTC
RDEP .ohm.m               : RDEP
SP .mV                    : SP
RMED .ohm.m               : RMED
~Parameter
#==================================================================
~Ascii
# ...
 390.29614258  -999.250000 -4.293000221 13.206999779 17.500000000 9.1999998093  -999.250000  -999.250000  -999.250000 34.014999390 155.61000061 1.0269999504  -999.250000 1.0140000582
 390.44854736  -999.250000 -4.288000107 13.211999893 17.500000000 9.1999998093  -999.250000  -999.250000  -999.250000 33.766998291 155.61000061 1.0249999762  -999.250000 1.0140000582
 390.60095215  -999.250000 -4.282000065 13.218000412 17.500000000 9.1999998093  -999.250000  -999.250000  -999.250000 32.903999329 155.61000061 1.0230000019  -999.250000 1.0130000114
 390.75332642  -999.250000 -4.283999920 13.215999603 17.500000000 9.1999998093  -999.250000  -999.250000  -999.250000 32.106998444 155.61000061 1.0210000277  -999.250000 1.0119999647
 390.90573120  -999.250000 -4.291999817 13.208000183 17.500000000 9.1999998093  -999.250000  -999.250000  -999.250000 30.159000397 155.61000061 1.0190000534  -999.250000 1.0119999647
 391.05813599  -999.250000 -4.300000191 13.199999809 17.500000000 9.1999998093  -999.250000  -999.250000  -999.250000 29.283000946 155.61000061 1.0180000067  -999.250000 1.0110000372
 391.21054077  -999.250000 -4.308000088 13.192000389 17.500000000 9.1999998093  -999.250000  -999.250000  -999.250000 29.180999756 155.61000061 1.0160000324  -999.250000 1.0099999905
 391.36294556  -999.250000 -4.315999985 13.183999062 17.500000000 9.1999998093  -999.250000  -999.250000  -999.250000 30.490999222 155.61000061 1.0140000582  -999.250000 1.0099999905
 391.51535034  -999.250000 -4.322999954 13.177000999 17.500000000 9.1999998093  -999.250000  -999.250000  -999.250000 32.080001831 155.61000061 1.0119999647  -999.250000 1.0089999437
 391.66775513  -999.250000 -4.323999882 13.175999641 17.500000000 9.1999998093  -999.250000  -999.250000  -999.250000 33.648998260 155.61000061 1.0099999905  -999.250000 1.0080000162
 391.82012939  -999.250000 -4.323999882 13.175999641 17.500000000 9.1999998093  -999.250000  -999.250000  -999.250000 34.915000916 155.61000061 1.0089999437  -999.250000 1.0080000162
 391.97253418  -999.250000 -4.324999809 13.175001144 17.500000000 9.1999998093  -999.250000  -999.250000  -999.250000 35.715999603 155.61000061 1.0080000162  -999.250000 1.0069999695
 392.12493896  -999.250000 -4.326000214 13.173998833 17.500000000 9.1999998093  -999.250000  -999.250000  -999.250000 36.154998779 155.61000061 1.0140000582  -999.250000 1.0110000372
 392.27734375  -999.250000 -4.326000214 13.173998833 17.500000000 9.1999998093  -999.250000  -999.250000  -999.250000 35.669998169 155.61000061 1.0310000181  -999.250000 1.0240000486
 392.42974854  -999.250000 -4.327000141 13.173000336 17.500000000 9.1999998093  -999.250000  -999.250000  -999.250000 35.541999817 155.61000061 1.0670000315  -999.250000 1.0449999571
 392.58215332  -999.250000 -4.328000069 13.171999931 17.500000000 9.1999998093  -999.250000  -999.250000  -999.250000 35.429000854 155.61000061 1.1189999580  -999.250000 1.0800000429
 392.73455811  -999.250000 -4.328000069 13.171999931 17.500000000 9.1999998093  -999.250000  -999.250000  -999.250000 36.122001648 155.61000061 1.1619999409  -999.250000 1.1160000563
 392.88693237  -999.250000 -4.328999996 13.170999527 17.500000000 9.1999998093  -999.250000  -999.250000  -999.250000 35.396999359 155.61000061 1.1640000343  -999.250000 1.1480000019
 393.03933716  -999.250000 -4.329999924 13.170001030 17.500000000 9.1999998093  -999.250000  -999.250000  -999.250000 33.536998749 155.61000061 1.1640000343  -999.250000 1.1690000296
 393.19174194  -999.250000 -4.329999924 13.170001030 17.500000000 9.1999998093  -999.250000  -999.250000  -999.250000 33.973999023 155.61000061 1.1649999619  -999.250000 1.1849999428
 393.34414673  -999.250000 -4.330999851 13.168999672 17.500000000 9.1999998093  -999.250000  -999.250000  -999.250000 35.212001801 155.61000061 1.1670000553  -999.250000 1.1959999800
 393.49655151  -999.250000 -4.330999851 13.168999672 17.500000000 9.1999998093  -999.250000  -999.250000  -999.250000 38.389999390 155.61000061 1.1679999828  -999.250000 1.1970000267
 393.64895630  -999.250000 -4.331999779 13.168000221 17.500000000 9.1999998093  -999.250000  -999.250000  -999.250000 40.008998871 155.61000061 1.1699999571  -999.250000 1.1979999542
 393.80133057  -999.250000 -4.329999924 13.170001030 17.500000000 9.1999998093  -999.250000  -999.250000  -999.250000 40.931999207 155.61000061 1.1720000505  -999.250000 1.1990000010
 393.95373535  -999.250000 -4.320000172 13.180001259 17.500000000 9.1999998093  -999.250000  -999.250000  -999.250000 39.298999786 155.61000061 1.1729999781  -999.250000 1.2009999752
 394.10614014  -999.250000 -4.308000088 13.192000389 17.500000000 9.1999998093  -999.250000  -999.250000  -999.250000 37.390998840 155.61000061 1.1749999523  -999.250000 1.2020000219
 394.25854492  -999.250000 -4.298999786 13.201001167 17.500000000 9.1999998093  -999.250000  -999.250000  -999.250000 36.234001160 155.61000061 1.1770000458  -999.250000 1.2029999495
 394.41094971  -999.250000 -4.315000057 13.185000420 17.500000000 9.1999998093  -999.250000  -999.250000  -999.250000 36.777999878 155.61000061 1.1779999733  -999.250000 1.2039999962
 394.56335449  -999.250000 -4.322999954 13.177000999 17.500000000 9.1999998093  -999.250000  -999.250000  -999.250000 38.416000366 155.61000061 1.1799999475  -999.250000 1.2029999495
 394.71575928  -999.250000 -4.329999924 13.170001030 17.500000000 9.1999998093  -999.250000  -999.250000  -999.250000 37.807998657 155.61000061 1.1809999943  -999.250000 1.1970000267
 394.86813354  -999.250000 -4.336999893 13.163000107 17.500000000 9.1999998093  -999.250000  -999.250000  -999.250000 37.194999695 155.61000061 1.1779999733  -999.250000 1.1879999638
 395.02053833  -999.250000 -4.307000160 13.192999840 17.500000000 9.1999998093  -999.250000  -999.250000  -999.250000 36.738998413 155.61000061 1.1670000553  -999.250000 1.1799999475
 395.17294312  -999.250000 -4.277999878 13.222000122 17.500000000 9.1999998093  -999.250000  -999.250000  -999.250000 37.534999847 155.61000061 1.1640000343  -999.250000 1.1670000553
 395.32534790  -999.250000 -4.248000145 13.252000809 17.500000000 9.1999998093  -999.250000  -999.250000  -999.250000 37.852001190 155.61000061 1.1900000572  -999.250000 1.1380000114
 395.47775269  -999.250000 -4.282999992 13.217000008 17.500000000 9.1999998093  -999.250000  -999.250000  -999.250000 36.740001678 155.61000061 1.2599999905  -999.250000 1.1069999933
 395.63015747  -999.250000 -4.343999863 13.156000137 17.500000000 9.1999998093  -999.250000  -999.250000  -999.250000 36.821998596 155.61000061 1.3309999704  -999.250000 1.0989999771
 395.78256226  -999.250000 -4.196000099 13.303999901 17.500000000 9.1999998093  -999.250000  -999.250000  -999.250000 36.215999603 155.61000061 1.3969999552  -999.250000 1.2130000591
 395.93493652  -999.250000 -4.010000229 13.489999771 17.500000000 9.1999998093  -999.250000  -999.250000  -999.250000 37.737998962 155.61000061 1.5230000019  -999.250000 1.4889999628
 396.08734131  -999.250000 -3.792999983 13.706999779 17.500000000 9.1999998093  -999.250000  -999.250000  -999.250000 39.973999023 155.61000061 1.8090000153  -999.250000 1.7180000544
 396.23974609  -999.250000 -3.075000048 14.425001144 17.500000000 9.1999998093  -999.250000  -999.250000  -999.250000 42.081001282 155.61000061 4.2420001030  -999.250000 2.1519999504
 396.39215088  -999.250000 -3.329999924 14.170000076 17.500000000 9.1999998093  -999.250000  -999.250000  -999.250000 46.487998962 155.61000061 7.2340002060  -999.250000 2.5929999352
 396.54455566  -999.250000 -3.963999748 13.535999298 17.500000000 9.1999998093  -999.250000  -999.250000  -999.250000 48.152000427 155.61000061 3.6199998856 11.406999588 2.3959999084
 396.69696045  -999.250000 -4.298999786 13.201001167 17.500000000 9.1999998093  -999.250000  -999.250000  -999.250000 46.589000702 155.61000061 1.3079999685 13.727000237 2.1119999886
 396.84936523  -999.250000 -4.388000011 13.111999512 17.500000000 9.1999998093  -999.250000  -999.250000  -999.250000 44.568000793 155.61000061 1.0970000029 15.742000580 2.0769999027
