# LAS format log file from PETREL
# Project units are specified as depth units
#==================================================================
~Version information
VERS.   2.0:
WRAP.   NO:
#==================================================================
~Well
STRT .m      1090.1660156 :
STOP .m      2511.1435547 :
STEP .m     0.00000000 :
NULL .        -999.250000 :
COMP.           : COMPANY
WELL.  25/10-10  Balder Triassic   : WELL
FLD.            : FIELD
LOC.            : LOCATION
SRVC.           : SERVICE COMPANY
DATE.  2018-09-11 14:48:14   : Log Export Date {yyyy-MM-dd HH:mm:ss}
PROV.           : PROVINCE
UWI.   25/10-10   : UNIQUE WELL ID
API.            : API NUMBER
#==================================================================
~Curve
DEPT .m                   : DEPTH
Lithology_geolink ._      : Lithology_geolink
CALI .in                  : CALI
BS .in                    : BS
ROP .m/h                  : ROP
DRHO .g/cm3               : DRHO
THOR .ppm                 : THOR
NPHI .m3/m3               : NPHI
RHOB .g/cm3               : RHOB
PEF .b/e                  : PEF
GR .gAPI                  : GR
URAN .ppm                 : URAN
DTC .us/ft                : DTC
DTS .us/ft                : DTS
RDEP .ohm.m               : RDEP
RSHA .ohm.m               : RSHA
RMED .ohm.m               : RMED
~Parameter
#==================================================================
~Ascii
 1090.1660156 5.0000000000 14.401399612 17.500000000 41.625328064  -999.250000  -999.250000  -999.250000  -999.250000  -999.250000 79.274101257  -999.250000  -999.250000  -999.250000 1.1538000107 1.1555999517 1.1543999910
 1090.3184814 5.0000000000 14.247400284 17.500000000 40.221492767  -999.250000  -999.250000  -999.250000  -999.250000  -999.250000 76.070999146  -999.250000  -999.250000  -999.250000 1.1701999903 1.1712000370 1.1717000008
 1090.4708252 5.0000000000 14.048500061 17.500000000 41.899795532  -999.250000  -999.250000  -999.250000  -999.250000  -999.250000 73.597801208  -999.250000  -999.250000  -999.250000 1.1742999554 1.1768000126 1.1749000549
 1090.6232910 5.0000000000 14.195698738 17.500000000 42.544979095  -999.250000  -999.250000  -999.250000  -999.250000  -999.250000 73.863700867  -999.250000  -999.250000  -999.250000 1.1725000143 1.1807999611 1.1789000034
 1090.7756348 5.0000000000 14.217900276 17.500000000 41.766921997  -999.250000  -999.250000  -999.250000  -999.250000  -999.250000 72.798698425  -999.250000  -999.250000  -999.250000 1.1691999435 1.1809999943 1.1778999567
 1090.9279785 5.0000000000 14.806800842 17.500000000 43.233596802  -999.250000  -999.250000  -999.250000  -999.250000  -999.250000 71.662399292  -999.250000  -999.250000  -999.250000 1.1736999750 1.1818000078 1.1777000427
 1091.0804443 5.0000000000 15.171899796 17.500000000 40.705806732  -999.250000  -999.250000  -999.250000  -999.250000  -999.250000 71.530601501  -999.250000  -999.250000  -999.250000 1.1816999912 1.1794999838 1.1840000153
 1091.2327881 5.0000000000 15.708000183 17.500000000 40.418308258  -999.250000  -999.250000  -999.250000  -999.250000  -999.250000 69.734497070  -999.250000  -999.250000  -999.250000 1.1855000257 1.1825000048 1.1885999441
 1091.3852539 5.0000000000 15.546999931 17.500000000 40.602500916  -999.250000  -999.250000  -999.250000  -999.250000  -999.250000 68.139503479  -999.250000  -999.250000  -999.250000 1.1828999519 1.1957000494 1.1928999424
 1091.5375977 5.0000000000 15.513098717 17.500000000 40.363517761  -999.250000  -999.250000  -999.250000  -999.250000  -999.250000 66.100601196  -999.250000  -999.250000  -999.250000 1.1441999674 1.1756000519 1.1633000374
 1091.6900635 5.0000000000 15.526700020 17.500000000 39.370994568  -999.250000  -999.250000  -999.250000  -999.250000  -999.250000 61.404300690  -999.250000  -999.250000  -999.250000 1.1064000130 1.0900000334 1.0978000164
 1091.8424072 5.0000000000 15.130900383 17.500000000 38.464237213  -999.250000  -999.250000  -999.250000  -999.250000  -999.250000 57.054698944  -999.250000  -999.250000  -999.250000 1.1694999933 1.1042000055 1.1480000019
 1091.9948730 5.0000000000 14.513400078 17.500000000 39.239620209  -999.250000  -999.250000  -999.250000  -999.250000  -999.250000 54.429199219  -999.250000  -999.250000  -999.250000 1.2237999439 1.2012000084 1.2101999521
 1092.1472168 5.0000000000 13.850000381 17.500000000 41.434711456  -999.250000  -999.250000  -999.250000  -999.250000  -999.250000 52.522098541  -999.250000  -999.250000  -999.250000 0.9926000237 0.9563999772 0.9751999974
 1092.2996826 5.0000000000 13.700200081 17.500000000 45.556571960  -999.250000  -999.250000  -999.250000  -999.250000  -999.250000 49.352901459  -999.250000  -999.250000  -999.250000 0.8155999780 0.6972000003 0.7720000148
 1092.4520264 5.0000000000 13.770099640 17.500000000 50.646327972  -999.250000  -999.250000  -999.250000  -999.250000  -999.250000 45.453998566  -999.250000  -999.250000  -999.250000 0.8985999823 0.7081000209 0.8288999796
 1092.6044922 5.0000000000 13.888299942 17.500000000 62.085334778  -999.250000  -999.250000  -999.250000  -999.250000  -999.250000 43.384700775  -999.250000  -999.250000  -999.250000 0.9684000015 0.7325000167 0.8880000114
 1092.7568359 5.0000000000 14.035199165 17.500000000 76.834976196  -999.250000  -999.250000  -999.250000  -999.250000  -999.250000 40.793800354  -999.250000  -999.250000  -999.250000 0.8694000244 0.6941000223 0.8155000210
 1092.9093018 5.0000000000 14.528300285 17.500000000 53.910930634  -999.250000  -999.250000  -999.250000  -999.250000  -999.250000 37.287498474  -999.250000  -999.250000  -999.250000 0.6920999885 0.5342000127 0.6323000193
 1093.0616455 5.0000000000 13.523300171 17.500000000 55.749904633  -999.250000  -999.250000  -999.250000  -999.250000  -999.250000 36.460899353  -999.250000  -999.250000  -999.250000 0.8418999910 0.5724999905 0.7397999763
 1093.2139893 5.0000000000 13.608098984 17.500000000 49.898620605  -999.250000  -999.250000  -999.250000  -999.250000  -999.250000 39.238998413  -999.250000  -999.250000  -999.250000 1.0592999458 0.7628999949 0.9905999899
 1093.3664551 5.0000000000 13.513999939 17.500000000 56.214450836  -999.250000  -999.250000  -999.250000  -999.250000  -999.250000 43.365299225  -999.250000  -999.250000  -999.250000 1.1751999855 0.9158999920 1.1210999489
 1093.5187988 5.0000000000 13.452200890 17.500000000 50.339897156  -999.250000  -999.250000  -999.250000  -999.250000  -999.250000 46.631599426  -999.250000  -999.250000  -999.250000 1.3114999533 1.0889999866 1.2116999626
 1093.6712646 5.0000000000 13.241299629 17.500000000 46.792377472  -999.250000  -999.250000  -999.250000  -999.250000  -999.250000 49.119800568  -999.250000  -999.250000  -999.250000 1.3216999769 1.1772999763 1.2328000069
 1093.8236084 5.0000000000 13.252599716 17.500000000 44.811679840  -999.250000  -999.250000  -999.250000  -999.250000  -999.250000 51.429199219  -999.250000  -999.250000  -999.250000 1.3480999470 1.2230000496 1.2615000010
 1093.9760742 5.0000000000 13.235899925 17.500000000 37.300010681  -999.250000  -999.250000  -999.250000  -999.250000  -999.250000 53.397300720  -999.250000  -999.250000  -999.250000 1.4158999920 1.2503999472 1.3249000311
 1094.1284180 5.0000000000 13.178799629 17.500000000 30.924213409  -999.250000  -999.250000  -999.250000  -999.250000  -999.250000 51.945098877  -999.250000  -999.250000  -999.250000 1.0270999670 0.9921000004 1.0149999857
 1094.2808838 5.0000000000 13.943799973 17.500000000 28.699308395  -999.250000  -999.250000  -999.250000  -999.250000  -999.250000 44.505401611  -999.250000  -999.250000  -999.250000 1.0270999670 0.9921000004 1.0149999857
 1094.4332275 5.0000000000 13.671800613 17.500000000 34.223426819  -999.250000  -999.250000  -999.250000  -999.250000  -999.250000 35.442798615  -999.250000  -999.250000  -999.250000 1.0270999670 0.9921000004 1.0149999857
 1094.5856934 5.0000000000 13.655200005 17.500000000 35.343017578  -999.250000  -999.250000  -999.250000  -999.250000  -999.250000 31.881099701  -999.250000  -999.250000  -999.250000 0.6468999982 0.4844000041 0.5889999866
 1094.7380371 5.0000000000 12.999899864 17.500000000 41.272102356  -999.250000  -999.250000  -999.250000  -999.250000  -999.250000 33.195899963  -999.250000  -999.250000  -999.250000 0.9789999723 0.6699000001 0.8871999979
 1094.8905029 5.0000000000 12.372099876 17.500000000 34.050350189  -999.250000  -999.250000  -999.250000  -999.250000  -999.250000 33.528800964  -999.250000  -999.250000  -999.250000 1.0723999739 0.7882999778 0.9653999805
 1095.0428467 5.0000000000 12.552100182 17.500000000 32.606925964  -999.250000  -999.250000  -999.250000  -999.250000  -999.250000 32.322200775  -999.250000  -999.250000  -999.250000 1.0597000122 0.8188999891 0.9399999976
 1095.1951904 5.0000000000 12.420900345 17.500000000 33.389766693  -999.250000  -999.250000  -999.250000  -999.250000  -999.250000 30.774299622  -999.250000  -999.250000  -999.250000 0.9941999912 0.7908999920 0.8618000150
 1095.3476563 5.0000000000 12.306500435 17.500000000 34.658981323  -999.250000  -999.250000  -999.250000  -999.250000  -999.250000 29.359600067  -999.250000  -999.250000  -999.250000 0.9524000287 0.7907000184 0.8490999937
 1095.5000000 5.0000000000 12.467800140 17.500000000 36.939304352  -999.250000  -999.250000  -999.250000  -999.250000  -999.250000 30.491300583  -999.250000  -999.250000  -999.250000 0.9397000074 0.8086000085 0.8783000112
 1095.6524658 5.0000000000 12.444001198 17.500000000 41.720336914  -999.250000  -999.250000  -999.250000  -999.250000  -999.250000 34.685600281  -999.250000  -999.250000  -999.250000 0.7796999812 0.6833000183 0.7378000021
