# LAS format log file from PETREL
# Project units are specified as depth units
#==================================================================
~Version information
VERS.   2.0:
WRAP.   NO:
#==================================================================
~Well
STRT .m      984.14562988 :
STOP .m      1996.3865967 :
STEP .m     0.00000000 :
NULL .        -999.250000 :
COMP.           : COMPANY
WELL.  25/11-23  Balder Appr   : WELL
FLD.            : FIELD
LOC.            : LOCATION
SRVC.           : SERVICE COMPANY
DATE.  2018-09-11 14:48:16   : Log Export Date {yyyy-MM-dd HH:mm:ss}
PROV.           : PROVINCE
UWI.   25/11-23   : UNIQUE WELL ID
API.            : API NUMBER
#==================================================================
~Curve
DEPT .m                   : DEPTH
Lithology_geolink ._      : Lithology_geolink
DCAL .in                  : DCAL
CALI .in                  : CALI
BS .in                    : BS
MUDWEIGHT ._              : MUDWEIGHT
ROP .m/h                  : ROP
DRHO .g/cm3               : DRHO
NPHI .m3/m3               : NPHI
RHOB .g/cm3               : RHOB
GR .gAPI                  : GR
DTC .us/ft                : DTC
RDEP .ohm.m               : RDEP
SP .mV                    : SP
RSHA .ohm.m               : RSHA
RMED .ohm.m               : RMED
~Parameter
#==================================================================
~Ascii
# ...
 1851.9112549 1.0000000000 0.0186004601 8.5186004639 8.5000000000 1.3200000525 96761.812500 -0.007600000 0.3403719068 2.0701999664 23.365800858 109.27059174 0.4131000042 0.0000000000 0.4749999940 0.4009999931
 1852.0635986 1.0000000000 0.0298996009 8.5298995972 8.5000000000 1.3200000525 97791.046875 -0.005600000 0.3332507014 2.0766000748 24.281900406 109.05910492 0.4323000014 0.0000000000 0.5227000117 0.4190999866
 1852.2160645 1.0000000000 0.0100002307 8.5100002289 8.5000000000 1.3200000525 102690.41406 -0.004400000 0.3172867894 2.0752000809 23.920299530 107.45179749 0.4205000103 0.0000000000 0.4896000028 0.4081000090
 1852.3684082 1.0000000000 -0.014499660 8.4855003357 8.5000000000 1.3200000525 102962.34375 -0.003400000 0.3055574000 2.0738999844 22.528900146 105.99060059 0.4237000048 0.0000000000 0.4828000069 0.4113000035
 1852.5207520 1.0000000000 -0.020600321 8.4793996811 8.5000000000 1.3200000525 103317.65625 -0.003700000 0.3077993989 2.0775001049 21.939899445 105.36360931 0.4325999916 0.0000000000 0.4684999883 0.4199999869
 1852.6732178 1.0000000000 -0.021300321 8.4786996841 8.5000000000 1.3200000525 103615.92969 -0.006500000 0.3144026995 2.0803999901 22.017400742 105.19490051 0.4343999922 0.0000000000 0.4988000095 0.4219999909
 1852.8255615 1.0000000000 -0.024499889 8.4755001068 8.5000000000 1.3200000525 103932.21094 -0.007200000 0.3214226961 2.0799999237 22.022600174 105.50260162 0.4137000144 0.0000000000 0.4517999887 0.4027999938
 1852.9780273 1.0000000000 -0.016799930 8.4832000732 8.5000000000 1.3200000525 99143.953125 -0.009700001 0.3197723031 2.0713000298 22.211900711 106.34490204 0.4027000070 0.0000000000 0.4277000129 0.3928000033
 1853.1303711 1.0000000000 -0.006400107 8.4935998917 8.5000000000 1.3200000525 68830.351563 -0.012400000 0.3126313984 2.0611999035 22.486099243 107.47889709 0.4059000015 0.0000000000 0.4343999922 0.3964000046
 1853.2828369 1.0000000000 0.0047998428 8.5047998428 8.5000000000 1.3200000525 63417.933594 -0.012100000 0.3015987873 2.0576999187 23.368000031 108.27819824 0.4041000009 0.0000000000 0.4562000036 0.3952000141
 1853.4351807 1.0000000000 0.0461997949 8.5461997986 8.5000000000 1.3200000525 63259.378906 -0.010500000 0.3110524118 2.0587999821 23.678199768 109.20369720 0.3903999925 0.0000000000 0.4374000132 0.3826000094
 1853.5876465 1.0000000000 0.0761995316 8.5761995316 8.5000000000 1.3200000525 63101.000000 -0.009400000 0.3261449039 2.0632998943 23.347600937 109.58489990 0.3813000023 0.0000000000 0.4223000109 0.3741999865
 1853.7399902 1.0000000000 0.0819997787 8.5819997787 8.5000000000 1.3200000525 62943.000000 -0.007300000 0.3406184018 2.0685999393 22.874300003 109.63189697 0.3819999993 0.0000000000 0.4169999957 0.3752000034
 1853.8924561 1.0000000000 0.0907001570 8.5907001495 8.5000000000 1.3200000525 60713.109375 -0.005800000 0.3450104892 2.0687999725 21.994400024 109.11959839 0.3804000020 0.0000000000 0.4207000136 0.3740000129
 1854.0447998 1.0000000000 0.1124000996 8.6124000549 8.5000000000 1.3200000525 29333.123047 -0.006400000 0.3495354056 2.0638999939 21.554000854 108.79709625 0.3720999956 0.0000000000 0.4196000099 0.3662000000
 1854.1972656 1.0000000000 0.1325998008 8.6325998306 8.5000000000 1.3200000525 7809.4145508 -0.007400000 0.3480601907 2.0604999065 21.108699799 108.58988953 0.3693999946 0.0000000000 0.4163999856 0.3637999892
 1854.3496094 1.0000000000 0.1371002048 8.6371002197 8.5000000000 1.3200000525 7465.3198242 -0.009000000 0.3504351079 2.0592000484 21.141500473 108.79490662 0.3713999987 0.0000000000 0.4194999933 0.3659000099
 1854.5019531 1.0000000000 0.1306000054 8.6305999756 8.5000000000 1.3200000525 7465.3198242 -0.009600000 0.3494116962 2.0587000847 21.146400452 109.15119934 0.3704999983 0.0000000000 0.4300000072 0.3648999929
 1854.6544189 1.0000000000 0.1139001995 8.6139001846 8.5000000000 1.3200000525 7465.3198242 -0.010300000 0.3412575126 2.0580000877 20.348499298 109.42710114 0.3729000092 0.0000000000 0.4289000034 0.3671999872
 1854.8067627 1.0000000000 0.0913000107 8.5913000107 8.5000000000 1.3200000525 7525.1113281 -0.011500000 0.3393689990 2.0576999187 20.726299286 109.50689697 0.3682999909 0.0000000000 0.4293999970 0.3626999855
 1854.9592285 1.0000000000 0.0826997831 8.5826997757 8.5000000000 1.3200000525 12312.296875 -0.010800000 0.3391661048 2.0606999397 21.173400879 109.59400177 0.3727999926 0.0000000000 0.4404999912 0.3670000136
 1855.1115723 1.0000000000 0.0909004286 8.5909004211 8.5000000000 1.3200000525 30861.000000 -0.009800000 0.3424148262 2.0641999245 22.101200104 108.75508881 0.3835000098 0.0000000000 0.4480000138 0.3774000108
 1855.2640381 1.0000000000 0.0979003981 8.5979003906 8.5000000000 1.3200000525 30861.000000 -0.011900000 0.3422291875 2.0634000301 21.680000305 108.72080231 0.3747999966 0.0000000000 0.4307000041 0.3689000010
 1855.4163818 1.0000000000 0.0579996072 8.5579996109 8.5000000000 1.3200000525 30861.000000 -0.011800000 0.3359979987 2.0622999668 20.912399292 108.97539520 0.3750999868 0.0000000000 0.4255999923 0.3689999878
 1855.5688477 1.0000000000 0.0452003516 8.5452003479 8.5000000000 1.3200000525 30861.000000 -0.010700000 0.3367174268 2.0622999668 20.848499298 108.27999878 0.3858000040 0.0000000000 0.4656000137 0.3792999983
 1855.7211914 1.0000000000 0.0635003969 8.5635004044 8.5000000000 1.3200000525 30861.000000 -0.011900000 0.3372045755 2.0643999577 21.228900909 108.31459808 0.3917999864 0.0000000000 0.4783000052 0.3847999871
 1855.8736572 1.0000000000 0.0684995726 8.5684995651 8.5000000000 1.3200000525 30922.833984 -0.013600000 0.3291004896 2.0690999031 21.092599869 108.56350708 0.3786000013 0.0000000000 0.4736999869 0.3718000054
 1856.0260010 1.0000000000 0.0219001807 8.5219001770 8.5000000000 1.3200000525 76206.953125 -0.012100000 0.3295896053 2.0748000145 20.781700134 107.38210297 0.3842000067 0.0000000000 0.4537999928 0.3770000041
 1856.1784668 1.0000000000 -0.002900124 8.4970998764 8.5000000000 1.3200000525 340615.43750 -0.012500000 0.3356311023 2.0727000237 20.972000122 106.86740112 0.3899999857 0.0000000000 0.4406000078 0.3822000027
 1856.3308105 1.0000000000 0.0037002561 8.5037002563 8.5000000000 1.3200000525 377970.84375 -0.013600000 0.3357259035 2.0683000088 21.715400696 107.37819672 0.3971000016 0.0000000000 0.5803999901 0.3885000050
 1856.4831543 1.0000000000 0.0327997208 8.5327997208 8.5000000000 1.3200000525 377970.84375 -0.012700000 0.3248503804 2.0662000179 21.881999969 107.82820129 0.3828000128 0.0000000000 0.4251999855 0.3743000031
 1856.6356201 1.0000000000 0.0543003120 8.5543003082 8.5000000000 1.3200000525 377970.84375 -0.010300000 0.3202497065 2.0634999275 21.892400742 108.28440094 0.3747999966 0.0000000000 0.4302000105 0.3661000133
 1856.7879639 1.0000000000 0.0684995726 8.5684995651 8.5000000000 1.3200000525 376125.43750 -0.010500000 0.3263331950 2.0550999641 22.157499313 108.48650360 0.3910999894 0.0000000000 0.4189000130 0.3806999922
 1856.9404297 1.0000000000 0.0719003677 8.5719003677 8.5000000000 1.3200000525 348791.68750 -0.012500000 0.3354986906 2.0415999889 22.809099197 109.95760345 0.3937999904 0.0000000000 0.4302999973 0.3824000061
 1857.0927734 1.0000000000 0.0816001818 8.5816001892 8.5000000000 1.3200000525 296782.00000 -0.010800000 0.3408573866 2.0373001099 22.816699982 109.56939697 0.3896999955 0.0000000000 0.4293000102 0.3774999976
 1857.2452393 1.0000000000 0.1016997993 8.6016998291 8.5000000000 1.3200000525 278027.81250 -0.009900000 0.3518521786 2.0376999378 22.970300674 108.96709442 0.3907000124 0.0000000000 0.4296999872 0.3774000108
 1857.3975830 1.0000000000 0.1049004048 8.6049003601 8.5000000000 1.3200000525 274848.50000 -0.009900000 0.3550634086 2.0418999195 22.599800110 109.02449799 0.3935999870 0.0000000000 0.4208000004 0.3790999949
 1857.5500488 1.0000000000 0.0890998766 8.5890998840 8.5000000000 1.3200000525 274848.50000 -0.010100000 0.3538919091 2.0457000732 22.010599136 108.91429901 0.3980000019 0.0000000000 0.4221000075 0.3824000061
 1857.7023926 1.0000000000 0.0832996443 8.5832996368 8.5000000000 1.3200000525 274848.50000 -0.008400000 0.3566327989 2.0483000278 21.018999100 111.04621124 0.3975999951 0.0000000000 0.4214000106 0.3813999891
