# LAS format log file from PETREL
# Project units are specified as depth units
#==================================================================
~Version information
VERS.   2.0:
WRAP.   NO:
#==================================================================
~Well
STRT .m      353.26309204 :
STOP .m      2468.2702637 :
STEP .m     0.00000000 :
NULL .        -999.250000 :
COMP.           : COMPANY
WELL.  25/11-1  Balder   : WELL
FLD.            : FIELD
LOC.            : LOCATION
SRVC.           : SERVICE COMPANY
DATE.  2018-09-11 14:48:15   : Log Export Date {yyyy-MM-dd HH:mm:ss}
PROV.           : PROVINCE
UWI.   25/11-1   : UNIQUE WELL ID
API.            : API NUMBER
#==================================================================
~Curve
DEPT .m                   : DEPTH
Lithology_geolink ._      : Lithology_geolink
CALI .in                  : CALI
MUDWEIGHT ._              : MUDWEIGHT
ROP .m/h                  : ROP
DRHO .g/cm3               : DRHO
RHOB .g/cm3               : RHOB
GR .gAPI                  : GR
DTC .us/ft                : DTC
DTE .us/ft                : DTE
RDEP .ohm.m               : RDEP
SP .mV                    : SP
RSHA .ohm.m               : RSHA
RMED .ohm.m               : RMED
~Parameter
#==================================================================
~Ascii
# ...
 1473.0982666  -999.250000 12.920109749 10.100000381 0.6414042115 0.0280728582 1.9946039915 71.603034973 161.47514343 161.47323608 0.7044938207 56.848712921 0.6520822048 0.8425980806
 1473.2506104  -999.250000 13.004480362 10.100000381 0.6414042115 0.0211474355 1.9898010492 73.451919556 160.69792175 160.69773865 0.7127981782 56.773052216 0.6570948958 0.8408004045
 1473.4030762  -999.250000 12.976518631 10.100000381 0.6452623606 0.0153410733 1.9949970245 75.259193420 160.01155090 160.01115417 0.7157980204 56.636051178 0.6489117742 0.8368024826
 1473.5554199  -999.250000 12.952710152 10.100000381 0.6655802131 0.0118052885 2.0063970089 76.738716125 166.09402466 166.09571838 0.7105013728 56.646659851 0.6652823091 0.8348004818
 1473.7077637  -999.250000 13.000370979 10.100000381 0.7986862659 0.0131929545 2.0152940750 77.718841553 167.55355835 167.55456543 0.6961101294 56.642978668 0.6660981178 0.8320019841
 1473.8602295  -999.250000 13.032090187 10.100000381 0.9345085025 0.0154631417 2.0250968933 75.956398010 162.01574707 162.01383972 0.6740074158 56.490364075 0.6583088636 0.8238028288
 1474.0125732  -999.250000 13.032098770 10.100000381 0.9858444929 0.0218478795 2.0322949886 74.538162231 162.60794067 162.60833740 0.6493185759 56.305149078 0.6587988138 0.8110098243
 1474.1650391  -999.250000 13.031999588 10.100000381 0.9868766069 0.0218052883 2.0272018909 75.430923462 162.62010193 162.62010193 0.6267089248 56.184257507 0.6478132010 0.7972055078
 1474.3173828  -999.250000 13.031900406 10.100000381 0.9868766069 0.0173450764 2.0149099827 78.454719543 162.63078308 162.63078308 0.6070160866 56.086784363 0.6503936052 0.7851099968
 1474.4698486  -999.250000 13.031900406 10.100000381 0.9868766069 0.0138052888 2.0120019913 78.375007629 162.64147949 162.64147949 0.5923066735 56.013977051 0.6698752046 0.7777034044
 1474.6221924  -999.250000 13.007800102 10.100000381 0.9868766069 0.0151929548 2.0146999359 77.762245178 162.65228271 162.65228271 0.5856006742 56.071151733 0.6775931120 0.7762001157
 1474.7746582  -999.250000 12.991711617 10.100000381 0.9868766069 0.0189262815 2.0190980434 75.156257629 162.66297913 162.66297913 0.5844005942 56.147964478 0.6886852384 0.7784988284
 1474.9270020  -999.250000 13.015701294 10.100000381 0.9868766069 0.0229262821 2.0228989124 71.664146423 162.67369080 162.67369080 0.5845000148 56.094783783 0.7028863430 0.7813994884
 1475.0794678  -999.250000 13.031591415 10.100000381 0.9868766069 0.0181457177 2.0232999325 69.491920471 162.68447876 162.68447876 0.5837004781 56.009483337 0.6532679796 0.7830989957
 1475.2318115  -999.250000 13.017900467 10.100000381 0.9868766069 0.0116105769 2.0237998962 71.755477905 162.69519043 162.69519043 0.5805007219 55.999011993 0.5484052300 0.7871990800
 1475.3842773  -999.250000 12.900481224 10.100000381 0.9868766069 0.0121953562 2.0297958851 74.737464905 162.70588684 162.70588684 0.5745038986 56.063251495 0.5833483338 0.7952947021
 1475.5366211  -999.250000 12.775341988 10.100000381 0.9868766069 0.0151947122 2.0373980999 73.903907776 162.71667480 162.71667480 0.5686017275 56.162826538 0.6573184729 0.7980992198
 1475.6890869  -999.250000 12.716340065 10.100000381 0.9868766069 0.0167317856 2.0381989479 71.727104187 162.72738647 162.72738647 0.5657020807 56.304889679 0.6639900208 0.7890064120
 1475.8414307  -999.250000 12.659819603 10.100000381 0.9868766069 0.0184631404 2.0308029652 71.609031677 162.73815918 162.73818970 0.5652002096 56.553775787 0.6376300454 0.7758045197
 1475.9937744  -999.250000 12.618929863 10.100000381 0.9868766069 0.0197309852 2.0241050720 72.928756714 162.74888611 162.74888611 0.5650001764 56.765518188 0.6318138242 0.7699046135
 1476.1462402  -999.250000 12.598609924 10.100000381 0.9868766069 0.0199999996 2.0195019245 74.130249023 162.75958252 162.75958252 0.5627009273 56.864189148 0.6206135154 0.7730987072
 1476.2985840  -999.250000 12.591110229 10.100000381 0.9868766069 0.0178070460 2.0151040554 73.624244690 162.77027893 162.77038574 0.5570046902 56.799797058 0.6383563280 0.7797942758
 1476.4510498  -999.250000 12.614990234 10.100000381 0.9868766069 0.0155368587 2.0101020336 73.846321106 162.78108215 162.78108215 0.5522022843 56.631862640 0.6524818540 0.7846977115
 1476.6033936  -999.250000 12.654100418 10.100000381 0.9868766069 0.0135380309 2.0044999123 74.398994446 162.79177856 162.79177856 0.5538998246 56.491695404 0.6400113106 0.7873997092
 1476.7558594  -999.250000 12.689080238 10.100000381 0.9868766069 0.0122684296 1.9999020100 73.951385498 162.80258179 162.80258179 0.5597969294 56.397277832 0.6250199080 0.7900984883
 1476.9082031  -999.250000 12.731288910 10.100000381 0.9827003479 0.0120000001 2.0034000874 72.086791992 162.81327820 162.81327820 0.5641993284 56.355911255 0.6241008043 0.7930995226
 1477.0606689  -999.250000 12.788570404 10.100000381 0.9745737910 0.0120000001 2.0111949444 70.233993530 162.82409668 162.82409668 0.5657991171 56.295360565 0.6407765746 0.7920007110
 1477.2130127  -999.250000 12.898180008 10.100000381 0.9744094610 0.0120000001 2.0093998909 68.609275818 162.83476257 162.83476257 0.5660998821 56.303897858 0.6513890624 0.7858014107
 1477.3654785  -999.250000 13.037409782 10.100000381 0.9744094610 0.0134635707 1.9987070560 68.240737915 162.84548950 162.84548950 0.5662000179 56.316940308 0.6434116960 0.7818025947
 1477.5178223  -999.250000 13.139269829 10.100000381 0.9866170883 0.0154631417 1.9973000288 68.371154785 162.85627747 162.85627747 0.5662999749 56.330482483 0.6400037408 0.7829995751
 1477.6702881  -999.250000 13.092632294 10.100000381 0.9868766069 0.0160000008 2.0021960735 70.486869812 162.86698914 162.86698914 0.5717960000 56.410682678 0.6562750340 0.7820007205
 1477.8226318  -999.250000 12.888568878 10.100000381 0.9868766069 0.0145368595 1.9988009930 70.476020813 162.87768555 162.87768555 0.5926924944 56.499671936 0.6473104358 0.7766019106
 1477.9749756  -999.250000 12.764800072 10.100000381 1.1195524931 0.0081521217 1.9912060499 67.303375244 162.88850403 162.88848877 0.6184793115 56.511722565 0.6813179851 0.7724032998
 1478.1274414  -999.250000 12.788491249 10.100000381 1.2794687748 0.0016105770 1.9903999567 62.229675293 162.89916992 162.89918518 0.6239976883 56.447795868 0.6765058637 0.7733995914
 1478.2797852  -999.250000 12.907499313 10.100000381 1.2946946621 -0.001461970 2.0017900467 60.956108093 162.90986633 162.90988159 0.6121100187 56.398109436 0.6871737838 0.7796946168
 1478.4322510  -999.250000 12.999159813 10.100000381 1.2949475050 0.0001947116 2.0198919773 60.942508698 162.92070007 162.92070007 0.6075022221 56.257209778 0.6266762018 0.7869964838
 1478.5845947  -999.250000 13.212409973 10.100000381 1.3071551323 0.0017309849 2.0232970715 61.798446655 162.93136597 162.93136597 0.6160920858 56.165950775 0.5929837227 0.7905967236
 1478.7370605  -999.250000 13.491250992 10.100000381 1.3074146509 -0.005315705 2.0102069378 63.272518158 162.94218445 162.94218445 0.6244953871 56.224945068 0.5870079398 0.7918993235
 1478.8894043  -999.250000 13.624579430 10.100000381 1.3074146509 -0.006538031 1.9966020584 64.053840637 162.95288086 162.95288086 0.6267995834 56.313671112 0.5629234314 0.7933998108
 1479.0418701  -999.250000 13.654680252 10.100000381 1.3074146509 -0.003073718 1.9924030304 65.427169800 162.96357727 162.96357727 0.6255007982 56.338939667 0.6038415432 0.7940996289
 1479.1942139  -999.250000 13.642200470 10.100000381 1.3074146509 -0.001268430 1.9910999537 67.191268921 162.97436523 162.97438049 0.6203011870 56.352481842 0.6434585452 0.7903009057
 1479.3466797  -999.250000 13.701560020 10.100000381 1.3074146509 -0.002463571 1.9895009995 69.540443420 162.90884399 162.90884399 0.6143040061 56.420192719 0.6414030790 0.7821053863
 1479.4990234  -999.250000 13.872850418 10.100000381 1.3115910292 -0.004463141 1.9903999567 71.504241943 162.84094238 162.84094238 0.6145998836 56.444469452 0.6135305762 0.7754018903
 1479.6514893  -999.250000 14.175478935 10.100000381 1.3197176456 -0.005731785 1.9840049744 70.343467712 162.65914917 162.65905762 0.6192966104 56.446468353 0.6534379125 0.7726020217
