# LAS format log file from PETREL
# Project units are specified as depth units
#==================================================================
~Version information
VERS.   2.0:
WRAP.   NO:
#==================================================================
~Well
STRT .m      1090.1660156 :
STOP .m      2511.1435547 :
STEP .m     0.00000000 :
NULL .        -999.250000 :
COMP.           : COMPANY
WELL.  25/10-10  Balder Triassic   : WELL
FLD.            : FIELD
LOC.            : LOCATION
SRVC.           : SERVICE COMPANY
DATE.  2018-09-11 14:48:14   : Log Export Date {yyyy-MM-dd HH:mm:ss}
PROV.           : PROVINCE
UWI.   25/10-10   : UNIQUE WELL ID
API.            : API NUMBER
#==================================================================
~Curve
DEPT .m                   : DEPTH
Lithology_geolink ._      : Lithology_geolink
CALI .in                  : CALI
BS .in                    : BS
ROP .m/h                  : ROP
DRHO .g/cm3               : DRHO
THOR .ppm                 : THOR
NPHI .m3/m3               : NPHI
RHOB .g/cm3               : RHOB
PEF .b/e                  : PEF
GR .gAPI                  : GR
URAN .ppm                 : URAN
DTC .us/ft                : DTC
DTS .us/ft                : DTS
RDEP .ohm.m               : RDEP
RSHA .ohm.m               : RSHA
RMED .ohm.m               : RMED
~Parameter
#==================================================================
~Ascii
# ...
 2494.2270508  -999.250000 12.597700119 12.250000954 6.3986220360 -0.006700000  -999.250000 0.0153004806 2.8375895023 5.3187046051 70.546363831  -999.250000  -999.250000  -999.250000 55.335323334 3.3775615692 42.040416718
 2494.3796387  -999.250000 12.620100021 12.250000954 8.0141077042 -0.004700000  -999.250000 0.0242999997 2.8519001007 5.4553999901 75.389602661  -999.250000  -999.250000  -999.250000 51.898101807 3.4302000999 41.705001831
 2494.5319824  -999.250000 12.642499924 12.250000954 11.499015808 -0.004900000  -999.250000 0.0348999985 2.8515000343 5.4706997871 81.215896606  -999.250000  -999.250000  -999.250000 111.67960358 3.5009999275 66.460502625
 2494.6843262  -999.250000 12.676099777 12.250000954 8.2752628326 0.0017000000  -999.250000 0.0461819209 2.8487045765 5.3492946625 78.300872803  -999.250000  -999.250000  -999.250000 298.74682617 3.7188508511 96.430870056
 2494.8366699  -999.250000 12.620100021 12.250000954 8.3313655853 -0.000800000  -999.250000 0.0387120172 2.8358206749 5.2399749756 70.346466064  -999.250000  -999.250000  -999.250000 1252.3529053 3.8094551563 145.11233521
 2494.9892578  -999.250000 12.620100021 12.250000954 7.6847105026 -0.000900000  -999.250000 0.0226000007 2.8494000435 5.2136001587 64.184501648  -999.250000  -999.250000  -999.250000 4081.5859375 4.1314997673 201.50709534
 2495.1416016  -999.250000 12.586600304 12.250000954 7.1853671074 -0.006500000  -999.250000 0.0057999999 2.8738999367 5.3011999130 58.449501038  -999.250000  -999.250000  -999.250000 21561.910156 4.1875000000 250.07519531
 2495.2939453  -999.250000 12.608900070 12.250000954 7.4885172844 -0.006600000  -999.250000 -0.004483520 2.8903734684 5.4332880974 56.404975891  -999.250000  -999.250000  -999.250000 2273.6196289 4.6630377769 338.90264893
 2495.4462891  -999.250000 12.623800278 12.250000954 6.5666007996 -0.005600000  -999.250000 -0.008693269 2.8995852470 5.4887113571 51.727104187  -999.250000  -999.250000  -999.250000 393.70770264 5.5254173279 401.16885376
 2495.5986328  -999.250000 12.556699753 12.250000954 6.5780844688 -0.004800000  -999.250000 -0.008799840 2.9028947353 5.4697303772 47.644943237  -999.250000  -999.250000  -999.250000 6706.4062500 6.4612998962 999.63354492
 2495.7512207  -999.250000 12.534399986 12.250000954 4.2247376442 -0.004300000  -999.250000 -0.007700000 2.9075000286 5.4320998192 45.268699646  -999.250000  -999.250000  -999.250000 44711.289063 7.5460000038 4756.0532227
 2495.9035645  -999.250000 12.512000084 12.250000954 4.6167979240 -0.006700000  -999.250000 -0.006202400 2.8992133141 5.4345960617 43.771900177  -999.250000  -999.250000  -999.250000 4482.7446289 8.6256704330 1917.7984619
 2496.0559082  -999.250000 12.541799545 12.250000954 4.4534120560 -0.008100000  -999.250000 -0.005101763 2.8967039585 5.4169282913 46.512496948  -999.250000  -999.250000  -999.250000 3751.7077637 9.5409336090 1666.1466064
 2496.2082520  -999.250000 12.519399643 12.250000954 4.3740158081 -0.007000000  -999.250000 -0.002803686 2.9005937576 5.3573951721 47.196208954  -999.250000  -999.250000  -999.250000 1056.7081299 9.5143451691 1269.1007080
 2496.3608398  -999.250000 12.497098923 12.250000954 4.4924540520 -0.003600000  -999.250000 0.0013000000 2.9047000408 5.2506999969 46.804901123  -999.250000  -999.250000  -999.250000 562.61590576 11.595800400 774.75012207
 2496.5131836  -999.250000 12.467201233 12.250000954 4.3461284637 -0.001300000  -999.250000 0.0099999998 2.8972001076 5.1416997910 47.106498718  -999.250000  -999.250000  -999.250000 498.92871094 12.537599564 748.16027832
 2496.6655273  -999.250000 12.452300072 12.250000954 4.6597771645 -0.002000000  -999.250000 0.0181868803 2.8825235367 5.0731101036 49.261749268  -999.250000  -999.250000  -999.250000 351.11236572 13.348401070 516.27850342
 2496.8178711  -999.250000 12.441100121 12.250000954 4.6998033524 -0.002200000  -999.250000 0.0187990386 2.8731150627 5.0906720161 50.831787109  -999.250000  -999.250000  -999.250000 271.32189941 13.331429482 381.89343262
 2496.9704590  -999.250000 12.452300072 12.250000954 7.5370745659 -0.004200000  -999.250000 0.0112121599 2.8682999611 5.2364001274 51.023200989  -999.250000  -999.250000  -999.250000 220.00160217 13.632900238 302.88708496
 2497.1228027  -999.250000 12.452300072 12.250000954 7.2814960480 -0.004400000  -999.250000 0.0083046472 2.8638000488 5.4939999580 49.957801819  -999.250000  -999.250000  -999.250000 221.57589722 13.960100174 300.95431519
 2497.2751465  -999.250000 12.463500023 12.250000954 7.7496714592 0.0068999999  -999.250000 0.0082999999 2.8787999153 5.7786998749 49.494300842  -999.250000  -999.250000  -999.250000 188.20260620 13.843000412 247.94410706
 2497.4274902  -999.250000 12.452300072 12.250000954 7.9301176071 0.0211999994  -999.250000 0.0116945505 2.8968999386 5.9668998718 49.493400574  -999.250000  -999.250000  -999.250000 132.90539551 13.558899879 173.18589783
 2497.5798340  -999.250000 12.385199547 12.250000954 8.9530839920 0.0251000002  -999.250000 0.0142916795 2.9019999504 6.0293002129 48.010799408  -999.250000  -999.250000  -999.250000 77.455703735 12.564200401 105.59899902
 2497.7324219  -999.250000 12.392600060 12.250000954 8.3356294632 0.0274999999  -999.250000 0.0210891012 2.8922998905 6.0381999016 50.235599518  -999.250000  -999.250000  -999.250000 46.216400146 12.565299988 62.905899048
 2497.8847656  -999.250000 12.347900391 12.250000954 7.8313655853 0.0159000009  -999.250000 0.0368746780 2.8526999950 5.9727001190 54.027599335  -999.250000  -999.250000  -999.250000 36.574298859 12.214799881 49.409400940
 2498.0371094  -999.250000 12.340399742 12.250000954 7.8244757652 0.0141000003  -999.250000 0.0485812500 2.8262000084 5.8875999451 60.182701111  -999.250000  -999.250000  -999.250000 38.002498627 13.030400276 52.016601563
 2498.1894531  -999.250000 12.340399742 12.250000954 8.3353023529 0.0003000000  -999.250000 0.0537833609 2.7906000614 5.7841000557 62.500198364  -999.250000  -999.250000  -999.250000 51.495899200 14.001199722 71.330596924
 2498.3420410  -999.250000 12.373999596 12.250000954 7.8008527756 0.0046999999  -999.250000 0.0510044880 2.7950997353 5.7906999588 64.826202393  -999.250000  -999.250000  -999.250000 298.32751465 13.652700424 379.30960083
 2498.4943848  -999.250000 12.373999596 12.250000954 8.7204723358 0.0230000000  -999.250000 0.0601852536 2.8164999485 5.7863998413 65.620399475  -999.250000  -999.250000  -999.250000 1521.3089600 14.005700111 1342.5009766
 2498.6467285  -999.250000 12.392600060 12.250000954 8.3402233124 0.0252999999  -999.250000 0.0512144230 2.8159999847 5.7567000389 66.451400757  -999.250000  -999.250000  -999.250000 2307.8630371 14.082599640 1471.6610107
 2498.7990723  -999.250000 12.362799644 12.250000954 8.2883853912 0.0529999994  -999.250000 0.0368460827 2.8454999924 5.7720999718 65.915603638  -999.250000  -999.250000  -999.250000 3176.2329102 13.577300072 1578.3220215
 2498.9516602  -999.250000 12.362799644 12.250000954 8.2401571274 0.0754000023  -999.250000 0.0147354165 2.8840999603 5.8434000015 65.823799133  -999.250000  -999.250000  -999.250000 4260.1489258 13.855600357 1540.3360596
 2499.1040039  -999.250000 12.355299950 12.250000954 8.8444881439 0.0740000010  -999.250000 0.0108062504 2.8991000652 5.9159002304 65.121299744  -999.250000  -999.250000  -999.250000 3137.1708984 13.969900131 1588.0560303
 2499.2563477  -999.250000 12.362799644 12.250000954 8.6742124557 0.0410000011  -999.250000 0.0090028839 2.8647999763 5.9709000587 61.814601898  -999.250000  -999.250000  -999.250000 2192.1259766 13.577899933 1444.4439697
 2499.4086914  -999.250000 12.362799644 12.250000954 9.8517065048 0.0004000000  -999.250000 0.0081014428 2.8076999187 6.0229997635 61.390201569  -999.250000  -999.250000  -999.250000 1582.2309570 13.412599564 1473.8370361
 2499.5610352  -999.250000 12.340399742 12.250000954 9.4750661850 0.0148000000  -999.250000 0.0080003208 2.8125000000 6.1698999405 61.214599609  -999.250000  -999.250000  -999.250000 1301.5870361 13.814599991 1325.8189697
 2499.7136230  -999.250000 12.351599693 12.250000954 9.2923231125 0.0560000017  -999.250000 0.0090982374 2.8487000465 6.3460998535 61.593799591  -999.250000  -999.250000  -999.250000 1222.8249512 13.916700363 1329.6040039
