# LAS format log file from PETREL
# Project units are specified as depth units
#==================================================================
~Version information
VERS.   2.0:
WRAP.   NO:
#==================================================================
~Well
STRT .m      460.12496948 :
STOP .m      2548.7502441 :
STEP .m     0.00000000 :
NULL .        -999.250000 :
COMP.           : COMPANY
WELL.  25/10-4R  Balder Appr   : WELL
FLD.            : FIELD
LOC.            : LOCATION
SRVC.           : SERVICE COMPANY
DATE.  2018-09-11 14:48:14   : Log Export Date {yyyy-MM-dd HH:mm:ss}
PROV.           : PROVINCE
UWI.   25/10-4 R   : UNIQUE WELL ID
API.            : API NUMBER
#==================================================================
~Curve
DEPT .m                   : DEPTH
Lithology_geolink ._      : Lithology_geolink
CALI .in                  : CALI
MUDWEIGHT ._              : MUDWEIGHT
ROP .m/h                  : ROP
DRHO .g/cm3               : DRHO
NPHI .m3/m3               : NPHI
RHOB .g/cm3               : RHOB
GR .gAPI                  : GR
DTC .us/ft                : DTC
RDEP .ohm.m               : RDEP
SP .mV                    : SP
RSHA .ohm.m               : RSHA
RMED .ohm.m               : RMED
~Parameter
#==================================================================
~Ascii
# ...
 1571.1250000  -999.250000 8.7180004120 1.1200000048 4.3505578041 0.0729999989 0.4242500067 2.0899999142 45.505001068 163.22399902 0.5970000029 49.069999695  -999.250000 1.1840000153
 1571.2500000  -999.250000 8.6949996948 1.1200000048 4.3512139320 0.0759999976 0.4337200224 2.0910000801 46.610000610 162.56799316 0.6010000110 48.258998871  -999.250000 1.1879999638
 1571.3750000  -999.250000 8.6709995270 1.1200000048 4.3516240120 0.0799999982 0.4312500060 2.0899999142 47.256000519 162.23501587 0.6050000191 47.105998993  -999.250000 1.1879999638
 1571.5000000  -999.250000 8.6429996490 1.1200000048 4.3566274643 0.0850000009 0.4181300104 2.0889999866 47.312000275 162.45799255 0.6069999933 45.943000793  -999.250000 1.1849999428
 1571.6250000  -999.250000 8.6059999466 1.1200000048 4.3909120560 0.0860000029 0.4026599824 2.0910000801 46.576999664 163.35398865 0.6060000062 45.284000397  -999.250000 1.1790000200
 1571.7500000  -999.250000 8.5710000992 1.1200000048 4.3915681839 0.0829999968 0.3954499960 2.0950000286 45.855998993 163.64599609 0.6029999852 45.511001587  -999.250000 1.1729999781
 1571.8750000  -999.250000 8.5579996109 1.1200000048 4.4008331299 0.0780000016 0.3982599974 2.1040000916 45.562000275 164.07400513 0.5989999771 46.210998535  -999.250000 1.1679999828
 1572.0001221  -999.250000 8.5690002441 1.1200000048 4.4311022758 0.0750000030 0.4102799892 2.1170001030 45.907001495 164.55299377 0.5929999948 47.083000183  -999.250000 1.1629999876
 1572.1248779  -999.250000 8.5959997177 1.1200000048 6.5815286636 0.0759999976 0.4270000160 2.1289999485 46.910999298 164.62800598 0.5870000124 47.937000275  -999.250000 1.1579999924
 1572.2500000  -999.250000 8.6260004044 1.1200000048 6.5821852684 0.0820000023 0.4409900010 2.1329998970 48.459999084 163.91400146 0.5809999704 48.574001312  -999.250000 1.1540000439
 1572.3750000  -999.250000 8.6379995346 1.1200000048 6.5828413963 0.0909999982 0.4471600056 2.1259999275 49.013999939 163.38900757 0.5759999752 48.722999573  -999.250000 1.1499999762
 1572.5000000  -999.250000 8.6459999084 1.1200000048 6.5836615562 0.1000000015 0.4435200095 2.1110000610 48.064998627 163.12098694 0.5749999881 48.618000031  -999.250000 1.1480000019
 1572.6250000  -999.250000 8.6459999084 1.1200000048 6.5843997002 0.1030000001 0.4324299991 2.0929999352 46.159999847 162.86399841 0.5749999881 48.441001892  -999.250000 1.1490000486
 1572.7500000  -999.250000 8.6370000839 1.1200000048 6.5849738121 0.0989999995 0.4199499786 2.0750000477 43.978000641 162.37399292 0.5770000219 48.321998596  -999.250000 1.1529999971
 1572.8750000  -999.250000 8.6230001450 1.1200000048 6.5857939720 0.0879999995 0.4127999842 2.0590000153 42.071998596 161.43899536 0.5789999962 48.332000732  -999.250000 1.1599999666
 1573.0000000  -999.250000 8.6000003815 1.1200000048 5.3677825928 0.0769999996 0.4159799814 2.0490000248 41.852001190 160.21400452 0.5879999995 48.548000336  -999.250000 1.1720000505
 1573.1250000  -999.250000 8.5780000687 1.1200000048 4.3202915192 0.0659999996 0.4307000041 2.0499999523 42.472999573 159.74200439 0.5950000286 48.719001770  -999.250000 1.1820000410
 1573.2498779  -999.250000 8.5629997253 1.1200000048 4.3207015991 0.0619999990 0.4489799738 2.0599999428 43.611999512 160.00999451 0.6019999981 48.856998444  -999.250000 1.1909999847
 1573.3750000  -999.250000 8.5629997253 1.1200000048 4.3211126328 0.0649999976 0.4598399997 2.0729999542 45.073001862 160.87899780 0.6100000143 48.991001129  -999.250000 1.1970000267
 1573.5000000  -999.250000 8.5780000687 1.1200000048 4.3215222359 0.0729999989 0.4600600004 2.0810000896 46.699001312 162.34899902 0.6179999709 49.172000885  -999.250000 1.2000000477
 1573.6250000  -999.250000 8.6070003510 1.1200000048 4.3219323158 0.0839999989 0.4541299939 2.0810000896 48.290000916 164.17100525 0.6250000000 49.497001648  -999.250000 1.2000000477
 1573.7500000  -999.250000 8.6389999390 1.1200000048 4.3225064278 0.0960000008 0.4502300024 2.0710000992 49.481998444 166.20300293 0.6299999952 49.937999725  -999.250000 1.1990000010
 1573.8750000  -999.250000 8.6739997864 1.1200000048 4.3230810165 0.1059999987 0.4527300000 2.0520000458 50.263999939 168.40800476 0.6320000291 50.321998596  -999.250000 1.1990000010
 1574.0000000  -999.250000 8.6999998093 1.1200000048 4.3234910965 0.1070000008 0.4568099976 2.0290000439 50.631999969 170.61499023 0.6299999952 50.562999725  -999.250000 1.2009999752
 1574.1250000  -999.250000 8.7130002975 1.1200000048 6.3535923958 0.0979999974 0.4586299956 2.0130000114 50.611000061 172.48100281 0.6230000257 50.583999634  -999.250000 1.2029999495
 1574.2500000  -999.250000 8.7180004120 1.1200000048 6.6519026756 0.0839999989 0.4560199976 2.0069999695 50.222999573 173.48500061 0.6110000014 50.286998749  -999.250000 1.2050000429
 1574.3751221  -999.250000 8.7229995728 1.1200000048 6.6527237892 0.0719999969 0.4477999806 2.0150001049 49.340000153 173.19500732 0.6039999723 49.368000031  -999.250000 1.2020000219
 1574.4998779  -999.250000 8.7290000916 1.1200000048 6.6535439491 0.0649999976 0.4333200157 2.0360000134 48.058998108 172.50500488 0.5950000286 48.347999573  -999.250000 1.1959999800
 1574.6250000  -999.250000 8.7379999161 1.1200000048 6.6540355682 0.0680000037 0.4183000326 2.0580000877 46.666999817 170.91299438 0.5860000253 47.438999176  -999.250000 1.1890000105
 1574.7500000  -999.250000 8.7469997406 1.1200000048 6.6548562050 0.0790000036 0.4062200189 2.0710000992 45.444000244 168.19999695 0.5789999962 46.847000122  -999.250000 1.1809999943
 1574.8750000  -999.250000 8.7580003738 1.1200000048 6.6556763649 0.0930000022 0.3993399739 2.0699999332 44.803001404 165.26600647 0.5740000010 46.794998169  -999.250000 1.1729999781
 1575.0000000  -999.250000 8.7749996185 1.1200000048 6.6564960480 0.1049999967 0.3992100060 2.0559999943 45.411998749 163.78700256 0.5709999800 47.601001740  -999.250000 1.1649999619
 1575.1250000  -999.250000 8.8190002441 1.1200000048 6.5989174843 0.1099999994 0.4061599970 2.0339999199 46.654998779 163.08900452 0.5640000105 48.826999664  -999.250000 1.1569999456
 1575.2500000  -999.250000 8.8680000305 1.1200000048 6.5995731354 0.1010000035 0.4157499969 2.0120000839 47.916000366 163.47999573 0.5569999814 50.110000610  -999.250000 1.1490000486
 1575.3750000  -999.250000 8.9189996719 1.1200000048 6.6002297401 0.0860000029 0.4194300175 2.0030000210 48.877998352 164.58500671 0.5509999990 51.238998413  -999.250000 1.1419999599
 1575.5001221  -999.250000 8.9750003815 1.1200000048 6.6010503769 0.0740000010 0.4159999788 2.0120000839 49.153999329 165.37300110 0.5469999909 51.851001740  -999.250000 1.1349999905
 1575.6248779  -999.250000 9.0329999924 1.1200000048 6.6017875671 0.0710000023 0.4091799855 2.0329999924 48.492000580 165.21800232 0.5440000296 51.609001160  -999.250000 1.1299999952
 1575.7500000  -999.250000 9.0920000076 1.1200000048 6.6023626328 0.0790000036 0.4052200019 2.0539999008 47.215000153 165.21499634 0.5419999957 50.438999176  -999.250000 1.1280000210
 1575.8750000  -999.250000 9.1440000534 1.1200000048 6.6031827927 0.0939999968 0.4100099802 2.0629999638 46.430999756 164.82899475 0.5419999957 48.916999817  -999.250000 1.1289999485
 1576.0000000  -999.250000 9.1829996109 1.1200000048 6.6040029526 0.1089999974 0.4268299937 2.0599999428 46.500000000 164.00300598 0.5419999957 47.312000275  -999.250000 1.1319999695
 1576.1250000  -999.250000 9.2030000687 1.1200000048 6.6047406197 0.1169999987 0.4491499960 2.0490000248 47.865001678 163.32699585 0.5429999828 46.006000519  -999.250000 1.1369999647
 1576.2500000  -999.250000 9.1990003586 1.1200000048 6.6053152084 0.1180000007 0.4672000110 2.0390000343 50.140998840 163.17901611 0.5450000167 45.338001251  -999.250000 1.1430000067
 1576.3750000  -999.250000 9.1730003357 1.1200000048 6.6061353683 0.1129999980 0.4736000001 2.0360000134 52.013999939 163.30099487 0.5460000038 45.560001373  -999.250000 1.1469999552
 1576.5000000  -999.250000 9.1470003128 1.1200000048 6.6069550514 0.1040000021 0.4694299996 2.0399999619 52.599998474 162.94001770 0.5450000167 46.425998688  -999.250000 1.1480000019
