# LAS format log file from PETREL
# Project units are specified as depth units
#==================================================================
~Version information
VERS.   2.0:
WRAP.   NO:
#==================================================================
~Well
STRT .m      1456.9927979 :
STOP .m      2094.7868652 :
STEP .m     0.00000000 :
NULL .        -999.250000 :
COMP.           : COMPANY
WELL.  25/11-24 Jakob South   : WELL
FLD.            : FIELD
LOC.            : LOCATION
SRVC.           : SERVICE COMPANY
DATE.  2018-09-11 14:48:16   : Log Export Date {yyyy-MM-dd HH:mm:ss}
PROV.           : PROVINCE
UWI.   25/11-24   : UNIQUE WELL ID
API.            : API NUMBER
#==================================================================
~Curve
DEPT .m                   : DEPTH
Lithology_geolink ._      : Lithology_geolink
DCAL .in                  : DCAL
CALI .in                  : CALI
BS .in                    : BS
ROP .m/h                  : ROP
DRHO .g/cm3               : DRHO
NPHI .m3/m3               : NPHI
RHOB .g/cm3               : RHOB
PEF .b/e                  : PEF
GR .gAPI                  : GR
DTC .us/ft                : DTC
DTS .us/ft                : DTS
RDEP .ohm.m               : RDEP
RMIC .ohm.m               : RMIC
RMED .ohm.m               : RMED
~Parameter
#==================================================================
~Ascii
# ...
 1540.2031250 6.0000000000 -0.084799759 12.165200233 12.250000954 147.07609558 0.0522000007 0.5169000030 2.0855998993 5.8262000084 200.86659241 144.89649963 433.33779907 0.8533999920 0.3461999893 0.7685580850
 1540.3555908 6.0000000000 0.3310002983 12.581000328 12.250000954 154.30310059 0.0522999987 0.5162000060 2.1006000042 5.6890001297 201.63890076 143.22509766 434.82946777 0.8496999741 0.3580999970 0.7701986432
 1540.5079346 6.0000000000 0.6323003173 12.882300377 12.250000954 160.57380676 0.0509000011 0.5065000057 2.1185998917 5.5304999352 202.15580750 142.15950012 436.95327759 0.8657000065 0.3908999860 0.7918652296
 1540.6604004 6.0000000000 0.7056999207 12.955699921 12.250000954 164.18110657 0.0439999998 0.5077999830 2.1203999519 5.5022001266 201.76579285 141.68600464 436.23828125 0.8805999756 0.4183999896 0.8092860579
 1540.8127441 6.0000000000 0.0754003525 12.325399399 12.250000954 162.38619995 0.0399999991 0.5085999966 2.1173999310 5.5834999084 197.74940491 142.17349243 431.74899292 0.8991000056 0.4352000058 0.8241880536
 1540.9652100 5.0000000000 0.2031002045 12.453100204 12.250000954 158.19880676 0.0392000005 0.5135999918 2.1215000153 5.6669001579 191.91040039 144.06849670 431.28427124 0.9136999846 0.4462000132 0.8377891183
 1541.1175537 5.0000000000 -0.010299680 12.239700317 12.250000954 148.01249695 0.0370999984 0.5194000006 2.1421000957 5.5647001266 166.49949646 144.31260681 432.29568481 0.9369999766 0.4264000058 0.8532875776
 1541.2700195 5.0000000000 -0.344400406 11.905599594 12.250000954 155.42089844 0.0274000000 0.5077999830 2.1542000771 5.3165998459 165.30419922 144.84199524 433.38662720 0.8260999918 0.3978999853 0.7514815927
 1541.4223633 5.0000000000 -0.438199967 11.811800003 12.250000954 176.75329590 0.0109999999 0.5101000071 2.1375000477 5.0346999168 172.67799377 145.89300537 431.06756592 0.7975999713 0.4986000061 0.7245215774
 1541.5748291 5.0000000000 -0.188799888 12.061200142 12.250000954 179.13389587 0.0031999999 0.5031999946 2.1196999550 4.8137001991 203.39920044 146.25520325 427.84030151 0.8158000112 0.5382000208 0.7393881083
 1541.7271729 5.0000000000 0.5166997910 12.766699791 12.250000954 169.48060608 0.0114000002 0.5037999749 2.1159999371 4.6581997871 205.33839417 144.88389587 423.88555908 0.8180000186 0.6208000183 0.7424975038
 1541.8795166 5.0000000000 0.5495005250 12.799500465 12.250000954 150.52529907 0.0258000009 0.4916000068 2.1177999973 4.7424001694 203.56120300 143.49440002 423.46636963 0.8180999756 0.5763000250 0.7449960113
 1542.0319824 5.0000000000 0.7523003817 13.002300262 12.250000954 106.24440002 0.0364999995 0.4889999926 2.1175000668 5.1725997925 198.92570496 143.58529663 421.06762695 0.8209000230 0.5080999732 0.7505955100
 1542.1843262 5.0000000000 0.2441997975 12.494198799 12.250000954 80.493438721 0.0447000004 0.4921999872 2.1373000145 5.7369999886 198.21760559 143.79580688 417.50210571 0.8568999767 0.4234000146 0.7859433293
 1542.3367920 5.0000000000 -0.270600289 11.979400635 12.250000954 66.471458435 0.0538000017 0.5036000013 2.1810998917 6.0770998001 190.41920471 143.48179626 410.62353516 0.9749000072 0.3729999959 0.8973107338
 1542.4891357 5.0000000000 -0.605799675 11.644200325 12.250000954 52.094490051 0.0590999983 0.5020999908 2.2046999931 6.0300002098 181.08149719 142.89089966 408.44119263 1.0944999456 0.4041000009 1.0055265427
 1542.6416016 5.0000000000 -0.204500198 12.045500755 12.250000954 53.751968384 0.0511999987 0.5044999719 2.1761000156 5.7937998772 180.81739807 142.30000305 406.25903320 0.9176999927 0.4293000102 0.8463277817
 1542.7939453 5.0000000000 0.2195997089 12.469600677 12.250000954 76.507217407 0.0399999991 0.5371000171 2.1293001175 5.4735999107 195.12089539 141.87550354 401.39682007 0.9204999804 0.4873999953 0.8495972753
 1542.9464111 5.0000000000 0.6127995849 12.862799644 12.250000954 94.885169983 0.0370000005 0.5487999916 2.1087999344 5.0939998627 217.27130127 141.82310486 398.70425415 0.8838999867 0.4853000045 0.8206232190
 1543.0987549 6.0000000000 0.6310996413 12.881099701 12.250000954 102.56729889 0.0414000005 0.5388000011 2.1112999916 4.7491002083 225.19119263 141.28390503 401.95550537 0.8702999949 0.4844000041 0.8108078837
 1543.2512207 6.0000000000 0.4269999862 12.676999092 12.250000954 103.50849915 0.0461999997 0.5027999878 2.1115999222 4.5633997917 222.80050659 141.34120178 405.07998657 0.8364999890 0.4751000106 0.7828224301
 1543.4035645 6.0000000000 0.4510002136 12.701000214 12.250000954 98.815948486 0.0505000018 0.4889999926 2.1075997353 4.5391001701 208.79919434 142.10350037 411.92190552 0.8489999771 0.4368999898 0.7952899933
 1543.5560303 6.0000000000 0.0675001070 12.317500114 12.250000954 87.832336426 0.0535999984 0.5095999837 2.1149001122 4.5366997719 194.69859314 143.25669861 416.62564087 0.8302000165 0.3508999944 0.7786999941
 1543.7083740 6.0000000000 0.1410999000 12.391100883 12.250000954 88.574470520 0.0494000018 0.5184000134 2.1245000362 4.4629998207 180.74000549 143.89790344 419.46630859 0.8112000227 0.3506000042 0.7698000073
 1543.8607178 6.0000000000 0.1824999005 12.432499886 12.250000954 96.805770874 0.0399999991 0.5338000059 2.1294999123 4.3852000237 171.42500305 144.07969666 418.61386108 0.8149999976 0.3810999990 0.7749000192
 1544.0131836 6.0000000000 0.4879999161 12.737999916 12.250000954 105.59648895 0.0351000018 0.5285000205 2.1240999699 4.4026999474 164.62559509 144.10209656 413.60110474 0.8141999841 0.5547999740 0.7766000032
 1544.1655273 6.0000000000 0.8379002213 13.087901115 12.250000954 122.47570038 0.0417999998 0.5145999789 2.1270999908 4.5188999176 159.81970215 144.00000000 411.74002075 0.8352000117 0.5036000013 0.7980999947
 1544.3179932 5.0000000000 0.8763999343 13.126399994 12.250000954 136.40980530 0.0544999987 0.5145000219 2.1417000294 4.6374001503 155.51780701 143.88040161 412.31845093 0.7972999811 0.4158999920 0.7641999722
 1544.4703369 5.0000000000 0.6379003525 12.887900352 12.250000954 126.36840057 0.0615000017 0.5072000027 2.1526000500 4.7260999680 155.45350647 143.32859802 412.87460327 0.8001000285 0.4104000032 0.7663999796
 1544.6228027 5.0000000000 0.4518002868 12.701800346 12.250000954 122.39370728 0.0612999983 0.5127000213 2.1394999027 4.8435001373 153.95880127 142.49929810 412.39758301 0.8920000196 0.4733999968 0.8519999981
 1544.7751465 5.0000000000 0.1051997840 12.355198860 12.250000954 125.98130798 0.0579000004 0.5070999861 2.1047999859 5.0599999428 154.68350220 142.01119995 411.17016602 0.8880000114 0.5210000277 0.8468000293
 1544.9276123 5.0000000000 -0.073900223 12.176099777 12.250000954 133.39039612 0.0599000007 0.5224999785 2.0873999596 5.2772998810 154.50779724 141.70979309 410.06799316 0.8485000134 0.4052000046 0.8069000244
 1545.0799561 5.0000000000 -0.034500118 12.215498924 12.250000954 143.68699646 0.0628999993 0.5278000236 2.0959000587 5.3825998306 154.82389832 141.53419495 408.46554565 0.8163999915 0.4277000129 0.7764999866
 1545.2324219 5.0000000000 0.2971000969 12.547100067 12.250000954 152.87109375 0.0625000000 0.5260999799 2.1215999126 5.3242001534 156.44180298 141.87550354 401.03234863 0.8302999735 0.3876000047 0.7908999920
 1545.3847656 5.0000000000 0.6350002289 12.884999275 12.250000954 164.40849304 0.0544000007 0.4968000054 2.1203000546 5.2677998543 159.37049866 142.10209656 398.32937622 0.8524000049 0.4537000060 0.8109999895
 1545.5372314 5.0000000000 0.5842999816 12.834300041 12.250000954 159.43179321 0.0485999994 0.5040000081 2.1098999977 5.2625999451 163.98129272 142.15950012 399.37533569 0.8471999764 0.3237000108 0.8065999746
 1545.6895752 5.0000000000 0.5448998809 12.794899940 12.250000954 136.90289307 0.0494999997 0.5083000064 2.1026000977 5.3340001106 163.48669434 141.68600464 401.15936279 0.8561999798 0.3294999897 0.8161000013
 1545.8420410 5.0000000000 0.0946998596 12.344700813 12.250000954 113.30739594 0.0549999997 0.5273000002 2.1210000515 5.4131999016 164.80729675 139.96510315 406.38751221 0.8978999853 0.3221000135 0.8554000258
 1545.9943848 5.0000000000 0.2960996926 12.546099663 12.250000954 98.179130554 0.0559000000 0.5364999771 2.1403000355 5.4952998161 162.84280396 138.68690491 407.74987793 0.9049000144 0.4178999960 0.8598999977
