# LAS format log file from PETREL
# Project units are specified as depth units
#==================================================================
~Version information
VERS.   2.0:
WRAP.   NO:
#==================================================================
~Well
STRT .m      353.26309204 :
STOP .m      2468.2702637 :
STEP .m     0.00000000 :
NULL .        -999.250000 :
COMP.           : COMPANY
WELL.  25/11-1  Balder   : WELL
FLD.            : FIELD
LOC.            : LOCATION
SRVC.           : SERVICE COMPANY
DATE.  2018-09-11 14:48:15   : Log Export Date {yyyy-MM-dd HH:mm:ss}
PROV.           : PROVINCE
UWI.   25/11-1   : UNIQUE WELL ID
API.            : API NUMBER
#==================================================================
~Curve
DEPT .m                   : DEPTH
Lithology_geolink ._      : Lithology_geolink
CALI .in                  : CALI
MUDWEIGHT ._              : MUDWEIGHT
ROP .m/h                  : ROP
DRHO .g/cm3               : DRHO
RHOB .g/cm3               : RHOB
GR .gAPI                  : GR
DTC .us/ft                : DTC
DTE .us/ft                : DTE
RDEP .ohm.m               : RDEP
SP .mV                    : SP
RSHA .ohm.m               : RSHA
RMED .ohm.m               : RMED
~Parameter
#==================================================================
~Ascii
# ...
 1198.1687012  -999.250000 12.236200333 9.5000000000 1.9938285351 0.0750472397 2.1612000465 51.881710052 139.81860352 139.81840515 1.1802999973 54.425735474 1.2725009918 1.4509999752
 1198.3210449  -999.250000 12.272509575 9.5000000000 2.0063574314 0.0863942280 2.1748991013 51.528842926 140.54542542 140.54522705 1.1605930328 54.425998688 1.2272971869 1.4483970404
 1198.4735107  -999.250000 12.311998367 9.5000000000 2.0065615177 0.0836044848 2.1728999615 52.536029816 140.98599243 140.98564148 1.1415009499 54.426734924 1.4091860056 1.4406009912
 1198.6258545  -999.250000 12.345809937 9.5000000000 2.0065615177 0.0863942280 2.1779010296 54.459270477 141.12269592 141.12269592 1.1230950356 54.426998138 1.5068098307 1.4293990135
 1198.7783203  -999.250000 12.379899979 9.5000000000 2.0062389374 0.0967910364 2.1800999641 56.169769287 141.26049805 141.26039124 1.1057020426 54.429203033 1.4683049917 1.4250010252
 1198.9306641  -999.250000 12.352390289 9.5000000000 2.0023629665 0.1058589742 2.1820960045 57.131618500 141.16767883 141.16777039 1.0894969702 54.435878754 1.4262297153 1.4207990170
 1199.0830078  -999.250000 12.311888695 9.5000000000 1.9939099550 0.0940960795 2.1662929058 57.493228912 141.08256531 141.08253479 1.0753940344 54.431392670 1.4104936123 1.4155999422
 1199.2354736  -999.250000 12.291399956 9.5000000000 1.9818311930 0.0831410289 2.1540999413 56.855239868 141.24118042 141.24107361 1.0648989677 54.429000854 1.3795177937 1.4156999588
 1199.3878174  -999.250000 12.285811424 9.5000000000 1.8155072927 0.0766057745 2.1528959274 54.720802307 141.42904663 141.42869568 1.0578000546 54.434143066 1.3385249376 1.4141969681
 1199.5402832  -999.250000 12.303810120 9.5000000000 1.6997653246 0.0669415593 2.1459009647 52.678241730 141.61979675 141.61964417 1.0578010082 54.480098724 1.3231920004 1.4083989859
 1199.6926270  -999.250000 12.365119934 9.5000000000 1.6975121498 0.0815769210 2.1516079903 50.310985565 141.83723450 141.83685303 1.0646029711 54.594459534 1.2494591475 1.4018980265
 1199.8450928  -999.250000 12.409000397 9.5000000000 1.6975066662 0.0923955142 2.1679010391 49.667770386 142.17379761 142.17352295 1.0700999498 54.630001068 1.2502069473 1.3977999687
 1199.9974365  -999.250000 12.391379356 9.5000000000 1.6975066662 0.0910705179 2.1763010025 51.063232422 142.40042114 142.40051270 1.0737040043 54.629264832 1.4099869728 1.3980009556
 1200.1499023  -999.250000 12.352100372 9.5000000000 1.7094510794 0.0856044814 2.1791000366 52.136589050 142.14030457 142.14051819 1.0831999779 54.624591827 1.4458990097 1.4005999565
 1200.3022461  -999.250000 12.351519585 9.5000000000 1.7096456289 0.0847323686 2.1770980358 52.702007294 141.58624268 141.58644104 1.1006079912 54.629611969 1.4119391441 1.4078030586
 1200.4547119  -999.250000 12.394301414 9.5000000000 1.7035120726 0.0871977583 2.1717000008 53.731918335 141.00790405 141.00825500 1.1241979599 54.631999969 1.4468970299 1.4171990156
 1200.6070557  -999.250000 12.398200035 9.5000000000 1.6972832680 0.0806762800 2.1598000526 55.654209137 140.40528870 140.40548706 1.1557099819 54.625389099 1.4969519377 1.4254029989
 1200.7595215  -999.250000 12.388100624 9.5000000000 1.5151045322 0.0853258595 2.1610000134 56.534778595 139.64700317 139.64750671 1.1924949884 54.570816040 1.4680039883 1.4369980097
 1200.9118652  -999.250000 12.411999702 9.5000000000 1.1079617739 0.1099711508 2.1825029850 56.449569702 138.94265747 138.94287109 1.2277059555 54.465293884 1.4404170513 1.4542039633
 1201.0643311  -999.250000 12.423998833 9.5000000000 0.9715965390 0.1121393144 2.1939980984 54.696258545 138.10899353 138.10946655 1.2554939985 54.433998108 1.4165049791 1.4717960358
 1201.2166748  -999.250000 12.375599861 9.5000000000 0.9691656232 0.0975496843 2.1843988895 53.559341431 137.14358521 137.14378357 1.2754009962 54.434734344 1.4570704699 1.4862020016
 1201.3690186  -999.250000 12.355730057 9.5000000000 0.9691600800 0.0930000022 2.1788029671 52.533710480 136.15139771 136.15328979 1.2841989994 54.435001373 1.4772638083 1.5006070137
 1201.5214844  -999.250000 12.408309937 9.5000000000 0.9691600800 0.1025208309 2.1837999821 52.146610260 135.72050476 135.72085571 1.2816989422 54.435737610 1.4409351349 1.5140010118
 1201.6738281  -999.250000 12.470709801 9.5000000000 0.9691600800 0.0979439095 2.1807940006 52.148269653 135.97430420 135.97369385 1.2753939629 54.436000824 1.5005491972 1.5220999718
 1201.8262939  -999.250000 12.483300209 9.5000000000 0.9691600800 0.0825460404 2.1672999859 54.003601074 136.47090149 136.47050476 1.2634990215 54.447025299 1.4952989817 1.5230000019
 1201.9786377  -999.250000 12.481399536 9.5000000000 0.9691600800 0.0816618577 2.1717009544 54.063781738 137.21890259 137.21731567 1.2430909872 54.516395569 1.4606157541 1.5157949924
 1202.1311035  -999.250000 12.484000206 9.5000000000 0.9730340242 0.0756741390 2.1735999584 53.641708374 138.21530151 138.21450806 1.2216010094 54.637020111 1.4317009449 1.5040999651
 1202.2834473  -999.250000 12.441888809 9.5000000000 0.9811613560 0.0788589716 2.1696980000 54.122604370 139.56190491 139.56031799 1.2056959867 54.803527832 1.4151942730 1.4896949530
 1202.4359131  -999.250000 12.419599533 9.5000000000 1.1956558228 0.0744067207 2.1633999348 55.821960449 141.06500244 141.06388855 1.1948009729 54.916412354 1.3604049683 1.4748009443
 1202.5882568  -999.250000 12.383399963 9.5000000000 1.6275169849 0.0690705180 2.1476969719 55.709541321 142.27999878 142.27862549 1.1852970123 55.011272430 1.3270276785 1.4580949545
 1202.7407227  -999.250000 12.366499901 9.5000000000 1.6793924570 0.0716629326 2.1375010014 55.186679840 143.46479797 143.46405029 1.1755009890 55.037734985 1.3301000595 1.4404029846
 1202.8930664  -999.250000 12.369811058 9.5000000000 1.6839889288 0.0810560882 2.1446030140 55.422908783 143.50300598 143.50317383 1.1650969982 55.037998199 1.3567026854 1.4256980419
 1203.0455322  -999.250000 12.400389671 9.5000000000 1.6840550900 0.0905932784 2.1563980579 56.304710388 142.38290405 142.38360596 1.1539020538 55.038734436 1.4701750278 1.4172019958
 1203.1978760  -999.250000 12.422300339 9.5000000000 1.6959902048 0.0768878236 2.1555991173 56.111167908 141.17990112 141.18095398 1.1424989700 55.039001465 1.5520294905 1.4196020365
 1203.3502197  -999.250000 12.422100067 9.5000000000 1.6961942911 0.0673410743 2.1497941017 56.785568237 140.55099487 140.55200195 1.1333969831 55.014019012 1.5196930170 1.4296040535
 1203.5026855  -999.250000 12.421799660 9.5000000000 1.6961942911 0.0572115406 2.1385989189 58.511447906 140.47940063 140.47946167 1.1279000044 54.884460449 1.4575477839 1.4380999804
 1203.6550293  -999.250000 12.421599388 9.5000000000 1.6961942911 0.0496057682 2.1273980141 58.860973358 141.16419983 141.16270447 1.1243979931 54.841735840 1.4395253658 1.4389979839
 1203.8074951  -999.250000 12.421298981 9.5000000000 1.6839365959 0.0575236194 2.1242001057 58.543399811 141.90589905 141.90530396 1.1210000515 54.819931030 1.4632999897 1.4343999624
 1203.9598389  -999.250000 12.453400612 9.5000000000 1.6592122316 0.0610000007 2.1194920540 58.703781128 142.54890442 142.54747009 1.1176990271 54.687049866 1.4731011391 1.4312000275
 1204.1123047  -999.250000 12.463800430 9.5000000000 1.1375231743 0.0485460386 2.0984010696 58.723300934 143.44819641 143.44747925 1.1144000292 54.628761292 1.4944989681 1.4299000502
 1204.2646484  -999.250000 12.404579163 9.5000000000 1.0395814180 0.0454647429 2.0764958858 57.323970795 144.32589722 144.32510376 1.1132010221 54.529186249 1.5030092001 1.4281990528
 1204.4171143  -999.250000 12.339109421 9.5000000000 1.0177197456 0.0555236191 2.0651009083 55.091209412 144.56950378 144.56930542 1.1153000593 54.322875977 1.5507949591 1.4262000322
 1204.5694580  -999.250000 12.331911087 9.5000000000 1.0051308870 0.0641266033 2.0632009506 52.547508240 143.91389465 143.91471863 1.1191010475 54.128704071 1.5739893913 1.4249010086
 1204.7219238  -999.250000 12.356800079 9.5000000000 1.0049213171 0.0659999996 2.0666999817 52.068279266 143.00210571 143.00273132 1.1230989695 54.217815399 1.6020959616 1.4270999432
