# LAS format log file from PETREL
# Project units are specified as depth units
#==================================================================
~Version information
VERS.   2.0:
WRAP.   NO:
#==================================================================
~Well
STRT .m      206.00000000 :
STOP .m      2655.9824219 :
STEP .m     0.00000000 :
NULL .        -999.250000 :
COMP.           : COMPANY
WELL.  25/10-8  Hanz   : WELL
FLD.            : FIELD
LOC.            : LOCATION
SRVC.           : SERVICE COMPANY
DATE.  2018-09-11 14:48:14   : Log Export Date {yyyy-MM-dd HH:mm:ss}
PROV.           : PROVINCE
UWI.   25/10-8   : UNIQUE WELL ID
API.            : API NUMBER
#==================================================================
~Curve
DEPT .m                   : DEPTH
Lithology_geolink ._      : Lithology_geolink
CALI .in                  : CALI
BS .in                    : BS
THOR .ppm                 : THOR
NPHI .m3/m3               : NPHI
RHOB .g/cm3               : RHOB
GR .gAPI                  : GR
URAN .ppm                 : URAN
DTC .us/ft                : DTC
RDEP .ohm.m               : RDEP
RSHA .ohm.m               : RSHA
RMED .ohm.m               : RMED
~Parameter
#==================================================================
~Ascii
# ...
 1998.2239990 6.0000000000 12.394245148 12.250000954 5.9415984154 0.0037014203 2.2950921059 71.152557373 3.6516792774 124.02093506 0.6753344536 0.7689645290 0.6841607094
 1998.3763428 5.0000000000 12.253840446 12.250000954 6.3620352745 0.0035817933 2.3119640350 65.795745850 3.4684438705 124.29260254 0.6781535149 0.7808575630 0.6913568974
 1998.5288086 5.0000000000 12.217216492 12.250000954 6.5489897728 0.0032533675 2.3341991901 65.196014404 3.3353075981 124.32402802 0.6741859913 0.7826921940 0.6895585060
 1998.6811523 5.0000000000 12.131755829 12.250000954 6.3047637939 0.0048777452 2.3424267769 69.229309082 3.3023729324 123.35743713 0.6698787212 0.7755444050 0.6829354763
 1998.8336182 6.0000000000 12.131755829 12.250000954 5.7079262733 0.0056305937 2.3326609135 72.444793701 3.3736996651 121.69207001 0.6723604202 0.7678029537 0.6805231571
 1998.9859619 6.0000000000 12.174484253 12.250000954 5.1494398117 0.0046041743 2.3248760700 77.935546875 3.4793486595 119.51601410 0.6836941242 0.7669322491 0.6878857613
 1999.1384277 6.0000000000 12.198902130 12.250000954 4.8186573982 0.0059074536 2.3491532803 78.368530273 3.5231027603 117.67394257 0.6999325752 0.7735927105 0.7035045624
 1999.2907715 6.0000000000 12.400348663 12.250000954 4.5604948997 0.0045561260 2.3110060692 74.303314209 3.5088794231 117.05323029 0.7141566277 0.7822270393 0.7205867767
 1999.4432373 6.0000000000 12.449184418 12.250000954 4.4442353249 0.0035461732 2.2850079536 72.395416260 3.4457817078 118.11856079 0.7201080322 0.7854623795 0.7315468788
 1999.5955811 6.0000000000 12.357616425 12.250000954 4.5535769463 0.0046240427 2.2940657139 69.959777832 3.3629345894 121.14114380 0.7148113251 0.7784149647 0.7313268185
 1999.7479248 6.0000000000 12.345409393 12.250000954 4.7899093628 0.0041605816 2.2942619324 67.638610840 3.2890033722 124.51020050 0.7004165649 0.7610542774 0.7191691399
 1999.9003906 6.0000000000 12.180591583 12.250000954 5.0230154991 0.0042866706 2.2975056171 69.432952881 3.2164616585 126.64719391 0.6834480762 0.7391943932 0.7004129887
 2000.0527344 6.0000000000 12.150066376 12.250000954 5.2168126106 0.0049869372 2.3189415932 70.132171631 3.1260049343 126.44342041 0.6698315144 0.7208468914 0.6831326485
 2000.2052002 6.0000000000 12.156173706 12.250000954 5.3773856163 0.0056145932 2.3050103188 70.554809570 3.0311293602 123.91107178 0.6615629196 0.7100014687 0.6711492538
 2000.3575439 5.0000000000 12.247738838 12.250000954 5.4683604240 0.0041782404 2.3078911304 69.131774902 2.9750356674 121.48798370 0.6597542763 0.7063586712 0.6646277905
 2000.5100098 5.0000000000 12.504123688 12.250000954 5.4874472618 0.0046373168 2.3375444412 68.858489990 3.0188050270 121.05877686 0.6664805412 0.7107322216 0.6657669544
 2000.6623535 5.0000000000 12.620105743 12.250000954 5.5001330376 0.0046689473 2.3259367943 71.517089844 3.1881320477 123.06240845 0.6810834408 0.7251963615 0.6771922112
 2000.8148193 5.0000000000 12.595687866 12.250000954 5.5560746193 0.0051417593 2.3311254978 73.916656494 3.3995835781 126.16607666 0.6984584332 0.7476065159 0.6957206726
 2000.9671631 6.0000000000 12.583479881 12.250000954 5.6320590973 0.0043656910 2.3394744396 77.935913086 3.5417268276 127.19023895 0.7150654793 0.7723021507 0.7148423195
 2001.1196289 6.0000000000 12.504123688 12.250000954 5.6699538231 0.0049727797 2.3384752274 80.261718750 3.5604400635 125.56143188 0.7319886684 0.7977020741 0.7338643074
 2001.2719727 6.0000000000 12.217216492 12.250000954 5.7162508965 0.0047752145 2.3303511143 78.422882080 3.4581501484 122.98763275 0.7478127480 0.8263525963 0.7552869320
 2001.4244385 6.0000000000 12.198902130 12.250000954 5.8358421326 0.0038485050 2.3154487610 76.918060303 3.2747814655 119.95748901 0.7546708584 0.8544270992 0.7726321220
 2001.5767822 6.0000000000 12.223320007 12.250000954 6.0153832436 0.0042262361 2.3127043247 74.215942383 3.0401282310 116.50508118 0.7481052876 0.8709967136 0.7743647099
 2001.7292480 5.0000000000 12.235530853 12.250000954 6.2057433128 0.0041177631 2.3577277660 72.784423828 2.8171806335 114.58120728 0.7333042622 0.8705167770 0.7611005306
 2001.8815918 5.0000000000 12.772716522 12.250000954 6.4462141991 0.0049719606 2.3754389286 71.188964844 2.6558115482 115.92995453 0.7168931961 0.8564269543 0.7428438663
 2002.0339355 5.0000000000 12.876491547 12.250000954 6.7147183418 0.0048362161 2.3556394577 67.763061523 2.5716624260 119.52008820 0.7014949322 0.8324506283 0.7244586945
 2002.1864014 5.0000000000 12.852072716 12.250000954 6.8075923920 0.0047056819 2.3172831535 64.712646484 2.5950911045 124.20773315 0.6899220943 0.8028521538 0.7075545788
 2002.3387451 5.0000000000 12.766613007 12.250000954 6.6876988411 0.0041498123 2.3073039055 65.778656006 2.6767971516 127.25602722 0.6858363152 0.7763812542 0.6971392632
 2002.4912109 5.0000000000 12.552960396 12.250000954 6.4436168671 0.0046605738 2.3045620918 69.462585449 2.7506206036 126.88571167 0.6875090599 0.7595920563 0.6961188316
 2002.6435547 5.0000000000 12.253840446 12.250000954 6.1189613342 0.0050810096 2.3090648651 65.648162842 2.7673795223 125.82936096 0.6870639324 0.7490592003 0.6980619431
 2002.7960205 5.0000000000 12.217216492 12.250000954 5.8771080971 0.0039889063 2.3249347210 61.912582397 2.6539061069 126.19030762 0.6793084145 0.7364983559 0.6929268837
 2002.9483643 6.0000000000 12.235530853 12.250000954 5.9275307655 0.0041102404 2.3260934353 66.155700684 2.3449742794 127.69479370 0.6678879261 0.7200052738 0.6799576283
 2003.1008301 6.0000000000 12.552960396 12.250000954 6.1535029411 0.0044161403 2.3266453743 69.575286865 1.9628472328 128.51702881 0.6593432426 0.7059426308 0.6677193642
 2003.2531738 5.0000000000 12.638420105 12.250000954 6.3398165703 0.0038725997 2.3153662682 67.158813477 1.7045191526 127.58076477 0.6543698311 0.6995587349 0.6616008282
 2003.4056396 5.0000000000 12.644523621 12.250000954 6.4103236198 0.0041718944 2.3009357452 64.424072266 1.6276650429 125.92352295 0.6482970715 0.6988425255 0.6581540108
 2003.5579834 5.0000000000 12.626209259 12.250000954 6.3046884537 0.0044940962 2.2986466885 62.722290039 1.7348192930 124.77165222 0.6379082203 0.6979200840 0.6513166428
 2003.7104492 5.0000000000 12.687255859 12.250000954 5.9744362831 0.0045911875 2.3010942936 61.832855225 2.0194318295 125.11740112 0.6250329018 0.6936182976 0.6400923729
 2003.8627930 5.0000000000 12.467494965 12.250000954 5.4769883156 0.0044012032 2.3048381805 63.121231079 2.4371180534 126.65103149 0.6138908863 0.6873636246 0.6284077168
 2004.0151367 5.0000000000 12.455287933 12.250000954 5.0334153175 0.0041059279 2.2958614826 64.653045654 2.8546915054 128.77902222 0.6074814796 0.6823949814 0.6203920841
 2004.1676025 6.0000000000 12.455287933 12.250000954 4.7543592453 0.0045177038 2.2969679832 63.174758911 3.1666820049 131.16377258 0.6063091755 0.6808652878 0.6177244186
 2004.3199463 6.0000000000 12.443077087 12.250000954 4.6159458160 0.0042731059 2.3118953705 63.752349854 3.3430502415 132.69400024 0.6090342999 0.6826715469 0.6197376251
 2004.4724121 6.0000000000 12.583479881 12.250000954 4.7133870125 0.0043313168 2.2863240242 64.552459717 3.3382129669 133.05616760 0.6133146286 0.6856694221 0.6243591309
 2004.6247559 6.0000000000 12.784924507 12.250000954 5.0819215775 0.0053333747 2.2926297188 67.142883301 3.1578435898 132.40432739 0.6165118217 0.6866874695 0.6288528442
 2004.7772217 6.0000000000 12.797134399 12.250000954 5.5214653015 0.0048176371 2.3134632111 67.698791504 2.9424462318 131.22880554 0.6167042255 0.6830656528 0.6305010319
 2004.9295654 6.0000000000 12.693359375 12.250000954 5.9210515022 0.0040716059 2.2847402096 65.842681885 2.7954499722 129.90136719 0.6141579151 0.6745686531 0.6280822754
 2005.0820313 6.0000000000 12.583479881 12.250000954 6.3420095444 0.0044074422 2.2788782120 70.584289551 2.7207229137 128.83192444 0.6116268635 0.6644012928 0.6234929562
 2005.2343750 6.0000000000 12.198902130 12.250000954 6.7347116470 0.0048612659 2.2934887409 71.479522705 2.7020730972 128.58319092 0.6121456623 0.6574652195 0.6207716465
 2005.3868408 6.0000000000 12.198902130 12.250000954 7.0433368683 0.0063149715 2.3042824268 70.633392334 2.7294557095 128.17568970 0.6164374352 0.6568109989 0.6224355698
