# LAS format log file from PETREL
# Project units are specified as depth units
#==================================================================
~Version information
VERS.   2.0:
WRAP.   NO:
#==================================================================
~Well
STRT .m      206.00000000 :
STOP .m      2655.9824219 :
STEP .m     0.00000000 :
NULL .        -999.250000 :
COMP.           : COMPANY
WELL.  25/10-8  Hanz   : WELL
FLD.            : FIELD
LOC.            : LOCATION
SRVC.           : SERVICE COMPANY
DATE.  2018-09-11 14:48:14   : Log Export Date {yyyy-MM-dd HH:mm:ss}
PROV.           : PROVINCE
UWI.   25/10-8   : UNIQUE WELL ID
API.            : API NUMBER
#==================================================================
~Curve
DEPT .m                   : DEPTH
Lithology_geolink ._      : Lithology_geolink
CALI .in                  : CALI
BS .in                    : BS
THOR .ppm                 : THOR
NPHI .m3/m3               : NPHI
RHOB .g/cm3               : RHOB
GR .gAPI                  : GR
URAN .ppm                 : URAN
DTC .us/ft                : DTC
RDEP .ohm.m               : RDEP
RSHA .ohm.m               : RSHA
RMED .ohm.m               : RMED
~Parameter
#==================================================================
~Ascii
# ...
 1888.4960938  -999.250000 12.131755829 12.250000954 5.8286676407 0.0063414238 2.3425776958 46.172988892 0.6625604033 133.51974487 0.4906927347 0.5250315666 0.4933832884
 1888.6484375  -999.250000 12.119544983 12.250000954 5.4198117256 0.0080285063 2.3483040333 45.928787231 0.8259075284 134.56993103 0.4940483570 0.5310065746 0.4982178211
 1888.8009033  -999.250000 12.131755829 12.250000954 5.1205420494 0.0072129504 2.3425927162 48.994293213 0.9689384699 134.94435120 0.4969679117 0.5369160175 0.5008676052
 1888.9532471  -999.250000 12.101234436 12.250000954 4.8494224548 0.0063442569 2.4283351898 48.925949097 1.0996825695 133.78952026 0.5019896030 0.5452697277 0.5046100616
 1889.1057129  -999.250000 12.174484253 12.250000954 4.5343999863 0.0050504580 2.3420214653 45.237487793 1.2179322243 131.86547852 0.5079486370 0.5563883781 0.5114634037
 1889.2580566  -999.250000 12.284362793 12.250000954 4.2693943977 0.0058847652 2.3219797611 44.031311035 1.2827432156 131.05526733 0.5093469620 0.5641021729 0.5170483589
 1889.4104004  -999.250000 12.443077087 12.250000954 4.1468963623 0.0060641542 2.3008248806 44.657638550 1.2617036104 131.20523071 0.5030822754 0.5603203773 0.5142660141
 1889.5628662  -999.250000 12.430870056 12.250000954 4.1417770386 0.0057287747 2.2865467072 46.921035767 1.1718697548 131.64488220 0.4939191341 0.5456740856 0.5034937859
 1889.7152100  -999.250000 12.266053200 12.250000954 4.2636547089 0.0053283172 2.2451250553 49.076660156 1.0381108522 133.06817627 0.4898686409 0.5308504105 0.4939770699
 1889.8676758  -999.250000 12.278259277 12.250000954 4.5626120567 0.0052095535 2.2362694740 49.942443848 0.8716387153 135.01005554 0.4937325716 0.5249016285 0.4930732250
 1890.0200195  -999.250000 12.327095032 12.250000954 5.0605144501 0.0050386107 2.2001836300 46.076950073 0.6729843020 137.52861023 0.5016317368 0.5274624825 0.4994066954
 1890.1724854  -999.250000 12.235530853 12.250000954 5.5968313217 0.0045987917 2.2055904865 43.146957397 0.4845902920 140.01867676 0.5084302425 0.5322818756 0.5067656040
 1890.3248291  -999.250000 12.186695099 12.250000954 6.0061464310 0.0048851729 2.2466068268 43.170104980 0.3472002447 140.98983765 0.5118603706 0.5346417427 0.5112948418
 1890.4772949  -999.250000 12.229424477 12.250000954 6.2659730911 0.0061304206 2.2631630898 42.165802002 0.2638395429 141.46995544 0.5113878250 0.5337314606 0.5126793385
 1890.6296387  -999.250000 12.461391449 12.250000954 6.3495540619 0.0113780731 2.2225522995 43.113845825 0.2442941517 140.70591736 0.5064969063 0.5297441483 0.5103936195
 1890.7821045  -999.250000 12.498017311 12.250000954 6.2114529610 0.0077991849 2.2463536263 47.733764648 0.3069249690 138.87527466 0.4986219406 0.5228843689 0.5038254261
 1890.9344482  -999.250000 12.473602295 12.250000954 5.9580931664 0.0057632332 2.2932806015 51.049667358 0.4119640887 137.67996216 0.4923279285 0.5157206059 0.4960922003
 1891.0869141  -999.250000 12.302677155 12.250000954 5.7506489754 0.0056497124 2.2939529419 47.701843262 0.5023818612 135.73510742 0.4911097288 0.5126860142 0.4928201437
 1891.2392578  -999.250000 12.284362793 12.250000954 5.6159534454 0.0061070188 2.2856371403 46.092681885 0.5882806182 133.02366638 0.4926427603 0.5149266720 0.4952611923
 1891.3917236  -999.250000 12.278259277 12.250000954 5.5368814468 0.0073396955 2.2283439636 47.298263550 0.6770696640 130.27720642 0.4903975725 0.5175504684 0.4973326921
 1891.5440674  -999.250000 12.485809326 12.250000954 5.5068306923 0.0066344594 2.1933825016 46.692565918 0.7495244145 128.82249451 0.4804886580 0.5141463280 0.4916676283
 1891.6964111  -999.250000 12.247738838 12.250000954 5.5577273369 0.0060802451 2.2186830044 48.771881104 0.8037435412 130.13308716 0.4651125669 0.5033931732 0.4776142836
 1891.8488770  -999.250000 12.278259277 12.250000954 5.6754555702 0.0061759092 2.2179718018 47.555252075 0.8349654675 133.42753601 0.4493807554 0.4892227650 0.4604601860
 1892.0012207  -999.250000 12.278259277 12.250000954 5.7857460976 0.0055694999 2.2421751022 47.013671875 0.8387938738 137.63470459 0.4375854731 0.4763125181 0.4457222223
 1892.1536865  -999.250000 12.290469170 12.250000954 5.8459472656 0.0044996636 2.2436277866 47.084991455 0.8262720108 140.50146484 0.4319531918 0.4677029848 0.4368228912
 1892.3060303  -999.250000 12.217216492 12.250000954 5.7709527016 0.0038505578 2.2433226109 44.349548340 0.8484959602 140.62240601 0.4324344397 0.4648703337 0.4349631071
 1892.4584961  -999.250000 12.241634369 12.250000954 5.5065908432 0.0074875401 2.2484121323 47.044006348 0.9374487400 139.56047058 0.4370204210 0.4675476551 0.4387695789
 1892.6108398  -999.250000 12.235530853 12.250000954 5.1567478180 0.0060442737 2.2235205173 47.284606934 1.0529584885 139.05197144 0.4431660175 0.4742288589 0.4453189373
 1892.7633057  -999.250000 12.235530853 12.250000954 4.7532043457 0.0044955914 2.2036769390 46.483932495 1.1945840120 138.14367676 0.4490253925 0.4832684994 0.4521073103
 1892.9156494  -999.250000 12.211112976 12.250000954 4.5380821228 0.0058662323 2.2183554173 48.116561890 1.2841383219 134.62667847 0.4538648129 0.4931565523 0.4577213526
 1893.0681152  -999.250000 12.241634369 12.250000954 4.7573971748 0.0076654558 2.2266907692 49.839965820 1.2182308435 130.16340637 0.4584100246 0.5026836395 0.4621870518
 1893.2204590  -999.250000 12.375930786 12.250000954 5.2456312180 0.0182661433 2.2108409405 49.620315552 1.0368019342 126.95201111 0.4634598494 0.5115008354 0.4672379494
 1893.3729248  -999.250000 12.400348663 12.250000954 5.7093219757 0.0098978914 2.2442405224 48.180206299 0.8463187218 126.58478546 0.4669461250 0.5183346272 0.4731415510
 1893.5252686  -999.250000 12.424766541 12.250000954 6.0041408539 0.0052086525 2.2775380611 46.940368652 0.6941345930 131.06779480 0.4647703171 0.5190415382 0.4754686356
 1893.6776123  -999.250000 12.259948730 12.250000954 6.0245437622 0.0060961680 2.2343862057 44.031356812 0.6245392561 137.00733948 0.4563415051 0.5106334686 0.4698350430
 1893.8300781  -999.250000 12.278259277 12.250000954 5.6486988068 0.0052086790 2.2595515251 45.176574707 0.7055312991 140.85592651 0.4454782009 0.4966115952 0.4587702751
 1893.9824219  -999.250000 12.418663025 12.250000954 4.9862775803 0.0058095381 2.2623102665 45.423431396 0.8855977058 142.63159180 0.4352102280 0.4829173088 0.4473276138
 1894.1348877  -999.250000 12.217216492 12.250000954 4.2816805840 0.0062585860 2.2511436939 46.206253052 1.0600991249 142.20370483 0.4263148308 0.4713375568 0.4366742373
 1894.2872314  -999.250000 12.211112976 12.250000954 3.7142169476 0.0048141493 2.2596828938 46.818298340 1.1974294186 139.47567749 0.4207931757 0.4618982077 0.4274623394
 1894.4396973  -999.250000 12.235530853 12.250000954 3.4154233932 0.0105741555 2.2302525043 47.650772095 1.2610105276 135.81275940 0.4217182398 0.4571230412 0.4234676361
 1894.5920410  -999.250000 12.284362793 12.250000954 3.4114215374 0.0077236490 2.2224435806 50.933486938 1.2106547356 132.79901123 0.4292279482 0.4596626759 0.4276137352
 1894.7445068  -999.250000 12.327095032 12.250000954 3.6486325264 0.0054392177 2.2619729042 48.775924683 1.0806581974 131.54827881 0.4389339685 0.4676917791 0.4375556707
 1894.8968506  -999.250000 12.259948730 12.250000954 4.1018714905 0.0057951389 2.2351317406 48.165985107 0.9234747291 133.26765442 0.4450542927 0.4751744270 0.4467086792
 1895.0493164  -999.250000 12.089023590 12.250000954 4.6528244019 0.0072118975 2.2127070427 50.057647705 0.7648789883 136.59333801 0.4455164671 0.4767972231 0.4496549368
 1895.2016602  -999.250000 12.089023590 12.250000954 5.1388978958 0.0068332050 2.2013149261 49.573104858 0.6217464805 138.98434448 0.4440594912 0.4729408026 0.4470676184
 1895.3541260  -999.250000 12.058502197 12.250000954 5.4820723534 0.0058958041 2.2562155724 49.085266113 0.5297793150 140.47209167 0.4475684166 0.4698208570 0.4454797506
 1895.5064697  -999.250000 12.046294212 12.250000954 5.6870079041 0.0060511241 2.4121088982 49.273178101 0.5135238767 141.22688293 0.4604264498 0.4746313095 0.4522628784
 1895.6588135  -999.250000 12.162277222 12.250000954 5.7134809494 0.0052268174 2.4058902264 49.797851563 0.6059883833 141.25424194 0.4787765741 0.4891802073 0.4692497253
