# LAS format log file from PETREL
# Project units are specified as depth units
#==================================================================
~Version information
VERS.   2.0:
WRAP.   NO:
#==================================================================
~Well
STRT .m      984.14562988 :
STOP .m      1996.3865967 :
STEP .m     0.00000000 :
NULL .        -999.250000 :
COMP.           : COMPANY
WELL.  25/11-23  Balder Appr   : WELL
FLD.            : FIELD
LOC.            : LOCATION
SRVC.           : SERVICE COMPANY
DATE.  2018-09-11 14:48:16   : Log Export Date {yyyy-MM-dd HH:mm:ss}
PROV.           : PROVINCE
UWI.   25/11-23   : UNIQUE WELL ID
API.            : API NUMBER
#==================================================================
~Curve
DEPT .m                   : DEPTH
Lithology_geolink ._      : Lithology_geolink
DCAL .in                  : DCAL
CALI .in                  : CALI
BS .in                    : BS
MUDWEIGHT ._              : MUDWEIGHT
ROP .m/h                  : ROP
DRHO .g/cm3               : DRHO
NPHI .m3/m3               : NPHI
RHOB .g/cm3               : RHOB
GR .gAPI                  : GR
DTC .us/ft                : DTC
RDEP .ohm.m               : RDEP
SP .mV                    : SP
RSHA .ohm.m               : RSHA
RMED .ohm.m               : RMED
~Parameter
#==================================================================
~Ascii
# ...
 1923.2343750 6.0000000000 -0.057900436 8.4420995712 8.5000000000 1.3200000525 433105.53125 -0.006200000 0.3847039044 2.3227999210 80.873298645 129.13250732 0.8072000146 0.0000000000 0.8435999751 0.8406999707
 1923.3868408 6.0000000000 -0.053099629 8.4469003677 8.5000000000 1.3200000525 455489.93750 -0.007000000 0.3899137974 2.3276998997 79.638900757 129.05000305 0.7746000290 0.0000000000 0.8906000257 0.8052999973
 1923.5391846 6.0000000000 -0.050700191 8.4492998123 8.5000000000 1.3200000525 454229.37500 -0.006100000 0.3874240220 2.3478000164 77.473899841 128.39340210 0.9059000015 0.0000000000 0.9677000046 0.9419000149
 1923.6916504 6.0000000000 -0.052700039 8.4472999573 8.5000000000 1.3200000525 452927.09375 -0.004700000 0.3859841824 2.3635001183 77.035102844 128.38909912 0.8877999783 0.0000000000 0.9365000129 0.9340999722
 1923.8439941 6.0000000000 -0.054599758 8.4454002380 8.5000000000 1.3200000525 451629.90625 -0.005000000 0.3828684986 2.3617000580 78.970001221 127.87840271 0.9308000207 0.0000000000 0.8737000227 0.9782000184
 1923.9964600 6.0000000000 -0.054499630 8.4455003738 8.5000000000 1.3200000525 448420.46875 -0.007800000 0.3752270937 2.3452000618 81.718803406 127.51049042 0.8873000145 0.0000000000 0.9797999859 0.9059000015
 1924.1488037 6.0000000000 -0.052800179 8.4471998215 8.5000000000 1.3200000525 398182.43750 -0.007500000 0.3812392056 2.3401999474 82.216499329 126.82431030 0.6129999757 0.0000000000 0.7084000111 0.6362000108
 1924.3011475 6.0000000000 -0.039799694 8.4602003098 8.5000000000 1.3200000525 361901.50000 -0.006100000 0.3890644014 2.3396000862 80.442497253 127.45310211 0.6772999763 0.0000000000 0.8201000094 0.7002999783
 1924.4536133 6.0000000000 -0.011699681 8.4883003235 8.5000000000 1.3200000525 361901.50000 -0.005800000 0.4190129936 2.3264999390 78.272399902 128.64289856 0.8895000219 0.0000000000 0.8202999830 0.9215000272
 1924.6059570 6.0000000000 0.0186004601 8.5186004639 8.5000000000 1.3200000525 361901.50000 -0.007400000 0.4388991892 2.3020999432 78.189201355 129.66239929 1.0015000105 0.0000000000 1.0185999870 1.0325000286
 1924.7584229 6.0000000000 0.0256996192 8.5256996155 8.5000000000 1.3200000525 361901.50000 -0.008900000 0.4409863949 2.2799000740 78.621200562 130.24540710 0.8385000229 0.0000000000 0.8917000294 0.8647999763
 1924.9107666 6.0000000000 0.0064001074 8.5064001083 8.5000000000 1.3200000525 361901.50000 -0.009100000 0.4186578095 2.2811000347 79.623100281 130.39399719 0.6492000222 0.0000000000 0.6944000125 0.6632999778
 1925.0632324 6.0000000000 -0.002799988 8.4972000122 8.5000000000 1.3200000525 353999.00000 -0.009100000 0.4065246880 2.2999000549 81.011001587 130.19619751 0.7175999880 0.0000000000 0.8051999807 0.7353000045
 1925.2155762 6.0000000000 -0.010100359 8.4898996353 8.5000000000 1.3200000525 312795.28125 -0.008600000 0.3965210021 2.3208000660 81.900497437 130.05650330 0.8256999850 0.0000000000 0.8989999890 0.8486999869
 1925.3680420 6.0000000000 -0.020899771 8.4791002274 8.5000000000 1.3200000525 312132.28125 -0.006900000 0.3871765137 2.3333001137 82.083602905 129.87559509 0.8712000251 0.0000000000 0.8906999826 0.8964999914
 1925.5203857 6.0000000000 -0.037599560 8.4624004364 8.5000000000 1.3200000525 311347.96875 -0.008000000 0.3889105916 2.3303999901 81.921096802 129.77560425 0.8271999955 0.0000000000 0.8840000033 0.8497999907
 1925.6728516 6.0000000000 -0.045900345 8.4540996552 8.5000000000 1.3200000525 310702.59375 -0.008100000 0.3922094107 2.3262000084 83.871803284 129.09869385 0.7864000201 0.0000000000 0.8555999994 0.8062000275
 1925.8251953 6.0000000000 -0.046600342 8.4533996582 8.5000000000 1.3200000525 309990.59375 -0.006800000 0.3906483054 2.3203999996 88.690696716 128.94119263 0.8015000224 0.0000000000 0.8532000184 0.8216999769
 1925.9776611 6.0000000000 -0.051600460 8.4483995438 8.5000000000 1.3200000525 309283.43750 -0.006300000 0.3847657144 2.3159000874 93.297302246 129.30920410 0.7849000096 0.0000000000 0.8919000030 0.8039000034
 1926.1300049 6.0000000000 -0.054200169 8.4457998276 8.5000000000 1.3200000525 302811.09375 -0.006300000 0.3867433965 2.3169999123 94.983802795 129.53849792 0.7389000058 0.0000000000 0.8048999906 0.7555000186
 1926.2823486 6.0000000000 -0.054100044 8.4458999634 8.5000000000 1.3200000525 270683.31250 -0.006500000 0.3836510181 2.3206000328 94.017097473 129.66529846 0.7049000263 0.0000000000 0.7587000132 0.7200999856
 1926.4348145 6.0000000000 -0.053199776 8.4468002319 8.5000000000 1.3200000525 265332.96875 -0.007100000 0.3772481084 2.3257000446 92.285102844 129.25349426 0.7207999825 0.0000000000 0.7681000233 0.7366999984
 1926.5871582 6.0000000000 -0.050100334 8.4498996735 8.5000000000 1.3200000525 263891.93750 -0.006300000 0.3722829819 2.3364999294 89.941703796 129.68989563 0.7264000177 0.0000000000 0.8076999784 0.7425000072
 1926.7396240 6.0000000000 -0.048199646 8.4518003464 8.5000000000 1.3200000525 262498.43750 -0.007200000 0.3776017129 2.3436999321 87.674598694 129.94270325 0.7128999829 0.0000000000 0.7671999931 0.7283999920
 1926.8919678 6.0000000000 -0.038599972 8.4614000320 8.5000000000 1.3200000525 261111.43750 -0.007800000 0.3829164803 2.3426001072 86.656898499 129.44400024 0.7271999717 0.0000000000 0.7717000246 0.7433000207
 1927.0444336 6.0000000000 -0.024100300 8.4758996964 8.5000000000 1.3200000525 239723.92188 -0.008400000 0.3651902080 2.3338999748 86.894599915 128.45080566 0.7767999768 0.0000000000 0.8593999743 0.7950000167
 1927.1967773 6.0000000000 -0.021900181 8.4780998230 8.5000000000 1.3200000525 141626.67188 -0.010700000 0.3467507958 2.3296999931 87.105003357 127.65229797 0.8350999951 0.0000000000 0.8687000275 0.8558999896
 1927.3492432 6.0000000000 -0.043100368 8.4568996429 8.5000000000 1.3200000525 139154.04688 -0.013200000 0.3435086012 2.3322999477 86.433197021 127.19630432 0.7840999961 0.0000000000 0.8974000216 0.8022999763
 1927.5015869 6.0000000000 -0.053099629 8.4469003677 8.5000000000 1.3200000525 139154.04688 -0.012600000 0.3535490036 2.3366999626 85.637901306 127.45919037 0.7753999829 0.0000000000 0.8963000178 0.7930999994
 1927.6540527 6.0000000000 -0.050800320 8.4491996765 8.5000000000 1.3200000525 139154.04688 -0.011900000 0.3630304039 2.3361999989 85.117996216 128.09860229 0.7903000116 0.0000000000 0.7953000069 0.8084999919
 1927.8063965 6.0000000000 -0.044500347 8.4554996490 8.5000000000 1.3200000525 139154.04688 -0.010300000 0.3710756004 2.3327000141 85.570602417 128.86540222 0.7732999921 0.0000000000 0.8446999788 0.7904999852
 1927.9588623 6.0000000000 -0.039600369 8.4603996277 8.5000000000 1.3200000525 141630.35938 -0.009200000 0.3796032071 2.3357000351 86.529098511 130.29849243 0.7595999837 0.0000000000 0.7709000111 0.7764999866
 1928.1112061 6.0000000000 -0.031999592 8.4680004120 8.5000000000 1.3200000525 154018.64063 -0.007000000 0.3772169054 2.3424000740 85.816398621 129.30039978 0.7350000143 0.0000000000 0.7688999772 0.7508999705
 1928.2635498 6.0000000000 -0.012399669 8.4876003265 8.5000000000 1.3200000525 154316.37500 -0.005500000 0.3773487806 2.3438999653 84.614799500 128.15080261 0.8996000290 0.0000000000 0.9715999961 0.9229000211
 1928.4160156 6.0000000000 -0.003499985 8.4965000153 8.5000000000 1.3200000525 154807.76563 -0.006200000 0.3746441901 2.3275001049 84.205703735 127.70330048 0.8747000098 0.0000000000 1.0058000088 0.8964999914
 1928.5683594 6.0000000000 -0.012800219 8.4871997833 8.5000000000 1.3200000525 155255.67188 -0.007400000 0.3669593036 2.3099000454 84.846496582 127.61170197 0.8316000104 0.0000000000 0.9178000093 0.8514000177
 1928.7208252 6.0000000000 -0.015399930 8.4846000671 8.5000000000 1.3200000525 155792.82813 -0.005300000 0.3645929098 2.3081998825 85.383598328 128.60729980 0.7968999743 0.0000000000 0.8302000165 0.8151000142
 1928.8731689 6.0000000000 -0.013299941 8.4867000580 8.5000000000 1.3200000525 156182.53125 -0.004700000 0.3653139174 2.3134999275 83.828598022 128.97120667 0.7960000038 0.0000000000 0.8385000229 0.8143000007
 1929.0256348 6.0000000000 -0.008500099 8.4914999008 8.5000000000 1.3200000525 154843.48438 -0.006500000 0.3577111065 2.3152000904 80.039299011 128.39979553 0.7878999710 0.0000000000 0.8245000243 0.8059999943
