# LAS format log file from PETREL
# Project units are specified as depth units
#==================================================================
~Version information
VERS.   2.0:
WRAP.   NO:
#==================================================================
~Well
STRT .m      1332.7867432 :
STOP .m      2972.7631836 :
STEP .m     0.00000000 :
NULL .        -999.250000 :
COMP.           : COMPANY
WELL.  25/10-9 Aegis   : WELL
FLD.            : FIELD
LOC.            : LOCATION
SRVC.           : SERVICE COMPANY
DATE.  2018-09-11 14:48:15   : Log Export Date {yyyy-MM-dd HH:mm:ss}
PROV.           : PROVINCE
UWI.   25/10-9   : UNIQUE WELL ID
API.            : API NUMBER
#==================================================================
~Curve
DEPT .m                   : DEPTH
Lithology_geolink ._      : Lithology_geolink
CALI .in                  : CALI
BS .in                    : BS
ROP .m/h                  : ROP
DRHO .g/cm3               : DRHO
NPHI .m3/m3               : NPHI
RHOB .g/cm3               : RHOB
PEF .b/e                  : PEF
GR .gAPI                  : GR
DTC .us/ft                : DTC
DTS .us/ft                : DTS
RDEP .ohm.m               : RDEP
RMED .ohm.m               : RMED
~Parameter
#==================================================================
~Ascii
# ...
 2861.6635742 13.000000000 8.7007999420 8.5000000000 53.136814117 0.0860000029 0.1442999989 2.5536000729 4.0571999550 83.784797668 74.382797241 141.18060303 4.0469999313 3.9665999413
 2861.8161621 13.000000000 8.6793003082 8.5000000000 58.740486145 0.0852999985 0.1458999962 2.5636000633 4.0699000359 83.933403015 74.679702759 140.99189758 4.0525999069 4.0275998116
 2861.9685059 13.000000000 8.7047996521 8.5000000000 67.508857727 0.0844999999 0.1440999955 2.5762999058 4.1423001289 86.624900818 75.245597839 141.59840393 3.9934999943 3.9663000107
 2862.1208496 13.000000000 8.7215995789 8.5000000000 67.849411011 0.0838000029 0.1471000016 2.5657000542 4.0854001045 86.357696533 76.160797119 142.24580383 3.8831999302 3.8057999611
 2862.2731934 13.000000000 8.6941003799 8.5000000000 65.407150269 0.0856999978 0.1491000056 2.5676000118 4.4168000221 90.208198547 75.228897095 142.97819519 3.8289999962 3.7035000324
 2862.4257813 13.000000000 8.6894998550 8.5000000000 65.773620605 0.0837000012 0.1462000012 2.5659999847 4.4418997765 87.299896240 74.868499756 143.39799500 3.8352999687 3.6737000942
 2862.5781250 13.000000000 8.6962995529 8.5000000000 63.642059326 0.0797000006 0.1515000015 2.5557999611 4.1229000092 90.542999268 73.666099548 143.85969543 3.9217998981 3.7132999897
 2862.7304688 13.000000000 8.6819000244 8.5000000000 55.154529572 0.0820999965 0.1513999999 2.5562996864 3.9934000969 91.631301880 71.288299561 144.31250000 3.9964001179 3.8139998913
 2862.8828125 13.000000000 8.7124004364 8.5000000000 44.694881439 0.0811000019 0.1521999985 2.5450000763 3.9600999355 83.876701355 74.600402832 145.23970032 4.0402002335 3.8248999119
 2863.0354004 13.000000000 8.7356004715 8.5000000000 36.721458435 0.0910999998 0.1551000029 2.5566999912 4.1420998573 81.819999695 76.412109375 146.66119385 4.0327000618 3.8264000416
 2863.1877441 13.000000000 8.6684999466 8.5000000000 34.861877441 0.0857999995 0.1580999941 2.5666000843 4.0064001083 85.788002014 76.844001770 147.55039978 3.9430000782 3.7527999878
 2863.3400879 13.000000000 8.6814002991 8.5000000000 40.730316162 0.0788000003 0.1510999948 2.5587000847 3.9054000378 84.223800659 76.743995667 148.11430359 3.9205000401 3.7411000729
 2863.4924316 13.000000000 8.7054996490 8.5000000000 48.080055237 0.0753000006 0.1469999999 2.5432000160 4.0992999077 84.109298706 76.442901611 148.49600220 3.8640999794 3.7291998863
 2863.6447754 13.000000000 8.6993999481 8.5000000000 48.033138275 0.0786999986 0.1455000043 2.5434000492 4.2104997635 89.039199829 76.956596375 148.86450195 3.8326001167 3.7212998867
 2863.7973633 13.000000000 8.6653003693 8.5000000000 45.617782593 0.0891999975 0.1533000022 2.5683000088 5.1350002289 90.661796570 76.495399475 148.87442017 3.8208000660 3.7000000477
 2863.9497070 13.000000000 8.6549997330 8.5000000000 44.519355774 0.0874999985 0.1488000005 2.5634000301 5.4456000328 87.307296753 74.567504883 148.59599304 3.7852001190 3.6575000286
 2864.1020508 13.000000000 8.6515998840 8.5000000000 47.703083038 0.0750999972 0.1471000016 2.5571999550 4.0787000656 88.299301147 74.073303223 148.46980286 3.7792000771 3.6291999817
 2864.2543945 13.000000000 8.6695995331 8.5000000000 54.749671936 0.0754000023 0.1500999928 2.5473001003 4.2877001762 91.282997131 75.678398132 147.48620605 3.7307999134 3.5708000660
 2864.4069824 13.000000000 8.6724004745 8.5000000000 59.674217224 0.0781000033 0.1485999972 2.5499000549 4.1223998070 97.562400818 74.185699463 146.03489685 3.7367000580 3.5915999413
 2864.5593262 13.000000000 8.6954002380 8.5000000000 59.136814117 0.0803999975 0.1435000002 2.5471999645 4.1675000191 98.959503174 74.405403137 145.35440063 3.7781000137 3.6491999626
 2864.7116699 13.000000000 8.6289997101 8.5000000000 52.571521759 0.0860000029 0.1462000012 2.5673999786 4.2350997925 98.988098145 73.696800232 144.96769714 3.7888998985 3.6150999069
 2864.8640137 13.000000000 8.6289997101 8.5000000000 43.506565094 0.0755999982 0.1465000063 2.5653998852 4.2838001251 97.121696472 74.561798096 143.79589844 3.8492000103 3.6735000610
 2865.0166016 13.000000000 8.6666002274 8.5000000000 38.233924866 0.0728000030 0.1431999952 2.5502998829 4.3593997955 87.803199768 77.061401367 142.06039429 3.9126999378 3.7390999794
 2865.1689453 13.000000000 8.6996002197 8.5000000000 39.206035614 0.0768999979 0.1386000067 2.5562996864 4.2885999680 91.836502075 73.583900452 139.01080322 3.9953000546 3.7992999554
 2865.3212891 13.000000000 8.7280998230 8.5000000000 44.097442627 0.0851000026 0.1359000057 2.5650000572 4.4485001564 90.635200500 72.674896240 135.22459412 4.0756998062 3.8754000664
 2865.4736328 13.000000000 8.7115001678 8.5000000000 47.773296356 0.0798000023 0.1328999996 2.5701000690 4.3200998306 92.620300293 71.736503601 131.83039856 4.1743998528 3.9321000576
 2865.6259766 13.000000000 8.6979999542 8.5000000000 51.370079041 0.0802000016 0.1231999993 2.5664000511 4.1332001686 83.139503479 70.157501221 130.25900269 4.3633999825 4.1283001900
 2865.7785645 13.000000000 8.6683998108 8.5000000000 54.090225220 0.0777999982 0.1152999997 2.5827999115 4.1939001083 86.634101868 68.544097900 129.89869690 4.7793998718 4.5251998901
 2865.9309082 13.000000000 8.6660995483 8.5000000000 54.728672028 0.0746999979 0.1123000011 2.5818998814 4.2596998215 95.418998718 69.265800476 130.23959351 4.9489998817 4.8720998764
 2866.0832520 13.000000000 8.6112003326 8.5000000000 54.194225311 0.0760999992 0.1116999984 2.6019001007 4.3036999702 88.983802795 72.236900330 131.27699280 4.9288001060 5.0194001198
 2866.2355957 13.000000000 8.7018003464 8.5000000000 52.747043610 0.0716999993 0.1199000031 2.5948998928 4.4029002190 86.392898560 73.703697205 132.92250061 4.6607999802 4.6126999855
 2866.3881836 13.000000000 8.6550998688 8.5000000000 51.366142273 0.0719999969 0.1318999976 2.5982000828 4.4966998100 83.796302795 74.081298828 134.89669800 4.4063000679 4.3491997719
 2866.5405273 13.000000000 8.7496995926 8.5000000000 51.845142365 0.0799999982 0.1362999976 2.5822999477 4.6059999466 89.192398071 74.346801758 137.59669495 4.3298997879 4.1697001457
 2866.6928711 13.000000000 8.7003002167 8.5000000000 51.451770782 0.0904999971 0.1418000013 2.5926001072 5.0824999809 90.121299744 74.399497986 140.03759766 4.3197999001 4.1015000343
 2866.8452148 13.000000000 8.6382999420 8.5000000000 52.260826111 0.0709000006 0.1439000070 2.5729999542 5.3220000267 81.699996948 74.332496643 141.74429321 4.2495999336 4.0060000420
 2866.9978027 13.000000000 8.6647996902 8.5000000000 53.175853729 0.0650999993 0.1488000005 2.5571000576 4.0904002190 88.431396484 73.473999023 143.20320129 4.1735000610 3.9128000736
 2867.1501465 13.000000000 8.7004995346 8.5000000000 52.041007996 0.0824000016 0.1512999982 2.5769000053 4.2572999001 97.220298767 76.105697632 144.34629822 4.2090001106 3.8842999935
 2867.3024902 13.000000000 8.7100000381 8.5000000000 57.338909149 0.0791999996 0.1539999992 2.5578000546 4.3045001030 92.282501221 79.023704529 144.80160522 4.1419000626 3.8196001053
 2867.4548340 13.000000000 8.6687002182 8.5000000000 66.453086853 0.0798000023 0.1553999931 2.5627999306 4.1767997742 93.832397461 77.474891663 144.52330017 4.0192999840 3.8024001122
 2867.6071777 13.000000000 8.6496000290 8.5000000000 72.673881531 0.0740000010 0.1580999941 2.5524001122 4.0139999390 96.047798157 77.056198120 143.82179260 4.0148000717 3.8085000515
 2867.7597656 13.000000000 8.6700000763 8.5000000000 80.116798401 0.0834000036 0.1577000022 2.5722999573 4.0883002281 101.30490112 77.265701294 144.26530457 4.0348000526 3.8238000870
 2867.9121094 13.000000000 8.6802997589 8.5000000000 78.676513672 0.0847000033 0.1579000056 2.5747001171 4.1245999336 91.368301392 76.471702576 144.67959595 4.0064997673 3.8069000244
 2868.0644531 13.000000000 8.6929998398 8.5000000000 72.790359497 0.0838000029 0.1621000022 2.5615000725 4.0169000626 83.595199585 74.716796875 144.81069946 4.0370001793 3.8208000660
 2868.2167969 13.000000000 8.6779003143 8.5000000000 70.933067322 0.0914999992 0.1599999964 2.5655999184 4.0033001900 94.154296875 73.718696594 144.91229248 4.0392999649 3.8461000919
