# LAS format log file from PETREL
# Project units are specified as depth units
#==================================================================
~Version information
VERS.   2.0:
WRAP.   NO:
#==================================================================
~Well
STRT .m      3054.5593262 :
STOP .m      3397.3076172 :
STEP .m     0.00000000 :
NULL .        -999.250000 :
COMP.           : COMPANY
WELL.  25/10-8A  Hanz Appr   : WELL
FLD.            : FIELD
LOC.            : LOCATION
SRVC.           : SERVICE COMPANY
DATE.  2018-09-11 14:48:15   : Log Export Date {yyyy-MM-dd HH:mm:ss}
PROV.           : PROVINCE
UWI.   25/10-8 A   : UNIQUE WELL ID
API.            : API NUMBER
#==================================================================
~Curve
DEPT .m                   : DEPTH
Lithology_geolink ._      : Lithology_geolink
NPHI .m3/m3               : NPHI
RHOB .g/cm3               : RHOB
GR .gAPI                  : GR
RDEP .ohm.m               : RDEP
RSHA .ohm.m               : RSHA
~Parameter
#==================================================================
~Ascii
# ...
 3346.2534180 5.0000000000 0.1775799990 2.4413111210 97.584068298 1.7888391018 1.5949416161
 3346.4060059 5.0000000000 0.1948699951 2.4331614971 100.69181061 1.7709491253 1.6528322697
 3346.5583496 6.0000000000 0.2060899884 2.4247791767 101.20481110 1.7535420656 1.6943151951
 3346.7106934 6.0000000000 0.2078899890 2.4169931412 100.87399292 1.7166575193 1.7344633341
 3346.8630371 6.0000000000 0.2103800029 2.4089882374 100.34949493 1.6799846888 1.7585262060
 3347.0153809 6.0000000000 0.2224700004 2.4015634060 100.41318512 1.6608701944 1.7593176365
 3347.1679688 6.0000000000 0.2308900058 2.3936860561 101.22051239 1.6540547609 1.7495518923
 3347.3203125 6.0000000000 0.2347899973 2.3864877224 103.06977844 1.6539273262 1.7329156399
 3347.4726563 6.0000000000 0.2398999929 2.3812353611 104.26275635 1.6542205811 1.7068445683
 3347.6250000 6.0000000000 0.2432099879 2.3785424232 104.01121521 1.6553299427 1.6831778288
 3347.7775879 6.0000000000 0.2450499982 2.3766856194 103.15925598 1.6593643427 1.6618442535
 3347.9299316 6.0000000000 0.2460199893 2.3740906715 102.56589508 1.6724898815 1.6283534765
 3348.0822754 6.0000000000 0.2386800051 2.3727371693 101.65604401 1.7780127525 1.5744987726
 3348.2346191 6.0000000000 0.2287999988 2.3735582829 100.64166260 1.8792830706 1.5710089207
 3348.3872070 6.0000000000 0.2214500010 2.3755300045 100.01386261 1.8877793550 1.6568892002
 3348.5395508 6.0000000000 0.2107900083 2.3794434071 99.391464233 1.8422284126 1.7520771027
 3348.6918945 6.0000000000 0.2045899928 2.3827283382 98.275047302 1.8387597799 1.7747660875
 3348.8442383 5.0000000000 0.2041099966 2.3832411766 96.287651062 1.9020469189 1.7877738476
 3348.9965820 5.0000000000 0.2047299892 2.3835086823 93.476821899 2.0860767365 1.8176072836
 3349.1491699 5.0000000000 0.2041399926 2.3857190609 91.042373657 2.4057302475 1.9894791842
 3349.3015137 5.0000000000 0.1944000125 2.3911581039 87.272735596 2.4704380035 2.2419745922
 3349.4538574 5.0000000000 0.1812299937 2.4000186920 84.551872253 2.3376371861 2.4829213619
 3349.6062012 5.0000000000 0.1682399958 2.4090158939 84.061912537 2.2287385464 2.6844012737
 3349.7587891 5.0000000000 0.1616200060 2.4168281555 84.774291992 2.1568682194 2.7951416969
 3349.9111328 5.0000000000 0.1621499956 2.4204783440 86.050338745 2.0786194801 2.5797054768
 3350.0634766 5.0000000000 0.1648800075 2.4207427502 88.081016541 2.0213012695 2.3120214939
 3350.2158203 5.0000000000 0.1699500084 2.4196453094 89.749771118 1.9861918688 2.1462521553
 3350.3684082 5.0000000000 0.1787299961 2.4181225300 91.582725525 1.9655095339 1.9713114500
 3350.5207520 6.0000000000 0.1850900054 2.4164659977 93.025238037 1.9567050934 1.7948340178
 3350.6730957 6.0000000000 0.1876499951 2.4119572639 94.227493286 1.9910569191 1.6068660021
 3350.8254395 6.0000000000 0.1893300116 2.4066193104 96.327507019 1.9594928026 1.5768957138
 3350.9777832 6.0000000000 0.1911399961 2.4007837772 100.83657837 1.8924640417 1.6397136450
 3351.1303711 7.0000000000 0.1939800084 2.3948423862 106.41529846 1.8476965427 1.6792875528
 3351.2827148 7.0000000000 0.1992000043 2.3889203072 111.03046417 1.8099384308 1.7077763081
 3351.4350586 7.0000000000 0.2087299973 2.3828773499 114.99211884 1.7698837519 1.7337961197
 3351.5874023 7.0000000000 0.2131299973 2.3774480820 116.84645844 1.7458142042 1.7500721216
 3351.7399902 6.0000000000 0.2132299989 2.3733277321 117.32218933 1.7460672855 1.7585549355
 3351.8923340 6.0000000000 0.2133000046 2.3719718456 116.70084381 1.7607179880 1.7706696987
 3352.0446777 6.0000000000 0.2246400118 2.3713595867 115.39659882 1.7848995924 1.7720472813
 3352.1970215 6.0000000000 0.2461799979 2.3709943295 111.45764923 1.8100409508 1.7643915415
 3352.3496094 6.0000000000 0.2581399977 2.3708322048 108.08901978 1.8158080578 1.7758624554
 3352.5019531 6.0000000000 0.2611599863 2.3698208332 106.94946289 1.7867225409 1.7922848463
 3352.6542969 6.0000000000 0.2643400133 2.3691225052 106.65982056 1.7789227962 1.7676606178
 3352.8066406 6.0000000000 0.2682900131 2.3694968224 106.47303009 1.7861680984 1.7502725124
 3352.9589844 6.0000000000 0.2702299953 2.3698928356 106.77230072 1.7914141417 1.7565382719
 3353.1115723 6.0000000000 0.2736300230 2.3693971634 107.64318085 1.7854243517 1.7665636539
 3353.2639160 6.0000000000 0.2780599892 2.3672902584 108.52536011 1.7732930183 1.7677519321
 3353.4162598 6.0000000000 0.2744700015 2.3649189472 108.96342468 1.7656248808 1.7511111498
 3353.5686035 6.0000000000 0.2687000036 2.3640749454 108.77469635 1.7667182684 1.7191318274
 3353.7211914 6.0000000000 0.2621800005 2.3646790981 107.96774292 1.7943392992 1.6778169870
 3353.8735352 6.0000000000 0.2503400147 2.3672666550 106.81444550 1.8311355114 1.6866576672
 3354.0258789 6.0000000000 0.2387800068 2.3726999760 105.18862152 1.8062121868 1.7803990841
 3354.1782227 6.0000000000 0.2331399918 2.3805420399 104.29898834 1.7535669804 1.8811272383
 3354.3308105 6.0000000000 0.2282399982 2.3889830112 104.35500336 1.7077752352 1.9065332413
 3354.4831543 6.0000000000 0.2247299999 2.3940453529 104.49324036 1.6900124550 1.8670686483
 3354.6354980 6.0000000000 0.2216300070 2.3970220089 105.16250610 1.6894824505 1.8301872015
 3354.7878418 6.0000000000 0.2202000022 2.3990733624 105.68199158 1.6932250261 1.7896475792
 3354.9404297 6.0000000000 0.2219300121 2.4005992413 105.70332336 1.6976686716 1.7547788620
 3355.0927734 6.0000000000 0.2240599990 2.4020545483 104.95342255 1.6994609833 1.7128046751
 3355.2451172 6.0000000000 0.2262599915 2.4019849300 104.36204529 1.7111630440 1.6663732529
 3355.3974609 6.0000000000 0.2287900001 2.4006164074 104.21414185 1.7608989477 1.6081476212
 3355.5498047 6.0000000000 0.2308099866 2.4001507759 104.65489197 1.7841362953 1.5934845209
 3355.7023926 6.0000000000 0.2287599891 2.4007058144 105.10124969 1.7514483929 1.6433566809
 3355.8547363 6.0000000000 0.2243300080 2.4007992744 105.36579895 1.7090406418 1.6989945173
 3356.0070801 6.0000000000 0.2292000055 2.3997526169 106.65422821 1.6738439798 1.7285631895
 3356.1594238 7.0000000000 0.2391900122 2.3986520767 108.89397430 1.7361991405 1.6655299664
 3356.3120117 7.0000000000 0.2445599884 2.3987569809 111.02532196 1.8088272810 1.6637370586
 3356.4643555 7.0000000000 0.2422800064 2.3992626667 112.46541595 1.8121062517 1.7543544769
 3356.6166992 7.0000000000 0.2335700095 2.4003388882 113.91866302 1.7991752625 1.8551971912
 3356.7690430 7.0000000000 0.2228199989 2.4013259411 116.01609802 1.8266268969 1.8923237324
 3356.9216309 7.0000000000 0.2187799960 2.4011776447 117.62655640 1.8395261765 1.9289519787
 3357.0739746 7.0000000000 0.2259199917 2.4000351429 118.61098480 1.8280215263 1.9804497957
 3357.2263184 7.0000000000 0.2377800047 2.3985710144 118.58116913 1.8175858259 2.0259099007
 3357.3786621 7.0000000000 0.2475100011 2.3976590633 117.52655029 1.8151081800 2.0238587856
 3357.5310059 7.0000000000 0.2535699904 2.3965291977 115.44039154 1.8084572554 1.9962731600
 3357.6835938 7.0000000000 0.2521599829 2.3956732750 112.25997925 1.7483664751 2.0027010441
 3357.8359375 7.0000000000 0.2424500138 2.3958706856 108.27471924 1.6380749941 2.0191714764
 3357.9882813 7.0000000000 0.2377499938 2.3966574669 105.57523346 1.4952197075 1.9408388138
 3358.1406250 6.0000000000 0.2360600084 2.3969049454 99.854194641 1.3899134398 1.6129754782
 3358.2932129 6.0000000000 0.2335399985 2.3962965012 94.381614685 1.4207487106 1.0773748159
 3358.4455566 6.0000000000 0.2182900012 2.3955023289 88.291152954 1.4318529367 1.0096738338
 3358.5979004 6.0000000000 0.1976300031 2.3961951733 82.204872131 1.3647069931 1.1965129375
 3358.7502441 6.0000000000 0.1889600009 2.3981652260 77.250854492 1.2856519222 1.3059266806
 3358.9028320 6.0000000000 0.1834600121 2.3990504742 71.773529053 1.1914358139 1.3737580776
 3359.0551758 6.0000000000 0.1767099947 2.4002952576 66.813926697 1.0744181871 1.4128866196
 3359.2075195 5.0000000000 0.1697800010 2.4049751759 60.449367523 1.0336172581 1.3800255060
 3359.3598633 5.0000000000 0.1643199921 2.4140748978 54.686660767 1.0957897902 1.2591185570
