# LAS format log file from PETREL
# Project units are specified as depth units
#==================================================================
~Version information
VERS.   2.0:
WRAP.   NO:
#==================================================================
~Well
STRT .m      1090.1660156 :
STOP .m      2511.1435547 :
STEP .m     0.00000000 :
NULL .        -999.250000 :
COMP.           : COMPANY
WELL.  25/10-10  Balder Triassic   : WELL
FLD.            : FIELD
LOC.            : LOCATION
SRVC.           : SERVICE COMPANY
DATE.  2018-09-11 14:48:14   : Log Export Date {yyyy-MM-dd HH:mm:ss}
PROV.           : PROVINCE
UWI.   25/10-10   : UNIQUE WELL ID
API.            : API NUMBER
#==================================================================
~Curve
DEPT .m                   : DEPTH
Lithology_geolink ._      : Lithology_geolink
CALI .in                  : CALI
BS .in                    : BS
ROP .m/h                  : ROP
DRHO .g/cm3               : DRHO
THOR .ppm                 : THOR
NPHI .m3/m3               : NPHI
RHOB .g/cm3               : RHOB
PEF .b/e                  : PEF
GR .gAPI                  : GR
URAN .ppm                 : URAN
DTC .us/ft                : DTC
DTS .us/ft                : DTS
RDEP .ohm.m               : RDEP
RSHA .ohm.m               : RSHA
RMED .ohm.m               : RMED
~Parameter
#==================================================================
~Ascii
# ...
 1840.1263428 5.0000000000 12.661600113 12.250000954 46.951770782 0.0370000005  -999.250000 0.3806962967 2.2692067623 5.5684261322 77.390098572  -999.250000 121.70948029  -999.250000 0.6262999773 0.6076999903 0.5957000256
 1840.2788086 5.0000000000 12.675499916 12.250000954 50.106628418 0.0324000008  -999.250000 0.3753043115 2.2583088875 5.3276925087 77.472099304  -999.250000 122.69241333  -999.250000 0.6413999796 0.6165999770 0.6140999794
 1840.4311523 5.0000000000 12.556099892 12.250000954 51.515094757 0.0423000008  -999.250000 0.3770985603 2.2715892792 5.3538789749 80.548896790  -999.250000 121.83577728  -999.250000 0.6270999908 0.6158999801 0.6036999822
 1840.5836182 5.0000000000 12.539699554 12.250000954 53.075130463 0.0577999987  -999.250000 0.3629113436 2.2797932625 5.7991433144 84.903297424  -999.250000 123.17332458  -999.250000 0.6449000239 0.6186000109 0.6079000235
 1840.7359619 5.0000000000 12.564700127 12.250000954 56.112533569 0.0688000023  -999.250000 0.3667968810 2.2889926434 6.1354308128 86.385902405  -999.250000 123.40131378  -999.250000 0.6654999852 0.6401000023 0.6276999712
 1840.8884277 5.0000000000 12.534500122 12.250000954 59.961284637 0.0603000000  -999.250000 0.3779910207 2.2678170204 6.2269272804 85.834602356  -999.250000 122.49113464  -999.250000 0.6516000032 0.6391999722 0.6276000142
 1841.0407715 5.0000000000 12.597200394 12.250000954 63.660434723 0.0549999997  -999.250000 0.4006818235 2.2634036541 6.3300175667 83.741203308  -999.250000 124.66106415  -999.250000 0.6262999773 0.6136999726 0.6047999859
 1841.1932373 5.0000000000 12.569800377 12.250000954 68.030517578 0.0548000000  -999.250000 0.4033978283 2.2688956261 6.2829375267 80.012496948  -999.250000 124.31198120  -999.250000 0.6125000119 0.6133000255 0.5936999917
 1841.3455811 5.0000000000 12.542698860 12.250000954 67.719818115 0.0491999984  -999.250000 0.4013016820 2.2681007385 6.0310020447 78.772102356  -999.250000 122.45838928  -999.250000 0.6755999923 0.6485000253 0.6432999969
 1841.4979248 5.0000000000 12.588100433 12.250000954 74.239830017 0.0368999988  -999.250000 0.3801339567 2.2527246475 5.6011891365 77.963798523  -999.250000 120.91677094  -999.250000 0.7087000012 0.6771000028 0.6687999964
 1841.6503906 5.0000000000 12.541399956 12.250000954 73.498359680 0.0331000015  -999.250000 0.3759033680 2.2580957413 5.3639898300 78.179801941  -999.250000 121.52980804  -999.250000 0.6746000051 0.6579999924 0.6489999890
 1841.8027344 5.0000000000 12.531900406 12.250000954 75.303153992 0.0351000018  -999.250000 0.3727051318 2.2699999809 5.4703001976 79.245101929  -999.250000 120.71780396  -999.250000 0.6672000289 0.6389999986 0.6268000007
 1841.9552002 5.0000000000 12.540100098 12.250000954 66.725395203 0.0406000018  -999.250000 0.3806935847 2.2959001064 5.3701000214 75.557403564  -999.250000 120.53404236  -999.250000 0.6597999930 0.6299999952 0.6323999763
 1842.1075439 5.0000000000 12.498100281 12.250000954 60.547576904 0.0375999995  -999.250000 0.3765067458 2.2950997353 5.3260998726 70.394599915  -999.250000 120.27221680  -999.250000 0.6779999733 0.6542000175 0.6549999714
 1842.2600098 5.0000000000 12.528800011 12.250000954 47.658138275 0.0412000008  -999.250000 0.3645096123 2.2967000008 5.2322001457 71.322196960  -999.250000 119.32555389  -999.250000 0.6934000254 0.6676999927 0.6649000049
 1842.4123535 5.0000000000 12.607099533 12.250000954 44.837268829 0.0482000001  -999.250000 0.3501115441 2.2899999619 5.4334998131 76.250297546  -999.250000 121.78392792  -999.250000 0.7125999928 0.6935999990 0.6769000292
 1842.5648193 5.0000000000 12.569899559 12.250000954 43.737205505 0.0480999984  -999.250000 0.3408074379 2.2743999958 5.6458001137 76.999000549  -999.250000 122.15520477  -999.250000 0.7070000172 0.6887999773 0.6786000133
 1842.7171631 5.0000000000 12.650799751 12.250000954 41.869094849 0.0478999987  -999.250000 0.3531900644 2.2653999329 5.7017998695 77.010200500  -999.250000 122.64970398  -999.250000 0.7179999948 0.7099999785 0.6923000216
 1842.8696289 5.0000000000 12.601099968 12.250000954 41.709648132 0.0454000011  -999.250000 0.3522008061 2.2718999386 5.7140998840 81.334800720  -999.250000 123.52469635  -999.250000 0.7325000167 0.7063000202 0.6927000284
 1843.0219727 5.0000000000 12.604500771 12.250000954 41.306758881 0.0408999994  -999.250000 0.3543982506 2.2743999958 5.5791997910 85.827102661  -999.250000 121.34574890  -999.250000 0.7148000002 0.6977000237 0.6898000240
 1843.1744385 5.0000000000 12.555701256 12.250000954 38.100723267 0.0381000005  -999.250000 0.3386126459 2.2783000469 5.6280999184 87.324501038  -999.250000 123.02765656  -999.250000 0.7185000181 0.6991000175 0.6999999881
 1843.3267822 5.0000000000 12.645600319 12.250000954 36.278217316 0.0410999991  -999.250000 0.3428965509 2.2864999771 5.6950001717 85.313102722  -999.250000 123.81816864  -999.250000 0.7228000164 0.6955999732 0.6984000206
 1843.4791260 5.0000000000 12.593299866 12.250000954 36.754920959 0.0509000011  -999.250000 0.3489902318 2.3080000877 5.9218997955 84.195602417  -999.250000 129.52894592  -999.250000 0.7228000164 0.6955999732 0.6984000206
 1843.6315918 5.0000000000 12.612298965 12.250000954 37.598098755 0.0568999983  -999.250000 0.3478009403 2.3220000267 5.9920997620 85.961196899  -999.250000 129.24412537  -999.250000 0.7016000152 0.6769999862 0.6737999916
 1843.7839355 5.0000000000 12.603700638 12.250000954 43.742126465 0.0579000004  -999.250000 0.3465020955 2.3101000786 5.9986000061 88.571701050  -999.250000 127.87849426  -999.250000 0.7006999850 0.6826000214 0.6699000001
 1843.9364014 5.0000000000 12.582500458 12.250000954 44.602035522 0.0502999984  -999.250000 0.3474991918 2.2750999928 6.0250000954 88.902496338  -999.250000 126.07794189  -999.250000 0.7106999755 0.6866999865 0.6692000031
 1844.0887451 5.0000000000 12.604500771 12.250000954 45.081691742 0.0480999984  -999.250000 0.3489975929 2.2614998817 6.1398000717 85.331001282  -999.250000 128.58717346  -999.250000 0.6930999756 0.6700000167 0.6575999856
 1844.2412109 5.0000000000 12.627900124 12.250000954 47.226379395 0.0544999987  -999.250000 0.3517977595 2.2613999844 6.4190998077 83.823097229  -999.250000 127.85079193  -999.250000 0.6919000149 0.6705999970 0.6585999727
 1844.3935547 5.0000000000 12.619500160 12.250000954 46.343830109 0.0615000017  -999.250000 0.3545977771 2.2699999809 6.5391998291 83.584701538  -999.250000 125.29235077  -999.250000 0.6920999885 0.6833999753 0.6769000292
 1844.5460205 5.0000000000 12.664999962 12.250000954 45.110237122 0.0728000030  -999.250000 0.3631931245 2.2818000317 6.5394001007 81.789299011  -999.250000 128.26072693  -999.250000 0.7118999958 0.6941999793 0.6840000153
 1844.6983643 5.0000000000 12.651000023 12.250000954 48.206695557 0.0724000037  -999.250000 0.3579042256 2.2788999081 6.5268001556 82.686996460  -999.250000 123.13790894  -999.250000 0.7211999893 0.6955000162 0.6901999712
 1844.8508301 5.0000000000 12.642600060 12.250000954 48.013126373 0.0731000006  -999.250000 0.3460095227 2.2693998814 6.5700001717 83.536300659  -999.250000 121.88359833  -999.250000 0.7264000177 0.6985999942 0.6916999817
 1845.0031738 5.0000000000 12.674599648 12.250000954 50.141403198 0.0715000033  -999.250000 0.3479983807 2.2732000351 6.6343998909 80.809600830  -999.250000 125.34092712  -999.250000 0.7044000030 0.6723999977 0.6723999977
 1845.1556396 5.0000000000 12.591600418 12.250000954 49.714897156 0.0663999990  -999.250000 0.3402062654 2.2736999989 6.6187000275 79.803901672  -999.250000 127.37957001  -999.250000 0.6628999710 0.6485000253 0.6373000145
 1845.3079834 5.0000000000 12.580300331 12.250000954 49.528545380 0.0678000003  -999.250000 0.3478938341 2.2909998894 6.7006998062 82.519401550  -999.250000 129.07984924  -999.250000 0.6237000227 0.6237999797 0.6061999798
 1845.4603271 5.0000000000 12.618399620 12.250000954 50.422901154 0.0662999973  -999.250000 0.3422091305 2.2867999077 6.9299001694 85.614799500  -999.250000 130.23605347  -999.250000 0.6029000282 0.5875999928 0.5827000141
 1845.6127930 5.0000000000 12.569899559 12.250000954 48.854003906 0.0684000030  -999.250000 0.3738746047 2.2887001038 7.0356998444 87.317100525  -999.250000 127.43733978  -999.250000 0.6510999799 0.6269000173 0.6220999956
