# LAS format log file from PETREL
# Project units are specified as depth units
#==================================================================
~Version information
VERS.   2.0:
WRAP.   NO:
#==================================================================
~Well
STRT .m      1456.9927979 :
STOP .m      2094.7868652 :
STEP .m     0.00000000 :
NULL .        -999.250000 :
COMP.           : COMPANY
WELL.  25/11-24 Jakob South   : WELL
FLD.            : FIELD
LOC.            : LOCATION
SRVC.           : SERVICE COMPANY
DATE.  2018-09-11 14:48:16   : Log Export Date {yyyy-MM-dd HH:mm:ss}
PROV.           : PROVINCE
UWI.   25/11-24   : UNIQUE WELL ID
API.            : API NUMBER
#==================================================================
~Curve
DEPT .m                   : DEPTH
Lithology_geolink ._      : Lithology_geolink
DCAL .in                  : DCAL
CALI .in                  : CALI
BS .in                    : BS
ROP .m/h                  : ROP
DRHO .g/cm3               : DRHO
NPHI .m3/m3               : NPHI
RHOB .g/cm3               : RHOB
PEF .b/e                  : PEF
GR .gAPI                  : GR
DTC .us/ft                : DTC
DTS .us/ft                : DTS
RDEP .ohm.m               : RDEP
RMIC .ohm.m               : RMIC
RMED .ohm.m               : RMED
~Parameter
#==================================================================
~Ascii
# ...
 2087.0144043 6.0000000000 0.0803003386 8.5803003311 8.5000000000 43.441928864 0.0088999998 0.8058239818 1.9016000032 1.9393999577 143.13540649 122.41989899 271.05950928 3.9012999535 3.8492999077 3.6436998844
 2087.1667480 6.0000000000 0.0829000473 8.5829000473 8.5000000000 43.441928864 -0.002400000 0.6959999800 1.9965000153 1.7450000048 141.05520630 116.40780640 253.06434631 3.4319999218 3.2406001091 3.2931001186
 2087.3193359 6.0000000000 0.1134004965 8.6134004593 8.5000000000 51.571189880 -0.012700000 0.5670206547 2.4526000023 2.5762000084 141.12890625 111.72649384 232.90130615 2.8722000122 2.5271999836 2.7950999737
 2087.4716797 6.0000000000 0.0956001282 8.5956001282 8.5000000000 51.571189880 -0.014100000 0.5174862146 2.4886999130 2.7658998966 141.13900757 106.46269226 214.98469543 3.3519999981 2.2992000580 3.3034000397
 2087.6240234 6.0000000000 0.0917997435 8.5917997360 8.5000000000 51.571189880 -0.013000000 0.4465166330 2.4282000065 2.6224999428 137.61320496 101.97550201 204.35295105 3.1522998810 2.6940000057 3.1480998993
 2087.7763672 6.0000000000 0.0832004324 8.5832004547 8.5000000000 51.571189880 -0.005100000 0.3944999874 2.4196999073 2.8048999310 134.58149719 98.779312134 197.42478943 2.2657001019 1.2238999605 2.2883000374
 2087.9287109 5.0000000000 -0.022600170 8.4773998260 8.5000000000 51.571189880 -0.004800000 0.3603999913 2.2772998810 2.8573999405 132.53660583 97.879600525 191.06019592 0.8797000051 0.4390999973 0.9054999948
 2088.0812988 5.0000000000 -0.023799900 8.4762001038 8.5000000000 51.571189880 -0.005200000 0.3675067425 2.3131999969 3.0564000607 132.28489685 97.615089417 189.53480530 0.8156999946 0.4641999900 0.8605999947
 2088.2336426 5.0000000000 -0.074000359 8.4259996414 8.5000000000 38.665679932 -0.003800000 0.3717499077 2.3001999855 2.8880999088 129.46359253 98.442596436 191.07533264 0.7932999730 0.5789999962 0.8453999758
 2088.3859863 5.0000000000 -0.068300247 8.4316997528 8.5000000000 38.665679932 -0.004800000 0.4029000103 2.3768000603 3.0046999454 129.02349854 99.544197083 193.07460022 1.0148999691 0.7972000241 1.0864000320
 2088.5383301 5.0000000000 -0.011099821 8.4889001846 8.5000000000 38.665679932 -0.005400000 0.4054000080 2.4223001003 3.4463000298 132.13110352 100.14170074 194.15878296 1.9802000523 1.2805999517 2.1312000751
 2088.6909180 5.0000000000 0.0059995656 8.5059995651 8.5000000000 38.665679932 -0.008200000 0.4277817309 2.3220000267 3.4749000072 134.70979309 99.919692993 193.31530762 1.7664999962 1.4291000366 1.9057999849
 2088.8432617 5.0000000000 0.0219001807 8.5219001770 8.5000000000 38.665679932 -0.006000000 0.4164454937 2.4205999374 3.4588999748 137.41250610 99.275199890 193.30220032 1.6108000278 1.0221999884 1.7384999990
 2088.9956055 5.0000000000 0.0031995771 8.5031995773 8.5000000000 38.665679932 -0.003400000 0.4448195100 2.4521000385 3.2604999542 139.08670044 97.638801575 190.96853638 2.0464999676 1.1913000345 2.1691000462
 2089.1479492 5.0000000000 0.0726995468 8.5726995468 8.5000000000 38.665679932 -0.001000000 0.4569999874 2.4790000916 3.0290000439 140.74989319 95.942298889 187.51583862 2.6103000641 2.0150001049 2.6847000122
 2089.3005371 5.0000000000 0.0726995468 8.5726995468 8.5000000000 29.857280731 -0.001100000 0.4766027033 2.4809999466 2.9137001038 142.10130310 93.832611084 186.80749512 2.3059000969 2.1103999615 2.3471999168
 2089.4528809 5.0000000000 0.0473003425 8.5473003387 8.5000000000 29.857280731 -0.001100000 0.4783270955 2.4890000820 2.9730000496 141.23500061 91.315299988 184.28828430 2.5209999084 2.1177999973 2.5439000130
 2089.6052246 5.0000000000 0.0775003508 8.5775003433 8.5000000000 29.857280731 -0.001500000 0.4952110350 2.4813001156 2.8122999668 141.40040588 90.101600647 183.79769897 3.2553999424 2.7353000641 3.2706000805
 2089.7575684 5.0000000000 0.0956001282 8.5956001282 8.5000000000 29.857280731 -0.002100000 0.5020999908 2.4883999825 2.8884999752 142.60960388 89.818199158 183.99967957 3.1340000629 3.0404000282 3.1312999725
 2089.9099121 5.0000000000 0.1118001938 8.6118001938 8.5000000000 29.857280731 -0.003600000 0.5246000290 2.4999001026 2.9275999069 144.23820496 90.018806458 184.91584778 3.1333999634 2.7616000175 3.1515998840
 2090.0625000 6.0000000000 0.1311998069 8.6311998367 8.5000000000 29.857280731 -0.003200000 0.5578602552 2.4862999916 2.9045999050 144.14219666 90.968002319 189.20381165 2.9628999233 2.7611999512 2.9500000477
 2090.2148438 6.0000000000 0.1159000024 8.6159000397 8.5000000000 29.857280731 -0.002200000 0.5953941941 2.5053999424 2.9168000221 148.77470398 92.239501953 195.04214478 2.9103000164 2.6377000809 2.8768000603
 2090.3671875 6.0000000000 0.1183995977 8.6183996201 8.5000000000 25.971780777 -0.004000000 0.5917999744 2.4802999496 2.5587000847 155.04420471 94.489707947 204.83589172 2.9554998875 3.1540000439 2.9384999275
 2090.5195313 6.0000000000 0.1311998069 8.6311998367 8.5000000000 25.971780777 -0.005500000 0.5713000298 2.4014999866 2.3773000240 162.90060425 98.646507263 219.76936340 3.0060999393 3.1549000740 2.9769999981
 2090.6721191 6.0000000000 0.0868997648 8.5868997574 8.5000000000 25.971780777 -0.008400000  -999.250000 2.2693998814 2.3055000305 160.63349915 105.09246826 240.74330139 3.0269999504 3.0576999187 3.0074000359
 2090.8244629 6.0000000000 0.1672001034 8.6672000885 8.5000000000 25.971780777 -0.016100001  -999.250000 2.0295000076 3.1249001026 151.99270630 111.50500488 259.53939819 3.0271000862 1.9502999783 3.0106999874
 2090.9768066 5.0000000000 0.0887002870 8.5887002945 8.5000000000 25.971780777 -0.036600001  -999.250000 1.4535000324 2.0353000164 138.38909912 119.79731750 282.27926636 2.0620999336 0.9168999791 2.0766000748
 2091.1291504 5.0000000000 0.2266997844 8.7266998291 8.5000000000 25.971780777 -0.042599998  -999.250000 1.5164999962 2.3726000786 123.56320190 125.48030090 310.06307983 2.0178000927 0.9258999825 2.0624001026
 2091.2817383 5.0000000000 0.2014998943 8.7014999390 8.5000000000 48.761150360 -0.033100002  -999.250000 2.0083000660 2.2908999920 115.54270172 129.04978943 321.58874512 2.4505000114 1.5543999672 2.5211999416
 2091.4340820 5.0000000000 0.1947001964 8.6947002411 8.5000000000 48.761150360 -0.019400002  -999.250000 1.7625999451 2.4419999123 115.58830261 133.84648132 321.07458496 2.2780001163 0.7767999768 2.3536000252
 2091.5864258 5.0000000000 0.7641000748 9.2641000748 8.5000000000 48.761150360 -0.032900002  -999.250000 1.6534999609 2.5104999542 110.92379761 134.63665771 317.48657227 1.8235000372 0.9100999832 1.9031000137
 2091.7387695 5.0000000000 1.0384999514 9.5384998322 8.5000000000 48.761150360 -0.054699998  -999.250000 1.9594000578 2.4774000645 108.62229919 130.93290710 304.98345947 2.3329999447 1.2682000399 2.4567000866
 2091.8911133 5.0000000000 0.7298002243 9.2298002243 8.5000000000 48.761150360 -0.047800001  -999.250000 2.2151000500 2.7495999336 110.24310303 128.18800354 283.67587280 2.3499999046 1.6962000132 2.4725000858
 2092.0437012 5.0000000000 0.0825996399 8.5825996399 8.5000000000 48.761150360 -0.026400000  -999.250000 2.2867999077 2.7957000732 120.78900146 122.99886322 249.83518982 1.4153000116 1.1981999874 1.4910999537
 2092.1960449 5.0000000000 -0.034000400 8.4659996033 8.5000000000 48.761150360 -0.002900000  -999.250000 2.2797999382 2.7274000645 127.29299927 113.73927307 230.39335632 1.4800000191 1.0742000341 1.5449999571
 2092.3483887 5.0000000000 -0.015700340 8.4842996597 8.5000000000 48.283790588 0.0005000000  -999.250000 2.3148000240 2.9370999336 128.08360291 105.29650116 219.32673645 1.6273000240 1.0355999470 1.6912000179
 2092.5007324 5.0000000000 0.0139999408 8.5139999390 8.5000000000 48.283790588 -0.005600000  -999.250000 2.3218998909 2.9256999493 129.69230652 103.47460175 215.45259094 1.8502000570 1.1212999821 1.9227999449
 2092.6533203 5.0000000000 0.0320997201 8.5320997238 8.5000000000 48.283790588 -0.011400000  -999.250000 2.2646999359 2.9003999233 131.79089355 104.94249725 227.80149841 2.2553000450 1.5026999712 2.3552000523
 2092.8056641 5.0000000000 0.0167999305 8.5167999268 8.5000000000 48.283790588 -0.002800000  -999.250000 1.6830999851 2.6057999134 133.67939758 112.80764771 255.00349426 2.4412999153 1.7238999605 2.5306999683
