# LAS format log file from PETREL
# Project units are specified as depth units
#==================================================================
~Version information
VERS.   2.0:
WRAP.   NO:
#==================================================================
~Well
STRT .m      1118.6159668 :
STOP .m      2017.3187256 :
STEP .m     0.00000000 :
NULL .        -999.250000 :
COMP.           : COMPANY
WELL.  25/11-15  Grane   : WELL
FLD.            : FIELD
LOC.            : LOCATION
SRVC.           : SERVICE COMPANY
DATE.  2018-09-11 14:48:15   : Log Export Date {yyyy-MM-dd HH:mm:ss}
PROV.           : PROVINCE
UWI.   25/11-15   : UNIQUE WELL ID
API.            : API NUMBER
#==================================================================
~Curve
DEPT .m                   : DEPTH
Lithology_geolink ._      : Lithology_geolink
CALI .in                  : CALI
BS .in                    : BS
MUDWEIGHT ._              : MUDWEIGHT
ROP .m/h                  : ROP
TGAS ._                   : TGAS
DRHO .g/cm3               : DRHO
THOR .ppm                 : THOR
NPHI .m3/m3               : NPHI
RHOB .g/cm3               : RHOB
GR .gAPI                  : GR
URAN .ppm                 : URAN
DTC .us/ft                : DTC
DTE .us/ft                : DTE
RDEP .ohm.m               : RDEP
SP .mV                    : SP
RSHA .ohm.m               : RSHA
RMED .ohm.m               : RMED
~Parameter
#==================================================================
~Ascii
# ...
 1178.9664307  -999.250000 8.5482072830 36.000000000  -999.250000 325338.40625  -999.250000 -1.050078392 6.4393000603 0.4985178113 2.2674579620 77.125488281 -1.778699994 131.90570068 128.85206604 1.3231999874 46.500000000  -999.250000 1.3952959776
 1179.1187744  -999.250000 8.5598745346 36.000000000  -999.250000 311108.93750  -999.250000 -1.049469590 6.5142397881 0.5112242103 2.2697279453 77.935104370 -1.830758333 131.29550171 128.38833618 1.3362854719 46.000000000  -999.250000 1.3879488707
 1179.2711182  -999.250000 8.5339164734 36.000000000  -999.250000 306000.00000  -999.250000 -1.048341632 6.3838043213 0.5489932895 2.2772750854 76.126136780 -1.953301787 130.47619629 127.60820007 1.3450850248 45.500000000  -999.250000 1.4326810837
 1179.4235840  -999.250000 8.5625009537 36.000000000  -999.250000 306000.00000  -999.250000 -1.044268250 6.5937318802 0.6051545143 2.2760770321 75.561141968 -1.921425462 130.46080017 127.44038391 1.3464069366 45.500000000  -999.250000 1.4646713734
 1179.5759277  -999.250000 8.5638065338 36.000000000  -999.250000 306000.00000  -999.250000 -1.038154483 6.0996961594 0.6154565215 2.2849819660 73.564239502 -2.091163874 129.64179993 126.83245850 1.3569865227 45.500000000  -999.250000 1.4614886045
 1179.7283936  -999.250000 8.5781002045 36.000000000  -999.250000 304723.03125  -999.250000 -1.034407496 5.9003000259 0.5449035764 2.2861809731 73.874206543 -1.999100089 128.91040039 126.05648804 1.3685899973 46.500000000  -999.250000 1.4313859940
 1179.8807373  -999.250000 8.5781002045 36.000000000  -999.250000 304138.09375  -999.250000 -1.029443264 5.9426660538 0.4674614966 2.2929279804 72.938148499 -2.014487505 127.85508728 125.06804657 1.3698949814 46.000000000  -999.250000 1.4146354198
 1180.0332031  -999.250000 8.5781002045 36.000000000  -999.250000 297924.78125  -999.250000 -1.037762165 6.5521998405 0.4329806864 2.2866189480 72.687553406 -1.802000046 128.67399597 125.53184509 1.3643950224 46.500000000  -999.250000 1.4682070017
 1180.1855469  -999.250000 8.5781002045 36.000000000  -999.250000 229004.98438  -999.250000 -1.045242071 6.8216838837 0.4932461977 2.2796189785 72.750427246 -1.869046211 130.23890686 126.81853485 1.3511226177 46.500000000  -999.250000 1.4778852463
 1180.3380127  -999.250000 8.5781002045 36.000000000  -999.250000 202302.98438  -999.250000 -1.049282074 6.5654001236 0.5082455873 2.2593219280 74.124908447 -2.004699945 132.96740723 129.43609619 1.3490060568 45.500000000  -999.250000 1.4581370354
 1180.4903564  -999.250000 8.5781002045 36.000000000  -999.250000 201724.20313  -999.250000 -1.058970451 6.2641410828 0.5921260715 2.2371270657 73.999191284 -2.317449331 135.23179626 131.77946472 1.3550921679 45.000000000  -999.250000 1.3728463650
 1180.6428223  -999.250000 8.5781002045 36.000000000  -999.250000 200428.87500  -999.250000 -1.066171885 6.3440999985 0.6203569770 2.2288689613 70.811561584 -2.355499983 135.82780457 132.76394653 1.3636900187 45.000000000  -999.250000 1.2975020409
 1180.7951660  -999.250000 8.5781002045 36.000000000  -999.250000 199861.92188  -999.250000 -1.064311504 6.4513139725 0.5968117118 2.2306449413 69.376548767 -2.227802277 135.70759583 132.72644043 1.3606045246 45.000000000  -999.250000 1.3008093834
 1180.9476318  -999.250000 8.5781002045 36.000000000  -999.250000 228463.87500  -999.250000 -1.058875561 6.7760000229 0.5454108119 2.2695889473 71.189498901 -2.150399923 131.30949402 129.17448425 1.3568969965 45.000000000  -999.250000 1.3541669846
 1181.0999756  -999.250000 8.5781002045 36.000000000  -999.250000 277449.84375  -999.250000 -1.054780245 6.2113523483 0.4789541066 2.2838211060 74.562141418 -2.263009787 129.98420715 127.22783661 1.3456180096 45.000000000  -999.250000 1.4729468822
 1181.2524414  -999.250000 8.5781002045 36.000000000  -999.250000 292437.78125  -999.250000 -1.048478246 6.0805001259 0.4677296877 2.2811419964 77.001693726 -2.467200041 129.64289856 126.71940613 1.3432970047 45.000000000  -999.250000 1.5169919729
 1181.4047852  -999.250000 8.5781002045 36.000000000  -999.250000 292932.46875  -999.250000 -1.048370481 6.1625342369 0.5032157898 2.2680850029 80.186637878 -2.363982677 131.05940247 127.77967072 1.3333029747 45.000000000  -999.250000 1.5025315285
 1181.5571289  -999.250000 8.5781002045 36.000000000  -999.250000 291605.03125  -999.250000 -1.037871957 5.8009901047 0.5594664812 2.2536063194 82.061607361 -2.324331760 132.86000061 129.46685791 1.3165254593 45.500000000  -999.250000 1.4159504175
 1181.7095947  -999.250000 8.5781002045 36.000000000  -999.250000 291043.09375  -999.250000 -1.026117802 5.8448648453 0.6055039167 2.2377970219 83.372795105 -2.545922279 134.27819824 130.98806763 1.3082076311 45.500000000  -999.250000 1.3761078119
 1181.8619385  -999.250000 8.5781002045 36.000000000  -999.250000 289708.81250  -999.250000 -1.018620014 6.0504350662 0.5443835258 2.2318379879 82.000251770 -2.338366747 135.00419617 131.87176514 1.2999086380 45.500000000  -999.250000 1.3474080563
 1182.0144043  -999.250000 8.5781002045 36.000000000  -999.250000 283697.75000  -999.250000 -1.004505515 6.2197999954 0.6029428840 2.2340049744 79.874229431 -2.473900080 134.99240112 131.98829651 1.2858059406 45.500000000  -999.250000 1.3098950386
 1182.1667480  -999.250000 8.5781002045 36.000000000  -999.250000 214246.53125  -999.250000 -1.003602862 6.3649835587 0.6032984853 2.2428569794 78.876121521 -2.498280525 134.16960144 131.35676575 1.2753202915 45.500000000  -999.250000 1.3034082651
 1182.3192139  -999.250000 8.5780973434 36.000000000  -999.250000 192413.87500  -999.250000 -1.018827677 6.4995999336 0.5997483730 2.2546401024 79.812553406 -2.344399929 132.96569824 130.22195435 1.2801979780 46.000000000  -999.250000 1.3123650551
 1182.4715576  -999.250000 8.5741872787 36.000000000  -999.250000 192413.87500  -999.250000 -1.022723436 6.5070939064 0.5223749280 2.2568790913 79.874824524 -2.378772259 132.85929871 129.88969421 1.2837001085 46.500000000  -999.250000 1.4076347351
 1182.6240234  -999.250000 8.5259609222 36.000000000  -999.250000 191130.62500  -999.250000 -1.023102164 6.5852999687 0.5196043253 2.2580599785 79.438751221 -2.557699919 132.72720337 129.77938843 1.3067890406 46.500000000  -999.250000 1.4465080500
 1182.7763672  -999.250000 8.4660720825 36.000000000  -999.250000 190551.59375  -999.250000 -1.051336408 6.7951316833 0.5222730041 2.2599120140 81.375991821 -2.600865364 132.60809326 129.66909790 1.3239752054 46.500000000  -999.250000 1.4590510130
 1182.9288330  -999.250000 8.4375000000 36.000000000  -999.250000 191822.78125  -999.250000 -1.047808528 7.3215999603 0.4996331036 2.2618610859 83.875427246 -2.421499968 132.62069702 129.55870056 1.3378850222 46.500000000  -999.250000 1.4217000008
 1183.0811768  -999.250000 8.4375000000 36.000000000  -999.250000 208012.53125  -999.250000 -1.036724329 6.7385673523 0.4995377958 2.2694280148 84.183738708 -2.517523050 132.36940002 129.44848633 1.3420846462 46.500000000  -999.250000 1.4957726002
 1183.2336426  -999.250000 8.4375000000 36.000000000  -999.250000 211034.51563  -999.250000 -1.060237408 6.6965999603 0.5389339924 2.2643170357 80.496612549 -2.351500034 132.26339722 129.33810425 1.3360929489 46.500000000  -999.250000 1.5300979614
 1183.3859863  -999.250000 8.4375000000 36.000000000  -999.250000 211034.51563  -999.250000 -1.074450731 6.7206807137 0.5328171849 2.2649919987 77.936599731 -2.474301577 132.13099670 129.22779846 1.3245233297 46.500000000  -999.250000 1.5284962654
 1183.5383301  -999.250000 8.4375000000 36.000000000  -999.250000 211034.51563  -999.250000 -1.059354544 6.8024344444 0.5418645740 2.2652449608 74.627655029 -2.179036856 132.13090515 129.11758423 1.3207081556 46.000000000  -999.250000 1.4154906273
 1183.6907959  -999.250000 8.4375000000 36.000000000  -999.250000 211034.51563  -999.250000 -1.043482661 6.4376921654 0.5244473815 2.2670779228 74.625778198 -2.344467163 132.01170349 129.00720215 1.3204821348 46.000000000  -999.250000 1.3380470276
 1183.8431396  -999.250000 8.4375000000 36.000000000  -999.250000 211034.51563  -999.250000 -1.045272112 6.3545660973 0.5507587790 2.2642788887 75.566757202 -2.437925100 131.90589905 128.89689636 1.2990231514 46.000000000  -999.250000 1.3195117712
