# LAS format log file from PETREL
# Project units are specified as depth units
#==================================================================
~Version information
VERS.   2.0:
WRAP.   NO:
#==================================================================
~Well
STRT .m      1332.7867432 :
STOP .m      2972.7631836 :
STEP .m     0.00000000 :
NULL .        -999.250000 :
COMP.           : COMPANY
WELL.  25/10-9 Aegis   : WELL
FLD.            : FIELD
LOC.            : LOCATION
SRVC.           : SERVICE COMPANY
DATE.  2018-09-11 14:48:15   : Log Export Date {yyyy-MM-dd HH:mm:ss}
PROV.           : PROVINCE
UWI.   25/10-9   : UNIQUE WELL ID
API.            : API NUMBER
#==================================================================
~Curve
DEPT .m                   : DEPTH
Lithology_geolink ._      : Lithology_geolink
CALI .in                  : CALI
BS .in                    : BS
ROP .m/h                  : ROP
DRHO .g/cm3               : DRHO
NPHI .m3/m3               : NPHI
RHOB .g/cm3               : RHOB
PEF .b/e                  : PEF
GR .gAPI                  : GR
DTC .us/ft                : DTC
DTS .us/ft                : DTS
RDEP .ohm.m               : RDEP
RMED .ohm.m               : RMED
~Parameter
#==================================================================
~Ascii
# ...
 2747.6682129 9.0000000000 8.7681999207 8.5000000000 78.989768982 0.0909999982 0.1020072103 2.5162000656 4.7857999802 41.845401764 64.724777222 112.60888672 3.8665454388 3.7384443283
 2747.8205566 9.0000000000 8.7583999634 8.5000000000 74.446617126 0.0886999965 0.1083795205 2.5185999870 4.7439999580 44.767799377 64.597023010 112.84424591 3.8519465923 3.8165488243
 2747.9731445 9.0000000000 8.7496004105 8.5000000000 68.866218567 0.0948000029 0.1124934256 2.5137999058 4.6845002174 46.732299805 64.755050659 112.84719849 3.8618841171 3.8874864578
 2748.1254883 9.0000000000 8.7428998947 8.5000000000 63.847942352 0.0918999985 0.1111022457 2.5086998940 4.4239001274 48.871101379 65.026664734 113.57922363 3.6776957512 3.6934115887
 2748.2778320 9.0000000000 8.7638998032 8.5000000000 57.686389923 0.0932999998 0.1149937510 2.5088999271 4.3126997948 47.920501709 65.402595520 114.01530457 3.6784982681 3.7036831379
 2748.4301758 9.0000000000 8.7664003372 8.5000000000 51.573070526 0.0925000012 0.1171929613 2.4955999851 4.4022998810 46.803600311 64.777404785 114.01051331 3.5325684547 3.5008511543
 2748.5827637 9.0000000000 8.7652997971 8.5000000000 44.780555725 0.0926000029 0.1244883016 2.4967000484 4.6093001366 47.928600311 64.721580505 114.21487427 3.3709585667 3.2455089092
 2748.7351074 9.0000000000 8.7883996964 8.5000000000 36.277736664 0.0971999988 0.1265966296 2.4983999729 4.4468002319 48.339801788 67.350883484 114.22209167 3.4122333527 3.2305233479
 2748.8874512 9.0000000000 8.8228998184 8.5000000000 32.371734619 0.0989999995 0.1270992011 2.4928998947 4.4614000320 45.033000946 68.948440552 114.43844604 3.4593243599 3.2841138840
 2749.0397949 9.0000000000 8.7800998688 8.5000000000 32.686492920 0.0983000025 0.1252030432 2.4941000938 4.4124999046 47.047298431 68.502616882 114.49101257 3.4299471378 3.3576819897
 2749.1921387 9.0000000000 8.7853002548 8.5000000000 34.744705200 0.0966999978 0.1271936148 2.4914999008 4.6947999001 41.204799652 67.689308167 115.03655243 3.2999172211 3.2255246639
 2749.3447266 9.0000000000 8.8170003891 8.5000000000 37.118247986 0.0986000001 0.1269004792 2.4911000729 4.8232998848 42.963600159 67.502395630 115.02412415 3.2269165516 3.0484833717
 2749.4970703 9.0000000000 8.8442001343 8.5000000000 40.485744476 0.0984999985 0.1186133027 2.4781999588 4.5300002098 50.176998138 66.377708435 114.59628296 3.5783357620 3.2844209671
 2749.6494141 9.0000000000 8.7831001282 8.5000000000 42.607494354 0.1041999981 0.1074179485 2.4916000366 4.6157999039 50.221599579 64.403068542 112.92747498 4.3525581360 4.1148676872
 2749.8017578 9.0000000000 8.7190999985 8.5000000000 39.982521057 0.0979999974 0.0929464027 2.5106000900 4.6831998825 45.248699188 62.885162354 111.01652527 4.9556679726 4.8080787659
 2749.9543457 9.0000000000 8.7768001556 8.5000000000 39.888259888 0.0982000083 0.0886068940 2.5394001007 4.8235001564 40.066799164 60.907867432 109.65477753 4.9004917145 4.8567256927
 2750.1066895 9.0000000000 8.8080997467 8.5000000000 43.390377045 0.0996999964 0.0898979157 2.5425999165 4.9931998253 38.686798096 59.509140015 109.43704224 4.8128404617 4.8199591637
 2750.2590332 9.0000000000 8.7929000854 8.5000000000 45.350540161 0.1004000008 0.0967889428 2.5359001160 5.1107997894 40.701599121 60.808910370 109.41323853 4.9415931702 5.1459765434
 2750.4113770 9.0000000000 8.8013000488 8.5000000000 44.648262024 0.1014999971 0.1000894457 2.5425000191 5.3091998100 43.910900116 60.886264801 110.10736847 4.8058362007 5.0146236420
 2750.5639648 9.0000000000 8.7927999496 8.5000000000 47.206848145 0.1027000025 0.1027956679 2.5443999767 5.2270002365 46.432098389 61.719562531 110.81776428 4.6768064499 4.6740460396
 2750.7163086 9.0000000000 8.7983999252 8.5000000000 57.950607300 0.1027999967 0.1048966348 2.5315999985 4.8646998405 48.308700562 61.167587280 111.36122894 5.1471447945 4.9454636574
 2750.8686523 9.0000000000 8.7463998795 8.5000000000 68.096931458 0.1055999994 0.0953153819 2.5332000256 4.9541001320 39.395301819 59.488193512 111.72691345 5.7738952637 5.5499305725
 2751.0209961 9.0000000000 8.7402000427 8.5000000000 71.776596069 0.0957999974 0.0886107385 2.5446999073 5.0682001114 39.053100586 61.089122772 111.45164490 5.8668522835 5.6123013496
 2751.1735840 9.0000000000 8.7585000992 8.5000000000 75.804580688 0.0936999992 0.0896982402 2.5520000458 5.2618999481 41.135501862 62.427158356 110.91835785 5.7968125343 5.4285945892
 2751.3259277 9.0000000000 8.7896995544 8.5000000000 79.098396301 0.1005999967 0.0899995193 2.5492999554 5.1378998756 40.639099121 62.193176270 110.69754791 5.8856573105 5.5089702606
 2751.4782715 9.0000000000 8.7439002991 8.5000000000 73.177825928 0.1061000004 0.0878035277 2.5536999702 5.1753001213 43.231998444 62.443099976 110.59326935 6.2300472260 5.9449005127
 2751.6306152 9.0000000000 8.8070001602 8.5000000000 63.211849213 0.0956000015 0.0852041617 2.5376999378 4.8681001663 49.122600555 61.988033295 110.17037964 7.1212706566 7.2446146011
 2751.7829590 9.0000000000 8.7697000504 8.5000000000 59.971633911 0.0983000025 0.0784217641 2.5495998859 5.1111998558 41.537700653 62.105121613 109.77526855 6.8315343857 6.9306144714
 2751.9355469 9.0000000000 8.7202997208 8.5000000000 59.006130219 0.0927999988 0.0766028836 2.5583999157 5.1417999268 35.408199310 59.449264526 109.02829742 6.6346149445 6.5592947006
 2752.0878906 9.0000000000 8.6907997131 8.5000000000 51.566730499 0.0934000015 0.0800943896 2.5648000240 4.8369998932 40.730998993 60.776863098 108.72917938 6.7757730484 6.4673466682
 2752.2402344 9.0000000000 8.7027997971 8.5000000000 40.161987305 0.0909999982 0.0814977586 2.5529999733 4.5785999298 43.632400513 60.979179382 108.27602386 7.3673505783 7.2890806198
 2752.3925781 9.0000000000 8.7235002518 8.5000000000 25.197587967 0.0913999975 0.0781108811 2.5494000912 4.7403001785 38.777599335 60.005527496 108.13315582 7.2024326324 7.1335034370
 2752.5451660 9.0000000000 8.7179002762 8.5000000000 9.2204494476 0.0957000032 0.0785991922 2.5678999424 5.0215997696 41.215698242 60.039043427 108.17173767 7.0184941292 6.8569431305
 2752.6975098 9.0000000000 8.6715002060 8.5000000000 7.5305581093 0.0948999971 0.0803971142 2.5697999001 5.1293001175 48.117198944 59.754756927 108.57624817 7.2163820267 6.8959364891
 2752.8498535 9.0000000000 8.7278995514 8.5000000000 13.150095940 0.0854000002 0.0829958320 2.5513999462 4.9049000740 45.693401337 59.581878662 108.73524475 7.3929171562 7.1019697189
 2753.0021973 9.0000000000 8.7391996384 8.5000000000 30.963512421 0.0914999992 0.0810064003 2.5687003136 4.9643998146 43.665298462 59.602531433 109.29689789 7.4251976013 7.1777577400
 2753.1547852 9.0000000000 8.7012996674 8.5000000000 42.685344696 0.0900999978 0.0844943896 2.5736999512 4.8921999931 45.367698669 59.493274689 109.39913940 7.5027756691 7.1354680061
 2753.3071289 9.0000000000 8.6653003693 8.5000000000 50.667007446 0.0783000067 0.0877947137 2.5539999008 4.6272997856 46.143100739 59.119499207 109.71878815 7.5371451378 7.2652916908
 2753.4594727 9.0000000000 8.7038002014 8.5000000000 55.179458618 0.0744000003 0.0876003206 2.5413999557 4.5918998718 45.433399200 60.992595673 110.09690857 7.6906533241 7.2210717201
 2753.6118164 9.0000000000 8.7313995361 8.5000000000 60.299865723 0.0920000002 0.0854035243 2.5622999668 4.9732999802 47.931701660 62.044017792 110.38053894 7.7679762840 7.4463381767
 2753.7641602 9.0000000000 8.7209997177 8.5000000000 63.549961090 0.0900999978 0.0866958424 2.5550000668 4.9305000305 43.441799164 62.885604858 110.68771362 7.7911262512 7.6507449150
 2753.9167480 9.0000000000 8.7650003433 8.5000000000 58.937206268 0.0918999985 0.0883972719 2.5506000519 4.8120999336 47.001499176 59.833702087 111.12020874 7.1000094414 7.0732278824
 2754.0690918 9.0000000000 8.7580003738 8.5000000000 56.272968292 0.0966999978 0.0884998366 2.5627000332 4.8951997757 42.699001312 54.357086182 111.56638336 6.3717675209 6.3874993324
 2754.2214355 9.0000000000 8.7704000473 8.5000000000 55.542831421 0.0935000032 0.0981844589 2.5608000755 5.3793997765 38.992698669 52.822143555 112.37949371 5.4610600471 5.4700708389
