# LAS format log file from PETREL
# Project units are specified as depth units
#==================================================================
~Version information
VERS.   2.0:
WRAP.   NO:
#==================================================================
~Well
STRT .m      1332.7867432 :
STOP .m      2972.7631836 :
STEP .m     0.00000000 :
NULL .        -999.250000 :
COMP.           : COMPANY
WELL.  25/10-9 Aegis   : WELL
FLD.            : FIELD
LOC.            : LOCATION
SRVC.           : SERVICE COMPANY
DATE.  2018-09-11 14:48:15   : Log Export Date {yyyy-MM-dd HH:mm:ss}
PROV.           : PROVINCE
UWI.   25/10-9   : UNIQUE WELL ID
API.            : API NUMBER
#==================================================================
~Curve
DEPT .m                   : DEPTH
Lithology_geolink ._      : Lithology_geolink
CALI .in                  : CALI
BS .in                    : BS
ROP .m/h                  : ROP
DRHO .g/cm3               : DRHO
NPHI .m3/m3               : NPHI
RHOB .g/cm3               : RHOB
PEF .b/e                  : PEF
GR .gAPI                  : GR
DTC .us/ft                : DTC
DTS .us/ft                : DTS
RDEP .ohm.m               : RDEP
RMED .ohm.m               : RMED
~Parameter
#==================================================================
~Ascii
# ...
 2968.9531250 7.0000000000 8.5230998993 8.5000000000 113.50623322 0.0540999994  -999.250000 2.7356998920 5.5388998985 121.75769806  -999.250000  -999.250000 5.3294000626 4.9573001862
 2969.1057129 7.0000000000 8.4596996307 8.5000000000 107.40190125 0.0524000004  -999.250000 2.7135000229 5.4204998016 116.40110016  -999.250000  -999.250000 4.7347998619 4.3787999153
 2969.2580566 7.0000000000 8.6035003662 8.5000000000 107.48524475 0.0564999990  -999.250000 2.6970999241 4.7218999863 115.00579834  -999.250000  -999.250000 4.3515000343 4.0219998360
 2969.4104004 7.0000000000 8.7658996582 8.5000000000 112.72998810 0.0595999993  -999.250000 2.6459999084 4.1543002129 120.76909637  -999.250000  -999.250000 3.6535999775 3.3338999748
 2969.5627441 7.0000000000 8.8413000107 8.5000000000 118.72966003 0.0612000003  -999.250000 2.5604000092 3.7025001049 114.13500214  -999.250000  -999.250000 3.5985999107 3.4054999352
 2969.7150879 7.0000000000 8.6833000183 8.5000000000 119.93701172 0.0601999983  -999.250000 2.5104000568 3.7160000801 118.26869965  -999.250000  -999.250000 3.9040000439 3.7843000889
 2969.8676758 7.0000000000 8.5527000427 8.5000000000 121.21653748 0.0623999983  -999.250000 2.5199000835 3.7318999767 123.45819855  -999.250000  -999.250000 4.6750998497 4.5510997772
 2970.0200195 7.0000000000 8.5604000092 8.5000000000 123.31463623 0.0694999993  -999.250000 2.5697000027 3.7481000423 127.34760284  -999.250000  -999.250000 4.6163997650 4.5510997772
 2970.1723633 7.0000000000 8.5833997726 8.5000000000 124.88287354 0.0684000030  -999.250000 2.5850999355 3.5610001087 135.14270020  -999.250000  -999.250000 4.7353000641 4.7839999199
 2970.3247070 7.0000000000 8.5971002579 8.5000000000 126.57973480 0.0666000098  -999.250000 2.5875999928 3.4374001026 149.98609924  -999.250000  -999.250000 4.8116002083 5.1401000023
 2970.4772949 7.0000000000 8.5216999054 8.5000000000 127.24737549 0.0577000007  -999.250000 2.5611000061 3.2251000404 156.55940247  -999.250000  -999.250000 4.8913998604 5.4306998253
 2970.6296387 7.0000000000 8.5352001190 8.5000000000 125.30085754 0.0590999983  -999.250000 2.5669000149 3.2655999660 141.63229370  -999.250000  -999.250000 5.0981998444 5.5089998245
 2970.7819824 7.0000000000 8.5559997559 8.5000000000 119.87731171 0.0614000000  -999.250000 2.5757999420 3.3280999660 130.07789612  -999.250000  -999.250000 5.8091998100 5.7866001129
 2970.9343262 7.0000000000 8.5072002411 8.5000000000 114.14304352 0.0560000017  -999.250000 2.5657999516 3.3484001160 132.51570129  -999.250000  -999.250000 5.8545999527 6.0127000809
 2971.0869141 7.0000000000 8.4752998352 8.5000000000 105.50721741 0.0548000000  -999.250000 2.5883998871 3.3234999180 130.58020020  -999.250000  -999.250000 5.8723001480 5.9836997986
 2971.2392578 7.0000000000 8.4546003342 8.5000000000 99.487205505 0.0546999983  -999.250000 2.6129000187 3.2943999767 123.74700165  -999.250000  -999.250000 5.8320999146 5.7072000504
 2971.3916016 7.0000000000 8.4119997025 8.5000000000 102.05315399 0.0381999984  -999.250000 2.6212999821 3.8247001171 113.14369965  -999.250000  -999.250000 5.2609000206 4.7687001228
 2971.5439453 7.0000000000 8.4119997025 8.5000000000 107.86417389 0.0381999984  -999.250000 2.6212999821 3.8247001171 110.69480133  -999.250000  -999.250000 5.8470001221 5.2248997688
 2971.6962891 7.0000000000 8.5181999207 8.5000000000 112.99705505 0.0518000014  -999.250000 2.6528000832 4.1795997620 123.29450226  -999.250000  -999.250000 6.1394000053 5.7286000252
 2971.8488770 7.0000000000 8.5433998108 8.5000000000 114.98655701 0.0551000014  -999.250000 2.6603000164 4.2641000748 115.48010254  -999.250000  -999.250000 6.2291998863 5.9436998367
 2972.0012207 7.0000000000 8.4836997986 8.5000000000 111.85925293 0.0533999987  -999.250000 2.6354999542 4.2996001244 114.63890076  -999.250000  -999.250000 6.1192002296 5.7968997955
 2972.1535645 7.0000000000 8.5289001465 8.5000000000 105.35629272 0.0507000014  -999.250000 2.7232999802 4.9825000763 122.64320374  -999.250000  -999.250000 5.6958999634 5.2207999229
 2972.3059082 7.0000000000 8.8431997299 8.5000000000 99.611221313 0.0320000015  -999.250000 2.7590000629 6.0092000961 139.42030334  -999.250000  -999.250000 5.5532999039 5.6034998894
 2972.4584961 7.0000000000 8.6372003555 8.5000000000 98.719818115 0.0416000001  -999.250000 2.6535000801 4.8654999733 119.24720001  -999.250000  -999.250000 5.2943000793 5.6939997673
 2972.6108398 7.0000000000 8.6336002350 8.5000000000 104.30544281 0.0441999994  -999.250000 2.5662000179 4.1160001755 124.98539734  -999.250000  -999.250000 3.7888998985 4.3498001099
 2972.7631836 7.0000000000 8.6222000122 8.5000000000 112.47539520 0.0619999990  -999.250000 2.5601999760 3.6617999077 125.99810028  -999.250000  -999.250000 2.5790998936 3.0843999386
