# LAS format log file from PETREL
# Project units are specified as depth units
#==================================================================
~Version information
VERS.   2.0:
WRAP.   NO:
#==================================================================
~Well
STRT .m      383.59057617 :
STOP .m      2173.8320313 :
STEP .m     0.00000000 :
NULL .        -999.250000 :
COMP.           : COMPANY
WELL.  25/11-5 Balder Appr   : WELL
FLD.            : FIELD
LOC.            : LOCATION
SRVC.           : SERVICE COMPANY
DATE.  2018-09-11 14:48:16   : Log Export Date {yyyy-MM-dd HH:mm:ss}
PROV.           : PROVINCE
UWI.   25/11-5   : UNIQUE WELL ID
API.            : API NUMBER
#==================================================================
~Curve
DEPT .m                   : DEPTH
Lithology_geolink ._      : Lithology_geolink
DCAL .in                  : DCAL
CALI .in                  : CALI
BS .in                    : BS
MUDWEIGHT ._              : MUDWEIGHT
DRHO .g/cm3               : DRHO
NPHI .m3/m3               : NPHI
RHOB .g/cm3               : RHOB
GR .gAPI                  : GR
DTC .us/ft                : DTC
RDEP .ohm.m               : RDEP
SP .mV                    : SP
RMED .ohm.m               : RMED
~Parameter
#==================================================================
~Ascii
# ...
 1101.0892334  -999.250000 0.1079998016 12.357999802 12.250000954 9.1999998093  -999.250000  -999.250000  -999.250000 64.886001587 135.52182007 1.3860040903 42.085838318 1.3689967394
 1101.2415771  -999.250000 0.1070004031 12.357000351 12.250000954 9.1999998093  -999.250000  -999.250000  -999.250000 63.029998779 134.37841797 1.3820031881 42.043033600 1.3989759684
 1101.3940430  -999.250000 0.0659999773 12.315999031 12.250000954 9.1999998093  -999.250000  -999.250000  -999.250000 62.254001617 133.40339661 1.3789999485 42.039001465 1.4179999828
 1101.5463867  -999.250000 0.0509996377 12.300999641 12.250000954 9.1999998093  -999.250000  -999.250000  -999.250000 63.575000763 134.70306396 1.3789999485 42.141914368 1.4160015583
 1101.6988525  -999.250000 0.0480003394 12.298000336 12.250000954 9.1999998093  -999.250000  -999.250000  -999.250000 66.567001343 135.29330444 1.3789999485 42.290000916 1.4060000181
 1101.8511963  -999.250000 0.0399999656 12.289999008 12.250000954 9.1999998093  -999.250000  -999.250000  -999.250000 66.370002747 135.32557678 1.3740040064 42.588760376 1.3820191622
 1102.0036621  -999.250000 0.0319995917 12.281999588 12.250000954 9.1999998093  -999.250000  -999.250000  -999.250000 62.536998749 135.93750000 1.3639999628 42.534000397 1.3569999933
 1102.1560059  -999.250000 0.0290002804 12.279000282 12.250000954 9.1999998093  -999.250000  -999.250000  -999.250000 62.930999756 134.16781616 1.3550071716 42.439075470 1.3370159864
 1102.3084717  -999.250000 0.0279998817 12.277999878 12.250000954 9.1999998093  -999.250000  -999.250000  -999.250000 61.965000153 132.44700623 1.3509999514 42.588001251 1.3289999962
 1102.4608154  -999.250000 0.0270004310 12.277001381 12.250000954 9.1999998093  -999.250000  -999.250000  -999.250000 60.425998688 132.68341064 1.3470032215 42.538036346 1.3289999962
 1102.6132813  -999.250000 0.0229997598 12.272999763 12.250000954 9.1999998093  -999.250000  -999.250000  -999.250000 61.168998718 133.42689514 1.3439999819 42.736000061 1.3329999447
 1102.7656250  -999.250000 0.0190000497 12.269000053 12.250000954 9.1999998093  -999.250000  -999.250000  -999.250000 62.029998779 133.79310608 1.3459984064 42.820930481 1.3449903727
 1102.9179688  -999.250000 0.0150003396 12.265000343 12.250000954 9.1999998093  -999.250000  -999.250000  -999.250000 61.726001740 134.67868042 1.3609879017 42.354000092 1.3539928198
 1103.0704346  -999.250000 0.0120000802 12.262000084 12.250000954 9.1999998093  -999.250000  -999.250000  -999.250000 62.793998718 135.72816467 1.3769872189 41.700000763 1.3539999723
 1103.2227783  -999.250000 0.0080003738 12.258000374 12.250000954 9.1999998093  -999.250000  -999.250000  -999.250000 64.367996216 135.45901489 1.3909888268 41.464000702 1.3639919758
 1103.3752441  -999.250000 0.0270004310 12.277001381 12.250000954 9.1999998093  -999.250000  -999.250000  -999.250000 64.828002930 135.55290222 1.4010000229 41.912998199 1.3910000324
 1103.5275879  -999.250000 0.0810003355 12.331000328 12.250000954 9.1999998093  -999.250000  -999.250000  -999.250000 64.983001709 135.94537354 1.4089936018 41.962001801 1.4019911289
 1103.6800537  -999.250000 0.1359996945 12.385999680 12.250000954 9.1999998093  -999.250000  -999.250000  -999.250000 64.676002502 135.95570374 1.4040000439 41.839000702 1.3769999743
 1103.8323975  -999.250000 0.1909999996 12.440999031 12.250000954 9.1999998093  -999.250000  -999.250000  -999.250000 66.341003418 136.83729553 1.3680288792 41.708000183 1.3330352306
 1103.9848633  -999.250000 0.1920004040 12.442001343 12.250000954 9.1999998093  -999.250000  -999.250000  -999.250000 70.457000732 138.08000183 1.3250000477 41.622001648 1.3109999895
 1104.1372070  -999.250000 0.1400002986 12.390000343 12.250000954 9.1999998093  -999.250000  -999.250000  -999.250000 73.289001465 138.74336243 1.2970224619 41.787998199 1.2940136194
 1104.2896729  -999.250000 0.1020001993 12.352001190 12.250000954 9.1999998093  -999.250000  -999.250000  -999.250000 72.231002808 138.86059570 1.2829999924 41.837001801 1.2779999971
 1104.4420166  -999.250000 0.0869999006 12.336999893 12.250000954 9.1999998093  -999.250000  -999.250000  -999.250000 70.602996826 138.73440552 1.2700103521 41.736999512 1.2620127201
 1104.5944824  -999.250000 0.1000003964 12.350000381 12.250000954 9.1999998093  -999.250000  -999.250000  -999.250000 67.586997986 138.68719482 1.2569999695 41.835998535 1.2469999790
 1104.7468262  -999.250000 0.1199998930 12.369999886 12.250000954 9.1999998093  -999.250000  -999.250000  -999.250000 66.566001892 138.42161560 1.2440103292 41.886001587 1.2340103388
 1104.8992920  -999.250000 0.1409997940 12.390999794 12.250000954 9.1999998093  -999.250000  -999.250000  -999.250000 65.792999268 138.01130676 1.2300000191 42.129001617 1.2209999561
 1105.0516357  -999.250000 0.1610002965 12.411000252 12.250000954 9.1999998093  -999.250000  -999.250000  -999.250000 62.047000885 137.24400330 1.2180097103 42.333000183 1.2090096474
 1105.2039795  -999.250000 0.1770000011 12.427000999 12.250000954 9.1999998093  -999.250000  -999.250000  -999.250000 62.597999573 136.94464111 1.2070088387 42.626998901 1.2030047178
 1105.3564453  -999.250000 0.1680001915 12.418000221 12.250000954 9.1999998093  -999.250000  -999.250000  -999.250000 63.946998596 137.81230164 1.1990064383 42.680999756 1.2069967985
 1105.5087891  -999.250000 0.1590003967 12.409000397 12.250000954 9.1999998093  -999.250000  -999.250000  -999.250000 65.820999146 138.80101013 1.1900072098 42.631000519 1.2099976540
 1105.6612549  -999.250000 0.1350001991 12.385000229 12.250000954 9.1999998093  -999.250000  -999.250000  -999.250000 65.825996399 139.47399902 1.1829999685 42.326999664 1.2109999657
 1105.8135986  -999.250000 0.2430000007 12.493000031 12.250000954 9.1999998093  -999.250000  -999.250000  -999.250000 63.991001129 138.68124390 1.1770048141 42.388000488 1.2070032358
 1105.9660645  -999.250000 0.3310002983 12.581000328 12.250000954 9.1999998093  -999.250000  -999.250000  -999.250000 60.004001617 137.49310303 1.1729999781 42.529998779 1.1979999542
 1106.1184082  -999.250000 0.3079995811 12.557998657 12.250000954 9.1999998093  -999.250000  -999.250000  -999.250000 56.659999847 135.83442688 1.1670048237 42.868000031 1.1710215807
 1106.2708740  -999.250000 0.2620001137 12.512000084 12.250000954 9.1999998093  -999.250000  -999.250000  -999.250000 54.096000671 132.45469666 1.1560000181 42.505001068 1.1280000210
 1106.4232178  -999.250000 0.2980003059 12.548000336 12.250000954 9.1999998093  -999.250000  -999.250000  -999.250000 53.960998535 132.91413879 1.1300208569 41.652000427 1.0860335827
 1106.5756836  -999.250000 0.3470000923 12.597000122 12.250000954 9.1999998093  -999.250000  -999.250000  -999.250000 53.823001862 136.75079346 1.0740000010 41.054000854 1.0499999523
 1106.7280273  -999.250000 0.4890002906 12.739000320 12.250000954 9.1999998093  -999.250000  -999.250000  -999.250000 53.321998596 138.71562195 1.0190440416 40.694000244 1.0220223665
 1106.8804932  -999.250000 0.5299996734 12.779999733 12.250000954 9.1999998093  -999.250000  -999.250000  -999.250000 52.597000122 140.11439514 0.9819999933 40.411998749 1.0160000324
 1107.0328369  -999.250000 0.3319998384 12.581999779 12.250000954 9.1999998093  -999.250000  -999.250000  -999.250000 51.889999390 140.15257263 0.9730072021 41.058998108 1.0859439373
 1107.1851807  -999.250000 0.2810001075 12.531000137 12.250000954 9.1999998093  -999.250000  -999.250000  -999.250000 57.740001678 138.86584473 1.0009776354 41.664001465 1.1849206686
 1107.3376465  -999.250000 0.3310002983 12.581000328 12.250000954 9.1999998093  -999.250000  -999.250000  -999.250000 62.483001709 137.52267456 1.0469632149 42.056999207 1.2219703197
 1107.4899902  -999.250000 0.2340002209 12.484000206 12.250000954 9.1999998093  -999.250000  -999.250000  -999.250000 63.875000000 135.56556702 1.0859687328 41.949001312 1.2359887362
 1107.6424561  -999.250000 0.1630000919 12.413000107 12.250000954 9.1999998093  -999.250000  -999.250000  -999.250000 64.611999512 134.13619995 1.1239999533 41.894001007 1.2150000334
