# LAS format log file from PETREL
# Project units are specified as depth units
#==================================================================
~Version information
VERS.   2.0:
WRAP.   NO:
#==================================================================
~Well
STRT .m      3054.5593262 :
STOP .m      3397.3076172 :
STEP .m     0.00000000 :
NULL .        -999.250000 :
COMP.           : COMPANY
WELL.  25/10-8A  Hanz Appr   : WELL
FLD.            : FIELD
LOC.            : LOCATION
SRVC.           : SERVICE COMPANY
DATE.  2018-09-11 14:48:15   : Log Export Date {yyyy-MM-dd HH:mm:ss}
PROV.           : PROVINCE
UWI.   25/10-8 A   : UNIQUE WELL ID
API.            : API NUMBER
#==================================================================
~Curve
DEPT .m                   : DEPTH
Lithology_geolink ._      : Lithology_geolink
NPHI .m3/m3               : NPHI
RHOB .g/cm3               : RHOB
GR .gAPI                  : GR
RDEP .ohm.m               : RDEP
RSHA .ohm.m               : RSHA
~Parameter
#==================================================================
~Ascii
 3054.5593262 11.000000000 0.0779099986 2.5349323750 12.992690086 3.8106029034 4.3182072639
 3054.7116699 11.000000000 0.0779099986 2.5356032848 13.679100037 3.9982991219 4.3742256165
 3054.8640137 11.000000000 0.0777200013 2.5387809277 14.504256248 4.1522135735 4.3688621521
 3055.0166016 11.000000000 0.0772200003 2.5497915745 15.228816986 4.1679735184 4.3619813919
 3055.1689453 11.000000000 0.0764599964 2.5659327507 16.005128860 4.1714591980 4.3645763397
 3055.3212891 11.000000000 0.0756099969 2.5809445381 16.758304596 4.2699255943 4.3678846359
 3055.4736328 11.000000000 0.0747599974 2.5882818699 17.123605728 4.4000458717 4.3988246918
 3055.6262207 11.000000000 0.0739099979 2.5897462368 17.214845657 4.4566493034 4.5479378700
 3055.7785645 11.000000000 0.0730700046 2.5889790058 17.306735992 4.4758362770 4.5270452499
 3055.9309082 11.000000000 0.0722199976 2.5856075287 17.470413208 4.4211015701 4.3505878448
 3056.0832520 11.000000000 0.0713699982 2.5811474323 17.672916412 4.3405184746 4.3033304214
 3056.2355957 11.000000000 0.0705199987 2.5778999329 17.903633118 4.3332028389 4.2286396027
 3056.3881836 11.000000000 0.0696799979 2.5763359070 17.970487595 4.2861776352 4.1515722275
 3056.5405273 11.000000000 0.0688299984 2.5752089024 17.731260300 4.2049875259 4.1482996941
 3056.6928711 11.000000000 0.0679799989 2.5736696720 17.409568787 4.1436934471 4.1284856796
 3056.8452148 11.000000000 0.0671800002 2.5723583698 17.196094513 4.0978407860 4.0638432503
 3056.9978027 11.000000000 0.0668699965 2.5711109638 16.935234070 4.0693693161 4.0354533195
 3057.1501465 11.000000000 0.0672200024 2.5691468716 16.417804718 4.0873799324 4.1295294762
 3057.3024902 11.000000000 0.0679000020 2.5655133724 15.712609291 4.1558699608 4.3027505875
 3057.4548340 11.000000000 0.0686300024 2.5619223118 15.132008553 4.1347413063 4.7029371262
 3057.6074219 11.000000000 0.0691000000 2.5602827072 14.325758934 4.0123696327 5.0726194382
 3057.7597656 11.000000000 0.0694499984 2.5597987175 13.516304970 3.9519200325 5.1133790016
 3057.9121094 11.000000000 0.0698899999 2.5592722893 13.043858528 3.9954094887 4.9616045952
 3058.0644531 11.000000000 0.0703700036 2.5589792728 12.820569992 4.1200456619 4.7805600166
 3058.2167969 11.000000000 0.0707900003 2.5583598614 12.641430855 4.2055487633 4.8720917702
 3058.3693848 11.000000000 0.0713799968 2.5551249981 12.519012451 4.2412018776 5.0703382492
 3058.5217285 11.000000000 0.0733300000 2.5472896099 12.689755440 4.2975020409 5.0995707512
 3058.6740723 11.000000000 0.0760900006 2.5395679474 13.034765244 4.3364124298 4.9200940132
 3058.8264160 11.000000000 0.0778000057 2.5346632004 13.395494461 4.2955961227 4.6886577606
 3058.9790039 11.000000000 0.0791599974 2.5326561928 13.716225624 4.2463445663 4.5836019516
 3059.1313477 11.000000000 0.0827400014 2.5308017731 14.223063469 4.2213492393 4.5268516541
 3059.2836914 11.000000000 0.0860600024 2.5267908573 14.648462296 4.1664695740 4.4189662933
 3059.4360352 11.000000000 0.0873999968 2.5230720043 14.848107338 4.0553665161 4.2593221664
 3059.5886230 11.000000000 0.0876599997 2.5213310719 14.922232628 4.0169763565 4.1961956024
 3059.7409668 11.000000000 0.0878100023 2.5201566219 14.754981041 3.9410254955 4.1150422096
 3059.8933105 11.000000000 0.0879900008 2.5172564983 14.335873604 3.8511738777 3.9689321518
 3060.0456543 11.000000000 0.0900000036 2.5095503330 13.848636627 3.7802319527 3.8611726761
 3060.1982422 11.000000000 0.0914500058 2.5007936954 13.445906639 3.6509797573 3.6841077805
 3060.3505859 11.000000000 0.0894999951 2.4986858368 13.093857765 3.5639178753 3.3853330612
 3060.5029297 11.000000000 0.0870400071 2.5039188862 12.835136414 3.5569572449 3.2439036369
 3060.6552734 11.000000000 0.0858600065 2.5118734837 12.701712608 3.5555739403 3.3080947399
 3060.8076172 11.000000000 0.0853199959 2.5204577446 12.767760277 3.5088491440 3.4799079895
 3060.9602051 11.000000000 0.0849899948 2.5261907578 13.064546585 3.4683628082 3.5832231045
 3061.1125488 11.000000000 0.0851299986 2.5279157162 13.620983124 3.4603226185 3.5607614517
 3061.2648926 11.000000000 0.0854800045 2.5272221565 14.204468727 3.4597330093 3.5553717613
 3061.4172363 11.000000000 0.0882100016 2.5262513161 14.948342323 3.4373643398 3.7787008286
 3061.5698242 11.000000000 0.0914700031 2.5260229111 15.792502403 3.3696663380 4.0053033829
 3061.7221680 11.000000000 0.0909700021 2.5265438557 16.463039398 3.2288916111 3.8455612659
 3061.8745117 11.000000000 0.0880599990 2.5263359547 16.733102798 3.1142258644 3.5823743343
 3062.0268555 11.000000000 0.0853300020 2.5254046917 16.511178970 3.0900776386 3.4889421463
 3062.1794434 11.000000000 0.0818700045 2.5249309540 16.156463623 3.1122350693 3.5023488998
 3062.3317871 11.000000000 0.0781399980 2.5227828026 15.644371986 3.1684358120 3.6179211140
 3062.4841309 11.000000000 0.0780000016 2.5147247314 14.820558548 3.1442878246 3.7398436069
 3062.6364746 11.000000000 0.0793500021 2.5030612946 13.727965355 3.1337113380 3.5332677364
 3062.7888184 11.000000000 0.0800800025 2.4937832355 12.982312202 3.1454749107 3.2466661930
 3062.9414063 11.000000000 0.0818599984 2.4902198315 12.772981644 3.0374479294 3.2322671413
 3063.0937500 11.000000000 0.0850899965 2.4893379211 12.729733467 2.9132194519 3.1998119354
 3063.2460938 11.000000000 0.0895400047 2.4888608456 12.658168793 2.8552486897 3.0984201431
 3063.3984375 11.000000000 0.0922000036 2.4878270626 12.609507561 2.8361625671 3.0762341022
 3063.5510254 11.000000000 0.0928899944 2.4852378368 12.581603050 2.8545823097 3.0768537521
 3063.7033691 11.000000000 0.0965600014 2.4806933403 12.487550735 2.8950963020 3.0639765263
 3063.8557129 11.000000000 0.1050100029 2.4742853642 12.332445145 2.9003157616 3.0422635078
 3064.0080566 11.000000000 0.1093999967 2.4647808075 12.287251472 2.8535468578 2.9428529739
 3064.1606445 11.000000000 0.1131400019 2.4565284252 12.418477058 2.7845339775 2.8031573296
 3064.3129883 11.000000000 0.1159700006 2.4534010887 12.650856018 2.7247965336 2.6700801849
 3064.4653320 11.000000000 0.1143299937 2.4551701546 12.937502861 2.7051193714 2.6045436859
 3064.6176758 11.000000000 0.1100699976 2.4597213268 13.389824867 2.7152645588 2.6496417522
 3064.7700195 11.000000000 0.1059900001 2.4641573429 13.824459076 2.7189123631 2.6988983154
 3064.9226074 11.000000000 0.1036699936 2.4676501751 14.053606987 2.6774632931 2.7106697559
 3065.0749512 11.000000000 0.1030699983 2.4689733982 14.215682983 2.6449313164 2.6859991550
 3065.2272949 11.000000000 0.1029199958 2.4690475464 14.489874840 2.6482684612 2.6463723183
 3065.3796387 11.000000000 0.1026699990 2.4702954292 14.711863518 2.6413447857 2.6056690216
 3065.5322266 11.000000000 0.1027400047 2.4728233814 14.649952888 2.6183123589 2.6352806091
 3065.6845703 11.000000000 0.1029699966 2.4735987186 14.421753883 2.5329618454 2.7479197979
 3065.8369141 11.000000000 0.1033800021 2.4717688560 14.225693703 2.4175300598 2.7237069607
 3065.9892578 11.000000000 0.1087100059 2.4684281349 14.093677521 2.3394732475 2.6063497066
 3066.1418457 11.000000000 0.1131099984 2.4619514942 13.789566040 2.3235771656 2.5254397392
 3066.2941895 11.000000000 0.1161300018 2.4529318810 13.370302200 2.3312981129 2.4916257858
 3066.4465332 11.000000000 0.1189999953 2.4440445900 13.110589981 2.3418908119 2.4391975403
 3066.5988770 11.000000000 0.1225599945 2.4355945587 13.014563560 2.3423378468 2.3844025135
 3066.7512207 11.000000000 0.1254500002 2.4272146225 12.947158813 2.3130993843 2.2898464203
 3066.9038086 11.000000000 0.1274899989 2.4248239994 12.910740852 2.2426657677 2.1387174129
 3067.0561523 11.000000000 0.1285499930 2.4293446541 12.973005295 2.1679980755 2.0077660084
 3067.2084961 11.000000000 0.1243000031 2.4374086857 13.118571281 2.1496555805 1.9398328066
 3067.3608398 11.000000000 0.1170300022 2.4466302395 13.165850639 2.2222282887 1.9521474838
 3067.5134277 11.000000000 0.1095400080 2.4584541321 13.035844803 2.4577841759 2.0996594429
 3067.6657715 11.000000000 0.1055700034 2.4695432186 12.702399254 2.6774146557 2.2895541191
