# LAS format log file from PETREL
# Project units are specified as depth units
#==================================================================
~Version information
VERS.   2.0:
WRAP.   NO:
#==================================================================
~Well
STRT .m      1456.9927979 :
STOP .m      2094.7868652 :
STEP .m     0.00000000 :
NULL .        -999.250000 :
COMP.           : COMPANY
WELL.  25/11-24 Jakob South   : WELL
FLD.            : FIELD
LOC.            : LOCATION
SRVC.           : SERVICE COMPANY
DATE.  2018-09-11 14:48:16   : Log Export Date {yyyy-MM-dd HH:mm:ss}
PROV.           : PROVINCE
UWI.   25/11-24   : UNIQUE WELL ID
API.            : API NUMBER
#==================================================================
~Curve
DEPT .m                   : DEPTH
Lithology_geolink ._      : Lithology_geolink
DCAL .in                  : DCAL
CALI .in                  : CALI
BS .in                    : BS
ROP .m/h                  : ROP
DRHO .g/cm3               : DRHO
NPHI .m3/m3               : NPHI
RHOB .g/cm3               : RHOB
PEF .b/e                  : PEF
GR .gAPI                  : GR
DTC .us/ft                : DTC
DTS .us/ft                : DTS
RDEP .ohm.m               : RDEP
RMIC .ohm.m               : RMIC
RMED .ohm.m               : RMED
~Parameter
#==================================================================
~Ascii
# ...
 1706.6240234 5.0000000000 0.2404002994 8.7404003143 8.5000000000 51.998359680 -0.001300000 0.7340999842 2.1140000820 3.4584999084 181.12719727 150.81820679 460.10180664 0.6582000256 0.4413000047 0.6639000177
 1706.7763672 5.0000000000 0.2327995002 8.7327995300 8.5000000000 51.998359680 0.0006000000 0.6883000135 2.1117000580 3.3984999657 182.25489807 150.77801514 462.09341431 0.6331999898 0.5958999991 0.6392999887
 1706.9288330 5.0000000000 0.2201004177 8.7201004028 8.5000000000 51.998359680 0.0038999999 0.6237000227 2.1015000343 3.3926999569 182.53559875 150.41560364 463.56311035 0.6223999858 0.5418000221 0.6284000278
 1707.0811768 5.0000000000 0.3497000337 8.8496999741 8.5000000000 51.998359680 0.0087000001 0.6193000078 2.0573999882 3.5736999512 176.22189331 150.11790466 464.21078491 0.6058999896 0.6258999705 0.6118000150
 1707.2336426 5.0000000000 0.3953999877 8.8954000473 8.5000000000 51.998359680 0.0098000001 0.6811000109 2.0711998940 3.5555999279 174.46780396 151.73789978 464.62539673 0.5965999961 0.4993000031 0.6040999889
 1707.3859863 5.0000000000 0.1466999054 8.6466999054 8.5000000000 51.998359680 0.0063999998 0.6754000187 2.1491999626 3.3699998856 177.67030334 151.51469421 463.81063843 0.6043000221 0.6250000000 0.6118000150
 1707.5384521 5.0000000000 0.2174996734 8.7174997330 8.5000000000 51.998359680 -0.000900000 0.6238999963 2.1675999165 3.2214999199 184.54420471 151.60690308 460.05050659 0.6312000155 0.7315000296 0.6394000053
 1707.6907959 5.0000000000 0.2480000854 8.7480001450 8.5000000000 63.026245117 -0.006100000 0.6169999838 2.1542000771 3.1947000027 184.16340637 151.28210449 457.02621460 0.6369000077 0.7225999832 0.6450999975
 1707.8432617 5.0000000000 0.2531003952 8.7531003952 8.5000000000 63.026245117 -0.007800000 0.6298999786 2.1475999355 3.2235999107 177.62049866 151.71659851 453.48364258 0.6502000093 0.7455999851 0.6585999727
 1707.9956055 5.0000000000 0.2353001088 8.7353000641 8.5000000000 63.026245117 -0.006500000 0.6439999938 2.1473999023 3.2755000591 176.17419434 151.13720703 452.75729370 0.6492000222 0.7415999770 0.6582999825
 1708.1479492 5.0000000000 0.2174996734 8.7174997330 8.5000000000 63.026245117 0.0004000000 0.6718000174 2.1549000740 3.3134000301 177.44839478 148.17120361 454.47872925 0.6385999918 0.6844999790 0.6470999718
 1708.3004150 5.0000000000 0.1717997044 8.6717996597 8.5000000000 63.026245117 0.0175000001 0.6819999814 2.0606999397 3.2813999653 181.06410217 148.49470520 456.39968872 0.6176000237 0.6428999901 0.6229000092
 1708.4527588 5.0000000000 0.1540002972 8.6540002823 8.5000000000 63.026245117 0.0281000007 0.7429999709 2.0676000118 3.4021000862 177.27619934 148.89718628 458.60894775 0.5425000191 0.4702999890 0.5454999804
 1708.6052246 5.0000000000 0.1540002972 8.6540002823 8.5000000000 63.026245117 0.0281000007 0.7789000273 2.1147000790 3.4379999638 176.31199646 149.91848755 460.45053101 0.5637999773 0.3995000124 0.5666999817
 1708.7575684 5.0000000000 0.1387996972 8.6387996674 8.5000000000 63.026245117 0.0155999996 0.7569000125 2.0722000599 3.3106000423 178.17149353 150.27270508 460.90835571 0.6197999716 0.5209000111 0.6201000214
 1708.9100342 5.0000000000 0.1210003048 8.6210002899 8.5000000000 48.461620331 0.0088000000 0.7243000269 2.0478999615 3.6024999619 178.20590210 150.31289673 458.55233765 0.5565999746 0.4801000059 0.5544000268
 1709.0623779 5.0000000000 0.1234999076 8.6234998703 8.5000000000 48.461620331 0.0142999999 0.7135999799 2.0704998970 3.7012000084 172.45509338 150.27400208 455.80398560 0.5924999714 0.4796999991 0.5900999904
 1709.2148438 5.0000000000 0.1159000024 8.6159000397 8.5000000000 48.461620331 0.0287999995 0.7348999977 2.1092998981 3.4572999477 169.73469543 149.67649841 456.26983643 0.6528999805 0.5839999914 0.6478999853
 1709.3671875 5.0000000000 0.0701999664 8.5701999664 8.5000000000 48.461620331 0.0571000017 0.6628999710 2.0931000710 3.5502998829 175.10670471 149.73789978 453.84646606 0.6499999762 0.6804999709 0.6449999809
 1709.5196533 5.0000000000 0.1464004964 8.6464004517 8.5000000000 48.461620331 0.0768000036 0.6583999991 2.0325000286 3.8183999062 180.82310486 149.35420227 452.20440674 0.6273999810 0.4587999880 0.6219999790
 1709.6719971 5.0000000000 0.1464004964 8.6464004517 8.5000000000 48.461620331 0.0838999972 0.5989999771 2.0483000278 3.8627998829 180.03100586 149.04010010 450.95269775 0.6348999739 0.4954999983 0.6251000166
 1709.8244629 5.0000000000 0.2277002186 8.7277002335 8.5000000000 32.585300446 0.0709000006 0.6601999998 1.9910999537 4.1497998238 173.76370239 149.18179321 450.41482544 0.6183000207 0.2484000027 0.6082000136
 1709.9768066 5.0000000000 0.0956001282 8.5956001282 8.5000000000 32.585300446 0.0538999997 0.6662999988 2.0599000454 4.1634001732 173.79809570 149.16169739 448.92340088 0.6606000066 0.2365999967 0.6493999958
 1710.1292725 5.0000000000 0.0803003386 8.5803003311 8.5000000000 32.585300446 0.0384000018 0.6550999880 2.1184999943 3.6993000507 176.96620178 148.91029358 444.04330444 0.6832000017 0.3740000129 0.6694999933
 1710.2816162 5.0000000000 0.0092000961 8.5092000961 8.5000000000 32.585300446 0.0217000004 0.6959999800 1.9880000353 3.7950999737 186.40170288 148.21249390 438.82977295 0.6132000089 0.3063000143 0.5976999998
 1710.4339600 5.0000000000 0.1413002014 8.6413002014 8.5000000000 32.585300446 0.0113000004 0.8234999776 2.0873999596 3.6003000736 182.51600647 147.87959290 440.59655762 0.6485999823 0.3458000124 0.6320000291
 1710.5864258 5.0000000000 0.1387996972 8.6387996674 8.5000000000 32.585300446 0.0018000000 0.7856000066 2.1147999763 3.3498001099 182.79139709 147.39430237 438.28207397 0.6784999967 0.6237000227 0.6639999747
 1710.7387695 5.0000000000 0.1641997993 8.6641998291 8.5000000000 32.585300446 0.0007000000 0.7138000131 2.1387999058 3.1373999119 178.43519592 147.10159302 430.50079346 0.7164000273 0.7523000240 0.7014999986
 1710.8912354 5.0000000000 0.1667003930 8.6667003632 8.5000000000 49.844818115 0.0011000000 0.6593999863 2.1331000328 3.0466001034 180.66709900 146.73789978 426.29989624 0.6764000058 0.7570000291 0.6613000035
 1711.0435791 5.0000000000 0.1032000110 8.6031999588 8.5000000000 49.844818115 0.0135000004 0.6687999964 2.0683999062 3.0936999321 176.71919250 146.55490112 431.65548706 0.6000999808 0.6047999859 0.5870000124
 1711.1960449 5.0000000000 0.1107997969 8.6107997894 8.5000000000 49.844818115 0.0278999992 0.6699000001 2.0290000439 3.3817000389 175.91009521 147.10969543 427.71337891 0.6672999859 0.3860000074 0.6531999707
 1711.3483887 5.0000000000 0.0853996277 8.5853996277 8.5000000000 49.844818115 0.0403000005 0.6703000069 2.0683999062 3.3721001148 174.49899292 147.99870300 425.14373779 0.6635000110 0.5580999851 0.6514999866
 1711.5008545 5.0000000000 0.0422000885 8.5422000885 8.5000000000 49.844818115 0.0480999984 0.6493999958 2.0692999363 3.5188000202 174.00160217 148.81689453 425.74560547 0.6470999718 0.3980000019 0.6328999996
 1711.6531982 5.0000000000 0.0726995468 8.5726995468 8.5000000000 49.844818115 0.0627999976 0.6575999856 1.9997999668 3.6357998848 169.28390503 149.45449829 432.67733765 0.5873000026 0.2610000074 0.5737000108
 1711.8056641 5.0000000000 1.0127999783 9.5128002167 8.5000000000 49.844818115 0.0819000006 0.6845999956 2.0258998871 3.8020999432 164.49729919 149.71539307 437.49655151 0.5907999873 0.2070000023 0.5792999864
 1711.9580078 5.0000000000 0.1183995977 8.6183996201 8.5000000000 60.210960388 0.1033999994 0.6601999998 2.0683000088 3.8854999542 161.22900391 150.47579956 436.13708496 0.6564999819 0.2635999918 0.6500999928
 1712.1104736 5.0000000000 -0.293199509 8.2068004608 8.5000000000 60.210960388 0.1228000000 0.5960000157 1.9002000093 4.0931000710 164.08720398 149.72850037 437.23742676 0.6503999829 0.2264000028 0.6455000043
 1712.2628174 5.0000000000 0.1107997969 8.6107997894 8.5000000000 60.210960388 0.1324999928 0.5723999739 1.8582999706 4.4647998810 168.01280212 148.68960571 441.66546631 0.6362000108 0.1597000062 0.6330000162
 1712.4151611 5.0000000000 0.2225999981 8.7225999832 8.5000000000 60.210960388 0.1124000028 0.6136999726 2.0343999863 4.0451998711 169.28799438 147.17239380 438.37887573 0.7462000251 0.1933999956 0.7398999929
