# LAS format log file from PETREL
# Project units are specified as depth units
#==================================================================
~Version information
VERS.   2.0:
WRAP.   NO:
#==================================================================
~Well
STRT .m      984.14562988 :
STOP .m      1996.3865967 :
STEP .m     0.00000000 :
NULL .        -999.250000 :
COMP.           : COMPANY
WELL.  25/11-23  Balder Appr   : WELL
FLD.            : FIELD
LOC.            : LOCATION
SRVC.           : SERVICE COMPANY
DATE.  2018-09-11 14:48:16   : Log Export Date {yyyy-MM-dd HH:mm:ss}
PROV.           : PROVINCE
UWI.   25/11-23   : UNIQUE WELL ID
API.            : API NUMBER
#==================================================================
~Curve
DEPT .m                   : DEPTH
Lithology_geolink ._      : Lithology_geolink
DCAL .in                  : DCAL
CALI .in                  : CALI
BS .in                    : BS
MUDWEIGHT ._              : MUDWEIGHT
ROP .m/h                  : ROP
DRHO .g/cm3               : DRHO
NPHI .m3/m3               : NPHI
RHOB .g/cm3               : RHOB
GR .gAPI                  : GR
DTC .us/ft                : DTC
RDEP .ohm.m               : RDEP
SP .mV                    : SP
RSHA .ohm.m               : RSHA
RMED .ohm.m               : RMED
~Parameter
#==================================================================
~Ascii
# ...
 1120.8483887 6.0000000000 0.0855998993 8.5855998993 8.5000000000  -999.250000 237793.68750 -0.005500000 0.4375700057 2.0903000832 74.962600708 141.52270508 1.2308000326 0.0000000000 1.1713999510 1.2631000280
 1121.0008545 5.0000000000 0.0901002884 8.5901002884 8.5000000000  -999.250000 237398.21875 -0.006500961 0.4347580075 2.0883021355 72.275596619 140.23332214 1.2763999701 0.0000000000 1.1620999575 1.3109999895
 1121.1531982 5.0000000000 0.1035994962 8.6035995483 8.5000000000  -999.250000 213359.81250 -0.007700000 0.4401409924 2.0908999443 70.893997192 138.76170349 1.2957999706 0.0000000000 1.2091000080 1.3314000368
 1121.3056641 5.0000000000 0.1097001955 8.6097002029 8.5000000000  -999.250000 209043.84375 -0.009400320 0.4551649988 2.0973026752 69.906600952 138.25759888 1.3319000006 0.0000000000 1.2206000090 1.3695000410
 1121.4580078 5.0000000000 0.1084003001 8.6084003448 8.5000000000  -999.250000 209344.65625 -0.009800000 0.4686169922 2.1005001068 71.545501709 138.64329529 1.2977000475 0.0000000000 1.2145999670 1.3332999945
 1121.6104736 5.0000000000 0.1037997976 8.6037998199 8.5000000000  -999.250000 209668.32813 -0.011501521 0.4824319780 2.0891859531 74.780998230 139.30882263 1.2130999565 0.0000000000 1.1326999664 1.2439999580
 1121.7628174 5.0000000000 0.0916996002 8.5916996002 8.5000000000  -999.250000 209961.71875 -0.013400000 0.4867060184 2.0717000961 76.775901794 140.44239807 1.1880999804 0.0000000000 1.1145000458 1.2174999714
 1121.9152832 6.0000000000 0.0850000307 8.5850000381 8.5000000000  -999.250000 210293.56250 -0.015300160 0.4843800068 2.0595967770 77.431602478 141.50424194 1.1909952164 0.0000000000 1.1145924330 1.2202947140
 1122.0676270 6.0000000000 0.0750999525 8.5750999451 8.5000000000  -999.250000 210580.62500 -0.015499279 0.4784849882 2.0553991795 75.860397339 142.44071960 1.1850914955 0.0000000000 1.1052989960 1.2136909962
 1122.2200928 6.0000000000 0.0764999390 8.5764999390 8.5000000000  -999.250000 210919.70313 -0.014598878 0.4799000025 2.0543994904 75.545600891 142.96031189 1.1745960712 0.0000000000 1.1041055918 1.2023955584
 1122.3724365 6.0000000000 0.0824003220 8.5824003220 8.5000000000  -999.250000 211201.12500 -0.013198239 0.4701430202 2.0539002419 75.149597168 143.23138428 1.1697137356 0.0000000000 1.1111185551 1.1969140768
 1122.5247803 6.0000000000 0.0839004591 8.5839004517 8.5000000000  -999.250000 211506.89063 -0.011000000 0.4521699846 2.0541999340 74.814598083 143.45799255 1.1868000031 0.0000000000 1.1344000101 1.2144999504
 1122.6772461 6.0000000000 0.0788002014 8.5788002014 8.5000000000  -999.250000 211749.85938 -0.009000640 0.4575980008 2.0509881973 72.864898682 143.56681824 1.2051157951 0.0000000000 1.1435040236 1.2333164215
 1122.8295898 6.0000000000 0.0776996613 8.5776996613 8.5000000000  -999.250000 212422.18750 -0.009800000 0.4834330082 2.0360000134 70.169296265 143.58259583 1.2246999741 0.0000000000 1.1484999657 1.2538000345
 1122.9820557 5.0000000000 0.0770997927 8.5770998001 8.5000000000  -999.250000 217142.76563 -0.010399279 0.5051276684 2.0149905682 67.483001709 143.62794495 1.2293859720 0.0000000000 1.1545879841 1.2586852312
 1123.1343994 5.0000000000 0.0627002716 8.5627002716 8.5000000000  -999.250000 226609.87500 -0.009500000 0.4897269905 2.0030999184 67.690101624 143.69030762 1.2117999792 0.0000000000 1.1395000219 1.2402000427
 1123.2868652 5.0000000000 0.0629997328 8.5629997253 8.5000000000  -999.250000 230761.68750 -0.007597999 0.4787055254 2.0050075054 69.001899719 143.68959045 1.2023961544 0.0000000000 1.1342988014 1.2304961681
 1123.4392090 5.0000000000 0.0782003403 8.5782003403 8.5000000000  -999.250000 231005.15625 -0.005100000 0.4643709958 2.0141999722 70.840698242 143.56359863 1.1976000071 0.0000000000 1.1327999830 1.2257000208
 1123.5916748 5.0000000000 0.0869999006 8.5869998932 8.5000000000  -999.250000 231005.15625 -0.003800400 0.4598514736 2.0239038467 71.056297302 143.21760559 1.1954832077 0.0000000000 1.1214081049 1.2237824202
 1123.7440186 5.0000000000 0.0916004181 8.5916004181 8.5000000000  -999.250000 231005.15625 -0.004300000 0.4566970170 2.0287001133 69.456497192 142.96310425 1.1744999886 0.0000000000 1.1315000057 1.2019000053
 1123.8964844 5.0000000000 0.1001997069 8.6001996994 8.5000000000  -999.250000 231005.15625 -0.004001042 0.4533629715 2.0357048512 68.169403076 142.98408508 1.1145488024 0.0000000000 1.0938473940 1.1394467354
 1124.0488281 5.0000000000 0.1064996943 8.6064996719 8.5000000000  -999.250000 231005.15625 -0.005300480 0.4233979881 2.0417065620 65.996200562 143.45629883 1.0507520437 0.0000000000 1.0282957554 1.0729502439
 1124.2012939 5.0000000000 0.0911998674 8.5911998749 8.5000000000  -999.250000 231005.15625 -0.005898558 0.4034377038 2.0500066280 63.535198212 143.94906616 0.9910941720 0.0000000000 1.0230275393 1.0109983683
 1124.3536377 5.0000000000 0.0522003248 8.5522003174 8.5000000000  -999.250000 231005.15625 -0.004100800 0.4193301201 2.0582973957 62.959098816 143.91583252 1.1084939241 0.0000000000 1.0572880507 1.1336940527
 1124.5059814 5.0000000000 0.0424003638 8.5424003601 8.5000000000  -999.250000 231005.15625 -0.005100000 0.4519049823 2.0550000668 63.874401093 144.08819580 1.1009000540 0.0000000000 1.0424000025 1.1261999607
 1124.6584473 5.0000000000 0.0651998520 8.5651998520 8.5000000000  -999.250000 231005.15625 -0.008801841 0.4832079411 2.0419874191 65.883598328 143.79606628 1.0966613293 0.0000000000 1.0483647585 1.1221641302
 1124.8107910 6.0000000000 0.0664997101 8.5664997101 8.5000000000  -999.250000 230954.71875 -0.011100000 0.4831259847 2.0260999203 66.857002258 143.63270569 1.1730999947 0.0000000000 1.1291999817 1.2022000551
 1124.9632568 6.0000000000 0.0614995956 8.5614995956 8.5000000000  -999.250000 230173.23438 -0.013603363 0.4678370357 2.0171997547 67.142402649 142.80609131 1.2423985004 0.0000000000 1.1410871744 1.2748982906
 1125.1156006 6.0000000000 0.0579996072 8.5579996109 8.5000000000  -999.250000 229117.29688 -0.017800000 0.4479149878 2.0169999599 67.512199402 142.30000305 1.2404999733 0.0000000000 1.1250000000 1.2727999687
 1125.2680664 6.0000000000 0.0396003686 8.5396003723 8.5000000000  -999.250000 228259.23438 -0.017898317 0.4379893243 2.0296137333 69.092697144 142.45904541 1.2340956926 0.0000000000 1.1277180910 1.2658958435
 1125.4204102 6.0000000000 0.0473003425 8.5473003387 8.5000000000  -999.250000 227708.31250 -0.015799999 0.4521720111 2.0467998981 71.516700745 142.37879944 1.2288000584 0.0000000000 1.1503000259 1.2606999874
 1125.5728760 6.0000000000 0.0572996140 8.5572996140 8.5000000000  -999.250000 227927.12500 -0.014898319 0.4650640786 2.0590062141 74.282798767 141.69058228 1.2021064758 0.0000000000 1.1221257448 1.2329070568
 1125.7252197 6.0000000000 0.0418996811 8.5418996811 8.5000000000  -999.250000 228248.62500 -0.012800000 0.4801380038 2.0666000843 75.569297791 141.67919922 1.2101999521 0.0000000000 1.1541999578 1.2417000532
 1125.8776855 6.0000000000 0.0297002811 8.5297002792 8.5000000000  -999.250000 228584.60938 -0.009799680 0.4934101999 2.0634882450 76.208999634 141.84092712 1.2234835625 0.0000000000 1.1683790684 1.2557827234
 1126.0300293 6.0000000000 0.0389995575 8.5389995575 8.5000000000  -999.250000 228921.28125 -0.009399840 0.4974110723 2.0489900112 76.649200439 141.24334717 1.2029817104 0.0000000000 1.1421653032 1.2341805696
 1126.1824951 6.0000000000 0.0508003198 8.5508003235 8.5000000000  -999.250000 229258.35938 -0.009198798 0.4862420559 2.0363938808 74.923301697 142.67051697 1.1801704168 0.0000000000 1.0988817215 1.2099690437
 1126.3348389 6.0000000000 0.0431003682 8.5431003571 8.5000000000  -999.250000 229595.89063 -0.007699360 0.4787840843 2.0286960602 71.293098450 143.93618774 1.1432890892 0.0000000000 1.0761932135 1.1712886095
 1126.4871826 6.0000000000 0.0150003396 8.5150003433 8.5000000000  -999.250000 229933.81250 -0.006900000 0.4626710117 2.0234999657 66.805397034 144.30209351 1.1296000481 0.0000000000 1.0677000284 1.1569999456
 1126.6396484 6.0000000000 0.0207004491 8.5207004547 8.5000000000  -999.250000 230272.64063 -0.007400561 0.4806309342 2.0105893612 65.113601685 144.67546082 1.1126283407 0.0000000000 1.0469279289 1.1392298937
