# LAS format log file from PETREL
# Project units are specified as depth units
#==================================================================
~Version information
VERS.   2.0:
WRAP.   NO:
#==================================================================
~Well
STRT .m      1090.1660156 :
STOP .m      2511.1435547 :
STEP .m     0.00000000 :
NULL .        -999.250000 :
COMP.           : COMPANY
WELL.  25/10-10  Balder Triassic   : WELL
FLD.            : FIELD
LOC.            : LOCATION
SRVC.           : SERVICE COMPANY
DATE.  2018-09-11 14:48:14   : Log Export Date {yyyy-MM-dd HH:mm:ss}
PROV.           : PROVINCE
UWI.   25/10-10   : UNIQUE WELL ID
API.            : API NUMBER
#==================================================================
~Curve
DEPT .m                   : DEPTH
Lithology_geolink ._      : Lithology_geolink
CALI .in                  : CALI
BS .in                    : BS
ROP .m/h                  : ROP
DRHO .g/cm3               : DRHO
THOR .ppm                 : THOR
NPHI .m3/m3               : NPHI
RHOB .g/cm3               : RHOB
PEF .b/e                  : PEF
GR .gAPI                  : GR
URAN .ppm                 : URAN
DTC .us/ft                : DTC
DTS .us/ft                : DTS
RDEP .ohm.m               : RDEP
RSHA .ohm.m               : RSHA
RMED .ohm.m               : RMED
~Parameter
#==================================================================
~Ascii
# ...
 1281.8852539 5.0000000000 12.390899658 12.250000954 111.40602875 0.0044999998  -999.250000 0.3436000049 2.1317999363 3.8589000702 63.566799164  -999.250000 125.30850220  -999.250000 1.4074000120 1.3858000040 1.3637000322
 1282.0375977 5.0000000000 12.345700264 12.250000954 112.86497498 0.0082000000  -999.250000 0.3558999896 2.1612999439 3.8396999836 64.639602661  -999.250000 125.96199799  -999.250000 1.3705999851 1.3257999420 1.3265999556
 1282.1900635 5.0000000000 12.325099945 12.250000954 105.67211914 0.0114000002  -999.250000 0.3413999975 2.1742000580 3.8448998928 63.075099945  -999.250000 125.74440002  -999.250000 1.3049000502 1.2884999514 1.2743999958
 1282.3424072 5.0000000000 12.363200188 12.250000954 105.10429382 0.0141000003  -999.250000 0.3327000141 2.1670000553 4.1570000648 61.734100342  -999.250000 126.00189972  -999.250000 1.2626999617 1.2060999870 1.2187999487
 1282.4948730 5.0000000000 12.381299973 12.250000954 94.823448181 0.0200999994  -999.250000 0.3260999918 2.1661999226 4.3105998039 61.510601044  -999.250000 126.50910187  -999.250000 1.2381000519 1.2167999744 1.2002999783
 1282.6472168 5.0000000000 12.470398903 12.250000954 96.399330139 0.0181000009  -999.250000 0.3319999874 2.1517999172 4.3902001381 63.902000427  -999.250000 127.52120209  -999.250000 1.2666000128 1.1921000481 1.2094999552
 1282.7996826 5.0000000000 12.418599129 12.250000954 95.646392822 0.0146000003  -999.250000 0.3416999876 2.1610999107 4.1087999344 67.969703674  -999.250000 126.98040009  -999.250000 1.2860000134 1.2007999420 1.2177000046
 1282.9520264 5.0000000000 12.390500069 12.250000954 94.916000366 0.0115000000  -999.250000 0.3355000019 2.1786999702 3.9553999901 66.774002075  -999.250000 124.93390656  -999.250000 1.2885999680 1.2101000547 1.2152999640
 1283.1044922 5.0000000000 12.364898682 12.250000954 101.04598236 0.0166999996  -999.250000 0.3321999907 2.2144999504 3.7425000668 62.225799561  -999.250000 124.50730133  -999.250000 1.3425999880 1.2524000406 1.2582999468
 1283.2568359 5.0000000000 12.442799568 12.250000954 101.48403168 0.0203000009  -999.250000 0.3258999884 2.2084999084 3.7446000576 63.231498718  -999.250000 125.12290192  -999.250000 1.2670999765 1.2206000090 1.2250000238
 1283.4093018 5.0000000000 12.392999649 12.250000954 95.876007080 0.0155999996  -999.250000 0.3282000124 2.1828999519 3.5378000736 66.774002075  -999.250000 123.58529663  -999.250000 1.2072999477 1.1712000370 1.1540000439
 1283.5616455 5.0000000000 12.329400063 12.250000954 89.344566345 0.0049000001  -999.250000 0.3145999908 2.1442000866 3.1793999672 64.941299438  -999.250000 123.44249725  -999.250000 1.2144000530 1.1820000410 1.1785999537
 1283.7141113 5.0000000000 12.358400345 12.250000954 89.859413147 -0.001700000  -999.250000 0.3118000031 2.1312003136 3.0267999172 61.611198425  -999.250000 121.99420166  -999.250000 1.3739999533 1.2677999735 1.2997000217
 1283.8664551 5.0000000000 12.376999855 12.250000954 95.485069275 -0.003800000  -999.250000 0.3237999976 2.1338999271 2.9472000599 63.767898560  -999.250000 121.36930084  -999.250000 1.4577000141 1.3203999996 1.3601000309
 1284.0187988 5.0000000000 12.357100487 12.250000954 100.18820953 0.0030000000  -999.250000 0.3339000046 2.1505000591 3.2802000046 71.635101318  -999.250000 121.78540039  -999.250000 1.4273999929 1.3529000282 1.3463000059
 1284.1712646 5.0000000000 12.384799957 12.250000954 100.46183014 0.0038000001  -999.250000 0.3210000098 2.1612999439 3.2583999634 79.926803589  -999.250000 123.70110321  -999.250000 1.3308999538 1.2963000536 1.2441999912
 1284.3236084 5.0000000000 12.369199753 12.250000954 104.82158661 0.0065000001  -999.250000 0.3079999983 2.1459999084 3.4628000259 80.530197144  -999.250000 124.92890167  -999.250000 1.3085999489 1.2608000040 1.2379000187
 1284.4760742 5.0000000000 12.408200264 12.250000954 103.25312805 0.0068000001  -999.250000 0.3100999892 2.1417996883 3.4421999454 71.947898865  -999.250000 126.55249786  -999.250000 1.3398000002 1.2670999765 1.2814999819
 1284.6284180 5.0000000000 12.409899712 12.250000954 97.750915527 0.0060000001  -999.250000 0.3167000115 2.1382000446 3.5996000767 61.711799622  -999.250000 127.07540894  -999.250000 1.3438999653 1.2738000154 1.2975000143
 1284.7808838 5.0000000000 12.368398666 12.250000954 99.713478088 0.0040000002  -999.250000 0.3346999884 2.1501998901 3.7051999569 55.208000183  -999.250000 125.54599762  -999.250000 1.4625999928 1.3404999971 1.3431999683
 1284.9332275 5.0000000000 12.371400833 12.250000954 102.44366455 0.0007000000  -999.250000 0.3240999877 2.1480998993 3.9486000538 52.548400879  -999.250000 123.52159882  -999.250000 1.4996999502 1.4057999849 1.3783999681
 1285.0856934 5.0000000000 12.374799728 12.250000954 107.46395874 0.0055999998  -999.250000 0.3009000123 2.1752998829 4.1338000298 53.587600708  -999.250000 120.04640198  -999.250000 1.6310000420 1.5382000208 1.5273000002
 1285.2380371 5.0000000000 12.376999855 12.250000954 107.07711029 0.0031000001  -999.250000 0.2716000080 2.1923000813 4.1037998199 53.643501282  -999.250000 115.34510040  -999.250000 1.8338999748 1.6951999664 1.7382999659
 1285.3905029 5.0000000000 12.412399292 12.250000954 98.894950867 0.0027999999  -999.250000 0.2666000128 2.1984999180 3.8503999710 49.810501099  -999.250000 113.09529877  -999.250000 1.9665999413 1.8047000170 1.8456000090
 1285.5428467 5.0000000000 12.433300018 12.250000954 86.578567505 -0.000600000  -999.250000 0.2781000137 2.1779999733 3.7230000496 46.044601440  -999.250000 112.74819946  -999.250000 2.0129001141 1.8310999870 1.8732999563
 1285.6953125 5.0000000000 12.454999924 12.250000954 85.131500244 0.0014000000  -999.250000 0.3097999990 2.1684999466 3.6974000931 44.413101196  -999.250000 116.01439667  -999.250000 2.0885000229 1.9687999487 1.9326000214
 1285.8476563 5.0000000000 12.465299606 12.250000954 81.819892883 0.0030000000  -999.250000 0.3271999955 2.1823000908 3.6210999489 45.910499573  -999.250000 119.47148895  -999.250000 1.5655000210 1.5678000450 1.5226000547
 1286.0000000 5.0000000000 12.439299583 12.250000954 78.558235168 0.0038999999  -999.250000 0.3398000002 2.2049002647 3.3847999573 50.291000366  -999.250000 121.51110077  -999.250000 1.5655000210 1.5678000450 1.5226000547
 1286.1524658 5.0000000000 12.397800446 12.250000954 78.754470825 0.0052000000  -999.250000 0.3213000000 2.2276999950 3.1638998985 59.141498566  -999.250000 123.19419861  -999.250000 1.3514000177 1.4732999802 1.4722000360
 1286.3048096 5.0000000000 12.435799599 12.250000954 77.780097961 0.0008000000  -999.250000 0.3199000061 2.2251999378 2.9453999996 71.657402039  -999.250000 124.15599823  -999.250000 1.2407000065 1.1740000248 1.1978000402
 1286.4572754 5.0000000000 12.460900307 12.250000954 76.026741028 0.0055000000  -999.250000 0.3160000145 2.2256000042 2.9186000824 79.032798767  -999.250000 124.26219940  -999.250000 1.2152999640 1.1608999968 1.1481000185
 1286.6096191 5.0000000000 12.339799881 12.250000954 65.574859619 0.0097000012  -999.250000 0.3219999969 2.2176001072 2.9212000370 80.150299072  -999.250000 123.72319794  -999.250000 1.2023999691 1.1354000568 1.1385999918
 1286.7620850 5.0000000000 12.358698845 12.250000954 50.095951080 0.0083999997  -999.250000 0.3158000112 2.2063000202 3.1531999111 79.189300537  -999.250000 122.75579834  -999.250000 1.1861000061 1.1316000223 1.1370999813
 1286.9144287 5.0000000000 12.373600006 12.250000954 50.283733368 0.0052000000  -999.250000 0.3366999924 2.2039999962 3.2332000732 76.730796814  -999.250000 122.27980042  -999.250000 1.1634999514 1.1109999418 1.1059999466
 1287.0668945 5.0000000000 12.385199547 12.250000954 53.894931793 0.0049000001  -999.250000 0.3436000049 2.2104001045 3.2658998966 74.250000000  -999.250000 121.91989899  -999.250000 1.1540999413 1.1002999544 1.1073999405
 1287.2192383 5.0000000000 12.398699760 12.250000954 54.252876282 0.0085000005  -999.250000 0.3623999953 2.2197999954 3.3013000488 72.819602966  -999.250000 122.93509674  -999.250000 1.1613999605 1.1094000340 1.1119999886
 1287.3717041 5.0000000000 12.390600204 12.250000954 53.754146576 0.0109000001  -999.250000 0.3348000050 2.2193000317 3.4368000031 72.674301147  -999.250000 122.09690094  -999.250000 1.1727000475 1.1061999798 1.1158000231
