# LAS format log file from PETREL
# Project units are specified as depth units
#==================================================================
~Version information
VERS.   2.0:
WRAP.   NO:
#==================================================================
~Well
STRT .m      383.59057617 :
STOP .m      2173.8320313 :
STEP .m     0.00000000 :
NULL .        -999.250000 :
COMP.           : COMPANY
WELL.  25/11-5 Balder Appr   : WELL
FLD.            : FIELD
LOC.            : LOCATION
SRVC.           : SERVICE COMPANY
DATE.  2018-09-11 14:48:16   : Log Export Date {yyyy-MM-dd HH:mm:ss}
PROV.           : PROVINCE
UWI.   25/11-5   : UNIQUE WELL ID
API.            : API NUMBER
#==================================================================
~Curve
DEPT .m                   : DEPTH
Lithology_geolink ._      : Lithology_geolink
DCAL .in                  : DCAL
CALI .in                  : CALI
BS .in                    : BS
MUDWEIGHT ._              : MUDWEIGHT
DRHO .g/cm3               : DRHO
NPHI .m3/m3               : NPHI
RHOB .g/cm3               : RHOB
GR .gAPI                  : GR
DTC .us/ft                : DTC
RDEP .ohm.m               : RDEP
SP .mV                    : SP
RMED .ohm.m               : RMED
~Parameter
#==================================================================
~Ascii
# ...
 624.99194336  -999.250000 2.5799999237 14.829998970 12.250000954 8.6999998093  -999.250000  -999.250000  -999.250000 32.242618561 151.41423035 1.0169959068 36.028999329 0.8730084300
 625.14434814  -999.250000 2.6059999466 14.855999947 12.250000954 8.6999998093  -999.250000  -999.250000  -999.250000 31.484302521 153.86172485 1.0289952755 35.970024109 0.8700011969
 625.29675293  -999.250000 2.6319999695 14.881999969 12.250000954 8.6999998093  -999.250000  -999.250000  -999.250000 31.039176941 154.83322144 1.0359971523 35.922019958 0.8919911981
 625.44915771  -999.250000 2.6220002174 14.871998787 12.250000954 8.6999998093  -999.250000  -999.250000  -999.250000 31.987621307 151.14797974 1.0320014954 35.918998718 0.9279855490
 625.60156250  -999.250000 2.3840000629 14.633998871 12.250000954 8.6999998093  -999.250000  -999.250000  -999.250000 33.005592346 147.82693481 1.0230035782 36.014961243 0.9739815593
 625.75396729  -999.250000 1.6659998894 13.916000366 12.250000954 8.6999998093  -999.250000  -999.250000  -999.250000 33.966613770 146.11248779 1.0239996910 36.110961914 1.0149835348
 625.90631104  -999.250000 0.7810000777 13.031000137 12.250000954 8.6999998093  -999.250000  -999.250000  -999.250000 36.807723999 148.00627136 1.0439840555 36.206924438 1.0219943523
 626.05871582  -999.250000 1.5570000410 13.807000160 12.250000954 8.6999998093  -999.250000  -999.250000  -999.250000 37.184700012 149.24740601 1.0659823418 36.135055542 0.9670440555
 626.21112061  -999.250000 2.3329999447 14.583000183 12.250000954 8.6999998093  -999.250000  -999.250000  -999.250000 36.272731781 148.92285156 1.0899808407 35.879207611 0.8870640993
 626.36352539  -999.250000 2.6450002193 14.895000458 12.250000954 8.6999998093  -999.250000  -999.250000  -999.250000 35.978118896 149.69329834 1.1089923382 36.070922852 0.8650088310
 626.51593018  -999.250000 2.5720002651 14.821999550 12.250000954 8.6999998093  -999.250000  -999.250000  -999.250000 35.496192932 149.97918701 1.1169967651 36.366882324 0.9189783931
 626.66833496  -999.250000 2.7859997749 15.036000252 12.250000954 8.6999998093  -999.250000  -999.250000  -999.250000 34.135543823 148.75158691 1.1169999838 36.637893677 0.9809751511
 626.82073975  -999.250000 2.4309999943 14.680999756 12.250000954 8.6999998093  -999.250000  -999.250000  -999.250000 34.164989471 147.21560669 1.1080036163 36.733963013 1.0229831934
 626.97314453  -999.250000 2.1210000515 14.371000290 12.250000954 8.6999998093  -999.250000  -999.250000  -999.250000 35.702384949 145.17012024 1.0960047245 36.519088745 1.0399931669
 627.12554932  -999.250000 2.4790000916 14.729000092 12.250000954 8.6999998093  -999.250000  -999.250000  -999.250000 35.395122528 143.93040466 1.0959999561 36.428039551 1.0230067968
 627.27795410  -999.250000 2.6389999390 14.888999939 12.250000954 8.6999998093  -999.250000  -999.250000  -999.250000 32.830024719 144.03985596 1.1089947224 36.473979950 0.9910128117
 627.43035889  -999.250000 2.1300001144 14.379999161 12.250000954 8.6999998093  -999.250000  -999.250000  -999.250000 32.943954468 144.26831055 1.1269928217 36.756885529 0.9909999967
 627.58276367  -999.250000 1.8619999886 14.112001419 12.250000954 8.6999998093  -999.250000  -999.250000  -999.250000 35.151115417 143.90135193 1.1469919682 36.904937744 1.0029952526
 627.73516846  -999.250000 2.2490000725 14.498999596 12.250000954 8.6999998093  -999.250000  -999.250000  -999.250000 35.290943146 143.21807861 1.1559964418 36.812038422 0.9960027933
 627.88757324  -999.250000 2.0899999142 14.340000153 12.250000954 8.6999998093  -999.250000  -999.250000  -999.250000 33.083885193 142.49058533 1.1410059929 36.709041595 0.9890028238
 628.03991699  -999.250000 1.8530000448 14.102999687 12.250000954 8.6999998093  -999.250000  -999.250000  -999.250000 33.320808411 142.03407288 1.1290096045 36.610080719 1.0169775486
 628.19232178  -999.250000 1.3389999866 13.588999748 12.250000954 8.6999998093  -999.250000  -999.250000  -999.250000 34.644939423 142.10504150 1.1230047941 36.751884460 1.0619640350
 628.34472656  -999.250000 1.3209999800 13.571000099 12.250000954 8.6999998093  -999.250000  -999.250000  -999.250000 34.998718262 142.50758362 1.1319928169 36.398281097 1.0779870749
 628.49713135  -999.250000 1.8179998398 14.068000793 12.250000954 8.6999998093  -999.250000  -999.250000  -999.250000 35.291881561 142.97821045 1.1529915333 36.148097992 1.0410147905
 628.64953613  -999.250000 1.8739999533 14.124001503 12.250000954 8.6999998093  -999.250000  -999.250000  -999.250000 36.438541412 143.46499634 1.1649951935 36.045040131 1.0010160208
 628.80194092  -999.250000 1.6879999638 13.938000679 12.250000954 8.6999998093  -999.250000  -999.250000  -999.250000 36.183101654 143.85945129 1.1759955883 35.693141937 1.0259900093
 628.95434570  -999.250000 1.5030000210 13.752999306 12.250000954 8.6999998093  -999.250000  -999.250000  -999.250000 35.572242737 143.62539673 1.1829971075 35.589042664 1.0519896746
 629.10675049  -999.250000 1.5549999475 13.805000305 12.250000954 8.6999998093  -999.250000  -999.250000  -999.250000 35.565002441 143.42507935 1.1869984865 35.784919739 1.0480015278
 629.25915527  -999.250000 1.8259998560 14.076000214 12.250000954 8.6999998093  -999.250000  -999.250000  -999.250000 34.625377655 143.40451050 1.1879996061 36.046894073 1.0050171614
 629.41156006  -999.250000 2.3090000153 14.559000969 12.250000954 8.6999998093  -999.250000  -999.250000  -999.250000 33.758998871 143.48226929 1.1820024252 36.392864227 0.9530208111
 629.56396484  -999.250000 2.7059998512 14.955999374 12.250000954 8.6999998093  -999.250000  -999.250000  -999.250000 33.751998901 143.55247498 1.1740032434 36.372009277 0.9619964361
 629.71636963  -999.250000 2.2560000420 14.505999565 12.250000954 8.6999998093  -999.250000  -999.250000  -999.250000 34.376998901 143.25582886 1.1620047092 36.219062805 0.9889892340
 629.86877441  -999.250000 2.4800000191 14.729999542 12.250000954 8.6999998093  -999.250000  -999.250000  -999.250000 35.383998871 143.14424133 1.1460064650 36.315963745 1.0049935579
 630.02111816  -999.250000 2.3589999676 14.609000206 12.250000954 8.6999998093  -999.250000  -999.250000  -999.250000 35.826000214 144.70184326 1.1270152330 36.510845184 0.9910112023
 630.17352295  -999.250000 2.4400000572 14.689998627 12.250000954 8.6999998093  -999.250000  -999.250000  -999.250000 35.194999695 146.02862549 1.1230032444 36.528984070 0.9570272565
 630.32592773  -999.250000 2.5220000744 14.771999359 12.250000954 8.6999998093  -999.250000  -999.250000  -999.250000 34.405998230 145.51380920 1.1339911222 36.523002625 0.9210288525
 630.47833252  -999.250000 2.5439999104 14.793998718 12.250000954 8.6999998093  -999.250000  -999.250000  -999.250000 33.123001099 145.49371338 1.1399976015 36.632953644 0.9259979725
 630.63073730  -999.250000 2.3570001125 14.607001305 12.250000954 8.6999998093  -999.250000  -999.250000  -999.250000 32.551998138 145.21260071 1.1399999857 36.497055054 0.9969715476
 630.78314209  -999.250000 2.1710000038 14.421000481 12.250000954 8.6999998093  -999.250000  -999.250000  -999.250000 33.484001160 146.73019409 1.1290043592 36.629947662 1.0719699860
 630.93554688  -999.250000 1.8960000277 14.146000862 12.250000954 8.6999998093  -999.250000  -999.250000  -999.250000 32.506999969 147.82376099 1.1130064726 36.926879883 1.0610044003
 631.08795166  -999.250000 1.9689999819 14.218999863 12.250000954 8.6999998093  -999.250000  -999.250000  -999.250000 30.893999100 147.21723938 1.1050032377 36.975982666 0.9750344753
 631.24035645  -999.250000 2.5139999390 14.763998985 12.250000954 8.6999998093  -999.250000  -999.250000  -999.250000 30.898000717 146.97169495 1.1139963865 36.589157104 0.9240204692
 631.39276123  -999.250000 2.4879999161 14.737998962 12.250000954 8.6999998093  -999.250000  -999.250000  -999.250000 32.472999573 150.94041443 1.1289939880 36.234142303 0.9160032272
 631.54516602  -999.250000 2.3550000191 14.605000496 12.250000954 8.6999998093  -999.250000  -999.250000  -999.250000 34.029998779 154.34954834 1.1369967461 36.178024292 0.9269955754
