# LAS format log file from PETREL
# Project units are specified as depth units
#==================================================================
~Version information
VERS.   2.0:
WRAP.   NO:
#==================================================================
~Well
STRT .m      3054.5593262 :
STOP .m      3397.3076172 :
STEP .m     0.00000000 :
NULL .        -999.250000 :
COMP.           : COMPANY
WELL.  25/10-8A  Hanz Appr   : WELL
FLD.            : FIELD
LOC.            : LOCATION
SRVC.           : SERVICE COMPANY
DATE.  2018-09-11 14:48:15   : Log Export Date {yyyy-MM-dd HH:mm:ss}
PROV.           : PROVINCE
UWI.   25/10-8 A   : UNIQUE WELL ID
API.            : API NUMBER
#==================================================================
~Curve
DEPT .m                   : DEPTH
Lithology_geolink ._      : Lithology_geolink
NPHI .m3/m3               : NPHI
RHOB .g/cm3               : RHOB
GR .gAPI                  : GR
RDEP .ohm.m               : RDEP
RSHA .ohm.m               : RSHA
~Parameter
#==================================================================
~Ascii
# ...
 3319.7358398 2.0000000000 0.1319299936 2.4221308231 36.064331055 0.6894776821 0.5451396108
 3319.8881836 2.0000000000 0.1554600000 2.3862638474 36.777000427 0.7094094157 0.6519186497
 3320.0405273 2.0000000000 0.1827400029 2.3423359394 36.967273712 0.6730217934 0.7237154245
 3320.1931152 2.0000000000 0.2046899945 2.2994713783 36.515560150 0.6503724456 0.6979051232
 3320.3454590 2.0000000000 0.2108699977 2.2651956081 35.751949310 0.6232234240 0.6381128430
 3320.4978027 2.0000000000 0.2090900093 2.2472357750 35.428649902 0.6142427921 0.5571497083
 3320.6501465 2.0000000000 0.2085499913 2.2422676086 35.421676636 0.6431022882 0.5187759399
 3320.8027344 2.0000000000 0.2109400034 2.2429497242 35.457206726 0.6339486837 0.5551169515
 3320.9550781 2.0000000000 0.2145400047 2.2451753616 35.625602722 0.5705999136 0.5589933991
 3321.1074219 2.0000000000 0.2184600085 2.2460081577 35.880565643 0.5105553269 0.5127031207
 3321.2597656 2.0000000000 0.2258799970 2.2462103367 35.988952637 0.4748338461 0.4671463370
 3321.4123535 2.0000000000 0.2318199873 2.2467460632 35.634323120 0.4537494481 0.4323070347
 3321.5646973 2.0000000000 0.2355699986 2.2469754219 35.397197723 0.4447900951 0.4109635353
 3321.7170410 2.0000000000 0.2394199967 2.2462754250 35.466644287 0.4425854683 0.3914980590
 3321.8693848 2.0000000000 0.2424599975 2.2420811653 35.622882843 0.4403697252 0.3794859946
 3322.0217285 2.0000000000 0.2429400086 2.2362906933 35.793361664 0.4319190383 0.3760245442
 3322.1743164 2.0000000000 0.2423399985 2.2331252098 36.107379913 0.4209360480 0.3784977496
 3322.3266602 2.0000000000 0.2438400090 2.2314887047 36.434917450 0.4117537737 0.3826832473
 3322.4790039 2.0000000000 0.2520299852 2.2286720276 36.568481445 0.4003589153 0.3853892386
 3322.6313477 2.0000000000 0.2614499927 2.2244508266 36.527484894 0.3925109804 0.3894069195
 3322.7839355 2.0000000000 0.2675900161 2.2191734314 36.466808319 0.3882447779 0.3944920897
 3322.9362793 2.0000000000 0.2715600133 2.2131378651 36.476226807 0.3757476211 0.3864102960
 3323.0886230 2.0000000000 0.2728399932 2.2092363834 36.559223175 0.3544492424 0.3539090455
 3323.2409668 2.0000000000 0.2683600187 2.2067785263 36.589992523 0.3472262025 0.3351266980
 3323.3935547 2.0000000000 0.2676099837 2.2053821087 36.576900482 0.3536325097 0.3308556676
 3323.5458984 2.0000000000 0.2748599946 2.2064371109 36.612731934 0.3566979468 0.3306553662
 3323.6982422 2.0000000000 0.2820900083 2.2087171078 36.700035095 0.3551164567 0.3297417164
 3323.8505859 2.0000000000 0.2880100012 2.2130129337 36.700553894 0.3529970050 0.3291062713
 3324.0029297 2.0000000000 0.2885199785 2.2188982964 36.608192444 0.3528230488 0.3385997415
 3324.1555176 2.0000000000 0.2845000029 2.2252078056 36.552810669 0.3554722369 0.3454788029
 3324.3078613 2.0000000000 0.2766799927 2.2294559479 36.697113037 0.3557094932 0.3399017453
 3324.4602051 2.0000000000 0.2679100037 2.2306022644 37.033424377 0.3578218818 0.3366601765
 3324.6125488 2.0000000000 0.2586199939 2.2297015190 37.620975494 0.3584771454 0.3440500796
 3324.7651367 2.0000000000 0.2467900068 2.2286913395 38.144145966 0.3483292162 0.3490081131
 3324.9174805 2.0000000000 0.2393099964 2.2294540405 38.499805450 0.3373557031 0.3501033187
 3325.0698242 2.0000000000 0.2356500030 2.2330019474 38.257850647 0.3283622265 0.3454341888
 3325.2221680 2.0000000000 0.2348800153 2.2373435497 37.836128235 0.3219876885 0.3331507444
 3325.3747559 2.0000000000 0.2376300097 2.2395646572 37.156230927 0.3232612014 0.3245365322
 3325.5270996 2.0000000000 0.2470799983 2.2380127907 36.501949310 0.3569118381 0.3216829300
 3325.6794434 2.0000000000 0.2534199953 2.2333216667 36.099960327 0.4686470330 0.3873230517
 3325.8317871 2.0000000000 0.2542499900 2.2266049385 35.901363373 0.5569935441 0.4837695062
 3325.9841309 2.0000000000 0.2542099953 2.2216076851 35.864006042 0.6130930781 0.6903266907
 3326.1367188 2.0000000000 0.2469400018 2.2189636230 35.865951538 0.6067396402 1.0656455755
 3326.2890625 2.0000000000 0.2356899977 2.2195267677 35.811534882 0.5309966207 0.9059923887
 3326.4414063 2.0000000000 0.2302300036 2.2228839397 35.837726593 0.4802542031 0.7128035426
 3326.5937500 2.0000000000 0.2285400033 2.2271244526 36.052799225 0.4473363757 0.6290134192
 3326.7463379 2.0000000000 0.2282200009 2.2316405773 36.243339539 0.4658133388 0.4920673072
 3326.8986816 2.0000000000 0.2301600128 2.2343533039 36.500492096 0.5303817987 0.4338162839
 3327.0510254 2.0000000000 0.2347899973 2.2340066433 36.828948975 0.5799978375 0.4313828051
 3327.2033691 2.0000000000 0.2379200011 2.2314782143 37.253944397 0.6063762903 0.4340134561
 3327.3559570 2.0000000000 0.2397100031 2.2268557549 37.478107452 0.6225501895 0.4389956892
 3327.5083008 2.0000000000 0.2474900037 2.2220523357 37.538616180 0.6751188040 0.4786763489
 3327.6606445 2.0000000000 0.2533699870 2.2197272778 37.556652069 0.7160517573 0.5628255010
 3327.8129883 2.0000000000 0.2557100058 2.2185404301 37.479316711 0.6753239036 0.6232199669
 3327.9655762 2.0000000000 0.2576499879 2.2189087868 37.326400757 0.6276000142 0.6263110042
 3328.1179199 2.0000000000 0.2511099875 2.2204296589 37.278194427 0.5607910752 0.5545206666
 3328.2702637 2.0000000000 0.2316600084 2.2234008312 37.275791168 0.5156205297 0.4731004238
 3328.4226074 2.0000000000 0.2125000060 2.2280364037 37.273342133 0.5240741372 0.4165783226
 3328.5749512 2.0000000000 0.1905800104 2.2327990532 37.462905884 1.0517824888 0.4283364713
 3328.7275391 2.0000000000 0.1699500084 2.2368116379 37.716556549 1.7969130278 0.5146144629
 3328.8798828 2.0000000000 0.1442300081 2.2423379421 37.992435455 2.1516706944 1.4524606466
 3329.0322266 2.0000000000 0.1195299998 2.2571604252 38.330455780 1.9975106716 2.3818030357
 3329.1845703 2.0000000000 0.1114999950 2.2838962078 38.577621460 2.0160865784 2.5692493916
 3329.3371582 2.0000000000 0.0992700011 2.3255889416 38.709102631 2.2785749435 4.2646999359
 3329.4895020 2.0000000000 0.0873799995 2.3647112846 39.015441895 2.5577714443 4.6308107376
 3329.6418457 2.0000000000 0.0835700035 2.3995907307 40.127269745 2.4252855778 3.7346358299
 3329.7941895 2.0000000000 0.0813200027 2.4297487736 41.805675507 2.2549057007 3.4299793243
 3329.9467773 2.0000000000 0.0792299956 2.4543757439 45.167701721 2.3419754505 3.3129458427
 3330.0991211 2.0000000000 0.0781500041 2.4749734402 50.530143738 2.4191648960 3.0717511177
 3330.2514648 5.0000000000 0.0783900023 2.5021996498 56.343666077 2.4297513962 2.7967183590
 3330.4038086 5.0000000000 0.0791400000 2.5280508995 65.784111023 2.4308590889 2.5619893074
 3330.5561523 5.0000000000 0.0866800025 2.5465345383 76.904830933 2.4130272865 2.3085360527
 3330.7087402 5.0000000000 0.0981099978 2.5543971062 85.182563782 2.4899787903 2.1175351143
 3330.8610840 5.0000000000 0.1076000035 2.5442202091 91.590301514 2.5170421600 2.0975182056
 3331.0134277 5.0000000000 0.1236400008 2.5229747295 95.049652100 2.3745834827 2.1173198223
 3331.1657715 5.0000000000 0.1395799965 2.5010919571 96.891601563 2.2624449730 2.1165633202
 3331.3183594 6.0000000000 0.1622299999 2.4851129055 98.362258911 2.2165327072 2.1087117195
 3331.4707031 6.0000000000 0.1784400046 2.4737424850 99.599983215 2.1870608330 2.1085603237
 3331.6230469 6.0000000000 0.1866500080 2.4642417431 100.26350403 2.1567146778 2.1251342297
 3331.7753906 6.0000000000 0.1938800067 2.4544703960 100.11309814 2.1235229969 2.1464474201
 3331.9279785 6.0000000000 0.2039700001 2.4483013153 99.898445129 2.0746886730 2.1646964550
 3332.0803223 6.0000000000 0.2180600017 2.4455602169 99.452941895 2.0184779167 2.1314413548
 3332.2326660 6.0000000000 0.2303899974 2.4409201145 98.899215698 1.9813270569 1.9936808348
 3332.3850098 6.0000000000 0.2327000052 2.4345035553 98.853286743 2.0052788258 1.8730651140
 3332.5373535 6.0000000000 0.2301799953 2.4288427830 99.794677734 1.9953672886 1.8883033991
 3332.6899414 6.0000000000 0.2150299996 2.4267883301 101.07156372 1.9687016010 1.9219450951
 3332.8422852 6.0000000000 0.1995899975 2.4282536507 101.47308350 1.9619812965 1.9259388447
