# LAS format log file from PETREL
# Project units are specified as depth units
#==================================================================
~Version information
VERS.   2.0:
WRAP.   NO:
#==================================================================
~Well
STRT .m      460.12496948 :
STOP .m      2548.7502441 :
STEP .m     0.00000000 :
NULL .        -999.250000 :
COMP.           : COMPANY
WELL.  25/10-4R  Balder Appr   : WELL
FLD.            : FIELD
LOC.            : LOCATION
SRVC.           : SERVICE COMPANY
DATE.  2018-09-11 14:48:14   : Log Export Date {yyyy-MM-dd HH:mm:ss}
PROV.           : PROVINCE
UWI.   25/10-4 R   : UNIQUE WELL ID
API.            : API NUMBER
#==================================================================
~Curve
DEPT .m                   : DEPTH
Lithology_geolink ._      : Lithology_geolink
CALI .in                  : CALI
MUDWEIGHT ._              : MUDWEIGHT
ROP .m/h                  : ROP
DRHO .g/cm3               : DRHO
NPHI .m3/m3               : NPHI
RHOB .g/cm3               : RHOB
GR .gAPI                  : GR
DTC .us/ft                : DTC
RDEP .ohm.m               : RDEP
SP .mV                    : SP
RSHA .ohm.m               : RSHA
RMED .ohm.m               : RMED
~Parameter
#==================================================================
~Ascii
# ...
 2126.6250000 3.0000000000 9.3420000076 1.1499999762  -999.250000 0.0759999976 0.2707400024 2.2679998875 41.384998322 102.05999756 0.3300000131 14.628000259  -999.250000 1.2170000076
 2126.7500000 3.0000000000 9.3420000076 1.1499999762  -999.250000 0.0750000030 0.2647700012 2.2790000439 43.255001068 100.73299408 0.3359999955 14.288000107  -999.250000 1.2480000257
 2126.8750000 3.0000000000 9.3430004120 1.1499999762  -999.250000 0.0729999989 0.2566600144 2.2929999828 45.756000519 99.508003235 0.3470000029 14.373999596  -999.250000 1.2769999504
 2127.0000000 3.0000000000 9.3430004120 1.1499999762  -999.250000 0.0710000023 0.2470899969 2.3050000668 47.472000122 98.545997620 0.3639999926 14.706000328  -999.250000 1.2960000038
 2127.1250000 3.0000000000 9.3439998627 1.1499999762  -999.250000 0.0670000017 0.2374700010 2.3110001087 47.306999207 97.906997681 0.3910000026 15.446000099  -999.250000 1.3020000458
 2127.2500000 3.0000000000 9.3439998627 1.1499999762  -999.250000 0.0619999990 0.2300399989 2.3129999638 46.063999176 98.008003235 0.4160000086 16.545000076  -999.250000 1.3070000410
 2127.3750000 3.0000000000 9.3450002670 1.1499999762  -999.250000 0.0570000000 0.2279299945 2.3110001087 45.027999878 98.541000366 0.4370000064 17.913000107  -999.250000 1.3129999638
 2127.5000000 3.0000000000 9.3450002670 1.1499999762  -999.250000 0.0520000011 0.2320199907 2.3010001183 45.430999756 99.491989136 0.4490000010 19.400999069  -999.250000 1.3159999847
 2127.6250000 3.0000000000 9.3430004120 1.1499999762  -999.250000 0.0480000004 0.2412800044 2.2920000553 48.609001160 100.61499786 0.4490000010 20.850000381  -999.250000 1.3099999428
 2127.7500000 3.0000000000 9.3380002975 1.1499999762  -999.250000 0.0469999984 0.2534099817 2.2850000858 56.972000122 101.79299927 0.4329999983 22.134000778  -999.250000 1.2810000181
 2127.8750000 3.0000000000 9.3330001831 1.1499999762  -999.250000 0.0489999987 0.2648900151 2.2850000858 67.537002563 103.14399719 0.4050000012 23.396999359  -999.250000 1.2400000095
 2128.0000000 3.0000000000 9.3269996643 1.1499999762  -999.250000 0.0560000017 0.2716299891 2.2929999828 79.371002197 105.05500031 0.3709999919 24.347999573  -999.250000 1.1849999428
 2128.1250000 3.0000000000 9.3240003586 1.1499999762  -999.250000 0.0649999976 0.2726700008 2.3039999008 86.910003662 106.82900238 0.3370000124 24.250000000  -999.250000 1.1250000000
 2128.2500000 6.0000000000 9.3210000992 1.1499999762  -999.250000 0.0729999989 0.2690699995 2.3059999943 86.275001526 107.79799652 0.3070000112 23.216999054  -999.250000 1.0640000105
 2128.3750000 6.0000000000 9.3179998398 1.1499999762  -999.250000 0.0759999976 0.2628400028 2.2950000763 76.888999939 107.47299957 0.2860000134 22.027000427  -999.250000 1.0039999485
 2128.5000000 3.0000000000 9.3140001297 1.1499999762  -999.250000 0.0740000010 0.2564100027 2.2709999084 63.759998322 106.26300049 0.2649999857 20.864999771  -999.250000 0.9620000124
 2128.6250000 3.0000000000 9.3109998703 1.1499999762  -999.250000 0.0689999983 0.2530100048 2.2369999886 50.948001862 104.04499817 0.2509999871 19.714000702  -999.250000 0.9430000186
 2128.7500000 3.0000000000 9.3079996109 1.1499999762  -999.250000 0.0619999990 0.2540999949 2.2039999962 40.916000366 101.67500305 0.2489999980 18.884000778  -999.250000 0.9449999928
 2128.8750000 3.0000000000 9.3050003052 1.1499999762  -999.250000 0.0560000017 0.2571800053 2.1870000362 35.520000458 99.886001587 0.2549999952 18.638999939  -999.250000 0.9649999738
 2129.0000000 3.0000000000 9.3030004501 1.1499999762  -999.250000 0.0540000014 0.2594000101 2.1860001087 34.215999603 99.416999817 0.2660000026 19.000000000  -999.250000 0.9950000048
 2129.1250000 3.0000000000 9.3000001907 1.1499999762  -999.250000 0.0549999997 0.2589499950 2.1960000992 33.491001129 99.974998474 0.2860000134 19.701999664  -999.250000 1.0260000229
 2129.2500000 3.0000000000 9.2969999313 1.1499999762  -999.250000 0.0570000000 0.2562299967 2.2100000381 32.875999451 100.98200226 0.3120000064 20.525999069  -999.250000 1.0659999847
 2129.3750000 3.0000000000 9.2950000763 1.1499999762  -999.250000 0.0599999987 0.2527900040 2.2249999046 32.789001465 101.49199677 0.3470000029 21.438999176  -999.250000 1.1139999628
 2129.5000000 3.0000000000 9.2939996719 1.1499999762  -999.250000 0.0630000010 0.2494399995 2.2430000305 33.369998932 101.36399841 0.3840000033 22.381999969  -999.250000 1.1660000086
 2129.6250000 3.0000000000 9.2930002213 1.1499999762  -999.250000 0.0649999976 0.2467299998 2.2620000839 35.701000214 100.87999725 0.4259999990 23.280000687  -999.250000 1.2180000544
 2129.7500000 3.0000000000 9.2910003662 1.1499999762  -999.250000 0.0649999976 0.2450600117 2.2839999199 40.680999756 100.27400208 0.4769999981 24.041999817  -999.250000 1.2690000534
 2129.8750000 3.0000000000 9.2880001068 1.1499999762  -999.250000 0.0649999976 0.2443799973 2.3069999218 45.660999298 99.859001160 0.5289999843 24.427999496  -999.250000 1.3200000525
 2130.0000000 3.0000000000 9.2849998474 1.1499999762  -999.250000 0.0640000030 0.2430900037 2.3289999962 50.652999878 99.459999084 0.5910000205 24.815000534  -999.250000 1.3780000210
 2130.1250000 3.0000000000 9.2819995880 1.1499999762  -999.250000 0.0649999976 0.2422100008 2.3450000286 55.948001862 99.024002075 0.6560000181 25.218999863  -999.250000 1.4570000172
 2130.2500000 3.0000000000 9.2790002823 1.1499999762  -999.250000 0.0659999996 0.2427099943 2.3570001125 61.998001099 98.504997253 0.6999999881 25.670999527  -999.250000 1.5460000038
 2130.3750000 3.0000000000 9.2790002823 1.1499999762  -999.250000 0.0680000037 0.2465600073 2.3689999580 68.747001648 97.732002258 0.7129999995 26.045999527  -999.250000 1.6339999437
 2130.5000000 3.0000000000 9.2819995880 1.1499999762  -999.250000 0.0700000003 0.2558900118 2.3829998970 75.496002197 96.625000000 0.7149999738 26.027000427  -999.250000 1.7159999609
 2130.6250000 3.0000000000 9.2860002518 1.1499999762  -999.250000 0.0719999969 0.2712999880 2.3980000019 82.119003296 95.481002808 0.6930000186 25.787000656  -999.250000 1.7640000582
 2130.7500000 6.0000000000 9.2899999619 1.1499999762  -999.250000 0.0729999989 0.2883000076 2.4119999409 86.170997620 95.362991333 0.6560000181 25.569000244  -999.250000 1.7710000277
 2130.8750000 6.0000000000 9.2939996719 1.1499999762  -999.250000 0.0750000030 0.2961499989 2.4200000763 86.876998901 95.734001160 0.6119999886 25.083000183  -999.250000 1.7350000143
 2131.0000000 6.0000000000 9.2959995270 1.1499999762  -999.250000 0.0759999976 0.2938400209 2.4200000763 84.637001038 96.845993042 0.5680000186 24.382999420  -999.250000 1.6710000038
 2131.1250000 6.0000000000 9.2939996719 1.1499999762  -999.250000 0.0759999976 0.2848899961 2.4110000134 80.518997192 98.712997437 0.5230000019 23.753999710  -999.250000 1.5980000496
 2131.2500000 6.0000000000 9.2880001068 1.1499999762  -999.250000 0.0750000030 0.2736300230 2.3919999599 75.379997253 101.36799622 0.4779999852 23.516000748  -999.250000 1.5260000229
 2131.3750000 5.0000000000 9.2840003967 1.1499999762  -999.250000 0.0750000030 0.2624199986 2.3619999886 69.813003540 103.75199890 0.4460000098 23.576999664  -999.250000 1.4780000448
 2131.5000000 5.0000000000 9.2819995880 1.1499999762  -999.250000 0.0750000030 0.2570700049 2.3280000687 64.944999695 105.36299133 0.4210000038 23.658000946  -999.250000 1.4459999800
 2131.6250000 5.0000000000 9.2819995880 1.1499999762  -999.250000 0.0740000010 0.2565400004 2.2960000038 61.144001007 106.25900269 0.4040000141 23.481000900  -999.250000 1.4220000505
 2131.7500000 5.0000000000 9.2819995880 1.1499999762  -999.250000 0.0740000010 0.2595299780 2.2750000954 58.634998322 106.77999878 0.3930000067 22.988000870  -999.250000 1.4060000181
 2131.8750000 5.0000000000 9.2829999924 1.1499999762  -999.250000 0.0740000010 0.2656300068 2.2630000114 57.712001801 107.07599640 0.3889999986 22.356000900  -999.250000 1.4049999714
 2132.0000000 5.0000000000 9.2829999924 1.1499999762  -999.250000 0.0710000023 0.2748500109 2.2560000420 58.319000244 107.12799835 0.3950000107 21.691999435  -999.250000 1.4060000181
