# LAS format log file from PETREL
# Project units are specified as depth units
#==================================================================
~Version information
VERS.   2.0:
WRAP.   NO:
#==================================================================
~Well
STRT .m      206.00000000 :
STOP .m      2655.9824219 :
STEP .m     0.00000000 :
NULL .        -999.250000 :
COMP.           : COMPANY
WELL.  25/10-8  Hanz   : WELL
FLD.            : FIELD
LOC.            : LOCATION
SRVC.           : SERVICE COMPANY
DATE.  2018-09-11 14:48:14   : Log Export Date {yyyy-MM-dd HH:mm:ss}
PROV.           : PROVINCE
UWI.   25/10-8   : UNIQUE WELL ID
API.            : API NUMBER
#==================================================================
~Curve
DEPT .m                   : DEPTH
Lithology_geolink ._      : Lithology_geolink
CALI .in                  : CALI
BS .in                    : BS
THOR .ppm                 : THOR
NPHI .m3/m3               : NPHI
RHOB .g/cm3               : RHOB
GR .gAPI                  : GR
URAN .ppm                 : URAN
DTC .us/ft                : DTC
RDEP .ohm.m               : RDEP
RSHA .ohm.m               : RSHA
RMED .ohm.m               : RMED
~Parameter
#==================================================================
~Ascii
# ...
 2532.2336426 2.0000000000 8.3043060303 12.250000954 3.9688649178 0.0015634280 2.4011511803 52.935668945 1.6826127768 76.796623230 1.3324842453 2.0155162811 1.3601765633
 2532.3862305 2.0000000000 8.3348274231 12.250000954 3.7057476044 0.0017378400 2.3822727203 50.199813843 1.6429384947 74.211639404 1.4369201660 2.1452016830 1.4182147980
 2532.5385742 2.0000000000 8.3043060303 12.250000954 3.4265627861 0.0014499519 2.4276659489 45.967117310 1.5200256109 70.944343567 1.6653990746 2.4620676041 1.5915484428
 2532.6909180 2.0000000000 8.3226203918 12.250000954 3.3529615402 0.0011517740 2.5229434967 43.354476929 1.3274667263 68.596145630 2.0070905685 2.9846792221 1.9211597443
 2532.8432617 2.0000000000 8.3348274231 12.250000954 3.4545288086 0.0009568942 2.5035295486 39.329360962 1.1292099953 68.596969604 2.3168678284 3.5132055283 2.3567724228
 2532.9958496 2.0000000000 8.3165130615 12.250000954 3.8713181019 0.0008837344 2.4538450241 39.547607422 0.9668200612 71.030776978 2.3710203171 3.6106929779 2.6263875961
 2533.1481934 2.0000000000 8.3043060303 12.250000954 5.1254715919 0.0008034999 2.4657080173 49.253372192 0.7767480612 74.844108582 2.1530752182 3.1466884613 2.4748773575
 2533.3005371 2.0000000000 8.3043060303 12.250000954 6.3755240440 0.0010097547 2.4751136303 61.473815918 0.7399874926 78.314308167 1.8811287880 2.5548324585 2.1144304276
 2533.4528809 2.0000000000 8.3226203918 12.250000954 6.7029094696 0.0013659567 2.4528150558 69.627777100 0.8910341263 79.290992737 1.7171082497 2.1739215851 1.8414049149
 2533.6054688 5.0000000000 8.3104095459 12.250000954 6.6031875610 0.0016259999 2.4373018742 70.322631836 0.9549124241 77.693840027 1.6754989624 2.0277776718 1.7251515388
 2533.7578125 5.0000000000 8.3348274231 12.250000954 6.4344964027 0.0015935280 2.4696083069 65.392669678 0.9034941792 76.231094360 1.7011399269 2.0276823044 1.7186980247
 2533.9101563 5.0000000000 8.3043060303 12.250000954 6.2506842613 0.0015271442 2.5206105709 64.946197510 0.8660346270 76.663230896 1.7292289734 2.0632677078 1.7445621490
 2534.0625000 5.0000000000 8.3287239075 12.250000954 6.1306743622 0.0014467404 2.5054285526 65.508880615 0.8786404133 78.623619080 1.7318949699 2.0532159805 1.7434906960
 2534.2148438 5.0000000000 8.3165130615 12.250000954 6.0463666916 0.0015565193 2.4885604382 66.085632324 0.9547702074 80.590797424 1.7382140160 2.0004386902 1.7208642960
 2534.3674316 5.0000000000 8.3165130615 12.250000954 5.9698014259 0.0014534655 2.4600305557 68.681091309 1.0776525736 80.309989929 1.8038625717 1.9758367538 1.7323317528
 2534.5197754 5.0000000000 8.3043060303 12.250000954 5.8688168526 0.0015728703 2.4115142822 67.458679199 1.2988538742 77.914253235 1.9741010666 2.0430030823 1.8320736885
 2534.6721191 5.0000000000 8.3409309387 12.250000954 5.7376232147 0.0015376299 2.4292688370 61.143371582 1.6228159666 75.578697205 2.2685785294 2.2232007980 2.0506229401
 2534.8244629 5.0000000000 8.3165130615 12.250000954 5.6791319847 0.0012379905 2.5123674870 57.070266724 1.8292946815 73.749450684 2.6726846695 2.5006484985 2.3931903839
 2534.9770508 5.0000000000 8.3348274231 12.250000954 5.7425198555 0.0011931120 2.5989017487 54.417343140 1.8413661718 72.738548279 3.1060600281 2.8314361572 2.8228702545
 2535.1293945 5.0000000000 8.3287239075 12.250000954 5.9326519966 0.0011565144 2.5804176331 60.767013550 1.7705774307 72.461303711 3.4200429916 3.1383075714 3.2195749283
 2535.2817383 16.000000000 8.3165130615 12.250000954 6.1865425110 0.0011182788 2.5761063099 66.939483643 1.6533528566 72.287864685 3.4876194000 3.3264970779 3.4164781570
 2535.4340820 16.000000000 8.3409309387 12.250000954 6.4709191322 0.0013292596 2.6190927029 59.053253174 1.4691841602 73.569328308 3.2783336639 3.3182840347 3.3448781967
 2535.5866699 5.0000000000 8.3104095459 12.250000954 6.7284708023 0.0012872500 2.6556117535 52.466506958 1.2978750467 76.376968384 2.8413267136 3.0674924850 3.0222797394
 2535.7390137 5.0000000000 8.3409309387 12.250000954 7.0097336769 0.0012803824 2.6438081264 55.430984497 1.1444227695 80.185867310 2.3191442490 2.6116771698 2.5252609253
 2535.8913574 5.0000000000 8.3104095459 12.250000954 7.8715476990 0.0018145001 2.5931766033 66.773895264 0.9383826852 84.254859924 1.8856945038 2.1220550537 2.0377712250
 2536.0437012 6.0000000000 8.3104095459 12.250000954 9.3348646164 0.0024131681 2.5322833061 78.216003418 0.8976197243 86.461509705 1.6188220978 1.7662148476 1.7024188042
 2536.1960449 6.0000000000 8.3348274231 12.250000954 10.412672043 0.0024606297 2.5302116871 87.356597900 1.1273745298 87.203453064 1.4883370399 1.5802106857 1.5284724236
 2536.3486328 6.0000000000 8.3409309387 12.250000954 10.698093414 0.0023913695 2.5356683731 93.602081299 1.3326249123 87.723197937 1.4315252304 1.5156116486 1.4559831619
 2536.5009766 6.0000000000 8.3165130615 12.250000954 10.548892021 0.0023487837 2.5232949257 91.549560547 1.3924385309 87.916580200 1.4071445465 1.5089616776 1.4232416153
 2536.6533203 6.0000000000 8.3165130615 12.250000954 10.282408714 0.0026452548 2.5596537590 91.333068848 1.4095437527 87.640701294 1.4121036530 1.5236096382 1.4092402458
 2536.8056641 6.0000000000 8.3409309387 12.250000954 9.9823274612 0.0026828316 2.5772306919 94.360107422 1.4014254808 86.304832458 1.4634943008 1.5595364571 1.4297518730
 2536.9582520 6.0000000000 8.3348274231 12.250000954 9.5333080292 0.0026768239 2.5158913136 90.712738037 1.3363122940 83.190452576 1.5832562447 1.6376442909 1.5066061020
 2537.1105957 6.0000000000 8.3165130615 12.250000954 8.9354600906 0.0023846922 2.4899747372 81.740753174 1.2231879234 78.699218750 1.8030133247 1.7927827835 1.6653671265
 2537.2629395 6.0000000000 8.3348274231 12.250000954 8.0173921585 0.0020134712 2.4894144535 68.186492920 1.2049456835 74.173179626 2.1480846405 2.0794019699 1.9480266571
 2537.4152832 6.0000000000 8.3104095459 12.250000954 6.7279105186 0.0017035144 2.5194857121 59.964233398 1.3890000582 71.078826904 2.5441303253 2.5288810730 2.3740234375
 2537.5678711 16.000000000 8.3409309387 12.250000954 5.6642999649 0.0016013917 2.5172507763 55.571197510 1.6319166422 70.159698486 2.7511968613 3.0071954727 2.7806234360
 2537.7202148 16.000000000 8.3287239075 12.250000954 5.2069678307 0.0011541299 2.5356404781 52.728820801 1.7621948719 71.219543457 2.6261663437 3.1750011444 2.8218135834
 2537.8725586 5.0000000000 8.3043060303 12.250000954 5.1561264992 0.0012312944 2.5685653687 55.218994141 1.7611923218 73.659706116 2.3277864456 2.9048690796 2.5201025009
 2538.0249023 5.0000000000 8.3043060303 12.250000954 5.6001019478 0.0013766667 2.5554327965 60.087463379 1.5555542707 76.444740295 2.0608768463 2.4845495224 2.1880321503
 2538.1772461 5.0000000000 8.3409309387 12.250000954 6.5436758995 0.0016026667 2.5495381355 67.453247070 1.2074143887 78.844352722 1.8812332153 2.1465549469 1.9524664879
 2538.3298340 5.0000000000 8.3348274231 12.250000954 7.3992328644 0.0018487356 2.5932602882 74.085723877 0.9956532717 80.905067444 1.7747931480 1.9296407700 1.8083863258
 2538.4821777 5.0000000000 8.3348274231 12.250000954 7.7686343193 0.0019770830 2.5911092758 74.686981201 1.0575773716 82.771858215 1.7170510292 1.8081469536 1.7309312820
 2538.6345215 5.0000000000 8.3348274231 12.250000954 7.7799282074 0.0020702917 2.5666639805 76.271697998 1.3504292965 84.701789856 1.6798524857 1.7482318878 1.6917862892
 2538.7868652 5.0000000000 8.3043060303 12.250000954 7.6729664803 0.0021405001 2.5336580276 77.788055420 1.6909961700 86.204353333 1.6383957863 1.7154955864 1.6591305733
 2538.9394531 5.0000000000 8.3043060303 12.250000954 7.5957994461 0.0025690529 2.4954969883 76.301635742 1.9427623749 86.546035767 1.5846090317 1.6844458580 1.6122322083
 2539.0917969 5.0000000000 8.3287239075 12.250000954 7.7314243317 0.0023967759 2.4777004719 78.882049561 2.0829095840 85.733612061 1.5280508995 1.6465792656 1.5538282394
 2539.2441406 5.0000000000 8.3165130615 12.250000954 8.2403936386 0.0022839166 2.4968433380 82.414947510 2.0565359592 84.487625122 1.4812979698 1.6070308685 1.5005860329
 2539.3964844 6.0000000000 8.3165130615 12.250000954 8.9792356491 0.0024897917 2.5956740379 80.378540039 1.8779085875 84.189926147 1.4446005821 1.5718441010 1.4620938301
