# LAS format log file from PETREL
# Project units are specified as depth units
#==================================================================
~Version information
VERS.   2.0:
WRAP.   NO:
#==================================================================
~Well
STRT .m      353.26309204 :
STOP .m      2468.2702637 :
STEP .m     0.00000000 :
NULL .        -999.250000 :
COMP.           : COMPANY
WELL.  25/11-1  Balder   : WELL
FLD.            : FIELD
LOC.            : LOCATION
SRVC.           : SERVICE COMPANY
DATE.  2018-09-11 14:48:15   : Log Export Date {yyyy-MM-dd HH:mm:ss}
PROV.           : PROVINCE
UWI.   25/11-1   : UNIQUE WELL ID
API.            : API NUMBER
#==================================================================
~Curve
DEPT .m                   : DEPTH
Lithology_geolink ._      : Lithology_geolink
CALI .in                  : CALI
MUDWEIGHT ._              : MUDWEIGHT
ROP .m/h                  : ROP
DRHO .g/cm3               : DRHO
RHOB .g/cm3               : RHOB
GR .gAPI                  : GR
DTC .us/ft                : DTC
DTE .us/ft                : DTE
RDEP .ohm.m               : RDEP
SP .mV                    : SP
RSHA .ohm.m               : RSHA
RMED .ohm.m               : RMED
~Parameter
#==================================================================
~Ascii
# ...
 916.53350830  -999.250000 12.778409958 9.5000000000 1.3264939785 0.0352603123 2.1056001186 33.272079468 140.39970398 140.40132141 1.1437929869 42.552318573 1.8309760094 1.1151950359
 916.68591309  -999.250000 12.793800354 9.5000000000 1.3183434010 0.0587877445 2.1285979748 37.699218750 136.08979797 136.09112549 1.2578899860 42.676322937 1.8400989771 1.2116910219
 916.83831787  -999.250000 12.849190712 9.5000000000 1.3143533468 0.0638013631 2.1368989944 41.921298981 135.48109436 135.48124695 1.3712860346 42.774085999 1.7629090548 1.3068879843
 916.99072266  -999.250000 12.815909386 9.5000000000 1.3062041998 0.0586027242 2.1333999634 43.838619232 136.23919678 136.23899841 1.4765839577 42.800735474 1.7949949503 1.3871879578
 917.14312744  -999.250000 12.810600281 9.5000000000 1.2775894403 0.0577331707 2.1283011436 44.364700317 136.50920105 136.50909424 1.5471869707 42.798057556 1.8416910172 1.4481890202
 917.29547119  -999.250000 12.855009079 9.5000000000 1.2043582201 0.0572671220 2.1171989441 44.262889862 136.58909607 136.58903503 1.5752019882 42.794792175 1.8646010160 1.4895050526
 917.44787598  -999.250000 12.913211823 9.5000000000 1.0618767738 0.0570000000 2.1107010841 44.173049927 136.44900513 136.44900513 1.5858999491 42.791793823 1.8723889589 1.5159020424
 917.60028076  -999.250000 12.943890572 9.5000000000 1.0357483625 0.0643287972 2.1191000938 44.463771820 136.73680115 136.73646545 1.5879989862 42.788059235 1.8025720119 1.5300010443
 917.75268555  -999.250000 12.896590233 9.5000000000 1.0234495401 0.0494108945 2.1171979904 45.034511566 137.52780151 137.52737427 1.5764980316 42.784793854 1.5922739506 1.5345000029
 917.90509033  -999.250000 12.755789757 9.5000000000 1.0232939720 0.0268766526 2.1013000011 47.218650818 138.25639343 138.25610352 1.5556980371 42.874439240 1.3438940048 1.5305989981
 918.05749512  -999.250000 12.663100243 9.5000000000 1.0232939720 0.0290616751 2.1024010181 48.039810181 138.80459595 138.80438232 1.5240989923 43.184936523 1.2605060339 1.5197000504
 918.20989990  -999.250000 12.649499893 9.5000000000 1.0232939720 0.0407945551 2.1154999733 48.442901611 138.70680237 138.70684814 1.4859999418 43.246765137 1.4702999592 1.5061999559
 918.36230469  -999.250000 12.650198936 9.5000000000 1.0151970387 0.0337396860 2.1217999458 49.674858093 138.09210205 138.09234619 1.4484009743 43.190353394 1.6295950413 1.4911999702
 918.51470947  -999.250000 12.650799751 9.5000000000 0.9626233578 0.0168081690 2.1161999702 51.322799683 137.27850342 137.27871704 1.4135019779 43.169116974 1.7110949755 1.4710010290
 918.66711426  -999.250000 12.624198914 9.5000000000 0.9010529518 0.0134657593 2.1171998978 51.537380219 136.40089417 136.40115356 1.3803030252 43.164058685 1.7592949867 1.4457019567
 918.81951904  -999.250000 12.586110115 9.5000000000 0.8558731675 0.0271918308 2.1293990612 48.301898956 135.84300232 135.84312439 1.3473039865 43.050498962 1.7775980234 1.4182029963
 918.97192383  -999.250000 12.572999954 9.5000000000 0.8148136139 0.0407945551 2.1390988827 47.050498962 136.02099609 136.02091980 1.3142050505 42.973220825 1.8695850372 1.3939039707
 919.12432861  -999.250000 12.573599815 9.5000000000 0.7819033861 0.0403341353 2.1389999390 47.303150177 136.66329956 136.66314697 1.2808059454 42.954849243 2.0003750324 1.3703039885
 919.27673340  -999.250000 12.574299812 9.5000000000 0.7490950227 0.0265342407 2.1283020973 47.841281891 137.09779358 137.09773254 1.2467069626 42.950794220 1.7930430174 1.3443059921
 919.42907715  -999.250000 12.574900627 9.5000000000 0.7286071181 0.0168698430 2.1161990166 48.322639465 137.11169434 137.11167908 1.2084929943 42.947059631 1.5634919405 1.3183959723
 919.58148193  -999.250000 12.583800316 9.5000000000 0.7163628936 0.0142671205 2.1063990593 48.563179016 137.01409912 137.01408386 1.1614929438 42.943794250 1.5111969709 1.2915970087
 919.73388672  -999.250000 12.593600273 9.5000000000 0.7162073255 0.0249931905 2.0944991112 49.238739014 137.97920227 137.97822571 1.1054919958 42.815795898 1.4844030142 1.2624969482
 919.88629150  -999.250000 12.596799850 9.5000000000 0.7162073255 0.0429247096 2.0838000774 49.708469391 139.89979553 139.89894104 1.0186940432 42.742794037 1.5203039646 1.2231969833
 920.03869629  -999.250000 12.597397804 9.5000000000 0.7162073255 0.0560616739 2.0773000717 49.172489166 141.94749451 141.94667053 0.9183980823 42.602855682 1.6002000570 1.1675980091
 920.19110107  -999.250000 12.598099709 9.5000000000 0.7285147905 0.0524040870 2.0778000355 48.737800598 144.27090454 144.26997375 0.8445004821 42.412620544 1.6155999899 1.0909999609
 920.34350586  -999.250000 12.632800102 9.5000000000 0.7448685169 0.0419383273 2.0880000591 47.512340546 146.80819702 146.80728149 0.7863020897 42.335266113 1.3985079527 1.0140030384
 920.49591064  -999.250000 12.782890320 9.5000000000 0.8587604165 0.0470616743 2.1078979969 39.216880798 149.33538818 149.33459473 0.7282038927 42.309089661 1.2070120573 0.9540039897
 920.64831543  -999.250000 12.972180367 9.5000000000 0.9340807199 0.0514657609 2.1151990891 28.467990875 151.80929565 151.80850220 0.6701055765 42.173591614 1.1626039743 0.9092044234
 920.80072021  -999.250000 13.155280113 9.5000000000 0.9544799328 0.0483356006 2.1056010723 23.519460678 153.58959961 153.58908081 0.6147071123 41.876266479 1.0949089527 0.8736047149
 920.95312500  -999.250000 13.333069801 9.5000000000 0.9748129845 0.0543287955 2.1080989838 19.985279083 153.84291077 153.84280396 0.5785056949 41.732326508 1.1156970263 0.8457044959
 921.10552979  -999.250000 13.452380180 9.5000000000 0.9834898710 0.0591986366 2.1155989170 18.616769791 153.46240234 153.46244812 0.5553045273 41.710056305 1.1001030207 0.8240041733
 921.25793457  -999.250000 13.494589806 9.5000000000 0.9916961193 0.0497355759 2.1108009815 18.495729446 152.44450378 152.44471741 0.5328050256 41.735485077 1.1808810234 0.8089033961
 921.41027832  -999.250000 13.516730309 9.5000000000 1.0122023821 0.0518630370 2.1053006649 18.270559311 151.11230469 151.11357117 0.5209004283 41.721469879 1.2915329933 0.7971987128
 921.56268311  -999.250000 13.742350578 9.5000000000 1.0124672651 0.0605959147 2.1122000217 18.005319595 150.19189453 150.19262695 0.5235009193 41.702709198 0.8976724744 0.7875993848
 921.71508789  -999.250000 14.188940048 9.5000000000 1.0124672651 0.0615342408 2.1173000336 17.273380280 150.72729492 150.72677612 0.5313007236 41.810764313 0.6805108786 0.7821999788
 921.86749268  -999.250000 14.699710846 9.5000000000 0.8505274653 0.0602671206 2.1196000576 16.977199554 151.94309998 151.94261169 0.5392004251 41.881145477 0.8340049982 0.7829002738
 922.01989746  -999.250000 14.931800842 9.5000000000 0.7674553394 0.0563356020 2.1182000637 16.983810425 152.12100220 152.12092590 0.5470001101 41.931705475 0.9452996850 0.7889999747
 922.17230225  -999.250000 14.652099609 9.5000000000 0.7055149078 0.0623287931 2.1219999790 17.329589844 151.76589966 151.76603699 0.5551999211 42.026145935 0.9291002154 0.7922000289
 922.32470703  -999.250000 14.238620758 9.5000000000 0.6846438646 0.0693972781 2.1247000694 18.063669205 150.56300354 150.56338501 0.5635995865 42.074851990 1.0392949581 0.7922000289
 922.47711182  -999.250000 14.104207993 9.5000000000 0.6804966331 0.0739315227 2.1256000996 19.491489410 148.19400024 148.19474792 0.5720993280 42.079059601 1.1022950411 0.7921000123
 922.62951660  -999.250000 14.180588722 9.5000000000 0.6804462075 0.0867260695 2.1333990097 20.219520569 146.97210693 146.97248840 0.5804991126 42.023590088 0.8165267110 0.7919999957
 922.78192139  -999.250000 14.347181320 9.5000000000 0.6804462075 0.0880684778 2.1366000175 20.681140900 146.40849304 146.40863037 0.5879989266 41.926795959 0.6381220818 0.7918999791
 922.93432617  -999.250000 14.556461334 9.5000000000 0.6804462075 0.0760068074 2.1297008991 20.999439240 146.53779602 146.53775024 0.5927991867 41.820323944 0.6255022287 0.7918000221
 923.08673096  -999.250000 14.678480148 9.5000000000 0.6807702184 0.0558766499 2.1223011017 21.790239334 147.10859680 147.10847473 0.5961992741 41.717708588 0.6608926058 0.7918000221
