# LAS format log file from PETREL
# Project units are specified as depth units
#==================================================================
~Version information
VERS.   2.0:
WRAP.   NO:
#==================================================================
~Well
STRT .m      383.59057617 :
STOP .m      2173.8320313 :
STEP .m     0.00000000 :
NULL .        -999.250000 :
COMP.           : COMPANY
WELL.  25/11-5 Balder Appr   : WELL
FLD.            : FIELD
LOC.            : LOCATION
SRVC.           : SERVICE COMPANY
DATE.  2018-09-11 14:48:16   : Log Export Date {yyyy-MM-dd HH:mm:ss}
PROV.           : PROVINCE
UWI.   25/11-5   : UNIQUE WELL ID
API.            : API NUMBER
#==================================================================
~Curve
DEPT .m                   : DEPTH
Lithology_geolink ._      : Lithology_geolink
DCAL .in                  : DCAL
CALI .in                  : CALI
BS .in                    : BS
MUDWEIGHT ._              : MUDWEIGHT
DRHO .g/cm3               : DRHO
NPHI .m3/m3               : NPHI
RHOB .g/cm3               : RHOB
GR .gAPI                  : GR
DTC .us/ft                : DTC
RDEP .ohm.m               : RDEP
SP .mV                    : SP
RMED .ohm.m               : RMED
~Parameter
#==================================================================
~Ascii
# ...
 1456.4857178  -999.250000 4.3940000534 12.894001007 8.5000000000 9.3999996185 -0.002999199 0.5126720071 1.9829697609 43.302703857 127.66477966 0.6570039988 52.657928467 0.7390256524
 1456.6380615  -999.250000 4.0320000648 12.531998634 8.5000000000 9.3999996185 -0.007995994 0.5060353279 1.9641451836 42.946285248 134.27000427 0.6550015807 52.534099579 0.7140200138
 1456.7905273  -999.250000 3.3540000916 11.854000092 8.5000000000 9.3999996185 -0.008999199 0.5083381534 1.9213283062 41.787925720 137.57305908 0.6609951854 52.374130249 0.7110024095
 1456.9428711  -999.250000 3.1760001183 11.676000595 8.5000000000 9.3999996185 -0.005003205 0.5159139037 1.8773362637 40.532005310 137.91893005 0.6669951677 52.140186310 0.7229903936
 1457.0953369  -999.250000 3.4839999676 11.984001160 8.5000000000 9.3999996185 -0.002002402 0.5202465653 1.8531832695 39.984439850 137.67759705 0.6709967852 51.817260742 0.7359895706
 1457.2476807  -999.250000 3.6489999294 12.149000168 8.5000000000 9.3999996185 0.0009975962 0.5227180123 1.8668930531 40.444629669 140.38183594 0.6749967933 51.522235870 0.7340016365
 1457.4001465  -999.250000 4.0269999504 12.527000427 8.5000000000 9.3999996185 0.0029983988 0.5293347239 1.9066941738 40.814701080 143.59024048 0.6789968014 51.326156616 0.7210104465
 1457.5524902  -999.250000 4.4559998512 12.956000328 8.5000000000 9.3999996185 0.0039991988 0.5379630923 1.9328011274 41.370552063 142.74957275 0.6839960217 51.331996918 0.7200008035
 1457.7049561  -999.250000 3.9470000267 12.446999550 8.5000000000 9.3999996185 0.0049991994 0.5472625494 1.9210914373 41.536865234 141.63040161 0.6909943819 51.495868683 0.7369863987
 1457.8572998  -999.250000 3.7249999046 12.225000381 8.5000000000 9.3999996185 0.0049999999 0.5552036166 1.8882523775 39.782405853 140.55674744 0.6979944110 51.715824127 0.7639783621
 1458.0096436  -999.250000 4.1300001144 12.630000114 8.5000000000 9.3999996185 0.0020048039 0.5571868420 1.8572616577 37.813156128 138.86959839 0.7049887776 51.829818726 0.7749823332
 1458.1621094  -999.250000 4.6739997864 13.173998833 8.5000000000 9.3999996185 0.0010008013 0.5557711124 1.8510458469 36.933700562 137.76698303 0.7129935622 51.847984314 0.7730016112
 1458.3144531  -999.250000 3.2790000439 11.779000282 8.5000000000 9.3999996185 0.0010000000 0.5582859516 1.8510000706 36.030445099 136.20359802 0.7199888229 51.887935638 0.7680079937
 1458.4669189  -999.250000 3.6150000095 12.115000725 8.5000000000 9.3999996185 -0.001997596 0.5641452670 1.8509999514 36.608535767 134.75085449 0.7269943953 51.979927063 0.7630040050
 1458.6192627  -999.250000 4.0460000038 12.545999527 8.5000000000 9.3999996185 -0.006991994 0.5692119002 1.8509999514 38.801483154 134.62849426 0.7349871993 52.069854736 0.7490224242
 1458.7717285  -999.250000 4.2420001030 12.741999626 8.5000000000 9.3999996185 -0.009997596 0.5761044621 1.8509999514 41.261032104 134.79856873 0.7419943810 52.159927368 0.7490000129
 1458.9240723  -999.250000 4.6640000343 13.163998604 8.5000000000 9.3999996185 -0.009000801 0.5916475654 1.8509999514 42.065357208 134.24894714 0.7489944100 52.273906708 0.7639879584
 1459.0765381  -999.250000 5.1370000839 13.637001038 8.5000000000 9.3999996185 -0.007001602 0.6151711941 1.8509999514 41.407527924 133.83683777 0.7559943795 52.288990021 0.7879807949
 1459.2288818  -999.250000 5.5510001183 14.050999641 8.5000000000 9.3999996185 -0.004002404 0.6279197931 1.8509999514 39.213760376 128.35800171 0.7609959841 52.254028320 0.8149783611
 1459.3813477  -999.250000 5.3130002022 13.812999725 8.5000000000 9.3999996185 -0.000003203 0.6147905588 1.8827556372 37.529346466 123.65975952 0.7639976144 52.318946838 0.8259911537
 1459.5336914  -999.250000 4.9470000267 13.447000504 8.5000000000 9.3999996185 0.0019983975 0.5934470892 1.8949081898 38.332355499 124.82436371 0.7669976354 52.408927917 0.8160079718
 1459.6861572  -999.250000 5.1229996681 13.623000145 8.5000000000 9.3999996185 0.0010008006 0.5831782222 1.8662209511 37.419731140 126.06359863 0.7699975967 52.313076019 0.7940176725
 1459.8385010  -999.250000 5.3099999428 13.810000420 8.5000000000 9.3999996185 -0.002996795 0.5881959200 1.8530994654 38.033508301 125.33567810 0.7739967704 52.153129578 0.7800111771
 1459.9908447  -999.250000 4.8470001221 13.347000122 8.5000000000 9.3999996185 -0.007991994 0.6001009345 1.8530001640 39.959911346 125.71730042 0.7809888124 52.080120087 0.7780032158
 1460.1433105  -999.250000 3.9159998894 12.416002274 8.5000000000 9.3999996185 -0.009998397 0.6034772992 1.8530000448 42.073307037 127.94121552 0.7889935374 52.045024872 0.7959855795
 1460.2956543  -999.250000 4.0380001068 12.538000107 8.5000000000 9.3999996185 -0.008003203 0.5975295305 1.8530000448 44.182621002 130.60194397 0.7959887981 52.059978485 0.8109759688
 1460.4481201  -999.250000 3.3649997711 11.865000725 8.5000000000 9.3999996185 -0.004003205 0.5874580741 1.8530000448 43.918212891 129.77076721 0.8029943705 52.074989319 0.8139976263
 1460.6004639  -999.250000 2.9110000134 11.411000252 8.5000000000 9.3999996185 -0.002003203 0.5740415454 1.8530000448 41.796401978 126.86476135 0.8099887967 52.131908417 0.8309727311
 1460.7529297  -999.250000 3.8830001354 12.382999420 8.5000000000 9.3999996185 -0.000001603 0.5585623980 1.8530000448 39.426895142 125.12678528 0.8179935813 52.296867371 0.8679703474
 1460.9052734  -999.250000 4.5110001564 13.010999680 8.5000000000 9.3999996185 0.0009991988 0.5440316200 1.8530000448 38.025119781 124.64218903 0.8219968081 52.465866089 0.8949783444
 1461.0577393  -999.250000 4.4539999962 12.954000473 8.5000000000 9.3999996185 0.0049967975 0.5332286358 1.8530000448 36.380317688 126.57875061 0.8210007548 52.580909729 0.8880056143
 1461.2100830  -999.250000 4.8169999123 13.317000389 8.5000000000 9.3999996185 0.0089967949 0.5260657072 1.8530000448 35.154979706 129.55761719 0.8190016150 52.647945404 0.8360416889
 1461.3625488  -999.250000 4.7210001945 13.220999718 8.5000000000 9.3999996185 0.0050032022 0.5248509645 1.8520078659 35.354839325 132.09057617 0.8130048513 52.638008118 0.8120191693
 1461.5148926  -999.250000 4.5780000687 13.078001022 8.5000000000 9.3999996185 -0.014983974 0.5345821977 1.8519999981 36.938728333 132.40286255 0.8020088077 52.503105164 0.8080032468
 1461.6673584  -999.250000 4.7600002289 13.260000229 8.5000000000 9.3999996185 -0.024991995 0.5474197268 1.8519999981 38.457782745 132.49041748 0.7910088301 52.394088745 0.8060016036
 1461.8197021  -999.250000 5.2650003433 13.765000343 8.5000000000 9.3999996185 -0.025000000 0.5537449121 1.8519999981 40.565311432 131.17825317 0.7760120630 52.159187317 0.8000048399
 1461.9720459  -999.250000 3.6029999256 12.102999687 8.5000000000 9.3999996185 -0.023003202 0.5458826423 1.8519999981 41.730133057 128.54022217 0.7570304275 51.679767609 0.7770368457
 1462.1245117  -999.250000 1.4270000458 9.9270000458 8.5000000000 9.3999996185 -0.021001602 0.5179123878 1.8519999981 42.591308594 129.96105957 0.7380151749 51.128440857 0.7580152154
 1462.2768555  -999.250000 0.5920000076 9.0920000076 8.5000000000 9.3999996185 -0.018004803 0.4823070765 1.8519999981 42.235572815 129.14889526 0.7389984131 50.691699982 0.7530080080
 1462.4293213  -999.250000 1.7879999876 10.288001060 8.5000000000 9.3999996185 -0.018999198 0.4588487744 1.8867330551 40.790161133 121.63362885 0.7649791241 50.523132324 0.7799783349
 1462.5816650  -999.250000 3.3220000267 11.821999550 8.5000000000 9.3999996185 -0.015006404 0.4595687985 1.8701426983 39.129661560 111.20102692 0.8149199486 50.559940338 0.8938174248
 1462.7341309  -999.250000 3.9700000286 12.470000267 8.5000000000 9.3999996185 -0.012002404 0.4826614857 1.8531296253 38.847225189 103.38305664 0.8439767361 50.624946594 1.1807700396
 1462.8864746  -999.250000 3.9470000267 12.446999550 8.5000000000 9.3999996185 -0.015996795 0.5073702335 1.8530001640 38.722099304 113.93383026 0.8479967713 50.568046570 1.4927500486
 1463.0389404  -999.250000 4.0609998703 12.560999870 8.5000000000 9.3999996185 -0.014001601 0.5266345739 1.8530000448 38.697017670 127.12493134 0.8430039883 50.507049561 1.4010736942
