# LAS format log file from PETREL
# Project units are specified as depth units
#==================================================================
~Version information
VERS.   2.0:
WRAP.   NO:
#==================================================================
~Well
STRT .m      383.59057617 :
STOP .m      2173.8320313 :
STEP .m     0.00000000 :
NULL .        -999.250000 :
COMP.           : COMPANY
WELL.  25/11-5 Balder Appr   : WELL
FLD.            : FIELD
LOC.            : LOCATION
SRVC.           : SERVICE COMPANY
DATE.  2018-09-11 14:48:16   : Log Export Date {yyyy-MM-dd HH:mm:ss}
PROV.           : PROVINCE
UWI.   25/11-5   : UNIQUE WELL ID
API.            : API NUMBER
#==================================================================
~Curve
DEPT .m                   : DEPTH
Lithology_geolink ._      : Lithology_geolink
DCAL .in                  : DCAL
CALI .in                  : CALI
BS .in                    : BS
MUDWEIGHT ._              : MUDWEIGHT
DRHO .g/cm3               : DRHO
NPHI .m3/m3               : NPHI
RHOB .g/cm3               : RHOB
GR .gAPI                  : GR
DTC .us/ft                : DTC
RDEP .ohm.m               : RDEP
SP .mV                    : SP
RMED .ohm.m               : RMED
~Parameter
#==================================================================
~Ascii
# ...
 1577.1864014  -999.250000 0.8780003190 9.3780002594 8.5000000000 10.000000000 0.0169903934 0.5082902908 2.1042368412 41.354400635 139.73992920 0.6090016365 52.641620636 0.7160240412
 1577.3388672  -999.250000 0.7110003829 9.2110004425 8.5000000000 10.000000000 0.0170000009 0.4942812026 2.0732367039 41.538852692 151.27416992 0.6080007553 52.782886505 0.6960160136
 1577.4912109  -999.250000 0.5170001984 9.0170001984 8.5000000000 10.000000000 0.0130032049 0.4828691483 2.0561296940 42.191478729 156.25881958 0.6060016155 52.823966980 0.6820111871
 1577.6436768  -999.250000 0.5080003738 9.0080003738 8.5000000000 10.000000000 0.0090032024 0.4837193191 2.0609622002 42.897434235 153.74891663 0.6040015817 52.721084595 0.6780031919
 1577.7960205  -999.250000 0.6850003600 9.1850004196 8.5000000000 10.000000000 0.0060024038 0.4971892238 2.0669541359 43.020900726 149.40858459 0.6030007601 52.649055481 0.6809976101
 1577.9484863  -999.250000 1.0049999952 9.5050001144 8.5000000000 10.000000000 0.0040016016 0.5128175020 2.0650155544 44.525794983 146.44337463 0.6020007730 52.807872772 0.6909919977
 1578.1008301  -999.250000 1.1130000353 9.6129999161 8.5000000000 10.000000000 0.0030008012 0.5154679418 2.0610311031 46.011810303 146.43370056 0.6049976349 53.048805237 0.7089855671
 1578.2532959  -999.250000 1.0049999952 9.5050001144 8.5000000000 10.000000000 0.0049983985 0.5055379868 2.0590157509 45.736221313 149.40951538 0.6119943857 53.309791565 0.7309823632
 1578.4056396  -999.250000 0.6689996719 9.1689996719 8.5000000000 10.000000000 0.0099959932 0.5014232993 2.0609853268 44.566940308 152.14720154 0.6199935675 53.546810150 0.7429903746
 1578.5579834  -999.250000 0.6490002275 9.1490001678 8.5000000000 10.000000000 0.0169887915 0.5094970465 2.0679407120 42.929622650 152.84558105 0.6239936352 53.693763733 0.7330160141
 1578.7104492  -999.250000 0.7390003800 9.2390003204 8.5000000000 10.000000000 0.0189983975 0.5218601227 2.0660157204 42.711170197 152.16065979 0.6259983778 53.793918610 0.7150143981
 1578.8627930  -999.250000 0.8360003829 9.3360004425 8.5000000000 10.000000000 0.0170032028 0.5332317352 2.0560839176 43.853168488 149.35060120 0.6259999871 53.920799255 0.7010223866
 1579.0152588  -999.250000 0.8830003738 9.3830003738 8.5000000000 10.000000000 0.0160008017 0.5457999110 2.0589776039 44.980094910 145.14707947 0.6250007749 53.994937897 0.6900088191
 1579.1676025  -999.250000 0.7670002580 9.2670001984 8.5000000000 10.000000000 0.0100096073 0.5524193645 2.0619752407 44.494777679 138.92407227 0.6230032444 53.933097839 0.6820127964
 1579.3200684  -999.250000 0.6459998488 9.1459999084 8.5000000000 10.000000000 0.0050040064 0.5514507890 2.0600156784 42.985210419 133.67619324 0.6220007539 53.878044128 0.6790024042
 1579.4724121  -999.250000 0.6890001297 9.1890001297 8.5000000000 10.000000000 0.0040008016 0.5453748703 2.0540456772 41.345314026 131.71557617 0.6200016141 53.908973694 0.6809983850
 1579.6248779  -999.250000 0.6769999266 9.1770000458 8.5000000000 10.000000000 0.0089959968 0.5376461744 2.0500299931 41.394958496 130.97109985 0.6180015802 53.988933563 0.6849967837
 1579.7772217  -999.250000 0.6330003738 9.1330003738 8.5000000000 10.000000000 0.0139959939 0.5280176997 2.0470223427 42.149394989 132.34469604 0.6150023937 54.006984711 0.6869983673
 1579.9296875  -999.250000 0.5559998155 9.0559997559 8.5000000000 10.000000000 0.0140000004 0.5190871358 2.0450155735 42.795482635 133.79653931 0.6120023727 53.850124359 0.6860007644
 1580.0820313  -999.250000 0.4740000069 8.9739999771 8.5000000000 10.000000000 0.0120016029 0.5159724951 2.0479776859 43.470458984 136.83157349 0.6100016236 53.638172150 0.6840016246
 1580.2344971  -999.250000 0.4519996941 8.9519996643 8.5000000000 10.000000000 0.0090024015 0.5205463171 2.0499842167 42.564723969 139.39225769 0.6090008020 53.520095825 0.6810023785
 1580.3868408  -999.250000 0.5889996886 9.0889997482 8.5000000000 10.000000000 0.0089999996 0.5282437801 2.0480155945 41.004249573 143.29167175 0.6080007553 53.383110046 0.6740056276
 1580.5391846  -999.250000 0.7320004106 9.2320003510 8.5000000000 10.000000000 0.0119951963 0.5360774398 2.0499827862 40.492816925 147.03620911 0.6070016026 53.221260071 0.6670112014
 1580.6916504  -999.250000 0.6750001907 9.1750001907 8.5000000000 10.000000000 0.0129991993 0.5433641672 2.0529766083 40.654869080 148.64642334 0.6060007811 53.082111359 0.6630032063
 1580.8439941  -999.250000 0.7559996247 9.2559995651 8.5000000000 10.000000000 0.0139983995 0.5445480943 2.0549829006 38.881847382 148.99693298 0.6060000062 52.895298004 0.6779759526
 1580.9964600  -999.250000 1.0260000229 9.5260000229 8.5000000000 10.000000000 0.0140000004 0.5371059775 2.0589699745 37.471130371 148.38449097 0.6050007939 52.658191681 0.7319567204
 1581.1488037  -999.250000 1.3270000219 9.8269996643 8.5000000000 10.000000000 0.0130016012 0.5243600011 2.0669322014 35.920482635 148.55921936 0.6040015817 52.471298218 0.7978942990
 1581.3012695  -999.250000 1.3220000267 9.8219995499 8.5000000000 10.000000000 0.0139991995 0.5127800107 2.0769228935 34.798896790 148.44128418 0.6030007601 52.307128906 0.7950024009
 1581.4536133  -999.250000 1.1529999971 9.6529998779 8.5000000000 10.000000000 0.0149991987 0.5075100064 2.0899004936 37.917495728 147.38165283 0.6029999852 52.194091797 0.7210593224
 1581.6060791  -999.250000 1.3890000582 9.8889999390 8.5000000000 10.000000000 0.0169983990 0.5127400160 2.1048851013 41.867835999 141.51959229 0.6020007730 52.262947083 0.6680424213
 1581.7584229  -999.250000 1.4249999523 9.9250001907 8.5000000000 10.000000000 0.0179991983 0.5209900141 2.1228625774 45.638977051 133.92259216 0.6039983630 52.399890900 0.6689992547
 1581.9108887  -999.250000 1.1009999514 9.6009998322 8.5000000000 10.000000000 0.0189991985 0.5218300223 2.1418547630 47.130805969 131.87922668 0.6079967618 52.830657959 0.6899831891
 1582.0632324  -999.250000 1.0449999571 9.5450000763 8.5000000000 10.000000000 0.0189999994 0.5195599794 2.1419999599 46.765293121 139.01417542 0.6129959822 53.466487885 0.6979935765
 1582.2156982  -999.250000 1.0540000200 9.5539999008 8.5000000000 10.000000000 0.0150032025 0.5200399756 2.1062746048 45.939659119 150.24949646 0.6179959774 53.877670288 0.6910055876
 1582.3680420  -999.250000 1.1059999466 9.6059999466 8.5000000000 10.000000000 0.0050080125 0.5211700201 2.0593585968 44.563102722 153.37889099 0.6229960322 54.064849854 0.6860039830
 1582.5205078  -999.250000 1.1779999733 9.6780004501 8.5000000000 10.000000000 -0.004991993 0.5182300210 2.0371675491 42.895336151 152.22082520 0.6299943924 54.102970123 0.6949927807
 1582.6728516  -999.250000 1.2130000591 9.7130002975 8.5000000000 10.000000000 -0.003001603 0.5120900273 2.0429542065 40.618000031 151.77964783 0.6379935741 54.067031860 0.7179815769
 1582.8251953  -999.250000 0.8140001297 9.3140001297 8.5000000000 10.000000000 0.0079823863 0.5091999769 2.0509331226 38.761001587 151.38632202 0.6469855905 53.956180573 0.7399647832
 1582.9776611  -999.250000 0.4110003412 8.9110002518 8.5000000000 10.000000000 0.0139951929 0.5082299709 2.0519919395 38.884998322 149.79037476 0.6509968042 53.816112518 0.7419983745
 1583.1300049  -999.250000 0.5030003190 9.0030002594 8.5000000000 10.000000000 0.0149983987 0.5003799796 2.0520000458 40.033000946 149.57495117 0.6500015855 53.678222656 0.7230303884
 1583.2824707  -999.250000 0.6680002213 9.1680002213 8.5000000000 10.000000000 0.0169983990 0.4875499904 2.0510077477 40.745998383 147.78833008 0.6460032463 53.515129089 0.6940232515
 1583.4348145  -999.250000 0.7819995880 9.2819995880 8.5000000000 10.000000000 0.0120080067 0.4775399864 2.0549664497 40.783000946 142.90353394 0.6380128264 53.351264954 0.6740320325
 1583.5872803  -999.250000 0.8809996247 9.3809995651 8.5000000000 10.000000000 0.0050056088 0.4768700004 2.0649242401 40.325000763 137.47665405 0.6290072203 53.188129425 0.6670055985
 1583.7396240  -999.250000 0.7170000076 9.2170000076 8.5000000000 10.000000000 0.0000040064 0.4892799854 2.0719463825 40.080001831 136.96890259 0.6200072169 52.976173401 0.6669999957
