# LAS format log file from PETREL
# Project units are specified as depth units
#==================================================================
~Version information
VERS.   2.0:
WRAP.   NO:
#==================================================================
~Well
STRT .m      1332.7867432 :
STOP .m      2972.7631836 :
STEP .m     0.00000000 :
NULL .        -999.250000 :
COMP.           : COMPANY
WELL.  25/10-9 Aegis   : WELL
FLD.            : FIELD
LOC.            : LOCATION
SRVC.           : SERVICE COMPANY
DATE.  2018-09-11 14:48:15   : Log Export Date {yyyy-MM-dd HH:mm:ss}
PROV.           : PROVINCE
UWI.   25/10-9   : UNIQUE WELL ID
API.            : API NUMBER
#==================================================================
~Curve
DEPT .m                   : DEPTH
Lithology_geolink ._      : Lithology_geolink
CALI .in                  : CALI
BS .in                    : BS
ROP .m/h                  : ROP
DRHO .g/cm3               : DRHO
NPHI .m3/m3               : NPHI
RHOB .g/cm3               : RHOB
PEF .b/e                  : PEF
GR .gAPI                  : GR
DTC .us/ft                : DTC
DTS .us/ft                : DTS
RDEP .ohm.m               : RDEP
RMED .ohm.m               : RMED
~Parameter
#==================================================================
~Ascii
# ...
 2311.8044434 1.0000000000 12.014100075 12.250000954 76.658134460 -0.005800000 0.1906999946 2.1661999226 3.3050999641 42.837100983 85.939300537 153.82420349 0.4253999889 0.4041999876
 2311.9567871 1.0000000000 12.000000000 12.250000954 98.238517761 -0.006000000 0.2001000047 2.1744000912 3.1895999908 35.655899048 85.731002808 152.46670532 0.4016999900 0.3711999953
 2312.1091309 2.0000000000 12.000000000 12.250000954 102.21620941 -0.010700000 0.1821999997 2.1828999519 2.9993999004 34.479400635 83.791099548 151.66229248 0.4851000011 0.3767000139
 2312.2617188 2.0000000000 12.000000000 12.250000954 90.970802307 -0.000900000 0.1634999961 2.2079999447 3.1199998856 31.600999832 83.498802185 154.39649963 0.8604999781 0.5952000022
 2312.4140625 16.000000000 12.102100372 12.250000954 74.400924683 -0.003500000 0.1154000014 2.2883999348 2.8229999542 32.851600647 79.269798279 155.72851563 1.2886999846 1.3345999718
 2312.5664063 2.0000000000 12.331501007 12.250000954 57.012798309 -0.014700000 0.0975999981 2.3427999020 3.3273999691 32.225498199 81.919197083 152.91461182 1.3483999968 1.6507999897
 2312.7187500 2.0000000000 12.543399811 12.250000954 44.361877441 -0.021700000 0.0790000036 2.3666999340 3.8915998936 32.369201660 83.019302368 152.41180420 0.7944999933 1.1576999426
 2312.8713379 2.0000000000 12.663499832 12.250000954 42.401573181 -0.022600001 0.1185000017 2.2906000614 3.4904000759 35.868198395 86.929397583 153.49690247 0.4882999957 0.6233000159
 2313.0236816 2.0000000000 12.277600288 12.250000954 54.313972473 -0.005600000 0.1532000005 2.2307000160 2.8447999954 32.408401489 89.241607666 153.83670044 0.4167000055 0.4916999936
 2313.1760254 2.0000000000 12.006500244 12.250000954 86.763778687 -0.026500000 0.2154999971 2.1547999382 2.6544001102 29.368499756 90.035102844 151.30668640 0.3917999864 0.4390999973
 2313.3283691 2.0000000000 12.010100365 12.250000954 99.749015808 -0.018999999 0.1872999966 2.1668000221 2.9453001022 37.469299316 94.000396729 151.03399658 0.4002999961 0.4111000001
 2313.4807129 2.0000000000 12.000000000 12.250000954 80.250000000 -0.007100000 0.1709000021 2.2246000767 3.2334001064 41.489898682 90.043601990 154.96960449 0.5622000098 0.5430999994
 2313.6333008 2.0000000000 12.000000000 12.250000954 59.577426910 -0.006200000 0.1159000024 2.3127000332 3.6698000431 36.256099701 92.760993958 152.96099854 1.1575000286 1.2457000017
 2313.7856445 16.000000000 12.014499664 12.250000954 40.833992004 -0.002100000 0.0691000000 2.4344000816 4.4134001732 35.942401886 98.633399963 153.92820740 1.6720999479 2.2590000629
 2313.9379883 16.000000000 12.022300720 12.250000954 28.801181793 0.0083999997 0.0577999987 2.5385999680 4.3266000748 30.749000549 100.53009796 158.27729797 1.8634999990 3.2272000313
 2314.0903320 1.0000000000 12.133700371 12.250000954 21.810367584 -0.002700000 0.0617000014 2.5051000118 4.0328998566 28.604900360 102.36260223 159.34689331 1.8789999485 3.5848000050
 2314.2429199 1.0000000000 12.400699615 12.250000954 19.100721359 -0.024900001 0.0782999992 2.4094998837 3.7987999916 31.037700653 97.463401794 158.70651245 1.6698999405 3.2163000107
 2314.3952637 1.0000000000 12.497500420 12.250000954 20.219488144 -0.021299999 0.0970999971 2.2774000168 3.1136000156 34.539600372 88.014701843 155.84660339 1.1295000315 2.0552000999
 2314.5476074 1.0000000000 12.208800316 12.250000954 27.778215408 -0.021400001 0.1618999988 2.2011001110 2.7704000473 33.940101624 87.267402649 157.52639771 0.5486999750 0.6546000242
 2314.6999512 1.0000000000 12.016400337 12.250000954 48.964569092 -0.017400000 0.1842000037 2.1670000553 2.7026998997 37.043701172 88.065902710 158.01460266 0.4627999961 0.4681000113
 2314.8525391 1.0000000000 12.013999939 12.250000954 77.159446716 -0.010200000 0.2041999996 2.1651999950 2.8561999798 35.462100983 88.592796326 156.12229919 0.4374000132 0.4101000130
 2315.0048828 1.0000000000 12.000000000 12.250000954 98.561355591 -0.007900000 0.2179999948 2.1677000523 3.0394999981 40.504199982 87.811996460 155.31449890 0.4226000011 0.3835999966
 2315.1572266 1.0000000000 12.023799896 12.250000954 103.32217407 -0.008500000 0.2107000053 2.1689000130 2.8770000935 25.094299316 86.746101379 155.20330811 0.4104000032 0.3693999946
 2315.3095703 1.0000000000 12.062200546 12.250000954 100.21194458 -0.005600000 0.2117000073 2.1735000610 2.7046000957 29.090299606 86.222099304 155.80610657 0.3986999989 0.3625999987
 2315.4619141 1.0000000000 12.086999893 12.250000954 97.412399292 0.0033000000 0.2150000036 2.1939001083 2.8743999004 38.584701538 86.365997314 155.43530273 0.3961000144 0.3770999908
 2315.6145020 1.0000000000 12.016400337 12.250000954 93.357284546 0.0001000000 0.2115000039 2.1916000843 2.9953000546 25.014900208 87.319206238 155.11689758 0.4203000069 0.4153000116
 2315.7668457 1.0000000000 12.052801132 12.250000954 84.746719360 -0.006100000 0.2020000070 2.2039999962 3.1577999592 35.587898254 88.853507996 156.18040466 0.4402000010 0.4481000006
 2315.9191895 1.0000000000 12.121000290 12.250000954 74.151901245 -0.011000000 0.1942999959 2.2023999691 3.1106998920 39.992698669 89.531997681 156.09240723 0.4352999926 0.4381999969
 2316.0715332 1.0000000000 12.006199837 12.250000954 67.143043518 -0.008600000 0.1915999949 2.2109000683 3.2822000980 34.932598114 89.470901489 157.12120056 0.4054000080 0.3838000000
 2316.2241211 1.0000000000 12.040599823 12.250000954 68.610565186 -0.010700000 0.2046999931 2.1863999367 2.9518001080 32.872299194 89.207496643 157.06140137 0.4187000096 0.3855000138
 2316.3764648 1.0000000000 12.003600121 12.250000954 76.152885437 -0.010600000 0.2011999935 2.1688001156 2.9809000492 33.380298615 89.026092529 155.99130249 0.4253999889 0.3876999915
 2316.5288086 1.0000000000 12.000000000 12.250000954 86.486221313 -0.013300000 0.2108999938 2.1673998833 2.8826999664 28.135400772 89.536399841 155.97070313 0.4251999855 0.3876999915
 2316.6811523 1.0000000000 12.000000000 12.250000954 99.356300354 -0.015900001 0.2135999948 2.1805999279 2.8441998959 32.634498596 89.556900024 155.89018250 0.4149999917 0.3858000040
 2316.8337402 1.0000000000 12.003800392 12.250000954 102.05545044 -0.018999999 0.2101999968 2.1744999886 2.8520998955 39.197399139 89.204208374 154.31491089 0.3959999979 0.3822999895
 2316.9860840 1.0000000000 12.057800293 12.250000954 100.81168365 -0.013700000 0.2167000026 2.1784000397 3.0457000732 40.526401520 89.900199890 154.55659485 0.3948000073 0.3804000020
 2317.1384277 1.0000000000 12.013999939 12.250000954 100.00721741 -0.005200000 0.2060000002 2.1889998913 3.0741000175 38.071899414 89.926300049 154.76159668 0.3887999952 0.3824999928
 2317.2907715 1.0000000000 12.000000000 12.250000954 98.952430725 -0.008800000 0.2050999999 2.1902999878 2.7344000340 36.648300171 89.890800476 154.58030701 0.3856999874 0.3874000013
 2317.4431152 1.0000000000 12.000000000 12.250000954 101.51705933 -0.013500000 0.2035000026 2.1865999699 2.5531001091 43.504501343 89.783004761 155.64810181 0.3887000084 0.3862000108
 2317.5957031 1.0000000000 12.000000000 12.250000954 98.712272644 -0.015900001 0.2066999972 2.1830999851 2.6544001102 32.817001343 89.152496338 156.55288696 0.3932999969 0.3912999928
 2317.7480469 1.0000000000 12.000000000 12.250000954 97.851379395 -0.014700000 0.2085999995 2.1842999458 2.6863000393 33.229698181 88.274902344 155.22279358 0.3966000080 0.3932000101
 2317.9003906 1.0000000000 12.000000000 12.250000954 98.725067139 -0.016400000 0.2185000032 2.1798000336 2.5474998951 35.719299316 88.386497498 154.75999451 0.3941000104 0.3925999999
 2318.0527344 1.0000000000 12.000000000 12.250000954 99.114501953 -0.018300001 0.2023999989 2.1716001034 2.5339999199 34.380599976 87.446296692 154.90049744 0.3941000104 0.3928999901
 2318.2053223 1.0000000000 12.000000000 12.250000954 100.76181030 -0.010000000 0.2098000050 2.1967000961 2.7583999634 31.421199799 87.018302917 154.55619812 0.3930999935 0.3878999949
 2318.3576660 1.0000000000 12.000000000 12.250000954 97.413391113 -0.026000001 0.1972000003 2.1861999035 2.3599998951 33.745399475 86.803497314 154.43710327 0.3926999867 0.3799000084
