# LAS format log file from PETREL
# Project units are specified as depth units
#==================================================================
~Version information
VERS.   2.0:
WRAP.   NO:
#==================================================================
~Well
STRT .m      1090.1660156 :
STOP .m      2511.1435547 :
STEP .m     0.00000000 :
NULL .        -999.250000 :
COMP.           : COMPANY
WELL.  25/10-10  Balder Triassic   : WELL
FLD.            : FIELD
LOC.            : LOCATION
SRVC.           : SERVICE COMPANY
DATE.  2018-09-11 14:48:14   : Log Export Date {yyyy-MM-dd HH:mm:ss}
PROV.           : PROVINCE
UWI.   25/10-10   : UNIQUE WELL ID
API.            : API NUMBER
#==================================================================
~Curve
DEPT .m                   : DEPTH
Lithology_geolink ._      : Lithology_geolink
CALI .in                  : CALI
BS .in                    : BS
ROP .m/h                  : ROP
DRHO .g/cm3               : DRHO
THOR .ppm                 : THOR
NPHI .m3/m3               : NPHI
RHOB .g/cm3               : RHOB
PEF .b/e                  : PEF
GR .gAPI                  : GR
URAN .ppm                 : URAN
DTC .us/ft                : DTC
DTS .us/ft                : DTS
RDEP .ohm.m               : RDEP
RSHA .ohm.m               : RSHA
RMED .ohm.m               : RMED
~Parameter
#==================================================================
~Ascii
# ...
 1191.6644287 5.0000000000 12.728199959 12.250000954 89.856124878 0.0744000003  -999.250000 0.3795999885 2.1054999828 7.8361001015 85.443000793  -999.250000 130.94769287  -999.250000 1.1538000107 1.1169999838 1.1525000334
 1191.8167725 5.0000000000 12.817299843 12.250000954 85.542976379 0.0932999998  -999.250000 0.3899999857 2.1287000179 8.0901002884 87.005401611  -999.250000 129.72290039  -999.250000 1.1447999477 1.1064000130 1.1413999796
 1191.9692383 5.0000000000 12.713500977 12.250000954 86.911720276 0.0992999971  -999.250000 0.3806999922 2.1373999119 8.2751998901 83.633399963  -999.250000 129.20559692  -999.250000 1.1102000475 1.0795999765 1.1040999889
 1192.1215820 5.0000000000 12.678899765 12.250000954 88.522644043 0.1019999981  -999.250000 0.4052999914 2.1384999752 8.3854999542 78.935600281  -999.250000 127.79650116  -999.250000 1.1237000227 1.0798000097 1.1079000235
 1192.2740479 5.0000000000 12.842399597 12.250000954 90.140655518 0.0997999981  -999.250000 0.4110000134 2.1373000145 8.4045000076 80.766700745  -999.250000 129.12860107  -999.250000 1.1605000496 1.1210000515 1.1453000307
 1192.4263916 5.0000000000 13.171099663 12.250000954 94.941925049 0.1106000021  -999.250000 0.4052000046 2.1579999924 8.4738998413 86.500198364  -999.250000 126.63990021  -999.250000 1.1771999598 1.1437000036 1.1705000401
 1192.5788574 5.0000000000 13.008500099 12.250000954 86.161727905 0.1085999981  -999.250000 0.4185999930 2.1536002159 8.3948001862 90.205398560  -999.250000 125.05090332  -999.250000 1.1533000469 1.1339999437 1.1505000591
 1192.7312012 5.0000000000 12.958100319 12.250000954 79.585952759 0.1083000004  -999.250000 0.4165999889 2.1524999142 8.4086999893 91.094100952  -999.250000 126.57669830  -999.250000 1.1281000376 1.1210000515 1.1323000193
 1192.8836670 5.0000000000 12.874400139 12.250000954 80.030708313 0.1159999967  -999.250000 0.4183000028 2.1512000561 8.6531000137 92.652900696  -999.250000 129.74229431  -999.250000 1.1239000559 1.1150000095 1.1219999790
 1193.0360107 5.0000000000 12.754199982 12.250000954 74.553138733 0.1377000064  -999.250000 0.3980000019 2.1751999855 9.0117998123 93.663398743  -999.250000 131.81370544  -999.250000 1.1202000380 1.1125999689 1.1236000061
 1193.1884766 5.0000000000 12.599300385 12.250000954 74.959884644 0.1331000030  -999.250000 0.4088000059 2.1668000221 9.2587003708 91.341400146  -999.250000 132.24620056  -999.250000 1.0963000059 1.0801000595 1.0997999907
 1193.3408203 5.0000000000 12.600299835 12.250000954 81.804687500 0.1295000017  -999.250000 0.4343000054 2.1617999077 9.2936000824 91.319900513  -999.250000 131.52049255  -999.250000 1.1563999653 1.1266000271 1.1503000259
 1193.4931641 5.0000000000 12.601099968 12.250000954 82.078735352 0.1203000024  -999.250000 0.4866999984 2.1484999657 9.4952001572 91.466796875  -999.250000 127.43629456  -999.250000 1.1943999529 1.1584999561 1.1792999506
 1193.6456299 5.0000000000 12.632200241 12.250000954 82.848564148 0.1394000053  -999.250000 0.4661999941 2.1784999371 9.3760004044 85.056098938  -999.250000 125.50109863  -999.250000 1.2142000198 1.1845999956 1.2053999901
 1193.7979736 5.0000000000 12.655599594 12.250000954 77.693244934 0.1351999938  -999.250000 0.4745999873 2.1749999523 9.2955999374 78.190200806  -999.250000 124.74220276  -999.250000 1.2281999588 1.2019000053 1.2148000002
 1193.9504395 5.0000000000 13.010199547 12.250000954 77.838745117 0.1319999993  -999.250000 0.4469999969 2.1816000938 8.9933004379 77.032798767  -999.250000 121.98889923  -999.250000 1.2451000214 1.2134000063 1.2445000410
 1194.1027832 5.0000000000 12.726499557 12.250000954 80.497703552 0.1306000054  -999.250000 0.4221000075 2.1721999645 9.1040000916 79.860099792  -999.250000 121.78140259  -999.250000 1.2696000338 1.2348999977 1.2719999552
 1194.2552490 5.0000000000 13.118399620 12.250000954 88.307868958 0.1244999990  -999.250000 0.3925999999 2.1587998867 9.0479001999 85.342697144  -999.250000 122.62319946  -999.250000 1.2846000195 1.2638000250 1.2798000574
 1194.4075928 5.0000000000 13.007200241 12.250000954 86.408798218 0.1222999990  -999.250000 0.3652000129 2.1619999409 9.0195999146 90.828903198  -999.250000 120.50409698  -999.250000 1.2795000076 1.2542999983 1.2797000408
 1194.5600586 5.0000000000 12.710498810 12.250000954 87.664978027 0.1119000018  -999.250000 0.3943000138 2.1573998928 8.7948999405 92.391296387  -999.250000 118.13960266  -999.250000 1.2984999418 1.2719000578 1.2984000444
 1194.7124023 5.0000000000 12.865300179 12.250000954 87.194221497 0.1186000034  -999.250000 0.3989999890 2.1705000401 8.9070997238 90.893402100  -999.250000 119.20320129  -999.250000 1.3112000227 1.2647000551 1.2979999781
 1194.8648682 5.0000000000 12.956601143 12.250000954 79.973129272 0.1225000024  -999.250000 0.4284000099 2.1707003117 9.0370998383 88.255996704  -999.250000 118.03959656  -999.250000 1.3236999512 1.2789000273 1.3092000484
 1195.0172119 5.0000000000 13.191499710 12.250000954 81.642723083 0.1454000026  -999.250000 0.4146000147 2.1879999638 12.322799683 87.912002563  -999.250000 117.87699890  -999.250000 1.3055000305 1.2805999517 1.3007999659
 1195.1696777 5.0000000000 13.111499786 12.250000954 79.603775024 0.1332000196  -999.250000 0.4241000116 2.1721999645 12.194100380 90.527900696  -999.250000 118.46780396  -999.250000 1.2956000566 1.2746000290 1.2848999500
 1195.3220215 5.0000000000 13.135999680 12.250000954 79.321624756 0.1005000025  -999.250000 0.4115999937 2.1519999504 10.825599670 92.359001160  -999.250000 122.06310272  -999.250000 1.2834000587 1.2625999451 1.2861000299
 1195.4743652 5.0000000000 13.163399696 12.250000954 82.315620422 0.1044000015  -999.250000 0.4142999947 2.1656999588 10.589900017 95.430000305  -999.250000 123.54190063  -999.250000 1.2876000404 1.2649999857 1.2906999588
 1195.6268311 5.0000000000 13.366600037 12.250000954 79.369972229 0.1096000001  -999.250000 0.3847999871 2.1649000645 10.515600204 100.70480347  -999.250000 124.44190216  -999.250000 1.2709000111 1.2390999794 1.2599999905
 1195.7791748 5.0000000000 13.327000618 12.250000954 85.382545471 0.1238000020  -999.250000 0.3835000098 2.1719999313 11.359299660 103.49990082  -999.250000 126.45580292  -999.250000 1.2696000338 1.2271000147 1.2460000515
 1195.9316406 5.0000000000 13.250900269 12.250000954 82.323867798 0.1334999949  -999.250000 0.3883999884 2.1805000305 11.375699997 104.11260223  -999.250000 125.67269897  -999.250000 1.3023999929 1.2624000311 1.2839000225
 1196.0839844 5.0000000000 13.165100098 12.250000954 87.708992004 0.1357000023  -999.250000 0.4138999879 2.1788001060 11.699899673 101.71530151  -999.250000 126.33999634  -999.250000 1.3227000237 1.2946000099 1.3131999969
 1196.2364502 6.0000000000 13.196999550 12.250000954 89.223670959 0.1361999959  -999.250000 0.4097999930 2.1624000072 12.501099586 95.695198059  -999.250000 127.11959839  -999.250000 1.3171999454 1.2949999571 1.3228000402
 1196.3887939 6.0000000000 13.233699799 12.250000954 98.138778687 0.1160999984  -999.250000 0.4196000099 2.1319000721 12.509200096 90.836097717  -999.250000 127.40209961  -999.250000 1.2991000414 1.2724000216 1.2933000326
 1196.5412598 6.0000000000 13.270400047 12.250000954 89.971244812 0.0945999995  -999.250000 0.4427999854 2.1052999496 12.315899849 87.482002258  -999.250000 123.06771088  -999.250000 1.3056000471 1.2735999823 1.2943999767
 1196.6936035 6.0000000000 13.291400909 12.250000954 95.847106934 0.0790000036  -999.250000 0.4255000055 2.0906000137 11.631299973 86.464302063  -999.250000 120.56219482  -999.250000 1.3660000563 1.3221999407 1.3539999723
 1196.8460693 6.0000000000 13.219799995 12.250000954 86.409805298 0.0799999982  -999.250000 0.4386000037 2.0908999443 11.508099556 88.091201782  -999.250000 119.60249329  -999.250000 1.4250999689 1.4018000364 1.4205000401
 1196.9984131 6.0000000000 13.185900688 12.250000954 83.175849915 0.0844999999  -999.250000 0.4061000049 2.1043000221 11.205100060 88.721900940  -999.250000 119.36630249  -999.250000 1.4142999649 1.4017000198 1.4175000191
 1197.1508789 6.0000000000 13.226799965 12.250000954 86.120559692 0.0870999992  -999.250000 0.4020000100 2.1226000786 10.945699692 90.083602905  -999.250000 121.02179718  -999.250000 1.3515000343 1.3265000582 1.3402999640
