# LAS format log file from PETREL
# Project units are specified as depth units
#==================================================================
~Version information
VERS.   2.0:
WRAP.   NO:
#==================================================================
~Well
STRT .m      383.59057617 :
STOP .m      2173.8320313 :
STEP .m     0.00000000 :
NULL .        -999.250000 :
COMP.           : COMPANY
WELL.  25/11-5 Balder Appr   : WELL
FLD.            : FIELD
LOC.            : LOCATION
SRVC.           : SERVICE COMPANY
DATE.  2018-09-11 14:48:16   : Log Export Date {yyyy-MM-dd HH:mm:ss}
PROV.           : PROVINCE
UWI.   25/11-5   : UNIQUE WELL ID
API.            : API NUMBER
#==================================================================
~Curve
DEPT .m                   : DEPTH
Lithology_geolink ._      : Lithology_geolink
DCAL .in                  : DCAL
CALI .in                  : CALI
BS .in                    : BS
MUDWEIGHT ._              : MUDWEIGHT
DRHO .g/cm3               : DRHO
NPHI .m3/m3               : NPHI
RHOB .g/cm3               : RHOB
GR .gAPI                  : GR
DTC .us/ft                : DTC
RDEP .ohm.m               : RDEP
SP .mV                    : SP
RMED .ohm.m               : RMED
~Parameter
#==================================================================
~Ascii
# ...
 1932.5830078 11.000000000 0.5059996247 9.0059995651 8.5000000000 10.300000191 0.0129967974 0.1073599979 2.6069529057 11.685000420 81.225151062 4.4018716812 58.933998108 4.2424292564
 1932.7354736 11.000000000 0.4929999709 8.9930000305 8.5000000000 10.300000191 0.0139991995 0.1127000004 2.6060087681 11.451999664 81.540649414 4.5458846092 59.008998871 5.0123820305
 1932.8878174 11.000000000 0.4670000076 8.9670000076 8.5000000000 10.300000191 0.0130016012 0.1137100011 2.6030278206 11.468999863 79.511161804 4.7516698837 58.903999329 6.5974588394
 1933.0402832 11.000000000 0.4650001824 8.9650001526 8.5000000000 10.300000191 0.0110016027 0.1062500030 2.5980429649 11.236000061 76.610427856 5.0127906799 58.847000122 7.7560729980
 1933.1926270 11.000000000 0.4709996581 8.9709997177 8.5000000000 10.300000191 0.0080024041 0.0954499990 2.6118798256 11.501999855 74.364402771 5.3087630272 58.895000458 8.1866559982
 1933.3450928 11.000000000 0.4779997468 8.9779996872 8.5000000000 10.300000191 0.0050024018 0.0875499994 2.6258790493 12.711000443 73.849411011 5.6347393990 58.993000031 8.4318037033
 1933.4974365 11.000000000 0.4849996865 8.9849996567 8.5000000000 10.300000191 0.0000040064 0.0826799870 2.6190605164 14.586999893 73.758865356 5.9557428360 59.069000244 8.6578187943
 1933.6499023 11.000000000 0.4910002053 8.9910001755 8.5000000000 10.300000191 -0.003996798 0.0809800029 2.6051201820 16.600000381 73.459838867 6.1638336182 59.165000916 8.7119569778
 1933.8022461 11.000000000 0.4969997108 8.9969997406 8.5000000000 10.300000191 -0.005998398 0.0821700022 2.5921125412 18.652999878 73.571708679 6.1819858551 59.361999512 8.3492908478
 1933.9547119 12.000000000 0.5030003190 9.0030002594 8.5000000000 10.300000191 -0.003002402 0.0856200010 2.5910089016 20.398000717 74.371055603 6.0361166000 59.639999390 7.5956034660
 1934.1070557 12.000000000 0.5000000000 9.0000000000 8.5000000000 10.300000191 0.0019959938 0.0915099978 2.5969481468 23.218999863 75.945938110 5.7862000465 60.034999847 6.7866477966
 1934.2593994 12.000000000 0.4899998307 8.9899997711 8.5000000000 10.300000191 0.0069919936 0.0995699987 2.5979902744 25.104000092 77.600051880 5.5324068069 60.506000519 6.1949477196
 1934.4118652 12.000000000 0.4779997468 8.9779996872 8.5000000000 10.300000191 0.0109967953 0.1076200008 2.5950253010 25.392000198 78.462615967 5.3521442413 60.743000031 5.9402036667
 1934.5642090 12.000000000 0.4670000076 8.9670000076 8.5000000000 10.300000191 0.0139951967 0.1126599982 2.6009435654 25.093999863 78.771003723 5.2222084999 60.756000519 5.9100480080
 1934.7166748 12.000000000 0.4560002685 8.9560003281 8.5000000000 10.300000191 0.0169975962 0.1139099970 2.6069481373 21.493999481 78.668685913 5.1240787506 60.587001801 5.8970103264
 1934.8690186 12.000000000 0.4379996955 8.9379997253 8.5000000000 10.300000191 0.0199951958 0.1118000001 2.6089806557 17.690000534 78.742774963 5.0670909882 60.243999481 5.9439244270
 1935.0214844 12.000000000 0.4180001915 8.9180002213 8.5000000000 10.300000191 0.0239967946 0.1091199964 2.6149482727 16.833000183 78.624290466 5.0630035400 59.930999756 6.3426804543
 1935.1738281 12.000000000 0.3979997933 8.8979997635 8.5000000000 10.300000191 0.0269975960 0.1063100025 2.6249139309 17.857000351 77.579238892 5.1169567108 59.791000366 7.5300483704
 1935.3262939 12.000000000 0.4399996102 8.9399995804 8.5000000000 10.300000191 0.0260008015 0.1001000032 2.6408622265 20.283000946 75.370071411 5.1629633904 59.854000092 8.9678487778
 1935.4786377 12.000000000 0.4940004051 8.9940004349 8.5000000000 10.300000191 0.0220032055 0.0919200033 2.6400086880 21.718999863 73.228713989 5.1550064087 60.054000854 9.3247146606
 1935.6311035 12.000000000 0.5240002275 9.0240001678 8.5000000000 10.300000191 0.0180032011 0.0863600001 2.6370253563 22.121999741 72.967308044 5.1140327454 60.374000549 8.2158889771
 1935.7834473 12.000000000 0.5080003738 9.0080003738 8.5000000000 10.300000191 0.0130040068 0.0872000009 2.6280772686 22.485000610 75.298439026 5.0800271034 60.889999390 6.4474177361
 1935.9359131 12.000000000 0.4829998016 8.9829998016 8.5000000000 10.300000191 0.0100024017 0.0939399973 2.6121377945 22.562999725 78.693984985 5.0989847183 61.380001068 5.2649464607
 1936.0882568 12.000000000 0.4720000625 8.9720001221 8.5000000000 10.300000191 0.0109991990 0.1039299965 2.5911808014 22.579999924 80.611564636 5.1379685402 61.599998474 5.0591640472
 1936.2407227 12.000000000 0.4650001824 8.9650001526 8.5000000000 10.300000191 0.0100008007 0.1111700013 2.5959572792 22.596000671 80.124885559 5.1040272713 61.682998657 5.6575202942
 1936.3930664 12.000000000 0.4899998307 8.9899997711 8.5000000000 10.300000191 0.0070024040 0.1094499975 2.6009569168 23.562000275 78.303955078 5.0100755692 61.772998810 6.7641129494
 1936.5454102 12.000000000 0.5209999084 9.0209999084 8.5000000000 10.300000191 0.0079983994 0.1031100005 2.6059529781 26.531999588 76.534034729 4.9061665535 62.013999939 7.4349255562
 1936.6978760 12.000000000 0.5340003967 9.0340003967 8.5000000000 10.300000191 0.0169927888 0.0992700011 2.6119482517 30.292999268 76.026901245 4.8140740395 62.362998962 7.1562247276
 1936.8502197 12.000000000 0.5170001984 9.0170001984 8.5000000000 10.300000191 0.0299791824 0.1027000025 2.6238868237 30.771999359 77.061538696 4.7610850334 62.611000061 6.4022088051
 1937.0026855 12.000000000 0.4949998856 8.9949998856 8.5000000000 10.300000191 0.0449879840 0.1126900017 2.6319315434 31.812000275 78.535919189 4.7280263901 62.708995819 5.6695866585
 1937.1550293 12.000000000 0.4729996026 8.9729995728 8.5000000000 10.300000191 0.0539855883 0.1244900003 2.6240756512 30.954000473 79.683464050 4.6800765991 62.680000305 5.0829396248
 1937.3074951 12.000000000 0.4720000625 8.9720001221 8.5000000000 10.300000191 0.0510024019 0.1354600042 2.6061553955 29.458000183 80.504241943 4.5710873604 62.550998688 4.7552618980
 1937.4598389 12.000000000 0.4759998024 8.9759998322 8.5000000000 10.300000191 0.0410080142 0.1456599981 2.5861718655 33.254001617 80.788673401 4.3691616058 62.362998962 4.6710672379
 1937.6123047 13.000000000 0.4809998274 8.9809999466 8.5000000000 10.300000191 0.0280104093 0.1562000066 2.5701379776 38.116001129 81.144317627 4.0962185860 62.133998871 4.5920634270
 1937.7646484 13.000000000 0.4849996865 8.9849996567 8.5000000000 10.300000191 0.0170088150 0.1660600007 2.5719826221 42.980998993 82.120315552 3.8032348156 61.907001495 4.2922401428
 1937.9171143 13.000000000 0.4890002906 8.9890003204 8.5000000000 10.300000191 0.0170000009 0.1748799980 2.5769569874 47.847000122 83.629196167 3.5392115116 61.604000092 3.7894027233
 1938.0694580 13.000000000 0.4940004051 8.9940004349 8.5000000000 10.300000191 0.0229951926 0.1845899969 2.5760087967 52.708999634 86.298767090 3.2991924286 61.159999847 3.2804079056
 1938.2219238 13.000000000 0.5290002823 9.0290002823 8.5000000000 10.300000191 0.0299943946 0.1976400018 2.5680694580 57.388000488 89.032112122 3.0601913929 60.768001556 2.8853161335
 1938.3742676 13.000000000 0.5760002136 9.0760002136 8.5000000000 10.300000191 0.0250040069 0.2119400054 2.5333008766 59.198001862 91.411293030 2.8201923370 60.488998413 2.6461913586
 1938.5266113 13.000000000 0.6160001159 9.1160001755 8.5000000000 10.300000191 0.0180112086 0.2229299992 2.4943673611 59.527999878 93.584609985 2.5813827515 60.298999786 2.5032289028
 1938.6790771 13.000000000 0.6529998779 9.1529998779 8.5000000000 10.300000191 0.0189991985 0.2291399986 2.4642581940 59.875000000 95.222587585 2.3411924839 59.957000732 2.3671090603
 1938.8314209 13.000000000 0.6599997878 9.1599998474 8.5000000000 10.300000191 0.0229935944 0.2337400019 2.4531037807 60.807998657 96.520317078 2.1153619289 59.507999420 2.2352113724
 1938.9838867 13.000000000 0.6610003114 9.1610002518 8.5000000000 10.300000191 0.0279959943 0.2396000028 2.4599394798 63.083999634 97.989021301 1.9361433983 59.268001556 2.1210913658
 1939.1362305 13.000000000 0.6650000215 9.1649999619 8.5000000000 10.300000191 0.0299967974 0.2472299933 2.4708962440 64.063003540 98.346328735 1.8151937723 59.134998322 2.0461201668
