# LAS format log file from PETREL
# Project units are specified as depth units
#==================================================================
~Version information
VERS.   2.0:
WRAP.   NO:
#==================================================================
~Well
STRT .m      1456.9927979 :
STOP .m      2094.7868652 :
STEP .m     0.00000000 :
NULL .        -999.250000 :
COMP.           : COMPANY
WELL.  25/11-24 Jakob South   : WELL
FLD.            : FIELD
LOC.            : LOCATION
SRVC.           : SERVICE COMPANY
DATE.  2018-09-11 14:48:16   : Log Export Date {yyyy-MM-dd HH:mm:ss}
PROV.           : PROVINCE
UWI.   25/11-24   : UNIQUE WELL ID
API.            : API NUMBER
#==================================================================
~Curve
DEPT .m                   : DEPTH
Lithology_geolink ._      : Lithology_geolink
DCAL .in                  : DCAL
CALI .in                  : CALI
BS .in                    : BS
ROP .m/h                  : ROP
DRHO .g/cm3               : DRHO
NPHI .m3/m3               : NPHI
RHOB .g/cm3               : RHOB
PEF .b/e                  : PEF
GR .gAPI                  : GR
DTC .us/ft                : DTC
DTS .us/ft                : DTS
RDEP .ohm.m               : RDEP
RMIC .ohm.m               : RMIC
RMED .ohm.m               : RMED
~Parameter
#==================================================================
~Ascii
# ...
 2003.8039551 12.000000000 0.1032000110 8.6031999588 8.5000000000 44.653549194 -0.004000000 0.3637000024 2.3840999603 3.1005001068 198.79800415 119.26209259 316.14654541 1.0700000525 1.2796000242 1.0253000259
 2003.9564209 12.000000000 0.0980997086 8.5980997086 8.5000000000 44.653549194 -0.003300000 0.3623000085 2.3782000542 3.0653998852 199.83489990 119.54550171 315.37490845 1.1944999695 1.2116999626 1.1405999660
 2004.1087646 12.000000000 0.0986003876 8.5986003876 8.5000000000 31.932094574 -0.002400000 0.3759999871 2.3689999580 3.0797998905 203.02200317 119.40499878 312.91802979 1.0988999605 1.3830000162 1.0504000187
 2004.2612305 12.000000000 0.1008997113 8.6008996964 8.5000000000 31.932094574 -0.002200000 0.3702000082 2.3733000755 2.9811999798 205.65240479 118.78869629 310.29861450 1.1601999998 1.2690000534 1.1090999842
 2004.4135742 12.000000000 0.1008997113 8.6008996964 8.5000000000 31.932094574 -0.003500000 0.3790999949 2.3754000664 2.9553999901 208.42759705 118.28340149 306.75634766 1.1865999699 1.3302999735 1.1354999542
 2004.5660400 12.000000000 0.1134004965 8.6134004593 8.5000000000 31.932094574 -0.005400000 0.3776000142 2.3434000015 2.8387999535 205.60629272 117.73919678 303.28048706 1.1892999411 1.1957999468 1.1438000202
 2004.7183838 12.000000000 0.1169003993 8.6169004440 8.5000000000 31.932094574 -0.005800000 0.3705999851 2.3666999340 2.8768999577 200.85099792 116.63760376 301.44787598 1.2991000414 1.2827999592 1.2525999546
 2004.8708496 12.000000000 0.1122998968 8.6122999191 8.5000000000 31.932094574 -0.006100000 0.3625000119 2.3847999573 2.9193999767 194.77520752 116.00000000 300.04373169 1.3092999458 1.4380999804 1.2638000250
 2005.0231934 12.000000000 0.1008997113 8.6008996964 8.5000000000 31.932094574 -0.006700000 0.3495000005 2.3914000988 2.9921000004 190.35600281 116.04010010 299.63674927 1.3411999941 1.3716000319 1.2950999737
 2005.1756592 12.000000000 0.1008997113 8.6008996964 8.5000000000 51.389110565 -0.007600000 0.3628999889 2.3822000027 3.0852000713 193.06880188 116.40249634 304.48083496 1.3295999765 1.4450999498 1.2818000317
 2005.3280029 12.000000000 0.0866003036 8.5866003036 8.5000000000 51.389110565 -0.005400000 0.3898999989 2.4024999142 3.2216999531 194.01910400 117.66329956 310.94479370 1.1043000221 1.2645000219 1.0612000227
 2005.4804688 12.000000000 0.0872001573 8.5872001648 8.5000000000 51.389110565 -0.003200000 0.4061999917 2.3789999485 3.1043000221 205.10789490 119.76490784 320.05804443 1.0857000351 1.1527999640 1.0425000191
 2005.6328125 12.000000000 0.0757999420 8.5757999420 8.5000000000 51.389110565 -0.004100000 0.4219000041 2.3708000183 3.0102000237 217.05690002 121.48279572 330.36993408 1.0053000450 1.1893999577 0.9660999775
 2005.7851563 12.000000000 0.0712003708 8.5712003708 8.5000000000 51.389110565 -0.007500000 0.4305000007 2.3345999718 2.9556000233 224.44129944 122.54550934 334.96884155 0.9143999815 1.0490000248 0.8792999983
 2005.9376221 12.000000000 0.0734996796 8.5734996796 8.5000000000 51.389110565 -0.009800000 0.4131000042 2.3229000568 2.8801000118 219.75680542 122.32480621 333.93371582 1.0130000114 1.1207000017 0.9746999741
 2006.0899658 12.000000000 0.0620002709 8.5620002747 8.5000000000 46.518371582 -0.008800000 0.3671000004 2.3429000378 2.9965999126 211.95339966 121.38491058 329.74142456 1.1672999859 1.2240999937 1.1301000118
 2006.2424316 12.000000000 0.0642995834 8.5642995834 8.5000000000 46.518371582 -0.006700000 0.3391000032 2.3812003136 3.1147999763 203.41070557 120.45700073 324.56765747 1.2343000174 1.3156000376 1.2003999949
 2006.3947754 12.000000000 -0.004300117 8.4956998825 8.5000000000 46.518371582 -0.006100000 0.3368000090 2.3877000809 3.1459000111 197.49339294 118.78050995 319.82250977 1.2426999807 1.3255000114 1.2144000530
 2006.5472412 12.000000000 0.0482997894 8.5482997894 8.5000000000 46.518371582 -0.006400000 0.3341000080 2.3833000660 3.1089999676 193.95750427 117.54418182 316.18969727 1.2158000469 1.4014999866 1.1914000511
 2006.6995850 12.000000000 0.0734996796 8.5734996796 8.5000000000 46.518371582 -0.007500000 0.3447000086 2.3714001179 3.1152000427 197.34419250 118.38250732 318.28491211 1.2365000248 1.4278000593 1.2127000093
 2006.8520508 12.000000000 0.0753002167 8.5753002167 8.5000000000 46.518371582 -0.009400000 0.3495999873 2.3515000343 3.1022999287 202.00799561 119.51229858 322.98889160 1.1213999987 1.3152999878 1.0988999605
 2007.0043945 12.000000000 0.0734996796 8.5734996796 8.5000000000 46.518371582 -0.009200000 0.3577290773 2.3875999451 3.4168999195 206.73269653 121.44139862 329.33789063 1.2007000446 1.3325999975 1.1734000444
 2007.1568604 12.000000000 0.0895004272 8.5895004272 8.5000000000 53.166988373 -0.006700000 0.3940283358 2.4330000877 3.7123000622 208.07060242 123.20059967 334.93731689 1.0233999491 1.2635999918 0.9984999895
 2007.3092041 12.000000000 0.0780000687 8.5780000687 8.5000000000 53.166988373 -0.004000000 0.4117249250 2.3462998867 2.8919999599 210.84669495 123.94920349 340.42141724 0.9029999971 1.0496000051 0.8809000254
 2007.4616699 12.000000000 0.0866003036 8.5866003036 8.5000000000 53.166988373 -0.003500000 0.4427179992 2.3280000687 2.7207000256 215.51049805 124.19120026 341.99871826 0.9118999839 1.0310000181 0.8895999789
 2007.6140137 12.000000000 0.0825996399 8.5825996399 8.5000000000 53.166988373 -0.003800000 0.3915711641 2.3210000992 2.6094000340 215.69340515 124.46520233 340.03598022 0.9962999821 1.0746999979 0.9735000134
 2007.7663574 12.000000000 0.0848998949 8.5848999023 8.5000000000 53.166988373 -0.002700000 0.3555904627 2.3445000648 2.6357998848 216.15840149 123.90090179 337.70401001 1.0894000530 1.2391999960 1.0621000528
 2007.9188232 12.000000000 0.0845003054 8.5845003128 8.5000000000 53.166988373 -0.001800000 0.3436924517 2.3636999130 2.8294999599 211.12879944 122.70850372 332.77069092 1.0742000341 1.2213000059 1.0470999479
 2008.0711670 12.000000000 0.0757999420 8.5757999420 8.5000000000 53.166988373 -0.002200000 0.3342990577 2.3664000034 2.7980999947 209.58610535 121.55860138 326.25305176 1.0836999416 1.1797000170 1.0563999414
 2008.2236328 12.000000000 0.0698995590 8.5698995590 8.5000000000 40.857280731 -0.003000000 0.3331018388 2.3654000759 2.7644999027 202.45629883 119.81939697 320.69906616 1.1583000422 1.2874000072 1.1299999952
 2008.3759766 12.000000000 0.0551996157 8.5551996231 8.5000000000 40.857280731 -0.004600000 0.3353863060 2.3696000576 2.8778998852 197.48770142 118.86080170 314.56521606 1.0781999826 1.2073999643 1.0523999929
 2008.5284424 12.000000000 0.0299997292 8.5299997330 8.5000000000 40.857280731 -0.006400000 0.3182936013 2.3757998943 2.8120000362 190.92219543 117.60690308 309.58639526 1.3250999451 1.1158000231 1.2906999588
 2008.6807861 12.000000000 0.0459995344 8.5459995270 8.5000000000 40.857280731 -0.005900000 0.3102996051 2.4419000149 2.9948000908 187.40339661 117.08149719 306.13873291 1.4213000536 1.5162999630 1.3841999769
 2008.8332520 12.000000000 0.0895004272 8.5895004272 8.5000000000 40.857280731 -0.005700000 0.3098554015 2.4096999168 2.9572999477 190.36010742 116.78749847 303.83309937 1.3315999508 1.5966000557 1.2944999933
 2008.9855957 12.000000000 0.0824003220 8.5824003220 8.5000000000 40.857280731 -0.004600000 0.3444101512 2.3675000668 2.7381000519 197.36289978 117.30090332 303.79693604 1.2297999859 1.3518999815 1.1942000389
 2009.1380615 12.000000000 0.0712003708 8.5712003708 8.5000000000 46.051181793 -0.006200000 0.3571172953 2.3526999950 2.6879000664 208.25039673 118.72480011 307.66592407 1.2204999924 1.2992000580 1.1840000153
 2009.2904053 12.000000000 0.0620002709 8.5620002747 8.5000000000 46.051181793 -0.005600000 0.3679016232 2.3577001095 2.7270998955 213.91999817 120.30089569 312.62493896 1.0513999462 1.1778999567 1.0198999643
 2009.4428711 12.000000000 0.0471000709 8.5471000671 8.5000000000 46.051181793 -0.004200000 0.3699038327 2.3478999138 2.6737999916 215.39120483 121.46389008 316.61749268 0.9963999987 1.0978000164 0.9663000107
 2009.5952148 12.000000000 0.0506000482 8.5506000519 8.5000000000 46.051181793 0.0011000000 0.3723082542 2.3411002159 2.6644001007 216.10809326 121.67769623 317.63558960 1.0427000523 1.1707999706 1.0128999949
