# LAS format log file from PETREL
# Project units are specified as depth units
#==================================================================
~Version information
VERS.   2.0:
WRAP.   NO:
#==================================================================
~Well
STRT .m      3054.5593262 :
STOP .m      3397.3076172 :
STEP .m     0.00000000 :
NULL .        -999.250000 :
COMP.           : COMPANY
WELL.  25/10-8A  Hanz Appr   : WELL
FLD.            : FIELD
LOC.            : LOCATION
SRVC.           : SERVICE COMPANY
DATE.  2018-09-11 14:48:15   : Log Export Date {yyyy-MM-dd HH:mm:ss}
PROV.           : PROVINCE
UWI.   25/10-8 A   : UNIQUE WELL ID
API.            : API NUMBER
#==================================================================
~Curve
DEPT .m                   : DEPTH
Lithology_geolink ._      : Lithology_geolink
NPHI .m3/m3               : NPHI
RHOB .g/cm3               : RHOB
GR .gAPI                  : GR
RDEP .ohm.m               : RDEP
RSHA .ohm.m               : RSHA
~Parameter
#==================================================================
~Ascii
# ...
 3279.9594727 5.0000000000 0.1692000031 2.4228618145 94.599708557 2.8407635689 2.2807092667
 3280.1118164 5.0000000000 0.1609499902 2.4321918488 94.556808472 2.8653905392 2.2752110958
 3280.2641602 5.0000000000 0.1578699946 2.4391186237 94.417602539 2.8560264111 2.3327939510
 3280.4165039 5.0000000000 0.1576500088 2.4404103756 94.199356079 2.9662568569 2.3679075241
 3280.5688477 5.0000000000 0.1603199989 2.4391288757 93.785354614 2.9726858139 2.5417478085
 3280.7214355 5.0000000000 0.1663800031 2.4375629425 93.543807983 2.7869629860 2.9226164818
 3280.8737793 5.0000000000 0.1754000038 2.4351241589 93.942291260 2.6080279350 3.2233932018
 3281.0261230 5.0000000000 0.1854400039 2.4321637154 94.899345398 2.5379209518 3.1512842178
 3281.1784668 5.0000000000 0.1912700087 2.4303679466 95.580955505 2.5800569057 2.7282824516
 3281.3310547 5.0000000000 0.1943499893 2.4293518066 95.988494873 2.6774322987 2.4610903263
 3281.4833984 5.0000000000 0.1967499852 2.4286460876 96.118850708 2.8473670483 2.3624789715
 3281.6357422 5.0000000000 0.1914999932 2.4280908108 95.912933350 3.0526847839 2.3061153889
 3281.7880859 5.0000000000 0.1791699976 2.4269621372 95.762466431 3.2563953400 2.3611888885
 3281.9406738 5.0000000000 0.1686199903 2.4260611534 95.986167908 3.1485164165 2.8345370293
 3282.0930176 5.0000000000 0.1654800028 2.4253005981 96.103836060 2.9368607998 3.3218264580
 3282.2453613 5.0000000000 0.1656199992 2.4243841171 96.070999146 2.8062684536 3.4613742828
 3282.3977051 5.0000000000 0.1656000018 2.4245932102 96.149200439 2.7435114384 3.1736547947
 3282.5500488 5.0000000000 0.1653599888 2.4286804199 96.245819092 2.7259030342 2.8356139660
 3282.7026367 5.0000000000 0.1651300043 2.4337968826 95.898345947 2.7238180637 2.6438317299
 3282.8549805 5.0000000000 0.1675200015 2.4364349842 95.288467407 2.7672986984 2.4763400555
 3283.0073242 5.0000000000 0.1720400006 2.4369997978 94.889823914 2.8543930054 2.3366091251
 3283.1596680 5.0000000000 0.1761000007 2.4369997978 94.607612610 2.9492030144 2.2571792603
 3283.3122559 5.0000000000 0.1852799952 2.4369997978 94.539436340 2.9633097649 2.2940270901
 3283.4645996 5.0000000000 0.1972900033 2.4369997978 94.510261536 2.9635426998 2.3699955940
 3283.6169434 5.0000000000 0.2037299871 2.4369997978 94.353302002 2.9614861012 2.4923176765
 3283.7692871 5.0000000000 0.2049799860 2.4369997978 94.372077942 2.8311042786 2.7644228935
 3283.9218750 5.0000000000 0.2049799860 2.4370384216 95.163238525 2.6696908474 2.9820683002
 3284.0742188 6.0000000000 0.2049799860 2.4379303455 96.490158081 2.6601722240 2.8815023899
 3284.2265625 6.0000000000 0.2049799860 2.4387302399 98.132827759 2.7320599556 2.6450331211
 3284.3789063 6.0000000000 0.2049700022 2.4373135567 99.883613586 2.7129764557 2.7112331390
 3284.5312500 6.0000000000 0.2049600035 2.4336123466 101.36726379 2.6959841251 2.7402667999
 3284.6838379 6.0000000000 0.2049399912 2.4310336113 102.09407806 2.7251465321 2.6012842655
 3284.8361816 6.0000000000 0.2048999965 2.4308178425 102.06654358 2.7589502335 2.4868278503
 3284.9885254 6.0000000000 0.2043499947 2.4314684868 101.65121460 2.7676181793 2.4699690342
 3285.1408691 6.0000000000 0.2027100027 2.4339516163 101.07112122 2.7596144676 2.4946458340
 3285.2934570 6.0000000000 0.2008000016 2.4366946220 100.43947601 2.7777950764 2.4949593544
 3285.4458008 6.0000000000 0.1998199970 2.4361524582 100.33072662 2.7577106953 2.5522112846
 3285.5981445 6.0000000000 0.1974200010 2.4320633411 100.83509827 2.7192187309 2.6043765545
 3285.7504883 6.0000000000 0.1955500096 2.4272279739 101.72867584 2.7340207100 2.5549697876
 3285.9030762 6.0000000000 0.1949699968 2.4235799313 102.47000122 2.7989494801 2.5071756840
 3286.0554199 6.0000000000 0.1921699941 2.4207682610 102.68320465 2.8522200584 2.5371077061
 3286.2077637 6.0000000000 0.1769800037 2.4199788570 102.21869659 2.8673110008 2.6321954727
 3286.3601074 6.0000000000 0.1650900096 2.4251518250 101.51725006 2.8930640221 2.6703329086
 3286.5124512 6.0000000000 0.1608900130 2.4362225533 101.03454590 3.0277845860 2.5781621933
 3286.6650391 6.0000000000 0.1552700102 2.4490506649 100.62361145 3.2471158504 2.5578336716
 3286.8173828 6.0000000000 0.1478700042 2.4563529491 99.908927917 3.4311254025 2.7296843529
 3286.9697266 6.0000000000 0.1449100077 2.4575905800 99.141906738 3.3972551823 3.1690602303
 3287.1220703 6.0000000000 0.1469299942 2.4577193260 98.744888306 3.1877515316 3.8664596081
 3287.2746582 6.0000000000 0.1527599990 2.4564218521 99.065032959 3.0599873066 4.1524357796
 3287.4270020 6.0000000000 0.1709499955 2.4532043934 99.776634216 2.9742240906 3.6566574574
 3287.5793457 6.0000000000 0.1833200008 2.4476847649 100.43820953 2.8890335560 3.1859107018
 3287.7316895 6.0000000000 0.1915900111 2.4399442673 101.41793823 2.8506684303 2.7683632374
 3287.8842773 6.0000000000 0.2021400034 2.4332423210 103.03385925 2.8587272167 2.5966961384
 3288.0366211 6.0000000000 0.2109699994 2.4284906387 104.92722321 2.8352253437 2.7536473274
 3288.1889648 6.0000000000 0.2182700038 2.4259252548 106.49319458 2.8443276882 2.9346079826
 3288.3413086 6.0000000000 0.2230499983 2.4243681431 108.06825256 2.9216368198 3.2298398018
 3288.4938965 6.0000000000 0.2281500101 2.4219880104 109.48091125 2.9442801476 3.3270483017
 3288.6462402 7.0000000000 0.2330500036 2.4180860519 110.78107452 2.9222989082 3.2038030624
 3288.7985840 7.0000000000 0.2380699962 2.4139668941 112.33781433 2.8748068810 2.7896034718
 3288.9509277 7.0000000000 0.2430500090 2.4106116295 114.79405975 2.9410569668 3.2514023781
 3289.1032715 7.0000000000 0.2450000048 2.4074778557 118.28960419 2.8736972809 3.0921971798
 3289.2558594 7.0000000000 0.2445599884 2.4022495747 121.09254456 2.6705162525 2.6125822067
 3289.4082031 7.0000000000 0.2441900074 2.3970317841 123.64629364 2.4720220566 2.7008996010
 3289.5605469 7.0000000000 0.2460699975 2.3939127922 124.55247498 2.3130731583 2.8250348568
 3289.7128906 7.0000000000 0.2499099970 2.3935308456 122.09544373 2.1854827404 2.8349456787
 3289.8654785 7.0000000000 0.2431399971 2.3939385414 117.53360748 2.1004531384 2.8296346664
 3290.0178223 7.0000000000 0.2316600084 2.3938767910 111.56065369 2.0599598885 2.8701455593
 3290.1701660 6.0000000000 0.2195000052 2.3908860683 103.40614319 2.1113255024 3.0575473309
 3290.3225098 6.0000000000 0.2080300003 2.3846802711 89.796188354 2.3222608566 4.2882418633
 3290.4750977 6.0000000000 0.1937400103 2.3761968613 76.279243469 1.6309745312 3.5497283936
 3290.6274414 2.0000000000 0.1696899980 2.3711416721 64.896041870 0.7139717340 1.3896075487
 3290.7797852 2.0000000000 0.1419499964 2.3734953403 57.950935364 0.6062923670 0.3867288828
 3290.9321289 2.0000000000 0.1239200011 2.3833649158 53.932003021 1.1661171913 0.3662779927
 3291.0844727 2.0000000000 0.1086499989 2.4022293091 50.923126221 1.4437830448 0.9720103741
 3291.2370605 2.0000000000 0.0938899964 2.4318952560 48.844108582 1.4855200052 1.8092793226
 3291.3894043 2.0000000000 0.0865699947 2.4556961060 47.351772308 1.2156319618 2.7515954971
 3291.5417480 2.0000000000 0.0847800002 2.4569728374 46.566051483 0.9002746344 3.5264143944
 3291.6940918 2.0000000000 0.0869699940 2.4296317101 46.310520172 0.8521853685 3.0779876709
 3291.8466797 2.0000000000 0.0947600007 2.3732504845 46.874385834 0.6373834014 2.2787010670
 3291.9990234 2.0000000000 0.1030000001 2.3078494072 48.252792358 0.5316993594 0.9334246516
 3292.1513672 2.0000000000 0.1288000047 2.2428319454 50.446296692 0.8273756504 0.2937590778
 3292.3037109 2.0000000000 0.1507599950 2.1964542866 52.437919617 1.5345135927 0.6472452283
 3292.4562988 2.0000000000 0.1600900143 2.1688153744 53.653999329 1.7403819561 1.0744169950
 3292.6086426 2.0000000000 0.1892300099 2.1567370892 56.404193878 1.8525124788 1.6346397400
 3292.7609863 2.0000000000 0.2115500122 2.1629843712 59.674312592 4.6994342804 6.3943228722
 3292.9133301 6.0000000000 0.2240699977 2.1842353344 62.365322113 6.8462762833 10.589775085
 3293.0656738 6.0000000000 0.2364500016 2.2233154774 69.341018677 7.5017747879 12.663311005
