# LAS format log file from PETREL
# Project units are specified as depth units
#==================================================================
~Version information
VERS.   2.0:
WRAP.   NO:
#==================================================================
~Well
STRT .m      704.45709229 :
STOP .m      3999.9543457 :
STEP .m     0.00000000 :
NULL .        -999.250000 :
COMP.           : COMPANY
WELL.  25/2-5 Lille Froey   : WELL
FLD.            : FIELD
LOC.            : LOCATION
SRVC.           : SERVICE COMPANY
DATE.  2018-09-11 14:48:17   : Log Export Date {yyyy-MM-dd HH:mm:ss}
PROV.           : PROVINCE
UWI.   25/2-5   : UNIQUE WELL ID
API.            : API NUMBER
#==================================================================
~Curve
DEPT .m                   : DEPTH
Lithology_geolink ._      : Lithology_geolink
CALI .in                  : CALI
BS .in                    : BS
DRHO .g/cm3               : DRHO
NPHI .m3/m3               : NPHI
RHOB .g/cm3               : RHOB
GR .gAPI                  : GR
DTC .us/ft                : DTC
DTE .us/ft                : DTE
RDEP .ohm.m               : RDEP
SP .mV                    : SP
RSHA .ohm.m               : RSHA
RMED .ohm.m               : RMED
~Parameter
#==================================================================
~Ascii
# ...
 1140.3210449  -999.250000 17.500000000 17.500000000  -999.250000  -999.250000  -999.250000 48.386001587 131.73924255 147.90071106 2.0266556740 43.953342438 1.6122628450 1.6122628450
 1140.4735107  -999.250000 17.500000000 17.500000000  -999.250000  -999.250000  -999.250000 47.422000885 130.43342590 146.43730164 2.0516715050 43.983562469 1.6646276712 1.6646276712
 1140.6258545  -999.250000 17.500000000 17.500000000  -999.250000  -999.250000  -999.250000 46.437000275 129.22186279 144.94493103 2.0766556263 44.015911102 1.7003430128 1.7003430128
 1140.7783203  -999.250000 17.500000000 17.500000000  -999.250000  -999.250000  -999.250000 45.903999329 128.26789856 143.99481201 2.1016714573 44.104682922 1.7077853680 1.7077853680
 1140.9306641  -999.250000 17.500000000 17.500000000  -999.250000  -999.250000  -999.250000 44.981998444 128.31050110 143.97212219 2.1156554222 44.215736389 1.6946506500 1.6946506500
 1141.0831299  -999.250000 17.500000000 17.500000000  -999.250000  -999.250000  -999.250000 43.785999298 128.89337158 144.64331055 2.0920281410 44.327968597 1.6619391441 1.6619391441
 1141.2354736  -999.250000 17.500000000 17.500000000  -999.250000  -999.250000  -999.250000 41.106998444 129.58740234 145.47935486 2.0566730499 44.440734863 1.6257307529 1.6257307529
 1141.3878174  -999.250000 17.500000000 17.500000000  -999.250000  -999.250000  -999.250000 39.561000824 129.97938538 145.94596863 2.0206956863 44.552879333 1.6054459810 1.6054459810
 1141.5402832  -999.250000 17.500000000 17.500000000  -999.250000  -999.250000  -999.250000 39.977001190 130.09928894 145.97218323 1.9830993414 44.612339020 1.5910063982 1.5910063982
 1141.6926270  -999.250000 17.500000000 17.500000000  -999.250000  -999.250000  -999.250000 40.584999084 130.79263306 146.83946228 1.9459095001 44.622001648 1.5809383392 1.5809383392
 1141.8450928  -999.250000 17.500000000 17.500000000  -999.250000  -999.250000  -999.250000 40.813999176 132.05786133 148.18623352 1.9088861942 44.636135101 1.5727179050 1.5727179050
 1141.9974365  -999.250000 17.500000000 17.500000000  -999.250000  -999.250000  -999.250000 40.898998260 132.36958313 148.60342407 1.8836890459 44.858909607 1.5560921431 1.5560921431
 1142.1499023  -999.250000 17.500000000 17.500000000  -999.250000  -999.250000  -999.250000 41.458000183 131.92237854 148.05252075 1.8986757994 45.163997650 1.5614230633 1.5614230633
 1142.3022461  -999.250000 17.500000000 17.500000000  -999.250000  -999.250000  -999.250000 42.200000763 130.99584961 147.00862122 1.9252451658 45.475215912 1.5930544138 1.5930544138
 1142.4547119  -999.250000 17.500000000 17.500000000  -999.250000  -999.250000  -999.250000 43.125000000 129.71850586 145.55920410 1.9514791965 45.787052155 1.6151376963 1.6151376963
 1142.6070557  -999.250000 17.500000000 17.500000000  -999.250000  -999.250000  -999.250000 44.463001251 128.16950989 143.94644165 1.9782497883 45.875202179 1.6402019262 1.6402019262
 1142.7595215  -999.250000 17.500000000 17.500000000  -999.250000  -999.250000  -999.250000 45.266998291 126.63401031 142.05668640 1.9879382849 45.665004730 1.6577814817 1.6577814817
 1142.9118652  -999.250000 17.500000000 17.500000000  -999.250000  -999.250000  -999.250000 46.491001129 125.06915283 140.44784546 1.9819167852 45.387699127 1.6610000134 1.6610000134
 1143.0643311  -999.250000 17.500000000 17.500000000  -999.250000  -999.250000  -999.250000 47.390998840 125.22005463 140.52508545 1.9721233845 45.110435486 1.6594291925 1.6594291925
 1143.2166748  -999.250000 17.500000000 17.500000000  -999.250000  -999.250000  -999.250000 46.203998566 126.11534882 141.64907837 1.9652777910 44.847618103 1.6315159798 1.6315159798
 1143.3690186  -999.250000 17.500000000 17.500000000  -999.250000  -999.250000  -999.250000 43.803001404 126.41139984 141.84020996 2.0300962925 44.636646271 1.6114460230 1.6114460230
 1143.5214844  -999.250000 17.500000000 17.500000000  -999.250000  -999.250000  -999.250000 40.611999512 124.38677979 139.61367798 2.1392955780 44.441661835 1.5970064402 1.5970064402
 1143.6738281  -999.250000 17.500000000 17.500000000  -999.250000  -999.250000  -999.250000 37.564998627 117.32444000 131.62594604 2.2552757263 44.248569489 1.6002770662 1.6002770662
 1143.8262939  -999.250000 17.500000000 17.500000000  -999.250000  -999.250000  -999.250000 35.783000946 105.07048035 117.90991974 2.3657860756 44.054660797 1.6561826468 1.6561826468
 1143.9786377  -999.250000 17.500000000 17.500000000  -999.250000  -999.250000  -999.250000 35.181999207 94.843688965 106.31431580 2.4000160694 43.871768951 1.8459720612 1.8459720612
 1144.1311035  -999.250000 17.500000000 17.500000000  -999.250000  -999.250000  -999.250000 35.222000122 91.403320313 102.62008667 2.3904075623 43.923305511 2.1492083073 2.1492083073
 1144.2834473  -999.250000 17.500000000 17.500000000  -999.250000  -999.250000  -999.250000 36.363998413 98.639488220 110.79711914 2.3035929203 44.043018341 2.3501377106 2.3501377106
 1144.4359131  -999.250000 17.500000000 17.500000000  -999.250000  -999.250000  -999.250000 38.408000946 113.17239380 127.04670715 2.2187747955 44.161682129 2.3365180492 2.3365180492
 1144.5882568  -999.250000 17.500000000 17.500000000  -999.250000  -999.250000  -999.250000 39.945999146 127.25717926 142.74198914 2.2177405357 44.200347900 1.8989615440 1.8989615440
 1144.7407227  -999.250000 17.500000000 17.500000000  -999.250000  -999.250000  -999.250000 40.812000275 136.40261841 153.06468201 2.2322394848 44.183578491 1.5882138014 1.5882138014
 1144.8930664  -999.250000 17.500000000 17.500000000  -999.250000  -999.250000  -999.250000 41.721000671 139.48583984 156.60273743 2.1492137909 44.157585144 1.4847435951 1.4847435951
 1145.0455322  -999.250000 17.500000000 17.500000000  -999.250000  -999.250000  -999.250000 42.131999969 139.98936462 157.01463318 2.0149397850 44.131580353 1.4843523502 1.4843523502
 1145.1978760  -999.250000 17.500000000 17.500000000  -999.250000  -999.250000  -999.250000 42.262001038 139.89147949 157.03633118 1.8740288019 44.105583191 1.5146987438 1.5146987438
 1145.3502197  -999.250000 17.500000000 17.500000000  -999.250000  -999.250000  -999.250000 42.629001617 140.45182800 157.59944153 1.7826250792 44.079601288 1.5400463343 1.5400463343
 1145.5026855  -999.250000 17.500000000 17.500000000  -999.250000  -999.250000  -999.250000 42.828998566 141.04269409 158.16105652 1.7896108627 44.053585052 1.5654166937 1.5654166937
 1145.6550293  -999.250000 17.500000000 17.500000000  -999.250000  -999.250000  -999.250000 42.828998566 140.85806274 158.07287598 1.8203926086 44.030738831 1.5882618427 1.5882618427
 1145.8074951  -999.250000 17.500000000 17.500000000  -999.250000  -999.250000  -999.250000 43.027000427 140.50140381 157.69309998 1.8647774458 44.024429321 1.5882884264 1.5882884264
 1145.9598389  -999.250000 17.500000000 17.500000000  -999.250000  -999.250000  -999.250000 43.445999146 140.15010071 157.31137085 1.9190640450 44.023998260 1.5658149719 1.5658149719
 1146.1123047  -999.250000 17.500000000 17.500000000  -999.250000  -999.250000  -999.250000 43.860000610 140.01068115 157.03495789 1.9750736952 44.023998260 1.5364422798 1.5364422798
 1146.2646484  -999.250000 17.500000000 17.500000000  -999.250000  -999.250000  -999.250000 43.053001404 140.45251465 157.60409546 1.9980159998 44.036563873 1.5284295082 1.5284295082
 1146.4171143  -999.250000 17.500000000 17.500000000  -999.250000  -999.250000  -999.250000 41.765998840 141.72180176 159.06196594 1.9876204729 44.211223602 1.5272145271 1.5272145271
 1146.5694580  -999.250000 17.500000000 17.500000000  -999.250000  -999.250000  -999.250000 41.344001770 143.02755737 160.58073425 1.9706233740 44.453529358 1.5230736732 1.5230736732
 1146.7219238  -999.250000 17.500000000 17.500000000  -999.250000  -999.250000  -999.250000 41.706001282 144.11886597 161.77200317 1.9536098242 44.701786041 1.5259270668 1.5259270668
 1146.8742676  -999.250000 17.500000000 17.500000000  -999.250000  -999.250000  -999.250000 41.999000549 144.62654114 162.28843689 1.9366204739 44.950531006 1.5277853012 1.5277853012
