# LAS format log file from PETREL
# Project units are specified as depth units
#==================================================================
~Version information
VERS.   2.0:
WRAP.   NO:
#==================================================================
~Well
STRT .m      1198.6790771 :
STOP .m      3629.1542969 :
STEP .m     0.00000000 :
NULL .        -999.250000 :
COMP.           : COMPANY
WELL.  25/2-14 Froey Appr   : WELL
FLD.            : FIELD
LOC.            : LOCATION
SRVC.           : SERVICE COMPANY
DATE.  2018-09-11 14:48:17   : Log Export Date {yyyy-MM-dd HH:mm:ss}
PROV.           : PROVINCE
UWI.   25/2-14   : UNIQUE WELL ID
API.            : API NUMBER
#==================================================================
~Curve
DEPT .m                   : DEPTH
Lithology_geolink ._      : Lithology_geolink
DCAL .in                  : DCAL
CALI .in                  : CALI
BS .in                    : BS
DRHO .g/cm3               : DRHO
THOR .ppm                 : THOR
NPHI .m3/m3               : NPHI
RHOB .g/cm3               : RHOB
PEF .b/e                  : PEF
GR .gAPI                  : GR
URAN .ppm                 : URAN
DTC .us/ft                : DTC
RDEP .ohm.m               : RDEP
SP .mV                    : SP
RSHA .ohm.m               : RSHA
RMED .ohm.m               : RMED
~Parameter
#==================================================================
~Ascii
# ...
 1683.6158447  -999.250000 3.1082391739 15.358239174 12.250000954 0.0686182827  -999.250000  -999.250000 2.0574059486 8.8980245590 50.847011566  -999.250000 44.075969696 0.7316417098 72.356750488 0.7633445263 0.6599065065
 1683.7683105  -999.250000 3.1456806660 15.395680428 12.250000954 0.0605173409  -999.250000  -999.250000 2.0913150311 8.8285617828 50.235538483  -999.250000 43.583568573 0.7383350134 72.583602905 0.7829626203 0.6706060171
 1683.9206543  -999.250000 3.0376381874 15.287640572 12.250000954 0.0406414792  -999.250000  -999.250000 2.1130831242 8.8457355499 50.175308228  -999.250000 43.289192200 0.7407916784 72.870162964 0.8128696084 0.6662353873
 1684.0731201  -999.250000 2.8272173405 15.077219963 12.250000954 0.0237208586  -999.250000  -999.250000 2.1063730717 8.9726028442 50.307308197  -999.250000 43.450153351 0.7416447997 73.075668335 0.8373067975 0.6505646110
 1684.2254639  -999.250000 2.6608600616 14.910860062 12.250000954 0.0228647292  -999.250000  -999.250000 2.0708000660 9.1253538132 50.441848755  -999.250000 44.087886810 0.7435606718 73.055450439 0.8345075846 0.6361325979
 1684.3779297  -999.250000 2.6871361732 14.937141418 12.250000954 0.0362398811  -999.250000  -999.250000 2.0243229866 9.1973447800 50.505821228  -999.250000 44.892803192 0.7462549210 72.712066650 0.8100901246 0.6311699152
 1684.5302734  -999.250000 2.9184303284 15.168430328 12.250000954 0.0473266989  -999.250000  -999.250000 1.9902119637 8.7190790176 50.595798492  -999.250000 45.439189911 0.7468693852 72.176460266 0.7842928767 0.6342749000
 1684.6826172  -999.250000 3.1688871384 15.418889999 12.250000954 0.0484762117  -999.250000  -999.250000 1.9771449566 7.8491630554 50.896770477  -999.250000 45.461223602 0.7416384816 71.722236633 0.7694488168 0.6409475803
 1684.8350830  -999.250000 3.2929041386 15.542900085 12.250000954 0.0433153212  -999.250000  -999.250000 1.9814779758 7.3915901184 51.397399902  -999.250000 45.034626007 0.7324104905 71.443870544 0.7657650113 0.6463431716
 1684.9874268  -999.250000 3.2777628899 15.527759552 12.250000954 0.0361093506  -999.250000  -999.250000 1.9975060225 7.4917898178 51.908870697  -999.250000 44.467761993 0.7225844860 71.269142151 0.7673432827 0.6477296948
 1685.1398926  -999.250000 3.2123439312 15.462340355 12.250000954 0.0284269005  -999.250000  -999.250000 2.0166509151 7.7434139252 52.201789856  -999.250000 44.041740417 0.7166367173 71.058898926 0.7704644799 0.6466323733
 1685.2922363  -999.250000 3.1521830559 15.402179718 12.250000954 0.0221959800  -999.250000  -999.250000 2.0323569775 7.7775311470 52.080280304  -999.250000 43.849594116 0.7180472016 70.709266663 0.7747436166 0.6462432742
 1685.4447021  -999.250000 3.0733621120 15.323360443 12.250000954 0.0195913408  -999.250000  -999.250000 2.0428900719 7.8068518639 51.594211578  -999.250000 43.807899475 0.7258695960 70.237442017 0.7796248198 0.6490517259
 1685.5970459  -999.250000 2.9461529255 15.196149826 12.250000954 0.0218937304  -999.250000  -999.250000 2.0475430489 7.9350028038 51.001628876  -999.250000 43.833408356 0.7356892228 69.680473328 0.7854232192 0.6541864276
 1685.7495117  -999.250000 2.7999429703 15.049940109 12.250000954 0.0284972694  -999.250000  -999.250000 2.0479750633 8.0750417709 50.531970978  -999.250000 43.918998718 0.7438346148 69.119033813 0.7934185266 0.6578590274
 1685.9018555  -999.250000 2.6970691681 14.947070122 12.250000954 0.0384969190  -999.250000  -999.250000 2.0429160595 8.0824947357 50.362541199  -999.250000 44.115531921 0.7466135025 68.693206787 0.8020743132 0.6572896838
 1686.0543213  -999.250000 2.6269218922 14.876918793 12.250000954 0.0465471298  -999.250000  -999.250000 2.0359480381 8.0313148499 50.409038544  -999.250000 44.430938721 0.7449635863 68.271087646 0.8053013086 0.6519193053
 1686.2066650  -999.250000 2.5316886902 14.781688690 12.250000954 0.0493135192  -999.250000  -999.250000 2.0267679691 8.0097780228 50.357128143  -999.250000 44.790058136 0.7420256138 67.668876648 0.7966368198 0.6433247924
 1686.3591309  -999.250000 2.3997960091 14.649799347 12.250000954 0.0490623899  -999.250000  -999.250000 2.0152699947 8.0704278946 49.970569611  -999.250000 45.033130646 0.7388857007 67.029556274 0.7809842825 0.6364560127
 1686.5114746  -999.250000 2.3049430847 14.554941177 12.250000954 0.0504829586  -999.250000  -999.250000 2.0043740273 8.1796588898 49.783859253  -999.250000 45.003021240 0.7352973223 66.961563110 0.7687273026 0.6359518766
 1686.6639404  -999.250000 2.3303389549 14.580340385 12.250000954 0.0541327186  -999.250000  -999.250000 1.9974080324 8.1977748871 50.579780579  -999.250000 44.667583466 0.7307890058 67.764389038 0.7652400732 0.6424847841
 1686.8162842  -999.250000 2.4594469070 14.709449768 12.250000954 0.0578321218  -999.250000  -999.250000 1.9981520176 8.1160984039 52.360321045  -999.250000 44.105289459 0.7273790240 68.971977234 0.7709612250 0.6545879245
 1686.9686279  -999.250000 2.6367409229 14.886739731 12.250000954 0.0604490004  -999.250000  -999.250000 2.0067670345 8.0540161133 54.403160095  -999.250000 43.494228363 0.7276076078 69.969429016 0.7813506126 0.6678739786
 1687.1210938  -999.250000 2.8087329865 15.058731079 12.250000954 0.0616748706  -999.250000  -999.250000 2.0196580887 7.9800219536 55.943138123  -999.250000 43.049217224 0.7324432135 70.395812988 0.7920367122 0.6789817214
 1687.2734375  -999.250000 2.9457979202 15.195799828 12.250000954 0.0578661188  -999.250000  -999.250000 2.0297100544 7.9155650139 56.973068237  -999.250000 42.956497192 0.7418413162 70.147323608 0.7994986176 0.6861822009
 1687.4259033  -999.250000 3.0060591698 15.256059647 12.250000954 0.0489944108  -999.250000  -999.250000 2.0321490765 7.8949890137 57.784519196  -999.250000 43.270870209 0.7515645027 69.425033569 0.8023977876 0.6888874173
 1687.5782471  -999.250000 2.9394669533 15.189469337 12.250000954 0.0415838510  -999.250000  -999.250000 2.0272259712 7.8575291634 58.115848541  -999.250000 43.847213745 0.7583817244 68.380722046 0.8024548292 0.6885176897
 1687.7307129  -999.250000 2.7668993473 15.016900063 12.250000954 0.0411075205  -999.250000  -999.250000 2.0207729340 7.7874021530 57.792751312  -999.250000 44.390857697 0.7619746923 67.472312927 0.8027623296 0.6878901124
 1687.8830566  -999.250000 2.5748300552 14.824830055 12.250000954 0.0446747318  -999.250000  -999.250000 2.0183169842 7.7662639618 57.250919342  -999.250000 44.620159149 0.7631661296 67.399620056 0.8042507172 0.6888089180
 1688.0355225  -999.250000 2.4560670853 14.706069946 12.250000954 0.0431078002  -999.250000  -999.250000 2.0243010521 7.7580690384 57.106250763  -999.250000 44.458618164 0.7648047209 68.284210205 0.8055055141 0.6918681860
 1688.1878662  -999.250000 2.4231960773 14.673199654 12.250000954 0.0341472998  -999.250000  -999.250000 2.0335209370 7.6777391434 57.343818665  -999.250000 44.009220123 0.7701721191 69.668663025 0.8055862188 0.6991159916
 1688.3403320  -999.250000 2.4613320827 14.711331367 12.250000954 0.0241328496  -999.250000  -999.250000 2.0413320065 7.4441890717 57.467010498  -999.250000 43.463230133 0.7806522250 70.943992615 0.8051720262 0.7130333781
 1688.4926758  -999.250000 2.5631520748 14.813150406 12.250000954 0.0204078704  -999.250000  -999.250000 2.0467650890 7.1095089912 57.037960052  -999.250000 42.932086945 0.7958390713 71.701286316 0.8065071106 0.7334926128
 1688.6451416  -999.250000 2.7038390636 14.953839302 12.250000954 0.0233714208  -999.250000  -999.250000 2.0533120632 7.0794239044 56.124309540  -999.250000 42.409812927 0.8126273155 71.792747498 0.8114640713 0.7527115941
 1688.7974854  -999.250000 2.7974493504 15.047449112 12.250000954 0.0263550803  -999.250000  -999.250000 2.0630400181 7.6697511673 54.996631622  -999.250000 41.950904846 0.8250827193 71.405616760 0.8215472102 0.7611715794
 1688.9498291  -999.250000 2.7644610405 15.014459610 12.250000954 0.0228760894  -999.250000  -999.250000 2.0691750050 8.4624595642 53.656898499  -999.250000 41.796524048 0.8301833868 70.776336670 0.8367285132 0.7533596754
 1689.1022949  -999.250000 2.6064252853 14.856429100 12.250000954 0.0116429999  -999.250000  -999.250000 2.0642499924 8.8276424408 51.868858337  -999.250000 42.258876801 0.8307449222 70.161117554 0.8505877852 0.7315310240
