# LAS format log file from PETREL
# Project units are specified as depth units
#==================================================================
~Version information
VERS.   2.0:
WRAP.   NO:
#==================================================================
~Well
STRT .m      1198.6790771 :
STOP .m      3629.1542969 :
STEP .m     0.00000000 :
NULL .        -999.250000 :
COMP.           : COMPANY
WELL.  25/2-14 Froey Appr   : WELL
FLD.            : FIELD
LOC.            : LOCATION
SRVC.           : SERVICE COMPANY
DATE.  2018-09-11 14:48:17   : Log Export Date {yyyy-MM-dd HH:mm:ss}
PROV.           : PROVINCE
UWI.   25/2-14   : UNIQUE WELL ID
API.            : API NUMBER
#==================================================================
~Curve
DEPT .m                   : DEPTH
Lithology_geolink ._      : Lithology_geolink
DCAL .in                  : DCAL
CALI .in                  : CALI
BS .in                    : BS
DRHO .g/cm3               : DRHO
THOR .ppm                 : THOR
NPHI .m3/m3               : NPHI
RHOB .g/cm3               : RHOB
PEF .b/e                  : PEF
GR .gAPI                  : GR
URAN .ppm                 : URAN
DTC .us/ft                : DTC
RDEP .ohm.m               : RDEP
SP .mV                    : SP
RSHA .ohm.m               : RSHA
RMED .ohm.m               : RMED
~Parameter
#==================================================================
~Ascii
 1198.6790771  -999.250000 1.9253431559 19.425340652 17.500000000 -0.004449908  -999.250000  -999.250000 1.7119950056 14.777350426 46.795131683  -999.250000  -999.250000 1.2794870138 43.964561462 0.9396007061 0.6515908837
 1198.8314209  -999.250000 2.4696080685 19.969610214 17.500000000 -0.003810898  -999.250000  -999.250000 1.7021169662 16.202339172 46.689559937  -999.250000  -999.250000 1.1188100576 45.766311646 0.9841210842 0.6479340196
 1198.9838867  -999.250000 2.4121549129 19.912160873 17.500000000 -0.014256380  -999.250000  -999.250000 1.6885410547 17.779239655 46.199729919  -999.250000  -999.250000 1.1110470295 48.495788574 1.0188670158 0.6602634192
 1199.1362305  -999.250000 2.0122990608 19.512300491 17.500000000 -0.028386891  -999.250000  -999.250000 1.6755939722 18.843860626 45.637130737  -999.250000  -999.250000 1.1843119860 51.190090179 1.0421090126 0.6876059771
 1199.2886963  -999.250000 1.7331470251 19.233150482 17.500000000 -0.037615810  -999.250000  -999.250000 1.6719830036 19.172760010 45.163391113  -999.250000  -999.250000 1.2814500332 52.939929962 1.0587710142 0.7207008004
 1199.4410400  -999.250000 1.8808959723 19.380899429 17.500000000 -0.040450990  -999.250000  -999.250000 1.6787940264 19.185779572 44.932609558  -999.250000  -999.250000 1.3510470390 53.881599426 1.0724149942 0.7389935255
 1199.5935059  -999.250000 2.4148058891 19.914810181 17.500000000 -0.041449379  -999.250000  -999.250000 1.6882330179 19.325109482 45.144180298  -999.250000  -999.250000 1.3937170506 54.204219818 1.0822839737 0.7321544886
 1199.7458496  -999.250000 2.9596610069 20.459659576 17.500000000 -0.046154309  -999.250000  -999.250000 1.6890300512 19.681840897 45.779850006  -999.250000  -999.250000 1.4225280285 54.103328705 1.0867420435 0.7173389196
 1199.8983154  -999.250000 3.1996817589 20.699680328 17.500000000 -0.053964779  -999.250000  -999.250000 1.6793060303 19.865060806 46.374660492  -999.250000  -999.250000 1.4449599981 53.823799133 1.0871679783 0.7101169229
 1200.0506592  -999.250000 3.2823522091 20.782352448 17.500000000 -0.057280120  -999.250000  -999.250000 1.6704030037 19.834089279 46.533340454  -999.250000  -999.250000 1.4636570215 53.856319427 1.0886260271 0.7131615877
 1200.2031250  -999.250000 3.4368081093 20.936809540 17.500000000 -0.051759649  -999.250000  -999.250000 1.6699030399 19.741340637 46.403690338  -999.250000  -999.250000 1.4844340086 54.314300537 1.0951199532 0.7215459943
 1200.3554688  -999.250000 3.7044849396 21.204479218 17.500000000 -0.040023919  -999.250000  -999.250000 1.6786129475 19.708780289 46.413600922  -999.250000  -999.250000 1.5089559555 54.898941040 1.1058290005 0.7297049761
 1200.5079346  -999.250000 9.2065315247 21.456529617 12.250000954 -0.028361820  -999.250000  -999.250000 1.6926239729 19.662900925 46.582000732  -999.250000  -999.250000 1.5392279625 55.109580994 1.1169790030 0.7395585775
 1200.6602783  -999.250000 9.3193225861 21.569318771 12.250000954 -0.022764800  -999.250000  -999.250000 1.7028030157 19.478950500 46.203849792  -999.250000  -999.250000 1.5786629915 54.747489929 1.1258820295 0.7563499808
 1200.8126221  -999.250000 9.3087196350 21.558721542 12.250000954 -0.024078140  -999.250000  -999.250000 1.7029559612 19.207540512 44.924499512  -999.250000  -999.250000 1.6314630508 54.074699402 1.1328819990 0.7837854028
 1200.9650879  -999.250000 9.1896629333 21.439659119 12.250000954 -0.029122951  -999.250000  -999.250000 1.6952159405 18.981670380 43.352779388  -999.250000  -999.250000 1.6914780140 53.393459320 1.1423189640 0.8177856803
 1201.1174316  -999.250000 8.9980468750 21.248050690 12.250000954 -0.033598758  -999.250000  -999.250000 1.6873549223 18.849519730 42.586189270  -999.250000  -999.250000 1.7516000271 52.901790619 1.1587140560 0.8507866263
 1201.2698975  -999.250000 8.8408203125 21.090820313 12.250000954 -0.035402700  -999.250000  -999.250000 1.6895040274 18.732070923 43.240131378  -999.250000  -999.250000 1.8121190071 52.613098145 1.1792880297 0.8781306148
 1201.4222412  -999.250000 8.8244380951 21.074440002 12.250000954 -0.033462331  -999.250000  -999.250000 1.7027250528 18.603479385 44.712299347  -999.250000  -999.250000 1.8817050457 52.384990692 1.1954849958 0.9022641182
 1201.5747070  -999.250000 8.9353218079 21.185317993 12.250000954 -0.026076160  -999.250000  -999.250000 1.7221829891 18.555110931 46.142971039  -999.250000  -999.250000 1.9549089670 52.181728363 1.2027970552 0.9258257747
 1201.7270508  -999.250000 9.0690860748 21.319089890 12.250000954 -0.013636020  -999.250000  -999.250000 1.7396249771 18.570739746 47.111808777  -999.250000  -999.250000 2.0017840862 52.080280304 1.2047179937 0.9419394135
 1201.8795166  -999.250000 9.1157550812 21.365760803 12.250000954 -0.000391845  -999.250000  -999.250000 1.7533049583 18.494319916 47.535221100  -999.250000  -999.250000 1.9989240170 52.217250824 1.2062920332 0.9376062155
 1202.0318604  -999.250000 9.0453720093 21.295368195 12.250000954 0.0063837501  -999.250000  -999.250000 1.7632529736 18.316650391 47.472728729  -999.250000  -999.250000 1.9368660450 52.567821503 1.2043249607 0.9082208872
 1202.1843262  -999.250000 8.9239807129 21.173980713 12.250000954 0.0038681601  -999.250000  -999.250000 1.7660150528 18.314680099 47.153430939  -999.250000  -999.250000 1.8386889696 52.961971283 1.1931680441 0.8605653048
 1202.3366699  -999.250000 8.8206825256 21.070682526 12.250000954 -0.007581639  -999.250000  -999.250000 1.7552419901 18.620229721 46.915969849  -999.250000  -999.250000 1.7413510084 53.247581482 1.1716550589 0.8116279244
 1202.4891357  -999.250000 8.7908344269 21.040828705 12.250000954 -0.025260950  -999.250000  -999.250000 1.7318240404 19.010459900 46.938888550  -999.250000  -999.250000 1.6606869698 53.345058441 1.1440670490 0.7792860866
 1202.6414795  -999.250000 8.8606681824 21.110670090 12.250000954 -0.042309102  -999.250000  -999.250000 1.7081869841 19.277339935 46.991119385  -999.250000  -999.250000 1.6007759571 53.250919342 1.1164439917 0.7696675062
 1202.7938232  -999.250000 9.0015392303 21.251541138 12.250000954 -0.050062574  -999.250000  -999.250000 1.6939350367 19.545019150 46.501079559  -999.250000  -999.250000 1.5583100319 52.994800568 1.0938559771 0.7797772884
 1202.9462891  -999.250000 9.1565799713 21.406581879 12.250000954 -0.047275800  -999.250000  -999.250000 1.6900240183 19.850839615 45.553871155  -999.250000  -999.250000 1.5187050104 52.595329285 1.0818610191 0.7995514274
 1203.0986328  -999.250000 9.2840957642 21.534099579 12.250000954 -0.039131232  -999.250000  -999.250000 1.6939589977 20.081819534 45.106880188  -999.250000  -999.250000 1.4809199572 52.061420441 1.0843410492 0.8148046732
 1203.2510986  -999.250000 9.3697986603 21.619800568 12.250000954 -0.033873189  -999.250000  -999.250000 1.6999729872 20.119459152 45.984279633  -999.250000  -999.250000 1.4529180527 51.388481140 1.0944620371 0.8205438256
 1203.4034424  -999.250000 9.4135112762 21.663507462 12.250000954 -0.037391491  -999.250000  -999.250000 1.7002840042 19.959869385 47.888179779  -999.250000  -999.250000 1.4532979727 50.468540192 1.1038589478 0.8211777210
 1203.5559082  -999.250000 9.4374198914 21.687419891 12.250000954 -0.045916300  -999.250000  -999.250000 1.6943930387 19.829620361 49.386920929  -999.250000  -999.250000 1.4797810316 49.313339233 1.1056090593 0.8238171935
 1203.7082520  -999.250000 9.4483852386 21.698387146 12.250000954 -0.051852319  -999.250000  -999.250000 1.6853339672 19.798490524 49.672168732  -999.250000  -999.250000 1.5112260580 48.037910461 1.1001520157 0.8294504285
 1203.8607178  -999.250000 9.4481964111 21.698200226 12.250000954 -0.048181958  -999.250000  -999.250000 1.6812319756 19.783689499 49.036239624  -999.250000  -999.250000 1.5333329439 46.945369720 1.0947450399 0.8320087790
 1204.0130615  -999.250000 9.4352016449 21.685199738 12.250000954 -0.034125280  -999.250000  -999.250000 1.6870989799 19.717689514 48.393741608  -999.250000  -999.250000 1.5357120037 46.509510040 1.0920840502 0.8283054233
 1204.1655273  -999.250000 9.4025821686 21.652580261 12.250000954 -0.018842040  -999.250000  -999.250000 1.6995769739 19.573369980 48.153659821  -999.250000  -999.250000 1.5185769796 46.772418976 1.0893770456 0.8228868246
