# LAS format log file from PETREL
# Project units are specified as depth units
#==================================================================
~Version information
VERS.   2.0:
WRAP.   NO:
#==================================================================
~Well
STRT .m      704.45709229 :
STOP .m      3999.9543457 :
STEP .m     0.00000000 :
NULL .        -999.250000 :
COMP.           : COMPANY
WELL.  25/2-5 Lille Froey   : WELL
FLD.            : FIELD
LOC.            : LOCATION
SRVC.           : SERVICE COMPANY
DATE.  2018-09-11 14:48:17   : Log Export Date {yyyy-MM-dd HH:mm:ss}
PROV.           : PROVINCE
UWI.   25/2-5   : UNIQUE WELL ID
API.            : API NUMBER
#==================================================================
~Curve
DEPT .m                   : DEPTH
Lithology_geolink ._      : Lithology_geolink
CALI .in                  : CALI
BS .in                    : BS
DRHO .g/cm3               : DRHO
NPHI .m3/m3               : NPHI
RHOB .g/cm3               : RHOB
GR .gAPI                  : GR
DTC .us/ft                : DTC
DTE .us/ft                : DTE
RDEP .ohm.m               : RDEP
SP .mV                    : SP
RSHA .ohm.m               : RSHA
RMED .ohm.m               : RMED
~Parameter
#==================================================================
~Ascii
# ...
 2240.0393066 1.0000000000 17.500000000 17.500000000  -999.250000  -999.250000  -999.250000 22.551000595 98.897644043 99.086486816 0.4591474533 38.317745209 0.6170831919 0.6170831919
 2240.1916504 1.0000000000 17.500000000 17.500000000  -999.250000  -999.250000  -999.250000 23.149000168 100.17730713 100.44650269 0.4576394260 38.285972595 0.6186538339 0.6186538339
 2240.3442383 1.0000000000 17.500000000 17.500000000  -999.250000  -999.250000  -999.250000 23.618000031 101.30109406 101.61965942 0.4530639946 38.253925323 0.6031105518 0.6031105518
 2240.4965820 1.0000000000 17.500000000 17.500000000  -999.250000  -999.250000  -999.250000 23.552000046 102.26425934 102.38917542 0.4449182451 38.222705841 0.5825432539 0.5825432539
 2240.6489258 1.0000000000 17.500000000 17.500000000  -999.250000  -999.250000  -999.250000 23.486999512 102.31929779 102.85982513 0.4351314008 38.190921783 0.5607596040 0.5607596040
 2240.8012695 1.0000000000 17.500000000 17.500000000  -999.250000  -999.250000  -999.250000 23.802000046 103.51141357 103.49481964 0.4251314104 38.159744263 0.5403519869 0.5403519869
 2240.9538574 1.0000000000 17.500000000 17.500000000  -999.250000  -999.250000  -999.250000 24.343000412 104.19036102 104.64639282 0.4159151912 38.127922058 0.5242452025 0.5242452025
 2241.1062012 1.0000000000 17.500000000 17.500000000  -999.250000  -999.250000  -999.250000 24.016000748 105.80058289 106.07453156 0.4140000045 38.095924377 0.5100288987 0.5100288987
 2241.2585449 1.0000000000 17.500000000 17.500000000  -999.250000  -999.250000  -999.250000 23.809000015 107.47017670 107.70034790 0.4140000045 38.064704895 0.5203220844 0.5203220844
 2241.4108887 1.0000000000 17.500000000 17.500000000  -999.250000  -999.250000  -999.250000 24.378000259 108.91493988 109.17858124 0.4163605869 38.070518494 0.5388655663 0.5388655663
 2241.5634766 1.0000000000 17.500000000 17.500000000  -999.250000  -999.250000  -999.250000 24.771999359 109.73078156 109.96632385 0.4225192368 38.123371124 0.5461345911 0.5461345911
 2241.7158203 1.0000000000 17.500000000 17.500000000  -999.250000  -999.250000  -999.250000 24.030000687 110.39092255 110.72752380 0.4302976131 38.187152863 0.5462163687 0.5462163687
 2241.8681641 1.0000000000 17.500000000 17.500000000  -999.250000  -999.250000  -999.250000 23.268999100 111.32756042 111.51696014 0.4445897639 38.251152039 0.5311105847 0.5311105847
 2242.0205078 1.0000000000 17.500000000 17.500000000  -999.250000  -999.250000  -999.250000 23.409999847 112.05682373 112.58952332 0.4629503191 38.314289093 0.5340415835 0.5340415835
 2242.1728516 1.0000000000 17.500000000 17.500000000  -999.250000  -999.250000  -999.250000 23.920999527 113.49978638 113.65350342 0.4811634719 38.378047943 0.5524230599 0.5524230599
 2242.3254395 1.0000000000 17.500000000 17.500000000  -999.250000  -999.250000  -999.250000 24.176000595 112.85806274 113.20335388 0.4999568164 38.436668396 0.5726730824 0.5726730824
 2242.4777832 1.0000000000 17.500000000 17.500000000  -999.250000  -999.250000  -999.250000 23.975000381 111.46515656 111.62115479 0.5181635022 38.325965881 0.5934567451 0.5934567451
 2242.6301270 1.0000000000 17.500000000 17.500000000  -999.250000  -999.250000  -999.250000 24.176000595 108.91036224 109.22517395 0.5369503498 38.133701324 0.6121057868 0.6121057868
 2242.7824707 1.0000000000 17.500000000 17.500000000  -999.250000  -999.250000  -999.250000 24.895999908 106.12675476 106.29497528 0.5543766022 37.931957245 0.6066111922 0.6066111922
 2242.9350586 1.0000000000 17.500000000 17.500000000  -999.250000  -999.250000  -999.250000 25.868999481 103.87799072 104.34758759 0.5564256310 37.729701996 0.5969471335 0.5969471335
 2243.0874023 1.0000000000 17.500000000 17.500000000  -999.250000  -999.250000  -999.250000 26.867000580 103.75039673 103.94094849 0.5441971421 37.528484344 0.6020528674 0.6020528674
 2243.2397461 1.0000000000 17.500000000 17.500000000  -999.250000  -999.250000  -999.250000 27.320999146 104.19988251 104.29886627 0.5291971564 37.328269958 0.6126201749 0.6126201749
 2243.3920898 1.0000000000 17.500000000 17.500000000  -999.250000  -999.250000  -999.250000 27.170000076 105.12635803 105.28154755 0.5118365288 37.145732880 0.6212592125 0.6212592125
 2243.5446777 1.0000000000 17.500000000 17.500000000  -999.250000  -999.250000  -999.250000 25.846000671 105.92042542 106.23520660 0.4898653924 36.969078064 0.6096779108 0.6096779108
 2243.6970215 1.0000000000 17.500000000 17.500000000  -999.250000  -999.250000  -999.250000 23.129999161 105.90086365 106.43077850 0.4668944180 36.798564911 0.5918942094 0.5918942094
 2243.8493652 1.0000000000 17.500000000 17.500000000  -999.250000  -999.250000  -999.250000 21.656999588 106.12163544 106.46041107 0.4439022541 36.740058899 0.5793797970 0.5793797970
 2244.0017090 1.0000000000 17.500000000 17.500000000  -999.250000  -999.250000  -999.250000 21.774999619 106.58488464 106.90364075 0.4264102578 36.765293121 0.5723055601 0.5723055601
 2244.1540527 1.0000000000 17.500000000 17.500000000  -999.250000  -999.250000  -999.250000 22.790000916 107.34928894 107.56553650 0.4104102552 36.805282593 0.5655256510 0.5655256510
 2244.3066406 1.0000000000 17.500000000 17.500000000  -999.250000  -999.250000  -999.250000 23.940999985 108.00611115 108.20103455 0.3983407915 36.845344543 0.5585144162 0.5585144162
 2244.4589844 1.0000000000 17.500000000 17.500000000  -999.250000  -999.250000  -999.250000 24.562999725 108.49298096 108.99275970 0.3952131569 36.885345459 0.5522980690 0.5522980690
 2244.6113281 1.0000000000 17.500000000 17.500000000  -999.250000  -999.250000  -999.250000 24.750999451 109.19471741 109.75968170 0.3934262991 36.900260925 0.5455232263 0.5455232263
 2244.7636719 1.0000000000 17.500000000 17.500000000  -999.250000  -999.250000  -999.250000 24.389999390 109.74446869 110.07772827 0.3914262950 36.848819733 0.5385256410 0.5385256410
 2244.9162598 1.0000000000 17.500000000 17.500000000  -999.250000  -999.250000  -999.250000 23.770999908 109.94136810 110.00496674 0.3910000026 36.776794434 0.5315144062 0.5315144062
 2245.0686035 1.0000000000 17.500000000 17.500000000  -999.250000  -999.250000  -999.250000 23.493000031 109.50202179 109.81291962 0.3933605850 36.703792572 0.5268654227 0.5268654227
 2245.2209473 1.0000000000 17.500000000 17.500000000  -999.250000  -999.250000  -999.250000 23.589000702 109.47450256 109.70236969 0.3963605762 36.630008698 0.5236490369 0.5236490369
 2245.3732910 1.0000000000 17.500000000 17.500000000  -999.250000  -999.250000  -999.250000 23.360000610 109.47450256 109.69046021 0.3993605971 36.556884766 0.5206527710 0.5206527710
 2245.5258789 1.0000000000 17.500000000 17.500000000  -999.250000  -999.250000  -999.250000 22.879999161 109.08500671 109.56306458 0.4023653865 36.483791351 0.5192163587 0.5192163587
 2245.6782227 1.0000000000 17.500000000 17.500000000  -999.250000  -999.250000  -999.250000 22.604999542 109.00117493 109.35459137 0.4053615928 36.410793304 0.5268365145 0.5268365145
 2245.8305664 1.0000000000 17.500000000 17.500000000  -999.250000  -999.250000  -999.250000 22.422000885 108.99749756 109.18682098 0.4075737000 36.337791443 0.5376201868 0.5376201868
 2245.9829102 1.0000000000 17.500000000 17.500000000  -999.250000  -999.250000  -999.250000 22.503000259 108.54801941 109.09984589 0.4087868631 36.264102936 0.5462591648 0.5462591648
 2246.1352539 1.0000000000 17.500000000 17.500000000  -999.250000  -999.250000  -999.250000 22.878999710 109.25446320 109.18283081 0.4097868502 36.190910339 0.5487820506 0.5487820506
 2246.2878418 1.0000000000 17.500000000 17.500000000  -999.250000  -999.250000  -999.250000 23.160999298 108.79013062 109.26830292 0.4107871950 36.117794037 0.5505673289 0.5505673289
 2246.4401855 1.0000000000 17.500000000 17.500000000  -999.250000  -999.250000  -999.250000 23.139999390 108.98374176 109.26980591 0.4110000134 36.044792175 0.5509999990 0.5509999990
 2246.5925293 1.0000000000 17.500000000 17.500000000  -999.250000  -999.250000  -999.250000 22.912000656 108.99749756 109.26620483 0.4117868543 35.957019806 0.5463055968 0.5463055968
