# LAS format log file from PETREL
# Project units are specified as depth units
#==================================================================
~Version information
VERS.   2.0:
WRAP.   NO:
#==================================================================
~Well
STRT .m      704.45709229 :
STOP .m      3999.9543457 :
STEP .m     0.00000000 :
NULL .        -999.250000 :
COMP.           : COMPANY
WELL.  25/2-5 Lille Froey   : WELL
FLD.            : FIELD
LOC.            : LOCATION
SRVC.           : SERVICE COMPANY
DATE.  2018-09-11 14:48:17   : Log Export Date {yyyy-MM-dd HH:mm:ss}
PROV.           : PROVINCE
UWI.   25/2-5   : UNIQUE WELL ID
API.            : API NUMBER
#==================================================================
~Curve
DEPT .m                   : DEPTH
Lithology_geolink ._      : Lithology_geolink
CALI .in                  : CALI
BS .in                    : BS
DRHO .g/cm3               : DRHO
NPHI .m3/m3               : NPHI
RHOB .g/cm3               : RHOB
GR .gAPI                  : GR
DTC .us/ft                : DTC
DTE .us/ft                : DTE
RDEP .ohm.m               : RDEP
SP .mV                    : SP
RSHA .ohm.m               : RSHA
RMED .ohm.m               : RMED
~Parameter
#==================================================================
~Ascii
# ...
 2454.6186523 2.0000000000 17.500000000 17.500000000  -999.250000  -999.250000  -999.250000 36.245998383 74.415649414 74.639190674 2.6254422665 56.673221588 2.6405191422 2.6405191422
 2454.7709961 2.0000000000 17.500000000 17.500000000  -999.250000  -999.250000  -999.250000 36.594001770 73.501281738 73.405120850 2.4061570168 56.842437744 2.4664328098 2.4664328098
 2454.9233398 2.0000000000 17.500000000 17.500000000  -999.250000  -999.250000  -999.250000 39.213001251 75.033279419 75.200691223 2.1122868061 57.212837219 2.2196009159 2.2196009159
 2455.0756836 4.0000000000 17.500000000 17.500000000  -999.250000  -999.250000  -999.250000 42.367000580 77.377006531 77.888320923 1.8052212000 57.862854004 1.9386688471 1.9386688471
 2455.2280273 4.0000000000 17.500000000 17.500000000  -999.250000  -999.250000  -999.250000 44.523998260 84.129409790 84.392066956 1.5944310427 58.577167511 1.6812691689 1.6812691689
 2455.3806152 4.0000000000 17.500000000 17.500000000  -999.250000  -999.250000  -999.250000 45.944999695 96.799552917 96.712982178 1.4565999508 59.290962219 1.4569470882 1.4569470882
 2455.5329590 4.0000000000 17.500000000 17.500000000  -999.250000  -999.250000  -999.250000 47.317001343 111.93296051 112.06455994 1.3316426277 59.386226654 1.2681586742 1.2681586742
 2455.6853027 4.0000000000 17.500000000 17.500000000  -999.250000  -999.250000  -999.250000 48.534000397 124.27573395 124.92880249 1.2357563972 59.173618317 1.1617136002 1.1617136002
 2455.8376465 4.0000000000 17.500000000 17.500000000  -999.250000  -999.250000  -999.250000 49.852001190 131.29624939 131.29904175 1.1941810846 58.937564850 1.1539486647 1.1539486647
 2455.9902344 4.0000000000 17.500000000 17.500000000  -999.250000  -999.250000  -999.250000 50.421001434 130.98289490 131.36251831 1.1982336044 58.798446655 1.2079374790 1.2079374790
 2456.1425781 4.0000000000 17.500000000 17.500000000  -999.250000  -999.250000  -999.250000 49.937999725 127.11941528 127.56014252 1.2135897875 58.737953186 1.2658846378 1.2658846378
 2456.2949219 4.0000000000 17.500000000 17.500000000  -999.250000  -999.250000  -999.250000 49.113998413 122.61533356 122.96164703 1.2248685360 58.691951752 1.3069952726 1.3069952726
 2456.4472656 4.0000000000 17.500000000 17.500000000  -999.250000  -999.250000  -999.250000 49.064998627 117.68165588 117.59811401 1.2214920521 58.626449585 1.3541200161 1.3541200161
 2456.5998535 4.0000000000 17.500000000 17.500000000  -999.250000  -999.250000  -999.250000 48.555000305 112.85276794 113.28994751 1.2144808769 58.242683411 1.4606057405 1.4606057405
 2456.7521973 4.0000000000 17.500000000 17.500000000  -999.250000  -999.250000  -999.250000 47.502998352 111.45140076 111.87233734 1.2122128010 57.677860260 1.5551779270 1.5551779270
 2456.9045410 4.0000000000 17.500000000 17.500000000  -999.250000  -999.250000  -999.250000 47.790000916 113.18052673 113.37566376 1.2261635065 57.086078644 1.5802692175 1.5802692175
 2457.0568848 4.0000000000 17.500000000 17.500000000  -999.250000  -999.250000  -999.250000 48.252998352 119.58351898 119.57269287 1.2449502945 56.573059082 1.3558863401 1.3558863401
 2457.2092285 4.0000000000 17.500000000 17.500000000  -999.250000  -999.250000  -999.250000 49.055000305 127.19271851 127.92282867 1.2592291832 56.345565796 1.0685513020 1.0685513020
 2457.3618164 4.0000000000 17.500000000 17.500000000  -999.250000  -999.250000  -999.250000 50.227001190 131.64877319 132.02888489 1.2336606979 56.213260651 0.9652500153 0.9652500153
 2457.5141602 4.0000000000 17.500000000 17.500000000  -999.250000  -999.250000  -999.250000 50.488998413 127.62393951 127.90803528 1.1960992813 55.910938263 0.9782932997 0.9782932997
 2457.6665039 2.0000000000 17.500000000 17.500000000  -999.250000  -999.250000  -999.250000 48.562000275 118.14795685 118.32607269 1.1691154242 55.054946899 1.0640224218 1.0640224218
 2457.8188477 2.0000000000 17.500000000 17.500000000  -999.250000  -999.250000  -999.250000 44.620998383 108.43097687 108.61305237 1.1695079803 54.123985291 1.1939229965 1.1939229965
 2457.9714355 2.0000000000 17.500000000 17.500000000  -999.250000  -999.250000  -999.250000 39.676998138 99.941810608 100.20509338 1.2520816326 53.396034241 1.3642740250 1.3642740250
 2458.1237793 2.0000000000 17.500000000 17.500000000  -999.250000  -999.250000  -999.250000 34.229000092 94.962310791 95.502822876 1.3605544567 53.068977356 1.5323028564 1.5323028564
 2458.2761230 2.0000000000 17.500000000 17.500000000  -999.250000  -999.250000  -999.250000 30.597999573 93.788139343 93.939399719 1.4681938887 52.852081299 1.6698749065 1.6698749065
 2458.4284668 2.0000000000 17.500000000 17.500000000  -999.250000  -999.250000  -999.250000 28.680999756 92.694206238 92.601142883 1.5201138258 52.957004547 1.7864111662 1.7864111662
 2458.5810547 2.0000000000 17.500000000 17.500000000  -999.250000  -999.250000  -999.250000 28.716999054 90.972358704 91.267692566 1.5161731243 53.325000763 1.8446971178 1.8446971178
 2458.7333984 2.0000000000 17.500000000 17.500000000  -999.250000  -999.250000  -999.250000 30.267000198 89.972045898 90.489639282 1.4988304377 53.740219116 1.8829952478 1.8829952478
 2458.8857422 2.0000000000 17.500000000 17.500000000  -999.250000  -999.250000  -999.250000 32.424999237 90.815963745 91.029136658 1.4611650705 54.155998230 1.8714087009 1.8714087009
 2459.0380859 2.0000000000 17.500000000 17.500000000  -999.250000  -999.250000  -999.250000 34.778999329 92.219444275 92.397972107 1.4614423513 54.570693970 1.7486399412 1.7486399412
 2459.1906738 2.0000000000 17.500000000 17.500000000  -999.250000  -999.250000  -999.250000 38.019001007 93.511253357 93.811927795 1.4813461304 54.986999512 1.5553510189 1.5553510189
 2459.3430176 2.0000000000 17.500000000 17.500000000  -999.250000  -999.250000  -999.250000 40.682998657 95.073036194 95.054870605 1.5064671040 55.412403107 1.3652404547 1.3652404547
 2459.4953613 2.0000000000 17.500000000 17.500000000  -999.250000  -999.250000  -999.250000 43.238998413 94.714630127 95.163215637 1.5356057882 56.036315918 1.3077596426 1.3077596426
 2459.6477051 2.0000000000 17.500000000 17.500000000  -999.250000  -999.250000  -999.250000 42.436000824 92.439605713 92.770240784 1.5656057596 56.761192322 1.3843694925 1.3843694925
 2459.8000488 2.0000000000 17.500000000 17.500000000  -999.250000  -999.250000  -999.250000 40.668998718 88.123901367 88.113525391 1.6034743786 57.475692749 1.5508973598 1.5508973598
 2459.9526367 2.0000000000 17.500000000 17.500000000  -999.250000  -999.250000  -999.250000 39.485000610 81.707260132 82.248031616 1.6859967709 57.858829498 1.7398942709 1.7398942709
 2460.1049805 4.0000000000 17.500000000 17.500000000  -999.250000  -999.250000  -999.250000 38.868999481 77.734764099 78.101081848 1.7807515860 58.065406799 1.9322451353 1.9322451353
 2460.2573242 4.0000000000 17.500000000 17.500000000  -999.250000  -999.250000  -999.250000 40.222999573 79.312614441 79.497070313 1.7947051525 58.248405457 2.1260287762 2.1260287762
 2460.4096680 4.0000000000 17.500000000 17.500000000  -999.250000  -999.250000  -999.250000 43.050998688 84.239494324 84.323974609 1.7442146540 58.431179047 2.3174383640 2.3174383640
 2460.5622559 4.0000000000 17.500000000 17.500000000  -999.250000  -999.250000  -999.250000 46.652000427 88.258285522 88.528602600 1.8618845940 58.614406586 2.4538221359 2.4538221359
 2460.7145996 4.0000000000 17.500000000 17.500000000  -999.250000  -999.250000  -999.250000 49.451999664 91.632354736 91.934898376 2.0371215343 58.797409058 2.4768655300 2.4768655300
 2460.8669434 4.0000000000 17.500000000 17.500000000  -999.250000  -999.250000  -999.250000 50.436000824 92.724044800 92.916183472 2.1969630718 58.980407715 2.3858797550 2.3858797550
 2461.0192871 4.0000000000 17.500000000 17.500000000  -999.250000  -999.250000  -999.250000 49.636001587 91.880043030 92.043197632 2.3071122169 59.162395477 2.2718064785 2.2718064785
 2461.1718750 4.0000000000 17.500000000 17.500000000  -999.250000  -999.250000  -999.250000 47.652000427 92.135925293 92.486892700 2.2609808445 59.345405579 2.1263172626 2.1263172626
