# LAS format log file from PETREL
# Project units are specified as depth units
#==================================================================
~Version information
VERS.   2.0:
WRAP.   NO:
#==================================================================
~Well
STRT .m      1198.6790771 :
STOP .m      3629.1542969 :
STEP .m     0.00000000 :
NULL .        -999.250000 :
COMP.           : COMPANY
WELL.  25/2-14 Froey Appr   : WELL
FLD.            : FIELD
LOC.            : LOCATION
SRVC.           : SERVICE COMPANY
DATE.  2018-09-11 14:48:17   : Log Export Date {yyyy-MM-dd HH:mm:ss}
PROV.           : PROVINCE
UWI.   25/2-14   : UNIQUE WELL ID
API.            : API NUMBER
#==================================================================
~Curve
DEPT .m                   : DEPTH
Lithology_geolink ._      : Lithology_geolink
DCAL .in                  : DCAL
CALI .in                  : CALI
BS .in                    : BS
DRHO .g/cm3               : DRHO
THOR .ppm                 : THOR
NPHI .m3/m3               : NPHI
RHOB .g/cm3               : RHOB
PEF .b/e                  : PEF
GR .gAPI                  : GR
URAN .ppm                 : URAN
DTC .us/ft                : DTC
RDEP .ohm.m               : RDEP
SP .mV                    : SP
RSHA .ohm.m               : RSHA
RMED .ohm.m               : RMED
~Parameter
#==================================================================
~Ascii
# ...
 2326.4392090 6.0000000000 1.6343770027 13.884380341 12.250000954 0.0560531318  -999.250000  -999.250000 2.3658409119 4.4690017700 68.869506836  -999.250000 35.469451904 0.9845458865 67.249519348 1.1451209784 0.9071869254
 2326.5915527 6.0000000000 1.6930799484 13.943079948 12.250000954 0.0725814700  -999.250000  -999.250000 2.3526849747 4.3470849991 71.923973083  -999.250000 35.878280640 0.9663007855 65.132400513 1.1118559837 0.9170578122
 2326.7438965 6.0000000000 1.6967251301 13.946721077 12.250000954 0.0813332424  -999.250000  -999.250000 2.3471488953 4.1453361511 74.100921631  -999.250000 36.358310699 0.9380198717 63.541942596 1.0931489468 0.9197183847
 2326.8964844 6.0000000000 1.6517059803 13.901709557 12.250000954 0.0735510364  -999.250000  -999.250000 2.3537468910 4.0620870590 75.238723755  -999.250000 36.650127411 0.8989940286 63.175060272 1.0904790163 0.8951327801
 2327.0488281 6.0000000000 1.5719039440 13.821900368 12.250000954 0.0578731187  -999.250000  -999.250000 2.3643128872 4.0845761299 76.386909485  -999.250000 36.652320862 0.8584187031 63.461727142 1.0865969658 0.8512874246
 2327.2011719 6.0000000000 1.4682269096 13.718231201 12.250000954 0.0488088503  -999.250000  -999.250000 2.3673639297 4.1367950439 77.778221130  -999.250000 36.584838867 0.8254910707 63.867099762 1.0639899969 0.8102158904
 2327.3535156 6.0000000000 1.3725190163 13.622520447 12.250000954 0.0515875109  -999.250000  -999.250000 2.3595349789 4.1730079651 78.726882935  -999.250000 36.767322540 0.8027076721 64.028312683 1.0258769989 0.7891699076
 2327.5058594 6.0000000000 1.3377230167 13.587719917 12.250000954 0.0574614108  -999.250000  -999.250000 2.3456039429 4.1793217659 78.353950500  -999.250000 37.290233612 0.7890887260 63.893905640 0.9931564927 0.7877734900
 2327.6584473 6.0000000000 1.3991999626 13.649200439 12.250000954 0.0563836806  -999.250000  -999.250000 2.3367938995 4.1887898445 76.782752991  -999.250000 37.892158508 0.7800987959 63.780395508 0.9809644818 0.7934514284
 2327.8107910 6.0000000000 1.5251350403 13.775139809 12.250000954 0.0491947606  -999.250000  -999.250000 2.3384590149 4.2033438683 75.018478394  -999.250000 38.228137970 0.7700709105 63.990367889 0.9948096275 0.7930797935
 2327.9631348 6.0000000000 1.6773560047 13.927359581 12.250000954 0.0407220609  -999.250000  -999.250000 2.3466470242 4.2136359215 73.802856445  -999.250000 38.209789276 0.7608827949 64.561378479 1.0215740204 0.7826390862
 2328.1154785 6.0000000000 1.8187310696 14.068732262 12.250000954 0.0374174193  -999.250000  -999.250000 2.3545420170 4.2150697708 73.074020386  -999.250000 37.995452881 0.7567989826 65.206947327 1.0356800556 0.7700902820
 2328.2678223 6.0000000000 1.9193960428 14.169400215 12.250000954 0.0426696092  -999.250000  -999.250000 2.3592679501 4.1316189766 72.095718384  -999.250000 37.833179474 0.7617688775 65.479438782 1.0218319893 0.7676941156
 2328.4201660 6.0000000000 1.9616839886 14.211681366 12.250000954 0.0514945500  -999.250000  -999.250000 2.3624579906 3.9579970837 70.678993225  -999.250000 37.803611755 0.7753260136 65.328956604 0.9929978848 0.7804207206
 2328.5725098 6.0000000000 1.9221940041 14.172190666 12.250000954 0.0584656186  -999.250000  -999.250000 2.3679089546 3.8000259399 69.502029419  -999.250000 37.754692078 0.7950562835 65.081222534 0.9766548872 0.8037319183
 2328.7250977 6.0000000000 1.7918570042 14.041859627 12.250000954 0.0593891703  -999.250000  -999.250000 2.3740038872 3.7403430939 69.336120605  -999.250000 37.482505798 0.8182920814 65.229347229 0.9946851134 0.8268938065
 2328.8774414 6.0000000000 1.5915448666 13.841549873 12.250000954 0.0540819503  -999.250000  -999.250000 2.3789899349 3.7665429115 70.217842102  -999.250000 36.970378876 0.8436337709 65.967933655 1.0343170166 0.8425465822
 2329.0297852 6.0000000000 1.3925559521 13.642560005 12.250000954 0.0478038900  -999.250000  -999.250000 2.3787570000 3.8512120247 71.059143066  -999.250000 36.389099121 0.8646746874 66.934532166 1.0688840151 0.8495284915
 2329.1821289 6.0000000000 1.2651880980 13.515190125 12.250000954 0.0449868217  -999.250000  -999.250000 2.3708519936 4.0208182335 71.165916443  -999.250000 35.969936371 0.8673282862 67.648193359 1.0817790031 0.8441404104
 2329.3347168 6.0000000000 1.2511429787 13.501139641 12.250000954 0.0435441881  -999.250000  -999.250000 2.3517320156 4.4068689346 70.926017761  -999.250000 35.787391663 0.8437110186 68.009140015 1.0794689655 0.8145416975
 2329.4870605 6.0000000000 1.3770791292 13.627079964 12.250000954 0.0339342095  -999.250000  -999.250000 2.3118033409 5.1293320656 71.128906250  -999.250000 35.734172821 0.7987524271 68.175247192 1.0797970295 0.7489796281
 2329.6394043 6.0000000000 1.6736639738 13.923660278 12.250000954 0.0101461103  -999.250000  -999.250000 2.2425119877 6.2816481590 71.803222656  -999.250000 35.825397491 0.7462984920 68.379753113 1.0783679485 0.6669964194
 2329.7917480 6.0000000000 2.1561269760 14.406130791 12.250000954 -0.009508674  -999.250000  -999.250000 2.1548659801 7.5765352249 71.744049072  -999.250000 36.348163605 0.7071819901 68.835609436 1.0465960503 0.5987917781
 2329.9443359 6.0000000000 2.7952070236 15.045210838 12.250000954 -0.004679883  -999.250000  -999.250000 2.0765850544 8.5045795441 70.048683167  -999.250000 37.590496063 0.6924980879 69.563796997 0.9599968791 0.5699186921
 2330.0966797 6.0000000000 3.5279009342 15.777900696 12.250000954 0.0258619208  -999.250000  -999.250000 2.0350549221 8.6683769226 67.354339600  -999.250000 39.405883789 0.6979693174 70.448112488 0.8488100171 0.5976070166
 2330.2490234 6.0000000000 4.1462540627 16.396249771 12.250000954 0.0637414828  -999.250000  -999.250000 2.0410060883 8.0735683441 65.562103271  -999.250000 41.027576447 0.7175487280 71.300788879 0.7783908844 0.6664497256
 2330.4013672 6.0000000000 4.2047710419 16.454769135 12.250000954 0.0857867897  -999.250000  -999.250000 2.0910170078 7.1401481628 66.641357422  -999.250000 41.471420288 0.7440593839 72.050376892 0.7789046168 0.7529206276
 2330.5537109 6.0000000000 3.6333897114 15.883390427 12.250000954 0.0905809626  -999.250000  -999.250000 2.1622061729 6.4437928200 69.684120178  -999.250000 40.526447296 0.7719215751 72.825538635 0.8441823125 0.8282188177
 2330.7062988 6.0000000000 2.6876897812 14.937689781 12.250000954 0.0870669410  -999.250000  -999.250000 2.2362840176 6.2601199150 72.862007141  -999.250000 38.757850647 0.8082681894 73.675537109 0.9484869242 0.8780497909
 2330.8586426 6.0000000000 1.8084640503 14.058460236 12.250000954 0.0777714029  -999.250000  -999.250000 2.2934160233 6.6429347992 74.568412781  -999.250000 37.009151459 0.8600925803 74.504913330 1.0405939817 0.8959721923
 2331.0109863 6.0000000000 1.3755829334 13.625579834 12.250000954 0.0510261282  -999.250000  -999.250000 2.3047738075 7.8839068413 73.692886353  -999.250000 35.746761322 0.9282345176 74.993156433 1.1025500298 0.8652849793
 2331.1633301 6.0000000000 1.4258569479 13.675859451 12.250000954 0.0056705629  -999.250000  -999.250000 2.2554309368 10.051750183 70.416633606  -999.250000 35.107807159 1.0004119873 74.760627747 1.1398479939 0.7949401140
 2331.3159180 6.0000000000 1.7316099405 13.981610298 12.250000954 -0.027815970  -999.250000  -999.250000 2.1613729000 12.586230278 65.741661072  -999.250000 35.225276947 1.0497210026 73.755966187 1.1224340200 0.7227799892
 2331.4682617 5.0000000000 2.1481020451 14.398099899 12.250000954 -0.025125399  -999.250000  -999.250000 2.0470840931 14.257360458 60.843120575  -999.250000 35.973197937 1.0688949823 72.411308289 1.0434329510 0.6790457964
 2331.6206055 5.0000000000 2.5126457214 14.762650490 12.250000954 0.0067858030  -999.250000  -999.250000 1.9592779875 14.694700241 57.310268402  -999.250000 37.124092102 1.0527980328 71.700737000 0.9437714815 0.6651526093
 2331.7729492 5.0000000000 2.7450549603 14.995059967 12.250000954 0.0418887995  -999.250000  -999.250000 1.9359569550 14.611200333 56.462390900  -999.250000 38.169284821 0.9875304103 72.624473572 0.8699439764 0.6602938175
 2331.9255371 5.0000000000 2.9954917431 15.245491028 12.250000954 0.0619336590  -999.250000  -999.250000 1.9459470510 14.514220238 57.699489594  -999.250000 38.788452148 0.8826367855 74.502342224 0.8320060968 0.6427642107
