# LAS format log file from PETREL
# Project units are specified as depth units
#==================================================================
~Version information
VERS.   2.0:
WRAP.   NO:
#==================================================================
~Well
STRT .m      1198.6790771 :
STOP .m      3629.1542969 :
STEP .m     0.00000000 :
NULL .        -999.250000 :
COMP.           : COMPANY
WELL.  25/2-14 Froey Appr   : WELL
FLD.            : FIELD
LOC.            : LOCATION
SRVC.           : SERVICE COMPANY
DATE.  2018-09-11 14:48:17   : Log Export Date {yyyy-MM-dd HH:mm:ss}
PROV.           : PROVINCE
UWI.   25/2-14   : UNIQUE WELL ID
API.            : API NUMBER
#==================================================================
~Curve
DEPT .m                   : DEPTH
Lithology_geolink ._      : Lithology_geolink
DCAL .in                  : DCAL
CALI .in                  : CALI
BS .in                    : BS
DRHO .g/cm3               : DRHO
THOR .ppm                 : THOR
NPHI .m3/m3               : NPHI
RHOB .g/cm3               : RHOB
PEF .b/e                  : PEF
GR .gAPI                  : GR
URAN .ppm                 : URAN
DTC .us/ft                : DTC
RDEP .ohm.m               : RDEP
SP .mV                    : SP
RSHA .ohm.m               : RSHA
RMED .ohm.m               : RMED
~Parameter
#==================================================================
~Ascii
# ...
 2005.0274658  -999.250000 4.5583438873 16.808340073 12.250000954 0.0391495414  -999.250000  -999.250000 2.0037798882 12.978360176 50.226779938  -999.250000 43.830909729 0.5931094289 72.085189819 0.6003373861 0.4350616038
 2005.1799316  -999.250000 4.8487319946 17.098730087 12.250000954 0.0470356084  -999.250000  -999.250000 1.9684009552 12.933710098 49.938079834  -999.250000 44.204109192 0.5881611109 72.397773743 0.5776525140 0.4366846085
 2005.3322754  -999.250000 5.0934748650 17.343479156 12.250000954 0.0474314690  -999.250000  -999.250000 1.9507809877 12.694370270 49.798889160  -999.250000 44.592819214 0.5702009201 72.904548645 0.5727344155 0.4349637926
 2005.4847412  -999.250000 5.3597083092 17.609710693 12.250000954 0.0489717498  -999.250000  -999.250000 1.9515279531 12.231820107 49.910461426  -999.250000 44.975250244 0.5451769233 73.210243225 0.5752813816 0.4318301976
 2005.6370850  -999.250000 5.6057343483 17.855730057 12.250000954 0.0549897999  -999.250000  -999.250000 1.9666960239 11.801919937 49.380481720  -999.250000 45.387462616 0.5225872993 72.926361084 0.5777413249 0.4312176108
 2005.7895508  -999.250000 5.7414884567 17.991489410 12.250000954 0.0630296469  -999.250000  -999.250000 1.9873830080 11.542849541 47.886131287  -999.250000 45.832866669 0.5111101270 71.856613159 0.5795425177 0.4343414903
 2005.9418945  -999.250000 5.7458715439 17.995870590 12.250000954 0.0675125420  -999.250000  -999.250000 2.0070190430 11.329529762 46.472328186  -999.250000 46.180431366 0.5112882853 70.527496338 0.5828503966 0.4397380054
 2006.0943604  -999.250000 5.6090908051 17.859090805 12.250000954 0.0645160601  -999.250000  -999.250000 2.0253160000 11.116020203 46.112140656  -999.250000 46.217586517 0.5176545978 69.688682556 0.5897939205 0.4425692856
 2006.2467041  -999.250000 5.3431358337 17.593139648 12.250000954 0.0571686588  -999.250000  -999.250000 2.0436038971 10.966910362 46.818321228  -999.250000 45.870876312 0.5267475843 69.847709656 0.5976086855 0.4391126931
 2006.3991699  -999.250000 5.0016798973 17.251680374 12.250000954 0.0541912206  -999.250000  -999.250000 2.0587019920 10.975910187 47.772209167  -999.250000 45.387523651 0.5362017155 71.104621887 0.6012238264 0.4297333062
 2006.5515137  -999.250000 4.7446269989 16.994630814 12.250000954 0.0592256300  -999.250000  -999.250000 2.0663640499 11.085129738 48.209899902  -999.250000 45.011890411 0.5440683961 72.456306458 0.5980584025 0.4190692008
 2006.7039795  -999.250000 4.7086849213 16.958679199 12.250000954 0.0671073645  -999.250000  -999.250000 2.0625557899 11.228489876 47.936668396  -999.250000 44.804500580 0.5484415889 73.381027222 0.5899242163 0.4106881022
 2006.8563232  -999.250000 4.9193568230 17.169359207 12.250000954 0.0712623969  -999.250000  -999.250000 2.0480968952 11.382300377 47.231521606  -999.250000 44.692337036 0.5474240184 73.813476563 0.5818822980 0.4045610130
 2007.0086670  -999.250000 5.3065242767 17.556520462 12.250000954 0.0704007894  -999.250000  -999.250000 2.0251429081 11.750080109 46.527458191  -999.250000 44.636955261 0.5397922993 73.746208191 0.5755407810 0.3989652991
 2007.1611328  -999.250000 5.7695846558 18.019580841 12.250000954 0.0690223426  -999.250000  -999.250000 1.9920289516 12.506139755 46.130249023  -999.250000 44.684078217 0.5276356936 73.029083252 0.5693712234 0.3933036029
 2007.3134766  -999.250000 6.2515997887 18.501600266 12.250000954 0.0681345984  -999.250000  -999.250000 1.9527130127 13.519530296 45.975589752  -999.250000 44.850807190 0.5187560916 71.768501282 0.5628312826 0.3889412880
 2007.4659424  -999.250000 6.7497200966 18.999719620 12.250000954 0.0639268979  -999.250000  -999.250000 1.9105449915 14.426719666 45.883640289  -999.250000 45.076869965 0.5180786252 70.558448792 0.5567526817 0.3880626857
 2007.6182861  -999.250000 7.2328886986 19.482889175 12.250000954 0.0537965000  -999.250000  -999.250000 1.8735569715 14.859669685 45.796039581  -999.250000 45.211627960 0.5261840224 70.334800720 0.5523071885 0.3933700919
 2007.7707520  -999.250000 7.5370030403 19.787000656 12.250000954 0.0416576304  -999.250000  -999.250000 1.8509509563 14.833140373 45.819358826  -999.250000 45.125915527 0.5424072146 71.686813354 0.5511515737 0.4054453969
 2007.9230957  -999.250000 7.5172820091 19.767280579 12.250000954 0.0366677009  -999.250000  -999.250000 1.8473889828 14.667989731 46.045551300  -999.250000 44.758140564 0.5615277886 73.566253662 0.5559927225 0.4221214950
 2008.0755615  -999.250000 7.1690983772 19.419099808 12.250000954 0.0419777296  -999.250000  -999.250000 1.8607059717 14.482850075 46.462589264  -999.250000 44.110778809 0.5789465904 74.989151001 0.5683367848 0.4384773970
 2008.2279053  -999.250000 6.6316361427 18.881639481 12.250000954 0.0536484607  -999.250000  -999.250000 1.8842959404 14.303130150 46.755119324  -999.250000 43.265903473 0.5938361287 75.490547180 0.5860803723 0.4480456114
 2008.3803711  -999.250000 6.0957159996 18.345720291 12.250000954 0.0633953288  -999.250000  -999.250000 1.9095250368 14.224960327 46.483219147  -999.250000 42.424442291 0.6071630120 75.051231384 0.6020718217 0.4491305947
 2008.5327148  -999.250000 5.7493715286 17.999370575 12.250000954 0.0636319667  -999.250000  -999.250000 1.9242399931 14.292149544 45.760971069  -999.250000 41.861503601 0.6201714277 74.005760193 0.6104406118 0.4439109862
 2008.6851807  -999.250000 5.7117881775 17.961790085 12.250000954 0.0580922998  -999.250000  -999.250000 1.9265149832 14.408100128 45.257511139  -999.250000 41.807373047 0.6318231821 72.920562744 0.6081917882 0.4355942011
 2008.8375244  -999.250000 6.0379910469 18.287990570 12.250000954 0.0549526513  -999.250000  -999.250000 1.9200880527 14.531700134 45.434040070  -999.250000 42.337848663 0.6400333047 72.404067993 0.5968592167 0.4283697903
 2008.9899902  -999.250000 6.6252226830 18.875219345 12.250000954 0.0589322709  -999.250000  -999.250000 1.9134049416 14.640119553 46.269611359  -999.250000 43.195583344 0.6437290907 72.812538147 0.5826020837 0.4256795943
 2009.1423340  -999.250000 7.2125639915 19.462560654 12.250000954 0.0660431534  -999.250000  -999.250000 1.9108719826 14.714590073 47.332359314  -999.250000 44.068653107 0.6419333816 73.821037292 0.5733739734 0.4273946881
 2009.2946777  -999.250000 7.6146874428 19.864690781 12.250000954 0.0699707195  -999.250000  -999.250000 1.9096430540 14.812069893 48.380580902  -999.250000 44.667495728 0.6344056129 74.620666504 0.5722389817 0.4318107069
 2009.4471436  -999.250000 7.8463401794 20.096340179 12.250000954 0.0711012036  -999.250000  -999.250000 1.9084240198 14.961359978 49.274471283  -999.250000 44.880126953 0.6216909289 74.889732361 0.5772395730 0.4375931025
 2009.5994873  -999.250000 7.9679694176 20.217969894 12.250000954 0.0724358708  -999.250000  -999.250000 1.9064060450 15.125229836 49.811298370  -999.250000 44.868633270 0.6067938209 74.767486572 0.5833721161 0.4445446134
 2009.7519531  -999.250000 7.9975066185 20.247512817 12.250000954 0.0724260211  -999.250000  -999.250000 1.9029799700 15.259429932 49.806751251  -999.250000 44.749641418 0.5929362774 74.560058594 0.5875977278 0.4513770938
 2009.9042969  -999.250000 7.8865509033 20.136550903 12.250000954 0.0684091970  -999.250000  -999.250000 1.9005310535 15.388440132 49.450599670  -999.250000 44.562641144 0.5857738256 74.501266479 0.5903677940 0.4563721120
 2010.0567627  -999.250000 7.6467909813 19.896787643 12.250000954 0.0637317896  -999.250000  -999.250000 1.8999300003 15.575119972 49.142639160  -999.250000 44.178688049 0.5909895897 74.533996582 0.5926492214 0.4599894881
 2010.2091064  -999.250000 7.3003411293 19.550340652 12.250000954 0.0635944009  -999.250000  -999.250000 1.9043769836 15.779930115 48.819808960  -999.250000 43.304244995 0.6088662148 74.369651794 0.5945668221 0.4680781066
 2010.3615723  -999.250000 6.8784680367 19.128469467 12.250000954 0.0687571317  -999.250000  -999.250000 1.9122530222 15.880809784 48.204219818  -999.250000 41.677131653 0.6352385879 73.738273621 0.5973607898 0.4871914089
 2010.5139160  -999.250000 6.4309902191 18.680990219 12.250000954 0.0723773465  -999.250000  -999.250000 1.9255839586 15.845479965 47.171268463  -999.250000 39.476352692 0.6616405249 72.640266418 0.6032627225 0.5156217813
