# LAS format log file from PETREL
# Project units are specified as depth units
#==================================================================
~Version information
VERS.   2.0:
WRAP.   NO:
#==================================================================
~Well
STRT .m      1198.6790771 :
STOP .m      3629.1542969 :
STEP .m     0.00000000 :
NULL .        -999.250000 :
COMP.           : COMPANY
WELL.  25/2-14 Froey Appr   : WELL
FLD.            : FIELD
LOC.            : LOCATION
SRVC.           : SERVICE COMPANY
DATE.  2018-09-11 14:48:17   : Log Export Date {yyyy-MM-dd HH:mm:ss}
PROV.           : PROVINCE
UWI.   25/2-14   : UNIQUE WELL ID
API.            : API NUMBER
#==================================================================
~Curve
DEPT .m                   : DEPTH
Lithology_geolink ._      : Lithology_geolink
DCAL .in                  : DCAL
CALI .in                  : CALI
BS .in                    : BS
DRHO .g/cm3               : DRHO
THOR .ppm                 : THOR
NPHI .m3/m3               : NPHI
RHOB .g/cm3               : RHOB
PEF .b/e                  : PEF
GR .gAPI                  : GR
URAN .ppm                 : URAN
DTC .us/ft                : DTC
RDEP .ohm.m               : RDEP
SP .mV                    : SP
RSHA .ohm.m               : RSHA
RMED .ohm.m               : RMED
~Parameter
#==================================================================
~Ascii
# ...
 3617.7243652 5.0000000000 0.6420001984 9.1420001984 8.5000000000 0.0034523620 8.6502742767 0.2193849981 2.6197240353 3.8502879143 101.02970123 9.1565208435  -999.250000 6.5958480835 69.184211731 7.0815291405 4.8666467667
 3617.8767090 5.0000000000 0.6420001984 9.1420001984 8.5000000000 0.0081507601 9.1936798096 0.2013147026 2.6351749897 3.9278090000 105.57219696 8.6136341095  -999.250000 6.7618069649 69.366210938 6.6471152306 4.8663430214
 3618.0290527 5.0000000000 0.6420001984 9.1420001984 8.5000000000 0.0190446395 9.1196365356 0.1902898997 2.6517519951 3.9385650158 109.10269928 8.3740167618  -999.250000 6.9819607735 69.389060974 6.2573990822 4.8939409256
 3618.1813965 5.0000000000 0.6420001984 9.1420001984 8.5000000000 0.0303407591 8.0860681534 0.1839977950 2.6641170979 3.8297760487 109.58209991 8.7371244431  -999.250000 7.0537028313 69.278083801 6.2911739349 4.8707151413
 3618.3339844 5.0000000000 0.6420001984 9.1420001984 8.5000000000 0.0370250605 6.8534359932 0.1817692071 2.6672990322 3.6061949730 109.93199921 9.2362136841  -999.250000 6.9058980942 69.113937378 6.8390297890 4.7724390030
 3618.4863281 6.0000000000 0.6420001984 9.1420001984 8.5000000000 0.0386405513 5.9871201515 0.1828245074 2.6563251019 3.3432021141 115.06819916 9.6375408173  -999.250000 6.6367220879 68.991661072 7.5753521919 4.6451559067
 3618.6386719 6.0000000000 0.6420001984 9.1420001984 8.5000000000 0.0412074886 5.7273077965 0.1853370070 2.6361699104 3.1351220608 127.62609863 9.9845094681  -999.250000 6.3949499130 69.014419556 7.7515439987 4.5619001389
 3618.7910156 6.0000000000 0.6420001984 9.1420001984 8.5000000000 0.0481012985 6.2822871208 0.1866177022 2.6181240082 3.0068209171 141.36779785 10.358579636  -999.250000 6.3150629997 69.197830200 7.1070051193 4.5733890533
 3618.9433594 6.0000000000 0.6420155168 9.1420154572 8.5000000000 0.0555415601 7.6584463120 0.1872176975 2.6126010418 2.9442760944 149.00090027 10.451769829  -999.250000 6.3869080544 69.382431030 6.2201209068 4.7027649879
 3619.0959473 6.0000000000 0.6428871155 9.1428871155 8.5000000000 0.0612107404 9.2311143875 0.1875845045 2.6183729172 2.9778358936 146.54640198 10.122799873  -999.250000 6.5172529221 69.423156738 5.7499217987 4.9161047935
 3619.2482910 6.0000000000 0.6486759186 9.1486759186 8.5000000000 0.0681183115  -999.250000 0.1856289059 2.6259179115 3.1774299145 132.76379395  -999.250000  -999.250000 6.6550788879 69.335166931 5.8174967766 5.0899381638
 3619.4006348 6.0000000000 0.6898384690 9.1898384094 8.5000000000 0.0807202682  -999.250000  -999.250000 2.6196041107 3.6644370556 114.73519897  -999.250000  -999.250000 6.7508511543 69.345939636 6.3390688896 5.1259970665
 3619.5529785 5.0000000000 0.7927522659 9.2927522659 8.5000000000 0.0971816927  -999.250000  -999.250000 2.5937430859 4.3362579346 101.85590363  -999.250000  -999.250000 6.7089819908 69.592529297 7.0060510635 5.0239419937
 3619.7055664 5.0000000000 0.9770411849 9.4770412445 8.5000000000 0.1146558002  -999.250000  -999.250000 2.5470259190 5.0523171425 98.193351746  -999.250000  -999.250000 6.4203262329 70.023887634 7.3575701714 4.8015551567
 3619.8579102 5.0000000000 1.2352290154 9.7352285385 8.5000000000 0.1321157068  -999.250000  -999.250000 2.4862039089 5.6103239059 100.85040283  -999.250000  -999.250000 5.9171919823 70.491256714 7.1380720139 4.4660201073
 3620.0102539 5.0000000000 1.5343179703 10.034319878 8.5000000000 0.1494790018  -999.250000  -999.250000 2.4210219383 5.7915740013 104.29609680  -999.250000  -999.250000 5.3289709091 70.888183594 6.4974107742 4.0003261566
 3620.1625977 5.0000000000 1.8226279020 10.322629929 8.5000000000 0.1673056930  -999.250000  -999.250000 2.3627910614 5.6676850319 106.31939697  -999.250000  -999.250000 4.8842477798 71.163337708 5.7699117661 3.4544730186
 3620.3151855 5.0000000000 2.0469529629 10.546950340 8.5000000000 0.1845449954  -999.250000  -999.250000 2.3216459751 5.3776540756 109.75189972  -999.250000  -999.250000 4.7432789803 71.256950378 5.1556158066 3.0368309021
 3620.4675293 5.0000000000 2.1590011120 10.659000397 8.5000000000 0.1962206960  -999.250000  -999.250000 2.3093330860 5.0682501793 117.23580170  -999.250000  -999.250000 4.8649539948 71.123542786 4.6629562378 2.9689619541
 3620.6198730 5.0000000000 2.1001560688 10.600159645 8.5000000000 0.1920643002  -999.250000  -999.250000 2.3329410553 4.8537449837 127.68840027  -999.250000  -999.250000 5.1325497627 70.787071228 4.3027257919 3.4496719837
 3620.7722168 6.0000000000 1.7999639511 10.299961090 8.5000000000 0.1606950015  -999.250000  -999.250000 2.3861370087 4.8244271278 136.74009705  -999.250000  -999.250000 5.3778820038 70.304603577 4.1436839104 4.4704890251
 3620.9245605 6.0000000000 1.3655591011 9.8655586243 8.5000000000 0.1134148017  -999.250000  -999.250000 2.4369609356 4.9594559669 140.91889954  -999.250000  -999.250000 5.4325480461 69.853996277 4.3000268936 5.1917347908
 3621.0771484 6.0000000000 0.9527540207 9.4527540207 8.5000000000 0.0699579269  -999.250000  -999.250000 2.4704759121 5.1470661163 139.26089478  -999.250000  -999.250000 5.3505501747 69.559020996 4.8225760460 4.6428489685
 3621.2294922 6.0000000000 0.6856164932 9.1856155396 8.5000000000 0.0515701286  -999.250000  -999.250000 2.4881539345 5.2236242294 131.61549377  -999.250000  -999.250000 5.2605972290 69.442016602 5.4833040237 3.7023661137
 3621.3818359 6.0000000000 0.5675526261 9.0675525665 8.5000000000 0.0665898770  -999.250000  -999.250000 2.4890120029 5.1040349007 119.73269653  -999.250000  -999.250000 5.2062749863 69.419906616 5.7153820992 3.4249930382
 3621.5341797  -999.250000 0.4690923989 8.9690923691 8.5000000000 0.0972733274  -999.250000  -999.250000 2.4929459095 4.8814687729 108.08730316  -999.250000  -999.250000 5.1887869835 69.362876892 5.4038047791 3.8355309963
 3621.6867676  -999.250000 0.3026466072 8.8026466370 8.5000000000 0.1221572980  -999.250000  -999.250000 2.5173919201 4.7314209938  -999.250000  -999.250000  -999.250000 5.1944990158 69.218162537 4.9858841896 5.0561981201
 3621.8391113  -999.250000 0.0866146162 8.5866146088 8.5000000000 0.1333630979  -999.250000  -999.250000 2.5591120720 4.7475690842  -999.250000  -999.250000  -999.250000 5.2165842056 68.966423035 4.8825769424 6.8840160370
 3621.9914551  -999.250000 -0.120783806 8.3792161942 8.5000000000 0.1331184059  -999.250000  -999.250000 2.6035509109 4.9245681763  -999.250000  -999.250000  -999.250000 5.2481851578 68.587593079 5.2266349792  -999.250000
 3622.1437988  -999.250000 -0.266537696 8.2334623337 8.5000000000 0.1305418164  -999.250000  -999.250000 2.6378920078 5.2210822105  -999.250000  -999.250000  -999.250000 5.2803030014 68.186508179 5.8853788376  -999.250000
 3622.2963867  -999.250000 -0.347309113 8.1526908875 8.5000000000 0.1314643025  -999.250000  -999.250000 2.6608650684 5.5369729996  -999.250000  -999.250000  -999.250000 5.2944808006 67.989463806 6.6675620079  -999.250000
 3622.4487305  -999.250000 -0.386579484 8.1134195328 8.5000000000 0.1339552999  -999.250000  -999.250000 2.6804020405 5.7853960991  -999.250000  -999.250000  -999.250000 5.2863798141 68.092247009  -999.250000  -999.250000
 3622.6010742  -999.250000 10007.099609 8.0974521637  -999.250000 0.1334014982  -999.250000  -999.250000 2.6999099255 5.9157438278  -999.250000  -999.250000  -999.250000 5.2668561935 68.405822754  -999.250000  -999.250000
 3622.7534180  -999.250000 10007.089844 8.0890712738  -999.250000 0.1272097975  -999.250000  -999.250000 2.7138309479 5.9214282036  -999.250000  -999.250000  -999.250000  -999.250000 68.752532959  -999.250000  -999.250000
 3622.9060059  -999.250000 10007.070313 8.0670289993  -999.250000 0.1195937991  -999.250000  -999.250000 2.7089390755 5.8335251808  -999.250000  -999.250000  -999.250000  -999.250000 68.984336853  -999.250000  -999.250000
 3623.0583496  -999.250000 10007.019531 8.0176143646  -999.250000 0.1159091070  -999.250000  -999.250000 2.6853311062 5.7456359863  -999.250000  -999.250000  -999.250000  -999.250000 69.083030701  -999.250000  -999.250000
 3623.2106934  -999.250000 10006.940430 7.9367542267  -999.250000 0.1151665971  -999.250000  -999.250000 2.6528470516 5.7038331032  -999.250000  -999.250000  -999.250000  -999.250000 69.049476624  -999.250000  -999.250000
