# LAS format log file from PETREL
# Project units are specified as depth units
#==================================================================
~Version information
VERS.   2.0:
WRAP.   NO:
#==================================================================
~Well
STRT .m      1198.6790771 :
STOP .m      3629.1542969 :
STEP .m     0.00000000 :
NULL .        -999.250000 :
COMP.           : COMPANY
WELL.  25/2-14 Froey Appr   : WELL
FLD.            : FIELD
LOC.            : LOCATION
SRVC.           : SERVICE COMPANY
DATE.  2018-09-11 14:48:17   : Log Export Date {yyyy-MM-dd HH:mm:ss}
PROV.           : PROVINCE
UWI.   25/2-14   : UNIQUE WELL ID
API.            : API NUMBER
#==================================================================
~Curve
DEPT .m                   : DEPTH
Lithology_geolink ._      : Lithology_geolink
DCAL .in                  : DCAL
CALI .in                  : CALI
BS .in                    : BS
DRHO .g/cm3               : DRHO
THOR .ppm                 : THOR
NPHI .m3/m3               : NPHI
RHOB .g/cm3               : RHOB
PEF .b/e                  : PEF
GR .gAPI                  : GR
URAN .ppm                 : URAN
DTC .us/ft                : DTC
RDEP .ohm.m               : RDEP
SP .mV                    : SP
RSHA .ohm.m               : RSHA
RMED .ohm.m               : RMED
~Parameter
#==================================================================
~Ascii
# ...
 2168.5527344 5.0000000000 2.9087941647 15.158789635 12.250000954 0.1010351032  -999.250000  -999.250000 2.2152450085 6.8322958946 56.404830933  -999.250000 38.794975281 0.7773830891 74.577987671 0.8202775121 0.7512457967
 2168.7050781 5.0000000000 2.8546831608 15.104681015 12.250000954 0.1048408970  -999.250000  -999.250000 2.2243180275 6.4407048225 54.545299530  -999.250000 39.063838959 0.7756006122 74.307571411 0.8152884245 0.7893788218
 2168.8576660 5.0000000000 2.7002749443 14.950280190 12.250000954 0.0995595083  -999.250000  -999.250000 2.2575418949 5.9084000587 53.958461761  -999.250000 38.602127075 0.7720813751 73.847122192 0.8295657039 0.8130264878
 2169.0100098 5.0000000000 2.4621319771 14.712129593 12.250000954 0.0891360193  -999.250000  -999.250000 2.3015110493 5.5401778221 54.497230530  -999.250000 37.756031036 0.7688577771 73.200737000 0.8535954952 0.8206418753
 2169.1623535 5.0000000000 2.2525839806 14.502578735 12.250000954 0.0811844468  -999.250000  -999.250000 2.3390970230 5.2928800583 55.027229309  -999.250000 36.948345184 0.7719048858 72.409103394 0.8839902282 0.8222429156
 2169.3146973 5.0000000000 2.1305899620 14.380590439 12.250000954 0.0785081834  -999.250000  -999.250000 2.3616299629 5.0561127663 55.174468994  -999.250000 36.435882568 0.7855308056 71.538650513 0.9253668189 0.8237938285
 2169.4670410 5.0000000000 2.0720009804 14.321999550 12.250000954 0.0780052766  -999.250000  -999.250000 2.3691890240 4.8777341843 55.311519623  -999.250000 36.183265686 0.8077129126 70.608886719 0.9677984715 0.8282955289
 2169.6196289 5.0000000000 2.0336871147 14.283689499 12.250000954 0.0742660090  -999.250000  -999.250000 2.3690431118 4.8766870499 55.674510956  -999.250000 36.047233582 0.8348792195 69.717651367 0.9941275716 0.8360353708
 2169.7719727 5.0000000000 1.9994950294 14.249489784 12.250000954 0.0629538223  -999.250000  -999.250000 2.3670170307 4.9403929710 55.793128967  -999.250000 35.931804657 0.8626580834 69.292510986 1.0008250475 0.8445171118
 2169.9243164 5.0000000000 1.9752179384 14.225219727 12.250000954 0.0487885810  -999.250000  -999.250000 2.3674008846 4.9341540337 55.433181763  -999.250000 35.814395905 0.8829308748 69.523620605 0.9994496703 0.8506044745
 2170.0766602 5.0000000000 1.9639010429 14.213899612 12.250000954 0.0387602784  -999.250000  -999.250000 2.3679959774 4.8983449936 55.085700989  -999.250000 35.700218201 0.8900998235 70.329177856 1.0009700060 0.8513004780
 2170.2292480 5.0000000000 1.9674160480 14.217419624 12.250000954 0.0360922404  -999.250000  -999.250000 2.3654971123 4.8393239975 55.376800537  -999.250000 35.590461731 0.8870151043 71.216506958 1.0103600025 0.8438168168
 2170.3815918 5.0000000000 2.0129380226 14.262941360 12.250000954 0.0403065793  -999.250000  -999.250000 2.3552229404 4.7493638992 56.314411163  -999.250000 35.527183533 0.8790367246 71.859016418 1.0255609751 0.8317772150
 2170.5339355 5.0000000000 2.1755390167 14.425539970 12.250000954 0.0494985208  -999.250000  -999.250000 2.3373670578 4.6979680061 57.011760712  -999.250000 35.629718781 0.8750594854 72.465873718 1.0390280485 0.8258963227
 2170.6862793 5.0000000000 2.4907627106 14.740761757 12.250000954 0.0598190501  -999.250000  -999.250000 2.3186459541 4.7103881836 56.864231110  -999.250000 36.014163971 0.8803918958 73.227951050 1.0366469622 0.8372772932
 2170.8388672 5.0000000000 2.8751659393 15.125170708 12.250000954 0.0670117587  -999.250000  -999.250000 2.3084750175 4.7240710258 56.195339203  -999.250000 36.609649658 0.8910011053 73.940826416 1.0145230293 0.8661919236
 2170.9912109 5.0000000000 3.1241109371 15.374110222 12.250000954 0.0675536841  -999.250000  -999.250000 2.3097910881 4.7101268768 55.650630951  -999.250000 37.103210449 0.9019193053 74.302787781 0.9921739101 0.8963463902
 2171.1435547 5.0000000000 3.0545818806 15.304580688 12.250000954 0.0612639189  -999.250000  -999.250000 2.3193411827 4.6690778732 55.384059906  -999.250000 37.171913147 0.9070522785 74.377197266 0.9898942709 0.9070913196
 2171.2958984 5.0000000000 2.7503566742 15.000359535 12.250000954 0.0532815792  -999.250000  -999.250000 2.3288059235 4.6213469505 55.182399750  -999.250000 36.724376678 0.9030842185 74.585021973 1.0078890324 0.8937548995
 2171.4482422 5.0000000000 2.4429230690 14.692918777 12.250000954 0.0474436805  -999.250000  -999.250000 2.3319749832 4.6049389839 55.153648376  -999.250000 36.011512756 0.8928480148 74.975692749 1.0300799608 0.8680654168
 2171.6008301 5.0000000000 2.2825219631 14.532520294 12.250000954 0.0438075513  -999.250000  -999.250000 2.3287699223 4.6064271927 55.734069824  -999.250000 35.467258453 0.8807454109 75.205787659 1.0340969563 0.8468350172
 2171.7531738 6.0000000000 2.2635750771 14.513569832 12.250000954 0.0406633802  -999.250000  -999.250000 2.3218510151 4.6071739197 57.273880005  -999.250000 35.304283142 0.8694428205 74.967407227 1.0255089998 0.8366991878
 2171.9055176 6.0000000000 2.3055291176 14.555529594 12.250000954 0.0390146598  -999.250000  -999.250000 2.3152909279 4.6164932251 59.225471497  -999.250000 35.430377960 0.8605316281 74.149192810 1.0190490484 0.8364318013
 2172.0578613 6.0000000000 2.3445219994 14.594519615 12.250000954 0.0404226296  -999.250000  -999.250000 2.3120789528 4.6477108002 60.389949799  -999.250000 35.592411041 0.8536766171 73.123268127 1.0211880207 0.8396434784
 2172.2104492 6.0000000000 2.3655970097 14.615599632 12.250000954 0.0434748791  -999.250000  -999.250000 2.3116919994 4.6850190163 60.258789063  -999.250000 35.633071899 0.8474764824 72.310150146 1.0262399912 0.8402149081
 2172.3627930 6.0000000000 2.3613328934 14.611330032 12.250000954 0.0456513911  -999.250000  -999.250000 2.3110969067 4.6640958786 59.198108673  -999.250000 35.624538422 0.8412867785 72.123626709 1.0236090422 0.8391854763
 2172.5151367 6.0000000000 2.3154389858 14.565440178 12.250000954 0.0467355885  -999.250000  -999.250000 2.3072481155 4.4612460136 58.385089874  -999.250000 35.683151245 0.8344405890 72.925216675 1.0117189884 0.8408641815
 2172.6674805 6.0000000000 2.2269120216 14.476909637 12.250000954 0.0484901108  -999.250000  -999.250000 2.2996129990 4.1649389267 58.513469696  -999.250000 35.802539825 0.8256130219 74.268722534 0.9997615814 0.8453487754
 2172.8200684 6.0000000000 2.1221749783 14.372180939 12.250000954 0.0516807288  -999.250000  -999.250000 2.2927770615 3.9267139435 58.820388794  -999.250000 35.877246857 0.8146750927 75.448692322 0.9968193173 0.8460779786
 2172.9724121 6.0000000000 2.0318360329 14.281840324 12.250000954 0.0553352013  -999.250000  -999.250000 2.2910089493 3.9088809490 58.273979187  -999.250000 35.813606262 0.8038464189 76.005813599 1.0035840273 0.8350048065
 2173.1247559 6.0000000000 1.9756579399 14.225661278 12.250000954 0.0578780212  -999.250000  -999.250000 2.2959959507 4.2860708237 56.596881866  -999.250000 35.641483307 0.7973486185 75.869659424 1.0130540133 0.8133456707
 2173.2770996 6.0000000000 1.9577850103 14.207778931 12.250000954 0.0571977012  -999.250000  -999.250000 2.3021759987 5.0381331444 54.633979797  -999.250000 35.537395477 0.8030335903 75.368103027 1.0121179819 0.7941883206
 2173.4294434 5.0000000000 1.9606349468 14.210639954 12.250000954 0.0555011295  -999.250000  -999.250000 2.2999019623 5.6725769043 53.340370178  -999.250000 35.644500732 0.8265416026 75.101753235 0.9911335707 0.7978897095
 2173.5820313 5.0000000000 1.9668828249 14.216878891 12.250000954 0.0564829595  -999.250000  -999.250000 2.2881360054 5.7114148140 52.721729279  -999.250000 35.887454987 0.8707100749 75.309722900 0.9593331218 0.8413283825
 2173.7343750 5.0000000000 1.9525250196 14.202529907 12.250000954 0.0595564693  -999.250000  -999.250000 2.2761518955 5.2218179703 52.156490326  -999.250000 35.957073212 0.9300398231 75.788948059 0.9426146150 0.9248201251
 2173.8867188 5.0000000000 1.9023308754 14.152329445 12.250000954 0.0571082011  -999.250000  -999.250000 2.2777400017 4.8341879845 50.922451019  -999.250000 35.453758240 0.9923381209 76.027343750 0.9683048725 1.0181289911
 2174.0390625 5.0000000000 1.8333649635 14.083369255 12.250000954 0.0442430601  -999.250000  -999.250000 2.3011960983 5.0007572174 48.555759430  -999.250000 34.311580658 1.0342919827 75.916992188 1.0505919456 1.0714570284
