# LAS format log file from PETREL
# Project units are specified as depth units
#==================================================================
~Version information
VERS.   2.0:
WRAP.   NO:
#==================================================================
~Well
STRT .m      704.45709229 :
STOP .m      3999.9543457 :
STEP .m     0.00000000 :
NULL .        -999.250000 :
COMP.           : COMPANY
WELL.  25/2-5 Lille Froey   : WELL
FLD.            : FIELD
LOC.            : LOCATION
SRVC.           : SERVICE COMPANY
DATE.  2018-09-11 14:48:17   : Log Export Date {yyyy-MM-dd HH:mm:ss}
PROV.           : PROVINCE
UWI.   25/2-5   : UNIQUE WELL ID
API.            : API NUMBER
#==================================================================
~Curve
DEPT .m                   : DEPTH
Lithology_geolink ._      : Lithology_geolink
CALI .in                  : CALI
BS .in                    : BS
DRHO .g/cm3               : DRHO
NPHI .m3/m3               : NPHI
RHOB .g/cm3               : RHOB
GR .gAPI                  : GR
DTC .us/ft                : DTC
DTE .us/ft                : DTE
RDEP .ohm.m               : RDEP
SP .mV                    : SP
RSHA .ohm.m               : RSHA
RMED .ohm.m               : RMED
~Parameter
#==================================================================
~Ascii
# ...
 1797.4697266  -999.250000 17.500000000 17.500000000  -999.250000  -999.250000  -999.250000 40.582000732 149.90751648 164.89343262 0.6276394129 53.706157684 0.6351617575 0.6351617575
 1797.6221924  -999.250000 17.500000000 17.500000000  -999.250000  -999.250000  -999.250000 40.102001190 149.78901672 164.87821960 0.6246389151 53.658344269 0.6337844729 0.6337844729
 1797.7745361  -999.250000 17.500000000 17.500000000  -999.250000  -999.250000  -999.250000 39.307998657 149.55754089 164.60612488 0.6216394305 53.611160278 0.6355676651 0.6355676651
 1797.9270020  -999.250000 17.500000000 17.500000000  -999.250000  -999.250000  -999.250000 38.080001831 148.64553833 163.56874084 0.6178518534 53.563346863 0.6367844939 0.6367844939
 1798.0793457  -999.250000 17.500000000 17.500000000  -999.250000  -999.250000  -999.250000 35.075000763 146.34402466 161.18147278 0.6091313958 53.516159058 0.6511088610 0.6511088610
 1798.2318115  -999.250000 17.500000000 17.500000000  -999.250000  -999.250000  -999.250000 33.097999573 143.73829651 158.13673401 0.5904591680 53.468345642 0.6824558973 0.6824558973
 1798.3841553  -999.250000 17.500000000 17.500000000  -999.250000  -999.250000  -999.250000 32.379001617 142.23385620 156.58061218 0.5694723725 53.355319977 0.7001897693 0.7001897693
 1798.5366211  -999.250000 17.500000000 17.500000000  -999.250000  -999.250000  -999.250000 32.330001831 142.94032288 157.40446472 0.5547603965 53.178737640 0.6598549485 0.6598549485
 1798.6889648  -999.250000 17.500000000 17.500000000  -999.250000  -999.250000  -999.250000 32.965999603 146.12876892 160.78054810 0.5512129664 52.989738464 0.6009327173 0.6009327173
 1798.8414307  -999.250000 17.500000000 17.500000000  -999.250000  -999.250000  -999.250000 34.376998901 150.70127869 165.90980530 0.5509999990 52.799919128 0.5597534180 0.5597534180
 1798.9937744  -999.250000 17.500000000 17.500000000  -999.250000  -999.250000  -999.250000 36.131999969 155.24111938 170.84234619 0.5509999990 52.680553436 0.5755336881 0.5755336881
 1799.1461182  -999.250000 17.500000000 17.500000000  -999.250000  -999.250000  -999.250000 37.229000092 157.85536194 173.64405823 0.5509999990 52.731895447 0.6047309637 0.6047309637
 1799.2985840  -999.250000 17.500000000 17.500000000  -999.250000  -999.250000  -999.250000 36.926998138 158.01017761 173.88160706 0.5509999990 52.832015991 0.6227667928 0.6227667928
 1799.4509277  -999.250000 17.500000000 17.500000000  -999.250000  -999.250000  -999.250000 35.590999603 157.22523499 173.11132813 0.5533605814 52.933166504 0.6377573609 0.6377573609
 1799.6033936  -999.250000 17.500000000 17.500000000  -999.250000  -999.250000  -999.250000 34.653999329 156.38427734 172.15318298 0.5665924549 53.033447266 0.6511979103 0.6511979103
 1799.7557373  -999.250000 17.500000000 17.500000000  -999.250000  -999.250000  -999.250000 35.176998138 155.21791077 170.89402771 0.5818028450 53.131816864 0.6485131979 0.6485131979
 1799.9082031  -999.250000 17.500000000 17.500000000  -999.250000  -999.250000  -999.250000 35.599998474 154.35844421 169.86474609 0.5897222161 53.230659485 0.6328797936 0.6328797936
 1800.0605469  -999.250000 17.500000000 17.500000000  -999.250000  -999.250000  -999.250000 37.077999115 153.30303955 168.79751587 0.5894262791 53.329601288 0.6047013402 0.6047013402
 1800.2130127  -999.250000 17.500000000 17.500000000  -999.250000  -999.250000  -999.250000 37.187999725 152.67613220 168.04786682 0.5874246955 53.427879333 0.5956466794 0.5956466794
 1800.3653564  -999.250000 17.500000000 17.500000000  -999.250000  -999.250000  -999.250000 37.183998108 153.54222107 168.88258362 0.5854259133 53.522678375 0.5934323668 0.5934323668
 1800.5178223  -999.250000 17.500000000 17.500000000  -999.250000  -999.250000  -999.250000 37.485000610 154.37997437 169.93307495 0.5834246874 53.521820068 0.6118268967 0.6118268967
 1800.6701660  -999.250000 17.500000000 17.500000000  -999.250000  -999.250000  -999.250000 37.465999603 154.88182068 170.40605164 0.5814259052 53.441535950 0.6326765418 0.6326765418
 1800.8226318  -999.250000 17.500000000 17.500000000  -999.250000  -999.250000  -999.250000 37.013999939 154.45663452 170.03248596 0.5817876458 53.346477509 0.6409223080 0.6409223080
 1800.9749756  -999.250000 17.500000000 17.500000000  -999.250000  -999.250000  -999.250000 36.027000427 153.75909424 169.24122620 0.5835740566 53.252258301 0.6451378465 0.6451378465
 1801.1273193  -999.250000 17.500000000 17.500000000  -999.250000  -999.250000  -999.250000 35.238998413 153.71380615 169.05662537 0.5855737329 53.157535553 0.6499191523 0.6499191523
 1801.2797852  -999.250000 17.500000000 17.500000000  -999.250000  -999.250000  -999.250000 35.071998596 153.94181824 169.46800232 0.5875740647 53.062477112 0.6557067633 0.6557067633
 1801.4321289  -999.250000 17.500000000 17.500000000  -999.250000  -999.250000  -999.250000 36.001998901 154.06823730 169.61724854 0.5895736814 52.969104767 0.6499455571 0.6499455571
 1801.5845947  -999.250000 17.500000000 17.500000000  -999.250000  -999.250000  -999.250000 36.827999115 152.72499084 168.06143188 0.5915740728 53.125503540 0.6393710375 0.6393710375
 1801.7369385  -999.250000 17.500000000 17.500000000  -999.250000  -999.250000  -999.250000 37.250000000 148.15293884 163.10697937 0.5927868485 53.377010345 0.6354323626 0.6354323626
 1801.8894043  -999.250000 17.500000000 17.500000000  -999.250000  -999.250000  -999.250000 37.046001434 143.05052185 157.36282349 0.5953611135 53.636173248 0.6561802626 0.6561802626
 1802.0417480  -999.250000 17.500000000 17.500000000  -999.250000  -999.250000  -999.250000 36.070999146 140.16412354 154.35658264 0.5983605385 53.895011902 0.6823795438 0.6823795438
 1802.1942139  -999.250000 17.500000000 17.500000000  -999.250000  -999.250000  -999.250000 35.171001434 139.56124878 153.49018860 0.6021506190 54.148681641 0.6762331724 0.6762331724
 1802.3465576  -999.250000 17.500000000 17.500000000  -999.250000  -999.250000  -999.250000 35.125000000 141.32322693 155.58543396 0.6053611040 54.173213959 0.6534042954 0.6534042954
 1802.4990234  -999.250000 17.500000000 17.500000000  -999.250000  -999.250000  -999.250000 36.275001526 146.60089111 161.34455872 0.6091506481 53.989284515 0.6330953836 0.6330953836
 1802.6513672  -999.250000 17.500000000 17.500000000  -999.250000  -999.250000  -999.250000 37.828998566 151.86036682 167.10983276 0.6123610735 53.765422821 0.6329191327 0.6329191327
 1802.8038330  -999.250000 17.500000000 17.500000000  -999.250000  -999.250000  -999.250000 38.356998444 153.73536682 169.25492859 0.6153630018 53.541282654 0.6379222870 0.6379222870
 1802.9561768  -999.250000 17.500000000 17.500000000  -999.250000  -999.250000  -999.250000 38.687000275 153.72424316 169.23924255 0.6175740361 53.316497803 0.6429222822 0.6429222822
 1803.1085205  -999.250000 17.500000000 17.500000000  -999.250000  -999.250000  -999.250000 39.834999084 153.04118347 168.42893982 0.6187868714 53.092422485 0.6479191184 0.6479191184
 1803.2609863  -999.250000 17.500000000 17.500000000  -999.250000  -999.250000  -999.250000 40.467998505 152.10351563 167.52680969 0.6197870374 52.868282318 0.6521378160 0.6521378160
 1803.4133301  -999.250000 17.500000000 17.500000000  -999.250000  -999.250000  -999.250000 41.348999023 151.71139526 166.89843750 0.6215736866 52.644424438 0.6553515196 0.6553515196
 1803.5657959  -999.250000 17.500000000 17.500000000  -999.250000  -999.250000  -999.250000 40.394001007 151.12709045 166.32460022 0.6227870584 52.574035645 0.6583533287 0.6583533287
 1803.7181396  -999.250000 17.500000000 17.500000000  -999.250000  -999.250000  -999.250000 39.131999969 150.86923218 166.00939941 0.6237868667 52.775714874 0.6684059501 0.6684059501
 1803.8706055  -999.250000 17.500000000 17.500000000  -999.250000  -999.250000  -999.250000 37.061000824 150.40516663 165.51104736 0.6255740523 53.022838593 0.6882580519 0.6882580519
 1804.0229492  -999.250000 17.500000000 17.500000000  -999.250000  -999.250000  -999.250000 36.191001892 149.48013306 164.52690125 0.6291474104 53.196491241 0.6961353421 0.6961353421
