# LAS format log file from PETREL
# Project units are specified as depth units
#==================================================================
~Version information
VERS.   2.0:
WRAP.   NO:
#==================================================================
~Well
STRT .m      1198.6790771 :
STOP .m      3629.1542969 :
STEP .m     0.00000000 :
NULL .        -999.250000 :
COMP.           : COMPANY
WELL.  25/2-14 Froey Appr   : WELL
FLD.            : FIELD
LOC.            : LOCATION
SRVC.           : SERVICE COMPANY
DATE.  2018-09-11 14:48:17   : Log Export Date {yyyy-MM-dd HH:mm:ss}
PROV.           : PROVINCE
UWI.   25/2-14   : UNIQUE WELL ID
API.            : API NUMBER
#==================================================================
~Curve
DEPT .m                   : DEPTH
Lithology_geolink ._      : Lithology_geolink
DCAL .in                  : DCAL
CALI .in                  : CALI
BS .in                    : BS
DRHO .g/cm3               : DRHO
THOR .ppm                 : THOR
NPHI .m3/m3               : NPHI
RHOB .g/cm3               : RHOB
PEF .b/e                  : PEF
GR .gAPI                  : GR
URAN .ppm                 : URAN
DTC .us/ft                : DTC
RDEP .ohm.m               : RDEP
SP .mV                    : SP
RSHA .ohm.m               : RSHA
RMED .ohm.m               : RMED
~Parameter
#==================================================================
~Ascii
# ...
 1362.2042236  -999.250000 0.4530000985 12.702999115 12.250000954 -0.027848700  -999.250000  -999.250000 2.0816349983 6.3449440002 38.220081329  -999.250000 42.160301208 0.7686524987 64.243896484 0.7263231277 0.6579735279
 1362.3566895  -999.250000 0.4530000985 12.702999115 12.250000954 -0.031150850  -999.250000  -999.250000 2.0819990635 6.1268420219 38.418659210  -999.250000 42.162708282 0.7672603130 63.385219574 0.7265388966 0.6558641195
 1362.5090332  -999.250000 0.4530000985 12.702999115 12.250000954 -0.033251122  -999.250000  -999.250000 2.0810101032 5.9031291008 38.469688416  -999.250000 42.097084045 0.7658135891 62.129848480 0.7267032862 0.6538922191
 1362.6613770  -999.250000 0.4530000985 12.702999115 12.250000954 -0.030704370  -999.250000  -999.250000 2.0807011127 5.8675279617 38.504138947  -999.250000 41.982326508 0.7648090124 60.827049255 0.7267370820 0.6528450251
 1362.8138428  -999.250000 0.4530000985 12.702999115 12.250000954 -0.026827971  -999.250000  -999.250000 2.0800049305 6.0186538696 38.782550812  -999.250000 41.838005066 0.7648103237 60.052391052 0.7272031903 0.6532093287
 1362.9661865  -999.250000 0.4530000985 12.702999115 12.250000954 -0.026413931  -999.250000  -999.250000 2.0799999237 6.1731429100 39.299991608  -999.250000 41.685520172 0.7656695247 60.393249512 0.7280560732 0.6547654867
 1363.1186523  -999.250000 0.4530000985 12.702999115 12.250000954 -0.030027920  -999.250000  -999.250000 2.0809509754 6.1905012131 39.680839539  -999.250000 41.558532715 0.7672477961 62.009681702 0.7284222245 0.6572322249
 1363.2709961  -999.250000 0.4530000985 12.702999115 12.250000954 -0.032063469  -999.250000  -999.250000 2.0825250149 6.1573829651 39.504199982  -999.250000 41.503181458 0.7693080902 64.433731079 0.7278401852 0.6601830721
 1363.4234619  -999.250000 0.4530000985 12.702999115 12.250000954 -0.028636981  -999.250000  -999.250000 2.0861670971 6.0908617973 39.142810822  -999.250000 41.536067963 0.7713003159 66.450057983 0.7271623015 0.6630443931
 1363.5758057  -999.250000 0.4530000985 12.702999115 12.250000954 -0.022745460  -999.250000  -999.250000 2.0898230076 5.9904928207 39.162410736  -999.250000 41.631172180 0.7728819251 67.389701843 0.7275633812 0.6650941968
 1363.7282715  -999.250000 0.4530000985 12.702999115 12.250000954 -0.020079870  -999.250000  -999.250000 2.0918231010 5.8865890503 39.547199249  -999.250000 41.736782074 0.7740554214 67.313621521 0.7291123271 0.6656839848
 1363.8806152  -999.250000 0.4530000985 12.702999115 12.250000954 -0.023004280  -999.250000  -999.250000 2.0918889046 5.7738099098 39.659870148  -999.250000 41.817646027 0.7749474049 66.635009766 0.7300738096 0.6652482748
 1364.0330811  -999.250000 0.4530000985 12.702999115 12.250000954 -0.027621949  -999.250000  -999.250000 2.0891981125 5.6072120667 39.117309570  -999.250000 41.875953674 0.7760326862 66.146553040 0.7293198109 0.6648058295
 1364.1854248  -999.250000 0.4530000985 12.702999115 12.250000954 -0.028995590  -999.250000  -999.250000 2.0865259171 5.3977098465 38.323310852  -999.250000 41.921737671 0.7774953246 66.387527466 0.7273856997 0.6652640104
 1364.3378906  -999.250000 0.4530000985 12.702999115 12.250000954 -0.025986720  -999.250000  -999.250000 2.0860030651 5.2124657631 37.822818756  -999.250000 41.945663452 0.7786712050 67.275840759 0.7264044881 0.6667442918
 1364.4902344  -999.250000 0.4530000985 12.702999115 12.250000954 -0.020374689  -999.250000  -999.250000 2.0878479481 5.1010107994 37.880779266  -999.250000 41.930789948 0.7788047791 68.202140808 0.7281718850 0.6679515839
 1364.6425781  -999.250000 0.4530000985 12.702999115 12.250000954 -0.016103720  -999.250000  -999.250000 2.0902850628 5.0455679893 38.270671844  -999.250000 41.884002686 0.7776219845 68.472099304 0.7312569022 0.6673111916
 1364.7950439  -999.250000 0.4530000985 12.702999115 12.250000954 -0.014698690  -999.250000  -999.250000 2.0919880867 4.9888992310 38.583889008  -999.250000 41.842121124 0.7754269838 68.180267334 0.7328507900 0.6646351218
 1364.9473877  -999.250000 0.4530000985 12.702999115 12.250000954 -0.013975440  -999.250000  -999.250000 2.0908310413 4.9256629944 38.461910248  -999.250000 41.842975616 0.7734696865 67.961883545 0.7309042215 0.6611210704
 1365.0998535  -999.250000 0.4530000985 12.702999115 12.250000954 -0.011598830  -999.250000  -999.250000 2.0859980583 4.8606438637 37.951328278  -999.250000 41.891258240 0.7722504139 68.321823120 0.7260264754 0.6584230065
 1365.2521973  -999.250000 0.4530000985 12.702999115 12.250000954 -0.007645561  -999.250000  -999.250000 2.0789411068 4.8109569550 37.458248138  -999.250000 41.954257965 0.7715814114 69.300422668 0.7215976119 0.6567912102
 1365.4046631  -999.250000 0.4530000985 12.702999115 12.250000954 -0.004377331  -999.250000  -999.250000 2.0747830868 4.7961168289 37.242889404  -999.250000 41.992237091 0.7707996964 70.580848694 0.7193487287 0.6558538079
 1365.5570068  -999.250000 0.4530000985 12.702999115 12.250000954 -0.003307029  -999.250000  -999.250000 2.0744681358 4.7907061577 37.012580872  -999.250000 41.993885040 0.7698249221 71.694671631 0.7190439105 0.6554064751
 1365.7094727  -999.250000 0.4530000985 12.702999115 12.250000954 -0.003503979  -999.250000  -999.250000 2.0770370960 4.7846150398 36.770130157  -999.250000 41.990558624 0.7691947222 72.298851013 0.7197356820 0.6558061242
 1365.8618164  -999.250000 0.4530000985 12.702999115 12.250000954 -0.003061493  -999.250000  -999.250000 2.0824830532 4.7803130150 37.050220490  -999.250000 42.027652740 0.7695556283 72.275131226 0.7206534743 0.6571981907
 1366.0142822  -999.250000 0.4530000985 12.702999115 12.250000954 -0.000635330  -999.250000  -999.250000 2.0884490013 4.7927489281 38.276088715  -999.250000 42.111473083 0.7711943984 71.740463257 0.7216137052 0.6595870256
 1366.1666260  -999.250000 0.4530000985 12.702999115 12.250000954 0.0031682020  -999.250000  -999.250000 2.0929939747 4.8244180679 39.858249664  -999.250000 42.199218750 0.7741708755 71.226593018 0.7224782109 0.6627014279
 1366.3190918  -999.250000 0.4530000985 12.702999115 12.250000954 0.0064558829  -999.250000  -999.250000 2.0961010456 4.8524188995 40.905891418  -999.250000 42.234218597 0.7774695158 71.129013062 0.7229326963 0.6659603715
 1366.4714355  -999.250000 0.4530020356 12.702999115 12.250000954 0.0075500999  -999.250000  -999.250000 2.0969951153 4.8151669502 41.103271484  -999.250000 42.181671143 0.7801666260 71.533897400 0.7229787111 0.6680325866
 1366.6237793  -999.250000 0.4540081024 12.704010010 12.250000954 0.0074034678  -999.250000  -999.250000 2.0960080624 4.6620821953 40.496261597  -999.250000 42.053195953 0.7812960744 72.217422485 0.7229074836 0.6675919294
 1366.7762451  -999.250000 0.4571160972 12.707118988 12.250000954 0.0088957120  -999.250000  -999.250000 2.0947890282 4.4742798805 39.293811798  -999.250000 41.885402679 0.7796065211 72.969520569 0.7227361202 0.6643502116
 1366.9285889  -999.250000 0.4632092416 12.713209152 12.250000954 0.0115595702  -999.250000  -999.250000 2.0935699940 4.3597788811 38.041938782  -999.250000 41.716239929 0.7751172781 73.726936340 0.7218335867 0.6591305733
 1367.0810547  -999.250000 0.4679774940 12.717980385 12.250000954 0.0126935802  -999.250000  -999.250000 2.0930030346 4.3420028687 37.260429382  -999.250000 41.580360413 0.7691864967 74.418533325 0.7196109891 0.6534041762
 1367.2333984  -999.250000 0.4681071937 12.718111038 12.250000954 0.0101791304  -999.250000  -999.250000 2.0929999352 4.3623738289 37.208370209  -999.250000 41.503734589 0.7634462714 74.878631592 0.7165884972 0.6486613750
 1367.3858643  -999.250000 0.4624967575 12.712499619 12.250000954 0.0048471731  -999.250000  -999.250000 2.0929028988 4.3674168587 37.684860229  -999.250000 41.502513885 0.7592884898 74.768356323 0.7144109011 0.6457005739
 1367.5382080  -999.250000 0.4567261338 12.706728935 12.250000954 0.0003446024  -999.250000  -999.250000 2.0916929245 4.3418159485 38.109870911  -999.250000 41.566310883 0.7572728992 74.062362671 0.7140321136 0.6444854736
 1367.6906738  -999.250000 0.4534636140 12.703459740 12.250000954 -0.001760722  -999.250000  -999.250000 2.0904729366 4.2943267822 38.169879913  -999.250000 41.651287079 0.7572162747 72.867286682 0.7152506709 0.6452469230
