# LAS format log file from PETREL
# Project units are specified as depth units
#==================================================================
~Version information
VERS.   2.0:
WRAP.   NO:
#==================================================================
~Well
STRT .m      704.45709229 :
STOP .m      3999.9543457 :
STEP .m     0.00000000 :
NULL .        -999.250000 :
COMP.           : COMPANY
WELL.  25/2-5 Lille Froey   : WELL
FLD.            : FIELD
LOC.            : LOCATION
SRVC.           : SERVICE COMPANY
DATE.  2018-09-11 14:48:17   : Log Export Date {yyyy-MM-dd HH:mm:ss}
PROV.           : PROVINCE
UWI.   25/2-5   : UNIQUE WELL ID
API.            : API NUMBER
#==================================================================
~Curve
DEPT .m                   : DEPTH
Lithology_geolink ._      : Lithology_geolink
CALI .in                  : CALI
BS .in                    : BS
DRHO .g/cm3               : DRHO
NPHI .m3/m3               : NPHI
RHOB .g/cm3               : RHOB
GR .gAPI                  : GR
DTC .us/ft                : DTC
DTE .us/ft                : DTE
RDEP .ohm.m               : RDEP
SP .mV                    : SP
RSHA .ohm.m               : RSHA
RMED .ohm.m               : RMED
~Parameter
#==================================================================
~Ascii
# ...
 2897.1882324 12.000000000 12.250000954 12.250000954  -999.250000  -999.250000  -999.250000 38.758998871 87.046867371 87.297760010 2.4015769958 68.884445190 2.5327596664 2.5327596664
 2897.3405762 12.000000000 12.250000954 12.250000954  -999.250000  -999.250000  -999.250000 39.556999207 87.279640198 87.539611816 2.4610192776 68.587692261 2.4606056213 2.4606056213
 2897.4929199 12.000000000 12.250000954 12.250000954  -999.250000  -999.250000  -999.250000 39.293998718 87.966545105 88.298751831 2.5235719681 68.697921753 2.4749133587 2.4749133587
 2897.6452637 12.000000000 12.250000954 12.250000954  -999.250000  -999.250000  -999.250000 38.130001068 88.772476196 89.057617188 2.5425078869 68.955856323 2.6584751606 2.6584751606
 2897.7978516 12.000000000 12.250000954 12.250000954  -999.250000  -999.250000  -999.250000 37.033000946 88.505203247 88.828292847 2.5447885990 69.024833679 2.9750096798 2.9750096798
 2897.9501953 12.000000000 12.250000954 12.250000954  -999.250000  -999.250000  -999.250000 36.780998230 87.137458801 87.346588135 2.5450000763 68.947853088 3.1665480137 3.1665480137
 2898.1025391 12.000000000 12.250000954 12.250000954  -999.250000  -999.250000  -999.250000 36.801998138 85.259841919 85.280555725 2.5308365822 68.864089966 3.2436683178 3.2436683178
 2898.2548828 12.000000000 12.250000954 12.250000954  -999.250000  -999.250000  -999.250000 37.443000793 83.351936340 83.524269104 2.5120496750 68.785972595 3.0510110855 3.0510110855
 2898.4072266 12.000000000 12.250000954 12.250000954  -999.250000  -999.250000  -999.250000 39.250000000 82.665534973 83.197227478 2.4796729088 68.681404114 2.8117818832 2.8117818832
 2898.5598145 12.000000000 12.250000954 12.250000954  -999.250000  -999.250000  -999.250000 40.757999420 85.001647949 85.191917419 2.4381504059 68.494781494 2.5846779346 2.5846779346
 2898.7121582 12.000000000 12.250000954 12.250000954  -999.250000  -999.250000  -999.250000 40.006000519 88.293258667 88.451187134 2.3959519863 68.185127258 2.3878893852 2.3878893852
 2898.8645020 12.000000000 12.250000954 12.250000954  -999.250000  -999.250000  -999.250000 38.958000183 90.729804993 90.874870300 2.3594598770 68.563385010 2.2662835121 2.2662835121
 2899.0168457 12.000000000 12.250000954 12.250000954  -999.250000  -999.250000  -999.250000 39.791000366 91.182273865 91.199020386 2.3252468109 69.721549988 2.2346112728 2.2346112728
 2899.1694336 12.000000000 12.250000954 12.250000954  -999.250000  -999.250000  -999.250000 40.148998260 89.991134644 90.427818298 2.3069791794 69.984703064 2.2617788315 2.2617788315
 2899.3217773 12.000000000 12.250000954 12.250000954  -999.250000  -999.250000  -999.250000 40.451000214 89.018035889 89.131065369 2.3401954174 69.550903320 2.4431874752 2.4431874752
 2899.4741211 12.000000000 12.250000954 12.250000954  -999.250000  -999.250000  -999.250000 40.465000153 88.514137268 88.824668884 2.3909165859 68.918136597 2.6297066212 2.6297066212
 2899.6264648 12.000000000 12.250000954 12.250000954  -999.250000  -999.250000  -999.250000 39.691001892 90.144828796 90.475433350 2.4429166317 68.362892151 2.7986607552 2.7986607552
 2899.7790527 12.000000000 12.250000954 12.250000954  -999.250000  -999.250000  -999.250000 38.317001343 89.936180115 90.283378601 2.5052499771 68.108512878 2.9172837734 2.9172837734
 2899.9313965 12.000000000 12.250000954 12.250000954  -999.250000  -999.250000  -999.250000 38.095001221 88.118988037 88.551231384 2.5725295544 68.075485229 2.8835768700 2.8835768700
 2900.0837402 12.000000000 12.250000954 12.250000954  -999.250000  -999.250000  -999.250000 37.277000427 88.008903503 88.336410522 2.6184744835 68.038604736 2.7880673409 2.7880673409
 2900.2360840 12.000000000 12.250000954 12.250000954  -999.250000  -999.250000  -999.250000 36.398998260 89.803863525 89.913932800 2.6419503689 67.980278015 2.6948015690 2.6948015690
 2900.3884277 12.000000000 12.250000954 12.250000954  -999.250000  -999.250000  -999.250000 36.763999939 90.677658081 91.134559631 2.5830512047 67.919296265 2.6210384369 2.6210384369
 2900.5410156 12.000000000 12.250000954 12.250000954  -999.250000  -999.250000  -999.250000 37.500999451 89.963653564 90.091384888 2.5132577419 67.858200073 2.5691683292 2.5691683292
 2900.6933594 12.000000000 12.250000954 12.250000954  -999.250000  -999.250000  -999.250000 37.811000824 89.019477844 89.485252380 2.4958524704 67.797981262 2.5339231491 2.5339231491
 2900.8457031 12.000000000 12.250000954 12.250000954  -999.250000  -999.250000  -999.250000 37.708000183 89.860443115 90.115821838 2.4973604679 67.754440308 2.5544278622 2.5544278622
 2900.9980469 12.000000000 12.250000954 12.250000954  -999.250000  -999.250000  -999.250000 36.687000275 90.005615234 90.001075745 2.5334086418 67.857887268 2.5917310715 2.5917310715
 2901.1506348 12.000000000 12.250000954 12.250000954  -999.250000  -999.250000  -999.250000 36.337001801 89.922439575 89.975746155 2.5799982548 68.055130005 2.6289951801 2.6289951801
 2901.3029785 12.000000000 12.250000954 12.250000954  -999.250000  -999.250000  -999.250000 36.958999634 89.917007446 90.058197021 2.6222612858 68.759269714 2.6652116776 2.6652116776
 2901.4553223 12.000000000 12.250000954 12.250000954  -999.250000  -999.250000  -999.250000 38.146999359 89.019477844 89.433616638 2.6616876125 69.766975403 2.7419614792 2.7419614792
 2901.6076660 12.000000000 12.250000954 12.250000954  -999.250000  -999.250000  -999.250000 38.098999023 88.381080627 88.328842163 2.6825897694 70.107666016 2.8728833199 2.8728833199
 2901.7602539 12.000000000 12.250000954 12.250000954  -999.250000  -999.250000  -999.250000 37.793998718 87.578773499 87.885719299 2.6804807186 69.852188110 3.0137114525 3.0137114525
 2901.9125977 12.000000000 12.250000954 12.250000954  -999.250000  -999.250000  -999.250000 37.679000854 88.880432129 89.446151733 2.6727023125 69.089653015 3.0753462315 3.0753462315
 2902.0649414 12.000000000 12.250000954 12.250000954  -999.250000  -999.250000  -999.250000 38.119998932 88.514137268 88.502952576 2.6599841118 68.582054138 3.0393316746 3.0393316746
 2902.2172852 12.000000000 12.250000954 12.250000954  -999.250000  -999.250000  -999.250000 38.367000580 85.793601990 85.969367981 2.6404759884 68.466613770 2.8752143383 2.8752143383
 2902.3696289 12.000000000 12.250000954 12.250000954  -999.250000  -999.250000  -999.250000 37.384998322 86.839012146 86.986297607 2.6194758415 68.520782471 2.7399358749 2.7399358749
 2902.5222168 12.000000000 12.250000954 12.250000954  -999.250000  -999.250000  -999.250000 36.988998413 88.395301819 88.601249695 2.5976815224 68.518409729 2.6497404575 2.6497404575
 2902.6745605 12.000000000 12.250000954 12.250000954  -999.250000  -999.250000  -999.250000 36.707000732 89.383522034 89.851745605 2.5701808929 68.390754700 2.5700912476 2.5700912476
 2902.8269043 12.000000000 12.250000954 12.250000954  -999.250000  -999.250000  -999.250000 36.754001617 90.337432861 90.610366821 2.5262308121 68.263114929 2.4982321262 2.4982321262
 2902.9792480 12.000000000 12.250000954 12.250000954  -999.250000  -999.250000  -999.250000 36.958999634 90.705940247 91.033927917 2.4766571522 68.310516357 2.4407691956 2.4407691956
 2903.1318359 12.000000000 12.250000954 12.250000954  -999.250000  -999.250000  -999.250000 36.672000885 91.312095642 91.467811584 2.4352991581 68.408584595 2.4086251259 2.4086251259
 2903.2841797 12.000000000 12.250000954 12.250000954  -999.250000  -999.250000  -999.250000 37.407001495 91.797477722 91.808570862 2.4372291565 68.437057495 2.4069182873 2.4069182873
 2903.4365234 12.000000000 12.250000954 12.250000954  -999.250000  -999.250000  -999.250000 38.835998535 91.376235962 91.731658936 2.4557371140 68.529121399 2.4150528908 2.4150528908
 2903.5888672 12.000000000 12.250000954 12.250000954  -999.250000  -999.250000  -999.250000 40.388999939 91.210556030 91.316398621 2.4780976772 68.946762085 2.4349951744 2.4349951744
 2903.7414551 12.000000000 12.250000954 12.250000954  -999.250000  -999.250000  -999.250000 40.930999756 90.440605164 90.608840942 2.5042884350 69.034057617 2.4807500839 2.4807500839
