# LAS format log file from PETREL
# Project units are specified as depth units
#==================================================================
~Version information
VERS.   2.0:
WRAP.   NO:
#==================================================================
~Well
STRT .m      704.45709229 :
STOP .m      3999.9543457 :
STEP .m     0.00000000 :
NULL .        -999.250000 :
COMP.           : COMPANY
WELL.  25/2-5 Lille Froey   : WELL
FLD.            : FIELD
LOC.            : LOCATION
SRVC.           : SERVICE COMPANY
DATE.  2018-09-11 14:48:17   : Log Export Date {yyyy-MM-dd HH:mm:ss}
PROV.           : PROVINCE
UWI.   25/2-5   : UNIQUE WELL ID
API.            : API NUMBER
#==================================================================
~Curve
DEPT .m                   : DEPTH
Lithology_geolink ._      : Lithology_geolink
CALI .in                  : CALI
BS .in                    : BS
DRHO .g/cm3               : DRHO
NPHI .m3/m3               : NPHI
RHOB .g/cm3               : RHOB
GR .gAPI                  : GR
DTC .us/ft                : DTC
DTE .us/ft                : DTE
RDEP .ohm.m               : RDEP
SP .mV                    : SP
RSHA .ohm.m               : RSHA
RMED .ohm.m               : RMED
~Parameter
#==================================================================
~Ascii
# ...
 925.74188232  -999.250000 17.500000000 17.500000000  -999.250000  -999.250000  -999.250000 22.233999252 139.34936523 152.50389099 0.6804268956 43.722648621 0.5959287286 0.5959287286
 925.89428711  -999.250000 17.500000000 17.500000000  -999.250000  -999.250000  -999.250000 22.804000854 141.15467834 154.42613220 0.6792134643 43.784072876 0.5891425610 0.5891425610
 926.04669189  -999.250000 17.500000000 17.500000000  -999.250000  -999.250000  -999.250000 24.375000000 141.53929138 154.80494690 0.6774269342 43.788070679 0.5822855234 0.5822855234
 926.19909668  -999.250000 17.500000000 17.500000000  -999.250000  -999.250000  -999.250000 25.399000168 139.19866943 152.26208496 0.6754269004 43.783073425 0.5888574123 0.5888574123
 926.35150146  -999.250000 17.500000000 17.500000000  -999.250000  -999.250000  -999.250000 25.531999588 136.07774353 148.81517029 0.6734269261 43.778072357 0.6004288793 0.6004288793
 926.50390625  -999.250000 17.500000000 17.500000000  -999.250000  -999.250000  -999.250000 25.125000000 134.15390015 146.76611328 0.6714262962 43.773857117 0.6116431952 0.6116431952
 926.65631104  -999.250000 17.500000000 17.500000000  -999.250000  -999.250000  -999.250000 24.582000732 134.04660034 146.61123657 0.6694261432 43.790283203 0.6140000224 0.6140000224
 926.80871582  -999.250000 17.500000000 17.500000000  -999.250000  -999.250000  -999.250000 24.350999832 134.94493103 147.62644958 0.6682130694 43.823287964 0.6132142544 0.6132142544
 926.96105957  -999.250000 17.500000000 17.500000000  -999.250000  -999.250000  -999.250000 24.329000473 135.72979736 148.52349854 0.6679999828 43.860057831 0.6122146249 0.6122146249
 927.11346436  -999.250000 17.500000000 17.500000000  -999.250000  -999.250000  -999.250000 24.086000443 136.28033447 149.13375854 0.6687865853 43.897056580 0.6104293466 0.6104293466
 927.26586914  -999.250000 17.500000000 17.500000000  -999.250000  -999.250000  -999.250000 22.983999252 136.98526001 149.77743530 0.6697865725 43.931701660 0.6092146635 0.6092146635
 927.41827393  -999.250000 17.500000000 17.500000000  -999.250000  -999.250000  -999.250000 22.422000885 137.41545105 150.38063049 0.6707865596 43.941356659 0.6082143188 0.6082143188
 927.57067871  -999.250000 17.500000000 17.500000000  -999.250000  -999.250000  -999.250000 22.736000061 137.83671570 150.80621338 0.6717865467 43.938072205 0.6072142720 0.6072142720
 927.72308350  -999.250000 17.500000000 17.500000000  -999.250000  -999.250000  -999.250000 23.561000824 138.08575439 150.97309875 0.6735730767 43.933071136 0.6062142849 0.6062142849
 927.87548828  -999.250000 17.500000000 17.500000000  -999.250000  -999.250000  -999.250000 24.443000793 137.81890869 150.81039429 0.6747865677 43.920997620 0.6052142978 0.6052142978
 928.02789307  -999.250000 17.500000000 17.500000000  -999.250000  -999.250000  -999.250000 25.242000580 137.68933105 150.51722717 0.6757865548 43.704277039 0.6042142510 0.6042142510
 928.18029785  -999.250000 17.500000000 17.500000000  -999.250000  -999.250000  -999.250000 25.849000931 137.40170288 150.30180359 0.6767865419 43.404777527 0.6032142639 0.6032142639
 928.33270264  -999.250000 17.500000000 17.500000000  -999.250000  -999.250000  -999.250000 26.184000015 137.21597290 150.11618042 0.6777865291 43.097778320 0.6108574271 0.6108574271
 928.48510742  -999.250000 17.500000000 17.500000000  -999.250000  -999.250000  -999.250000 26.722999573 137.09332275 149.92889404 0.6779999733 42.789989471 0.6381437778 0.6381437778
 928.63751221  -999.250000 17.500000000 17.500000000  -999.250000  -999.250000  -999.250000 27.072000504 136.80570984 149.59265137 0.6779999733 42.482776642 0.6465715170 0.6465715170
 928.78991699  -999.250000 17.500000000 17.500000000  -999.250000  -999.250000  -999.250000 27.586999893 136.33918762 149.10021973 0.6779999733 42.196990967 0.6462143064 0.6462143064
 928.94232178  -999.250000 17.500000000 17.500000000  -999.250000  -999.250000  -999.250000 28.774000168 135.80624390 148.56227112 0.6803607941 42.354652405 0.6444284916 0.6444284916
 929.09466553  -999.250000 17.500000000 17.500000000  -999.250000  -999.250000  -999.250000 29.697000504 135.49452209 148.14723206 0.6967308521 42.664524078 0.6432146430 0.6432146430
 929.24707031  -999.250000 17.500000000 17.500000000  -999.250000  -999.250000  -999.250000 30.094999313 135.19122314 147.93737793 0.7175174356 42.983524323 0.6422146559 0.6422146559
 929.39947510  -999.250000 17.500000000 17.500000000  -999.250000  -999.250000  -999.250000 31.808000565 135.12265015 147.78518677 0.7393040061 43.302520752 0.6435706615 0.6435706615
 929.55187988  -999.250000 17.500000000 17.500000000  -999.250000  -999.250000  -999.250000 33.622001648 134.83880615 147.48930359 0.7605174184 43.621623993 0.6518565416 0.6518565416
 929.70428467  -999.250000 17.500000000 17.500000000  -999.250000  -999.250000  -999.250000 35.803001404 133.75476074 146.37933350 0.7823039889 43.940650940 0.7042875290 0.7042875290
 929.85668945  -999.250000 17.500000000 17.500000000  -999.250000  -999.250000  -999.250000 38.368000031 132.06086731 144.52676392 0.8035174608 44.183433533 0.7722162604 0.7722162604
 930.00909424  -999.250000 17.500000000 17.500000000  -999.250000  -999.250000  -999.250000 40.492000580 130.66931152 142.90705872 0.8253039718 44.200355530 0.8412162662 0.8412162662
 930.16149902  -999.250000 17.500000000 17.500000000  -999.250000  -999.250000  -999.250000 41.623001099 130.02822876 142.28567505 0.8465306759 44.146427155 0.8528570533 0.8528570533
 930.31390381  -999.250000 17.500000000 17.500000000  -999.250000  -999.250000  -999.250000 41.244998932 130.72349548 142.95408630 0.8683215976 44.088428497 0.8166415691 0.8166415691
 930.46630859  -999.250000 17.500000000 17.500000000  -999.250000  -999.250000  -999.250000 40.101001740 131.66673279 144.03926086 0.8903215528 44.031211853 0.7724273205 0.7724273205
 930.61871338  -999.250000 17.500000000 17.500000000  -999.250000  -999.250000  -999.250000 39.490001678 132.17120361 144.59829712 0.9123215675 43.973426819 0.7480708957 0.7480708957
 930.77111816  -999.250000 17.500000000 17.500000000  -999.250000  -999.250000  -999.250000 39.782001495 132.31117249 144.68504333 0.9343215823 43.916210175 0.7369283438 0.7369283438
 930.92352295  -999.250000 17.500000000 17.500000000  -999.250000  -999.250000  -999.250000 40.122001648 131.75671387 144.17872620 0.9555342197 43.859210968 0.7876447439 0.7876447439
 931.07586670  -999.250000 17.500000000 17.500000000  -999.250000  -999.250000  -999.250000 41.616001129 130.09466553 142.29672241 0.9615738988 43.851711273 0.8624713421 0.8624713421
 931.22827148  -999.250000 17.500000000 17.500000000  -999.250000  -999.250000  -999.250000 42.007999420 128.52630615 140.54495239 0.9596391916 43.888339996 0.9614609480 0.9614609480
 931.38067627  -999.250000 17.500000000 17.500000000  -999.250000  -999.250000  -999.250000 41.611999512 128.72422791 140.77537537 0.9558522105 43.934123993 0.9737905860 0.9737905860
 931.53308105  -999.250000 17.500000000 17.500000000  -999.250000  -999.250000  -999.250000 40.714000702 129.92092896 142.17318726 0.9526391625 43.979354858 0.8775067925 0.8775067925
 931.68548584  -999.250000 17.500000000 17.500000000  -999.250000  -999.250000  -999.250000 39.903999329 132.07083130 144.46635437 0.9496392012 44.024356842 0.7938550115 0.7938550115
 931.83789063  -999.250000 17.500000000 17.500000000  -999.250000  -999.250000  -999.250000 39.291000366 133.82702637 146.34045410 0.9411305785 44.070144653 0.7426415682 0.7426415682
 931.99029541  -999.250000 17.500000000 17.500000000  -999.250000  -999.250000  -999.250000 37.737998962 134.09582520 146.66876221 0.9004397392 44.115360260 0.7109991908 0.7109991908
 932.14270020  -999.250000 17.500000000 17.500000000  -999.250000  -999.250000  -999.250000 35.325000763 134.05006409 146.65592957 0.8482919335 44.153285980 0.7136431932 0.7136431932
 932.29510498  -999.250000 17.500000000 17.500000000  -999.250000  -999.250000  -999.250000 32.348999023 134.04660034 146.60852051 0.7960625291 43.988136292 0.7254288793 0.7254288793
