# LAS format log file from PETREL
# Project units are specified as depth units
#==================================================================
~Version information
VERS.   2.0:
WRAP.   NO:
#==================================================================
~Well
STRT .m      1198.6790771 :
STOP .m      3629.1542969 :
STEP .m     0.00000000 :
NULL .        -999.250000 :
COMP.           : COMPANY
WELL.  25/2-14 Froey Appr   : WELL
FLD.            : FIELD
LOC.            : LOCATION
SRVC.           : SERVICE COMPANY
DATE.  2018-09-11 14:48:17   : Log Export Date {yyyy-MM-dd HH:mm:ss}
PROV.           : PROVINCE
UWI.   25/2-14   : UNIQUE WELL ID
API.            : API NUMBER
#==================================================================
~Curve
DEPT .m                   : DEPTH
Lithology_geolink ._      : Lithology_geolink
DCAL .in                  : DCAL
CALI .in                  : CALI
BS .in                    : BS
DRHO .g/cm3               : DRHO
THOR .ppm                 : THOR
NPHI .m3/m3               : NPHI
RHOB .g/cm3               : RHOB
PEF .b/e                  : PEF
GR .gAPI                  : GR
URAN .ppm                 : URAN
DTC .us/ft                : DTC
RDEP .ohm.m               : RDEP
SP .mV                    : SP
RSHA .ohm.m               : RSHA
RMED .ohm.m               : RMED
~Parameter
#==================================================================
~Ascii
# ...
 2974.9008789 12.000000000 0.1587563008 12.408760071 12.250000954 0.0369403698  -999.250000  -999.250000 2.6446099281 5.6294322014 35.499710083  -999.250000 21.457685471 4.5791149139 43.662769318 4.8676538467 3.7946810722
 2975.0534668 12.000000000 0.1570357978 12.407038689 12.250000954 0.0382575504  -999.250000  -999.250000 2.6465489864 5.7634592056 32.617721558  -999.250000 20.618808746 5.1088991165 43.115348816 4.9025287628 4.0008997917
 2975.2058105 12.000000000 0.1505507976 12.400550842 12.250000954 0.0426175408  -999.250000  -999.250000 2.6434059143 5.8700428009 30.452270508  -999.250000 20.004404068 5.6976728439 42.889560699 4.9797348976 4.3010258675
 2975.3581543 12.000000000 0.1380815953 12.388079643 12.250000954 0.0466049314  -999.250000  -999.250000 2.6385419369 5.9114770889 28.759820938  -999.250000 19.687664032 6.2067341805 42.607269287 5.0924901962 4.5746269226
 2975.5104980 12.000000000 0.1203946993 12.370389938 12.250000954 0.0471639112  -999.250000  -999.250000 2.6349380016 5.8313717842 27.510660172  -999.250000 19.617427826 6.4640860558 42.082519531 5.1945710182 4.6856470108
 2975.6630859 12.000000000 0.1040257961 12.354029655 12.250000954 0.0455382690  -999.250000  -999.250000 2.6340088844 5.6685910225 27.110229492  -999.250000 19.737508774 6.3673691750 41.731719971 5.2055587769 4.6135897636
 2975.8154297 12.000000000 0.0927505493 12.342749596 12.250000954 0.0441791005  -999.250000  -999.250000 2.6345279217 5.5112371445 27.779039383  -999.250000 20.052276611 6.0460681915 41.940631866 4.9827618599 4.3944058418
 2975.9677734 12.000000000 0.0908289030 12.340830803 12.250000954 0.0422888882  -999.250000  -999.250000 2.6357409954 5.3839092255 29.147769928  -999.250000 20.542680740 5.6664509773 42.599960327 4.5654897690 4.1245441437
 2976.1201172 12.000000000 0.0959396437 12.345938683 12.250000954 0.0391104482  -999.250000  -999.250000 2.6340780258 5.2504258156 30.601900101  -999.250000 21.090167999 5.3047738075 43.064018250 4.1271138191 3.8852200508
 2976.2724609 12.000000000 0.1004037932 12.350399971 12.250000954 0.0365899615  -999.250000  -999.250000 2.6312599182 5.1480779648 31.897699356  -999.250000 21.527189255 4.9970841408 42.668590546 3.8148159981 3.7228579521
 2976.4250488 12.000000000 0.1006899029 12.350689888 12.250000954 0.0360042900  -999.250000  -999.250000 2.6268041134 5.1271729469 33.184261322  -999.250000 21.764308929 4.7431402206 41.953319550 3.6603329182 3.6365799904
 2976.5773926 12.000000000 0.0957441330 12.345741272 12.250000954 0.0351266190  -999.250000  -999.250000 2.6231400967 5.1804652214 34.444770813  -999.250000 21.845735550 4.5236091614 41.659561157 3.6256420612 3.5787930489
 2976.7297363 12.000000000 0.0896825716 12.339679718 12.250000954 0.0311550591  -999.250000  -999.250000 2.6194820404 5.2931790352 35.292030334  -999.250000 21.866155624 4.3200430870 42.091918945 3.6438190937 3.4922571182
 2976.8820801 12.000000000 0.0859985501 12.336000443 12.250000954 0.0247741193  -999.250000  -999.250000 2.6168830395 5.3592739105 35.232841492  -999.250000 21.884271622 4.1267580986 42.911308289 3.6426429749 3.3786699772
 2977.0346680 12.000000000 0.0857038498 12.335700035 12.250000954 0.0207023509  -999.250000  -999.250000 2.6150150299 5.3716278076 34.680278778  -999.250000 21.925882339 3.9358370304 43.564029694 3.5837159157 3.2716031075
 2977.1870117 12.000000000 0.0855274200 12.335529327 12.250000954 0.0210075695  -999.250000  -999.250000 2.6150000095 5.3729581833 34.635490417  -999.250000 22.000112534 3.7477319241 44.078811646 3.4728360176 3.1788721085
 2977.3393555 12.000000000 0.0868139341 12.336810112 12.250000954 0.0236201100  -999.250000  -999.250000 2.6150000095 5.3232917786 35.597541809  -999.250000 22.110668182 3.5738060474 44.752998352 3.3601489067 3.0801570415
 2977.4916992 12.000000000 0.0928945392 12.342889786 12.250000954 0.0261701699  -999.250000  -999.250000 2.6159360409 5.2245612144 37.221599579  -999.250000 22.247945786 3.4215691090 45.602458954 3.2773940563 2.9604470730
 2977.6442871 12.000000000 0.1083154976 12.358320236 12.250000954 0.0280462895  -999.250000  -999.250000 2.6158370972 5.1525797844 38.347911835  -999.250000 22.401956558 3.3013679981 46.084220886 3.2025060654 2.8406229019
 2977.7966309 12.000000000 0.1314315945 12.381429672 12.250000954 0.0289682392  -999.250000  -999.250000 2.6150081158 5.1266388893 38.531379700  -999.250000 22.571523666 3.2085790634 45.782939911 3.1119360924 2.7447459698
 2977.9489746 12.000000000 0.1544961780 12.404500008 12.250000954 0.0288011506  -999.250000  -999.250000 2.6144039631 5.1125049591 38.315559387  -999.250000 22.755336761 3.1214609146 45.138080597 3.0084779263 2.6848530769
 2978.1013184 12.000000000 0.1693343967 12.419327736 12.250000954 0.0278700795  -999.250000  -999.250000 2.6131899357 5.0990900993 38.224590302  -999.250000 22.915561676 3.0395040512 45.013881683 2.9277279377 2.6596119404
 2978.2539063 12.000000000 0.1760596931 12.426059723 12.250000954 0.0270082895  -999.250000  -999.250000 2.6129589081 5.0923061371 38.128189087  -999.250000 22.984430313 2.9820621014 45.768131256 2.9022550583 2.6422479153
 2978.4062500 12.000000000 0.1770000011 12.427000999 12.250000954 0.0271287896  -999.250000  -999.250000 2.6120090485 5.1007790565 37.524059296  -999.250000 22.936534882 2.9740378857 46.825889587 2.9423770905 2.6136300564
 2978.5585938 12.000000000 0.1770000011 12.427000999 12.250000954 0.0274019707  -999.250000  -999.250000 2.6115260124 5.1117739677 36.590389252  -999.250000 22.824409485 3.0113630295 47.317520142 3.0111789703 2.5678861141
 2978.7109375 12.000000000 0.1770000011 12.427000999 12.250000954 0.0264012609  -999.250000  -999.250000 2.6096200943 5.1122097969 36.195110321  -999.250000 22.758592606 3.0567219257 47.045959473 3.0125980377 2.5252540112
 2978.8632813 12.000000000 0.1770000011 12.427000999 12.250000954 0.0244560596  -999.250000  -999.250000 2.6062750816 5.1037330627 36.959789276  -999.250000 22.814418793 3.0922160149 46.314170837 2.9136559963 2.5277109146
 2979.0158691 12.000000000 0.1770000011 12.427000999 12.250000954 0.0228036195  -999.250000  -999.250000 2.6050090790 5.1105051041 38.446819305  -999.250000 22.933822632 3.1171720028 45.305370331 2.7962689400 2.6044900417
 2979.1682129 12.000000000 0.1769848019 12.426980972 12.250000954 0.0218934994  -999.250000  -999.250000 2.6060590744 5.1448311806 39.398681641  -999.250000 22.938083649 3.1431069374 44.149250031 2.7678260803 2.7408690453
 2979.3205566 12.000000000 0.1757708192 12.425769806 12.250000954 0.0213886406  -999.250000  -999.250000 2.6102669239 5.1149787903 38.973670959  -999.250000 22.666654587 3.1777689457 43.181869507 2.9066600800 2.8890140057
 2979.4729004 12.000000000 0.1708039939 12.420799255 12.250000954 0.0220086593  -999.250000  -999.250000 2.6159260273 4.9416289330 37.299251556  -999.250000 22.166517258 3.2262790203 42.661830902 3.1881129742 2.9863100052
 2979.6254883 12.000000000 0.1573677063 12.407369614 12.250000954 0.0249236301  -999.250000  -999.250000 2.6209590435 4.7604250908 35.180290222  -999.250000 21.677507401 3.2945740223 42.552558899 3.4947800636 3.0243260860
 2979.7778320 12.000000000 0.1339635998 12.383959770 12.250000954 0.0290942509  -999.250000  -999.250000 2.6203079224 4.7842650414 33.561889648  -999.250000 21.419521332 3.3957979679 42.534629822 3.6800730228 3.0363121033
 2979.9301758 12.000000000 0.1110410988 12.361040115 12.250000954 0.0314053893  -999.250000  -999.250000 2.6162309647 4.9717688560 32.757148743  -999.250000 21.437517166 3.5318620205 42.278720856 3.6661589146 3.0551540852
 2980.0825195 12.000000000 0.0951547548 12.345149994 12.250000954 0.0306360591  -999.250000  -999.250000 2.6113610268 5.1717958450 32.849411011  -999.250000 21.568778992 3.6873888969 41.659698486 3.5200738907 3.0994989872
 2980.2351074 12.000000000 0.0875167772 12.337518692 12.250000954 0.0282537509  -999.250000  -999.250000 2.6073648930 5.2496209145 33.687900543  -999.250000 21.624673843 3.8301389217 40.766040802 3.3747780323 3.1736929417
 2980.3874512 12.000000000 0.0858726427 12.335869789 12.250000954 0.0266706701  -999.250000  -999.250000 2.6061201096 5.2231531143 34.919528961  -999.250000 21.553337097 3.9286069870 39.720069885 3.3157639503 3.2573881149
