# LAS format log file from PETREL
# Project units are specified as depth units
#==================================================================
~Version information
VERS.   2.0:
WRAP.   NO:
#==================================================================
~Well
STRT .m      704.45709229 :
STOP .m      3999.9543457 :
STEP .m     0.00000000 :
NULL .        -999.250000 :
COMP.           : COMPANY
WELL.  25/2-5 Lille Froey   : WELL
FLD.            : FIELD
LOC.            : LOCATION
SRVC.           : SERVICE COMPANY
DATE.  2018-09-11 14:48:17   : Log Export Date {yyyy-MM-dd HH:mm:ss}
PROV.           : PROVINCE
UWI.   25/2-5   : UNIQUE WELL ID
API.            : API NUMBER
#==================================================================
~Curve
DEPT .m                   : DEPTH
Lithology_geolink ._      : Lithology_geolink
CALI .in                  : CALI
BS .in                    : BS
DRHO .g/cm3               : DRHO
NPHI .m3/m3               : NPHI
RHOB .g/cm3               : RHOB
GR .gAPI                  : GR
DTC .us/ft                : DTC
DTE .us/ft                : DTE
RDEP .ohm.m               : RDEP
SP .mV                    : SP
RSHA .ohm.m               : RSHA
RMED .ohm.m               : RMED
~Parameter
#==================================================================
~Ascii
# ...
 2675.9030762 2.0000000000 17.500000000 17.500000000  -999.250000  -999.250000  -999.250000 26.802000046 66.783714294 67.073554993 1.3234879971 51.026901245 2.1803557873 2.1803557873
 2676.0556641 2.0000000000 17.500000000 17.500000000  -999.250000  -999.250000  -999.250000 28.165000916 64.647941589 64.643196106 1.2880929708 51.031127930 2.3339743614 2.3339743614
 2676.2080078 2.0000000000 17.500000000 17.500000000  -999.250000  -999.250000  -999.250000 28.884000778 63.956035614 63.935791016 1.2410929203 51.037475586 2.3617820740 2.3617820740
 2676.3603516 2.0000000000 17.500000000 17.500000000  -999.250000  -999.250000  -999.250000 29.250000000 64.592872620 64.953201294 1.1940337420 51.073356628 2.3573150635 2.3573150635
 2676.5126953 2.0000000000 17.500000000 17.500000000  -999.250000  -999.250000  -999.250000 29.523000717 67.776412964 67.735786438 1.1485913992 51.136070251 2.2397131920 2.2397131920
 2676.6652832 2.0000000000 17.500000000 17.500000000  -999.250000  -999.250000  -999.250000 29.542999268 71.120857239 71.665115356 1.1177456379 51.204181671 1.9583077431 1.9583077431
 2676.8176270 2.0000000000 17.500000000 17.500000000  -999.250000  -999.250000  -999.250000 30.013999939 75.918083191 75.826126099 1.0915416479 51.272178650 1.6317050457 1.6317050457
 2676.9699707 2.0000000000 17.500000000 17.500000000  -999.250000  -999.250000  -999.250000 30.534999847 78.783157349 79.146507263 1.0655416250 51.340095520 1.4163328409 1.4163328409
 2677.1223145 2.0000000000 17.500000000 17.500000000  -999.250000  -999.250000  -999.250000 30.350999832 81.189285278 81.412773132 1.0489839315 51.408069611 1.3229295015 1.3229295015
 2677.2749023 2.0000000000 17.500000000 17.500000000  -999.250000  -999.250000  -999.250000 29.472999573 82.679237366 82.598876953 1.0625576973 51.476181030 1.3322435617 1.3322435617
 2677.4272461 2.0000000000 17.500000000 17.500000000  -999.250000  -999.250000  -999.250000 27.728000641 82.188217163 82.689880371 1.0851056576 51.544178009 1.3945256472 1.3945256472
 2677.5795898 2.0000000000 17.500000000 17.500000000  -999.250000  -999.250000  -999.250000 27.961000443 82.277008057 82.408882141 1.1080977917 51.612094879 1.4763679504 1.4763679504
 2677.7319336 2.0000000000 17.500000000 17.500000000  -999.250000  -999.250000  -999.250000 28.448999405 81.836082458 82.023376465 1.1303108931 51.683971405 1.5870929956 1.5870929956
 2677.8842773 2.0000000000 17.500000000 17.500000000  -999.250000  -999.250000  -999.250000 28.531000137 81.358993530 81.800201416 1.1546714306 51.771022797 1.7222628593 1.7222628593
 2678.0368652 2.0000000000 17.500000000 17.500000000  -999.250000  -999.250000  -999.250000 28.687999725 81.656929016 81.957214355 1.1907007694 51.861385345 1.7741153240 1.7741153240
 2678.1892090 2.0000000000 17.500000000 17.500000000  -999.250000  -999.250000  -999.250000 28.591999054 82.921951294 82.603851318 1.2328349352 51.952167511 1.7150897980 1.7150897980
 2678.3415527 2.0000000000 17.500000000 17.500000000  -999.250000  -999.250000  -999.250000 28.395999908 83.224655151 83.447731018 1.2758349180 52.045394897 1.5962767601 1.5962767601
 2678.4938965 2.0000000000 17.500000000 17.500000000  -999.250000  -999.250000  -999.250000 28.457000732 83.687515259 83.868194580 1.3188349009 52.413299561 1.5391234159 1.5391234159
 2678.6464844 2.0000000000 17.500000000 17.500000000  -999.250000  -999.250000  -999.250000 29.048000336 83.266319275 83.654991150 1.3618496656 53.088935852 1.5810513496 1.5810513496
 2678.7988281 2.0000000000 17.500000000 17.500000000  -999.250000  -999.250000  -999.250000 29.604000092 83.113281250 83.083877563 1.4308012724 53.827152252 1.6653845310 1.6653845310
 2678.9511719 2.0000000000 17.500000000 17.500000000  -999.250000  -999.250000  -999.250000 29.795999527 82.333396912 82.470451355 1.5398494005 54.565010071 1.7146704197 1.7146704197
 2679.1035156 2.0000000000 17.500000000 17.500000000  -999.250000  -999.250000  -999.250000 29.759000778 81.836082458 81.985282898 1.6169327497 55.304531097 1.7503157854 1.7503157854
 2679.2561035 2.0000000000 17.500000000 17.500000000  -999.250000  -999.250000  -999.250000 30.266000748 80.908737183 81.172904968 1.6798845530 56.044937134 1.7775512934 1.7775512934
 2679.4084473 2.0000000000 17.500000000 17.500000000  -999.250000  -999.250000  -999.250000 31.468000412 79.385490417 79.767883301 1.7418063879 56.783935547 1.9527051449 1.9527051449
 2679.5607910 2.0000000000 17.500000000 17.500000000  -999.250000  -999.250000  -999.250000 32.665000916 78.742034912 78.513221741 1.8266041279 57.522010803 2.2069120407 2.2069120407
 2679.7131348 2.0000000000 17.500000000 17.500000000  -999.250000  -999.250000  -999.250000 33.967998505 78.034126282 78.467529297 1.9412099123 58.259971619 2.4725992680 2.4725992680
 2679.8654785 2.0000000000 17.500000000 17.500000000  -999.250000  -999.250000  -999.250000 36.569999695 80.235282898 80.485237122 2.0598495007 58.990947723 2.6746025085 2.6746025085
 2680.0180664 2.0000000000 17.500000000 17.500000000  -999.250000  -999.250000  -999.250000 38.851001740 83.845718384 84.064254761 2.0889358521 59.563922882 2.7322051525 2.7322051525
 2680.1704102 2.0000000000 17.500000000 17.500000000  -999.250000  -999.250000  -999.250000 42.116001129 86.877487183 86.801834106 2.0443623066 60.035041809 2.7557392120 2.7557392120
 2680.3227539 2.0000000000 17.500000000 17.500000000  -999.250000  -999.250000  -999.250000 42.263999939 87.054901123 87.576492310 1.9871491194 60.368350983 2.8647997379 2.8647997379
 2680.4750977 2.0000000000 17.500000000 17.500000000  -999.250000  -999.250000  -999.250000 40.762001038 87.503616333 87.429130554 1.9419518709 60.078895569 2.9985802174 2.9985802174
 2680.6276855 2.0000000000 17.500000000 17.500000000  -999.250000  -999.250000  -999.250000 38.035999298 86.632942200 87.102668762 2.0660367012 59.598922729 3.0694487095 3.0694487095
 2680.7800293 2.0000000000 17.500000000 17.500000000  -999.250000  -999.250000  -999.250000 35.512001038 86.896118164 87.061912537 2.2806169987 59.112922668 2.9973204136 2.9973204136
 2680.9323730 2.0000000000 17.500000000 17.500000000  -999.250000  -999.250000  -999.250000 33.763999939 85.251594543 85.395103455 2.5091907978 58.627532959 2.9466719627 2.9466719627
 2681.0847168 2.0000000000 17.500000000 17.500000000  -999.250000  -999.250000  -999.250000 31.048999786 80.210830688 80.234474182 2.7547147274 58.140922546 3.1629889011 3.1629889011
 2681.2373047 2.0000000000 17.500000000 17.500000000  -999.250000  -999.250000  -999.250000 27.604999542 72.932556152 73.030166626 2.9806730747 57.653923035 3.8970000744 3.8970000744
 2681.3896484 2.0000000000 17.500000000 17.500000000  -999.250000  -999.250000  -999.250000 25.339000702 67.235771179 67.522583008 3.0293614864 57.185127258 4.7815895081 4.7815895081
 2681.5419922 2.0000000000 17.500000000 17.500000000  -999.250000  -999.250000  -999.250000 24.759000778 66.116432190 66.678993225 3.0504584312 57.162078857 5.5038208961 5.5038208961
 2681.6943359 2.0000000000 17.500000000 17.500000000  -999.250000  -999.250000  -999.250000 25.290000916 70.104934692 70.276527405 3.1567180157 57.375209808 5.1774873734 5.1774873734
 2681.8469238 2.0000000000 17.500000000 17.500000000  -999.250000  -999.250000  -999.250000 26.846000671 76.427589417 76.353553772 3.2857115269 57.622165680 4.0625257492 4.0625257492
 2681.9992676 2.0000000000 17.500000000 17.500000000  -999.250000  -999.250000  -999.250000 29.125999451 81.395492554 81.323631287 3.1846864223 58.059204102 3.3463590145 3.3463590145
 2682.1516113 2.0000000000 17.500000000 17.500000000  -999.250000  -999.250000  -999.250000 31.725999832 82.697578430 82.889251709 2.8604359627 58.725833893 2.9950063229 2.9950063229
 2682.3039551 2.0000000000 17.500000000 17.500000000  -999.250000  -999.250000  -999.250000 33.229000092 82.313087463 82.614692688 2.4932227135 59.443363190 2.8217370510 2.8217370510
 2682.4562988 2.0000000000 17.500000000 17.500000000  -999.250000  -999.250000  -999.250000 34.477001190 83.182235718 83.592742920 2.1270096302 60.162143707 2.8963606358 2.8963606358
