# LAS format log file from PETREL
# Project units are specified as depth units
#==================================================================
~Version information
VERS.   2.0:
WRAP.   NO:
#==================================================================
~Well
STRT .m      704.45709229 :
STOP .m      3999.9543457 :
STEP .m     0.00000000 :
NULL .        -999.250000 :
COMP.           : COMPANY
WELL.  25/2-5 Lille Froey   : WELL
FLD.            : FIELD
LOC.            : LOCATION
SRVC.           : SERVICE COMPANY
DATE.  2018-09-11 14:48:17   : Log Export Date {yyyy-MM-dd HH:mm:ss}
PROV.           : PROVINCE
UWI.   25/2-5   : UNIQUE WELL ID
API.            : API NUMBER
#==================================================================
~Curve
DEPT .m                   : DEPTH
Lithology_geolink ._      : Lithology_geolink
CALI .in                  : CALI
BS .in                    : BS
DRHO .g/cm3               : DRHO
NPHI .m3/m3               : NPHI
RHOB .g/cm3               : RHOB
GR .gAPI                  : GR
DTC .us/ft                : DTC
DTE .us/ft                : DTE
RDEP .ohm.m               : RDEP
SP .mV                    : SP
RSHA .ohm.m               : RSHA
RMED .ohm.m               : RMED
~Parameter
#==================================================================
~Ascii
# ...
 3111.7670898 12.000000000 12.250000954 12.250000954  -999.250000  -999.250000  -999.250000 35.861999512 84.221084595 84.478111267 2.1175079346 76.580528259 2.7977564335 2.7977564335
 3111.9196777 12.000000000 12.250000954 12.250000954  -999.250000  -999.250000  -999.250000 34.750000000 85.412239075 85.540077209 2.0858845711 76.611091614 2.6317691803 2.6317691803
 3112.0720215 12.000000000 12.250000954 12.250000954  -999.250000  -999.250000  -999.250000 34.611999512 86.964439392 87.451248169 2.0321295261 76.497390747 2.4178590775 2.4178590775
 3112.2243652 12.000000000 12.250000954 12.250000954  -999.250000  -999.250000  -999.250000 35.367000580 88.850036621 88.794013977 1.9759359360 76.366058350 2.2429487705 2.2429487705
 3112.3767090 12.000000000 12.250000954 12.250000954  -999.250000  -999.250000  -999.250000 36.911998749 89.411720276 89.686149597 1.9309519529 76.256050110 2.1679775715 2.1679775715
 3112.5290527 12.000000000 12.250000954 12.250000954  -999.250000  -999.250000  -999.250000 38.680999756 89.888725281 90.110397339 1.8913124800 76.401573181 2.1406104565 2.1406104565
 3112.6816406 12.000000000 12.250000954 12.250000954  -999.250000  -999.250000  -999.250000 38.844001770 90.230224609 90.368637085 1.8585968018 76.660934448 2.1320898533 2.1320898533
 3112.8339844 12.000000000 12.250000954 12.250000954  -999.250000  -999.250000  -999.250000 38.555999756 90.385437012 90.563537598 1.8299679756 76.726257324 2.1372563839 2.1372563839
 3112.9863281 12.000000000 12.250000954 12.250000954  -999.250000  -999.250000  -999.250000 38.770999908 90.393997192 90.651092529 1.8192788363 76.659286499 2.1358768940 2.1358768940
 3113.1386719 12.000000000 12.250000954 12.250000954  -999.250000  -999.250000  -999.250000 38.907001495 90.393997192 90.656654358 1.8195737600 76.598632813 2.1287565231 2.1287565231
 3113.2912598 12.000000000 12.250000954 12.250000954  -999.250000  -999.250000  -999.250000 39.099998474 90.257736206 90.551345825 1.8302335739 76.581527710 2.1543717384 2.1543717384
 3113.4436035 12.000000000 12.250000954 12.250000954  -999.250000  -999.250000  -999.250000 39.001998901 89.936180115 90.328826904 1.8424422741 76.576087952 2.1807692051 2.1807692051
 3113.5959473 12.000000000 12.250000954 12.250000954  -999.250000  -999.250000  -999.250000 38.229999542 89.917007446 90.125274658 1.8520816565 76.559387207 2.1953694820 2.1953694820
 3113.7482910 12.000000000 12.250000954 12.250000954  -999.250000  -999.250000  -999.250000 38.310001373 89.917007446 89.992698669 1.8602948189 76.396568298 2.2058043480 2.2058043480
 3113.9008789 12.000000000 12.250000954 12.250000954  -999.250000  -999.250000  -999.250000 39.153999329 89.781402588 89.922813416 1.8690961599 76.323844910 2.2166025639 2.2166025639
 3114.0532227 12.000000000 12.250000954 12.250000954  -999.250000  -999.250000  -999.250000 38.952999115 89.683952332 89.904960632 1.8796591759 76.571731567 2.2260384560 2.2260384560
 3114.2055664 12.000000000 12.250000954 12.250000954  -999.250000  -999.250000  -999.250000 37.976001740 89.902885437 89.937973022 1.8819999695 76.876457214 2.2350270748 2.2350270748
 3114.3579102 12.000000000 12.250000954 12.250000954  -999.250000  -999.250000  -999.250000 36.869998932 89.917007446 90.033981323 1.8796393871 77.150382996 2.2315368652 2.2315368652
 3114.5102539 12.000000000 12.250000954 12.250000954  -999.250000  -999.250000  -999.250000 35.678001404 89.917007446 90.168121338 1.8703445196 77.379142761 2.2198541164 2.2198541164
 3114.6628418 12.000000000 12.250000954 12.250000954  -999.250000  -999.250000  -999.250000 35.701000214 89.781402588 90.312736511 1.8593407869 77.586532593 2.2068333626 2.2068333626
 3114.8151855 12.000000000 12.250000954 12.250000954  -999.250000  -999.250000  -999.250000 36.013000488 90.357238770 90.469367981 1.8483445644 77.769203186 2.1915071011 2.1915071011
 3114.9675293 12.000000000 12.250000954 12.250000954  -999.250000  -999.250000  -999.250000 34.569000244 90.393997192 90.632781982 1.8294759989 77.755706787 2.1716105938 2.1716105938
 3115.1198730 12.000000000 12.250000954 12.250000954  -999.250000  -999.250000  -999.250000 32.921001434 90.393997192 90.758583069 1.8092627525 77.447547913 2.1404647827 2.1404647827
 3115.2724609 12.000000000 12.250000954 12.250000954  -999.250000  -999.250000  -999.250000 32.837001801 90.706466675 90.841850281 1.8026384115 76.864486694 2.1103205681 2.1103205681
 3115.4248047 12.000000000 12.250000954 12.250000954  -999.250000  -999.250000  -999.250000 32.342998505 90.862609863 90.936302185 1.8090816736 76.430946350 2.1102564335 2.1102564335
 3115.5771484 12.000000000 12.250000954 12.250000954  -999.250000  -999.250000  -999.250000 33.076000214 90.871002197 91.004272461 1.8165079355 76.155357361 2.1362047195 2.1362047195
 3115.7294922 12.000000000 12.250000954 12.250000954  -999.250000  -999.250000  -999.250000 34.297000885 90.422279358 90.820716858 1.8242948055 75.955055237 2.1796810627 2.1796810627
 3115.8820801 12.000000000 12.250000954 12.250000954  -999.250000  -999.250000  -999.250000 35.317001343 90.257736206 90.484184265 1.8291538954 75.909309387 2.1931281090 2.1931281090
 3116.0344238 12.000000000 12.250000954 12.250000954  -999.250000  -999.250000  -999.250000 36.463001251 90.385658264 90.311645508 1.8323615789 76.012794495 2.1932179928 2.1932179928
 3116.1867676 12.000000000 12.250000954 12.250000954  -999.250000  -999.250000  -999.250000 37.879001617 89.945243835 90.244346619 1.8361474276 76.383209229 2.1922192574 2.1922192574
 3116.3391113 12.000000000 12.250000954 12.250000954  -999.250000  -999.250000  -999.250000 38.701000214 89.917007446 90.229797363 1.8393605947 76.469635010 2.1818540096 2.1818540096
 3116.4916992 12.000000000 12.250000954 12.250000954  -999.250000  -999.250000  -999.250000 38.717998505 89.917007446 90.309852600 1.8360577822 76.093177795 2.1680512428 2.1680512428
 3116.6440430 12.000000000 12.250000954 12.250000954  -999.250000  -999.250000  -999.250000 37.748001099 90.230224609 90.460014343 1.8255535364 75.724670410 2.1532692909 2.1532692909
 3116.7963867 12.000000000 12.250000954 12.250000954  -999.250000  -999.250000  -999.250000 35.978000641 90.385437012 90.666275024 1.8135576248 75.546371460 2.1289184093 2.1289184093
 3116.9487305 12.000000000 12.250000954 12.250000954  -999.250000  -999.250000  -999.250000 35.903999329 90.842720032 90.925636292 1.7936891317 75.404617310 2.1011474133 2.1011474133
 3117.1010742 12.000000000 12.250000954 12.250000954  -999.250000  -999.250000  -999.250000 36.985000610 90.871002197 91.172424316 1.7748365402 75.693763733 2.0747084618 2.0747084618
 3117.2536621 12.000000000 12.250000954 12.250000954  -999.250000  -999.250000  -999.250000 38.007999420 91.182807922 91.375747681 1.7639151812 76.281379700 2.0533590317 2.0533590317
 3117.4060059 12.000000000 12.250000954 12.250000954  -999.250000  -999.250000  -999.250000 38.969001770 91.339569092 91.486152649 1.7533445358 76.874374390 2.0380513668 2.0380513668
 3117.5583496 12.000000000 12.250000954 12.250000954  -999.250000  -999.250000  -999.250000 39.625000000 90.899238586 91.400192261 1.7399839163 77.057212830 2.0350000858 2.0350000858
 3117.7106934 12.000000000 12.250000954 12.250000954  -999.250000  -999.250000  -999.250000 39.470001221 90.871002197 91.166275024 1.7299183607 77.296211243 2.0810465813 2.0810465813
 3117.8632813 12.000000000 12.250000954 12.250000954  -999.250000  -999.250000  -999.250000 39.877998352 90.733993530 90.939407349 1.7421923876 77.610038757 2.1237180233 2.1237180233
 3118.0156250 12.000000000 12.250000954 12.250000954  -999.250000  -999.250000  -999.250000 40.393001556 90.413131714 90.741233826 1.7609567642 77.721450806 2.1538975239 2.1538975239
 3118.1679688 12.000000000 12.250000954 12.250000954  -999.250000  -999.250000  -999.250000 39.729000092 90.393997192 90.586799622 1.7838846445 77.025596619 2.1584384441 2.1584384441
 3118.3203125 12.000000000 12.250000954 12.250000954  -999.250000  -999.250000  -999.250000 37.599998474 90.393997192 90.466232300 1.8110320568 76.380584717 2.1517565250 2.1517565250
