# LAS format log file from PETREL
# Project units are specified as depth units
#==================================================================
~Version information
VERS.   2.0:
WRAP.   NO:
#==================================================================
~Well
STRT .m      1198.6790771 :
STOP .m      3629.1542969 :
STEP .m     0.00000000 :
NULL .        -999.250000 :
COMP.           : COMPANY
WELL.  25/2-14 Froey Appr   : WELL
FLD.            : FIELD
LOC.            : LOCATION
SRVC.           : SERVICE COMPANY
DATE.  2018-09-11 14:48:17   : Log Export Date {yyyy-MM-dd HH:mm:ss}
PROV.           : PROVINCE
UWI.   25/2-14   : UNIQUE WELL ID
API.            : API NUMBER
#==================================================================
~Curve
DEPT .m                   : DEPTH
Lithology_geolink ._      : Lithology_geolink
DCAL .in                  : DCAL
CALI .in                  : CALI
BS .in                    : BS
DRHO .g/cm3               : DRHO
THOR .ppm                 : THOR
NPHI .m3/m3               : NPHI
RHOB .g/cm3               : RHOB
PEF .b/e                  : PEF
GR .gAPI                  : GR
URAN .ppm                 : URAN
DTC .us/ft                : DTC
RDEP .ohm.m               : RDEP
SP .mV                    : SP
RSHA .ohm.m               : RSHA
RMED .ohm.m               : RMED
~Parameter
#==================================================================
~Ascii
# ...
 1841.5023193  -999.250000 3.9458808899 16.195880890 12.250000954 0.0083275205  -999.250000  -999.250000 1.9875400066 13.979610443 48.418079376  -999.250000 42.832260132 0.7324628830 67.855087280 0.6951962709 0.5716739893
 1841.6546631  -999.250000 3.5180039406 15.767999649 12.250000954 0.0126836803  -999.250000  -999.250000 1.9570080042 13.187210083 48.553119659  -999.250000 43.435035706 0.7389389277 66.869087219 0.6886935830 0.5953637958
 1841.8071289  -999.250000 3.1830639839 15.433059692 12.250000954 0.0142108202  -999.250000  -999.250000 1.9498460293 11.602660179 49.100109100  -999.250000 43.825298309 0.7308254242 65.915397644 0.6944468021 0.6196541190
 1841.9594727  -999.250000 2.9293799400 15.179380417 12.250000954 0.0086916499  -999.250000  -999.250000 1.9665659666 10.501150131 50.406219482  -999.250000 43.927925110 0.7118170857 65.392669678 0.7088400722 0.6283416152
 1842.1119385  -999.250000 2.7851860523 15.035190582 12.250000954 0.0022150909  -999.250000  -999.250000 1.9926960468 10.576539993 51.880489349  -999.250000 43.946308136 0.6919236779 65.550529480 0.7223904133 0.6135057211
 1842.2642822  -999.250000 2.8238058090 15.073809624 12.250000954 0.0056839702  -999.250000  -999.250000 2.0086228848 11.760890007 52.739349365  -999.250000 44.171344757 0.6816061139 66.220642090 0.7265698910 0.5928161144
 1842.4167480  -999.250000 3.0222609043 15.272259712 12.250000954 0.0233975500  -999.250000  -999.250000 2.0166819096 13.352239609 52.856300354  -999.250000 44.626651764 0.6907175183 66.811271667 0.7195978165 0.5871387124
 1842.5690918  -999.250000 3.3081529140 15.558151245 12.250000954 0.0513734892  -999.250000  -999.250000 2.0308809280 14.218050003 52.376930237  -999.250000 44.971927643 0.7207087874 67.000419617 0.7063965201 0.6071007848
 1842.7214355  -999.250000 3.6213209629 15.871319771 12.250000954 0.0823891684  -999.250000  -999.250000 2.0557549000 14.006460190 51.646419525  -999.250000 44.760765076 0.7571036816 66.770942688 0.6979569793 0.6499931812
 1842.8739014  -999.250000 3.8249418736 16.074939728 12.250000954 0.1070924029  -999.250000  -999.250000 2.0907130241 13.258090019 51.135101318  -999.250000 43.821765900 0.7877091765 66.245483398 0.7034065127 0.6953595877
 1843.0262451  -999.250000 3.6182990074 15.868300438 12.250000954 0.1108359993  -999.250000  -999.250000 2.1308419704 12.223679543 51.068378448  -999.250000 42.410087585 0.7971827984 65.672233582 0.7247477174 0.7241495848
 1843.1787109  -999.250000 3.0061900616 15.256190300 12.250000954 0.0936919972  -999.250000  -999.250000 2.1593689919 11.468709946 51.139720917  -999.250000 41.035373688 0.7840716839 65.323272705 0.7563896775 0.7273007035
 1843.3310547  -999.250000 2.2978498936 14.547849655 12.250000954 0.0697437078  -999.250000  -999.250000 2.1653370857 11.035869598 50.900009155  -999.250000 40.151790619 0.7646657825 65.231910706 0.7857146859 0.7089670897
 1843.4835205  -999.250000 1.8819409609 14.131939888 12.250000954 0.0566913411  -999.250000  -999.250000 2.1492280960 10.725379944 50.415679932  -999.250000 39.937789917 0.7515035272 65.267517090 0.7982841730 0.6868742704
 1843.6358643  -999.250000 1.9011590481 14.151161194 12.250000954 0.0593923703  -999.250000  -999.250000 2.1214640141 10.275899887 50.338188171  -999.250000 40.298160553 0.7536128759 65.304702759 0.7919523716 0.6789445877
 1843.7883301  -999.250000 2.1447288990 14.394729614 12.250000954 0.0657236576  -999.250000  -999.250000 2.1032330990 9.5755252838 51.083000183  -999.250000 40.908729553 0.7744495273 65.389900208 0.7737234831 0.6900873780
 1843.9406738  -999.250000 2.3520181179 14.602021217 12.250000954 0.0642842874  -999.250000  -999.250000 2.1038050652 9.0251617432 52.214038849  -999.250000 41.374984741 0.8037567735 65.592796326 0.7558646798 0.7130845189
 1844.0931396  -999.250000 2.5054481030 14.755449295 12.250000954 0.0550361089  -999.250000  -999.250000 2.1244208813 8.7670822144 53.331798553  -999.250000 41.440639496 0.8266355991 65.828033447 0.7485435009 0.7326192260
 1844.2454834  -999.250000 2.6695110798 14.919510841 12.250000954 0.0437347703  -999.250000  -999.250000 2.1541008949 8.5051221848 54.401760101  -999.250000 40.981792450 0.8343232274 65.880661011 0.7529531121 0.7385671139
 1844.3979492  -999.250000 2.8165810108 15.066578865 12.250000954 0.0318880118  -999.250000  -999.250000 2.1789228916 8.3280448914 55.421279907  -999.250000 40.109119415 0.8207924962 65.610733032 0.7673435211 0.7244638205
 1844.5502930  -999.250000 2.8779129982 15.127909660 12.250000954 0.0194192901  -999.250000  -999.250000 2.1850728989 8.7741603851 55.899971008  -999.250000 39.177467346 0.7932252884 65.397499084 0.7854695916 0.6876819730
 1844.7027588  -999.250000 2.9397671223 15.189769745 12.250000954 0.0096602412  -999.250000  -999.250000 2.1622641087 10.428330421 55.183349609  -999.250000 38.646327972 0.7643988132 65.604713440 0.7963963747 0.6323552728
 1844.8551025  -999.250000 3.2272729874 15.477270126 12.250000954 0.0066357171  -999.250000  -999.250000 2.1089289188 12.964110374 53.439189911  -999.250000 38.912170410 0.7427803278 66.343330383 0.7891777754 0.5802049041
 1845.0074463  -999.250000 3.9179759026 16.167980194 12.250000954 0.0101803299  -999.250000  -999.250000 2.0363440514 15.134539604 51.653228760  -999.250000 39.943519592 0.7328882813 67.478363037 0.7648761272 0.5529494286
 1845.1599121  -999.250000 4.8858847618 17.135889053 12.250000954 0.0152512100  -999.250000  -999.250000 1.9643180370 16.409339905 50.473461151  -999.250000 41.311035156 0.7360317111 68.588279724 0.7364799976 0.5528125763
 1845.3122559  -999.250000 5.7189898491 17.968990326 12.250000954 0.0187414307  -999.250000  -999.250000 1.9076670408 16.892229080 49.423618317  -999.250000 42.489486694 0.7448521852 69.428352356 0.7163174152 0.5776283741
 1845.4647217  -999.250000 6.1450538635 18.395050049 12.250000954 0.0224423818  -999.250000  -999.250000 1.8739759922 16.904159546 48.008739471  -999.250000 43.079059601 0.7515370250 69.911972046 0.7080941200 0.6161565781
 1845.6170654  -999.250000 6.0787978172 18.328800201 12.250000954 0.0269600600  -999.250000  -999.250000 1.8614499569 16.736820221 46.555049896  -999.250000 42.958755493 0.7525786757 70.040077209 0.7115880251 0.6539145112
 1845.7695313  -999.250000 5.5351872444 17.785190582 12.250000954 0.0291171297  -999.250000  -999.250000 1.8638060093 16.509540558 46.030879974  -999.250000 42.224063873 0.7480288148 69.742851257 0.7232776284 0.6772956252
 1845.9218750  -999.250000 4.8021321297 17.052129745 12.250000954 0.0271604992  -999.250000  -999.250000 1.8702600002 16.138870239 46.454448700  -999.250000 41.150043488 0.7456405163 69.207046509 0.7387741804 0.6798579097
 1846.0743408  -999.250000 4.1341919899 16.384189606 12.250000954 0.0232742392  -999.250000  -999.250000 1.8787699938 15.454259872 47.428028107  -999.250000 40.154380798 0.7518675923 68.664810181 0.7531573772 0.6669654846
 1846.2266846  -999.250000 3.6999440193 15.949939728 12.250000954 0.0190488193  -999.250000  -999.250000 1.8950459957 14.560890198 48.793529510  -999.250000 39.633571625 0.7658852935 68.364807129 0.7604414821 0.6476399899
 1846.3791504  -999.250000 3.5490319729 15.799030304 12.250000954 0.0136405397  -999.250000  -999.250000 1.9273719788 13.943639755 50.503810883  -999.250000 39.739639282 0.7843099833 68.376991272 0.7566087842 0.6254643798
 1846.5314941  -999.250000 3.6196279526 15.869629860 12.250000954 0.0088244136  -999.250000  -999.250000 1.9743549824 14.017889977 51.805820465  -999.250000 40.318576813 0.7991153002 68.475517273 0.7431157827 0.6000475287
 1846.6839600  -999.250000 3.7887361050 16.038740158 12.250000954 0.0108136795  -999.250000  -999.250000 2.0214600563 14.231450081 51.819530487  -999.250000 41.093441010 0.8008142114 68.381317139 0.7267671227 0.5747885704
 1846.8363037  -999.250000 3.9769399166 16.226940155 12.250000954 0.0229966696  -999.250000  -999.250000 2.0565350056 14.345899582 50.485488892  -999.250000 41.874610901 0.7875394821 67.986526489 0.7158865929 0.5542914867
 1846.9886475  -999.250000 4.1124820709 16.362480164 12.250000954 0.0405546203  -999.250000  -999.250000 2.0703530312 14.364689827 48.542251587  -999.250000 42.603538513 0.7621936798 67.377723694 0.7126958966 0.5389912128
