# LAS format log file from PETREL
# Project units are specified as depth units
#==================================================================
~Version information
VERS.   2.0:
WRAP.   NO:
#==================================================================
~Well
STRT .m      704.45709229 :
STOP .m      3999.9543457 :
STEP .m     0.00000000 :
NULL .        -999.250000 :
COMP.           : COMPANY
WELL.  25/2-5 Lille Froey   : WELL
FLD.            : FIELD
LOC.            : LOCATION
SRVC.           : SERVICE COMPANY
DATE.  2018-09-11 14:48:17   : Log Export Date {yyyy-MM-dd HH:mm:ss}
PROV.           : PROVINCE
UWI.   25/2-5   : UNIQUE WELL ID
API.            : API NUMBER
#==================================================================
~Curve
DEPT .m                   : DEPTH
Lithology_geolink ._      : Lithology_geolink
CALI .in                  : CALI
BS .in                    : BS
DRHO .g/cm3               : DRHO
NPHI .m3/m3               : NPHI
RHOB .g/cm3               : RHOB
GR .gAPI                  : GR
DTC .us/ft                : DTC
DTE .us/ft                : DTE
RDEP .ohm.m               : RDEP
SP .mV                    : SP
RSHA .ohm.m               : RSHA
RMED .ohm.m               : RMED
~Parameter
#==================================================================
~Ascii
 704.45709229  -999.250000 17.500000000  -999.250000  -999.250000  -999.250000  -999.250000 18.628883362 149.61329651 163.70698547 0.3102042377 3.5855147839 0.3425742686 0.3425742686
 704.60949707  -999.250000 17.500000000  -999.250000  -999.250000  -999.250000  -999.250000 18.397092819 149.49063110 163.56608582 0.6712927222 20.867176056 1.7492648363 1.7492648363
 704.76190186  -999.250000 17.500000000  -999.250000  -999.250000  -999.250000  -999.250000 19.674488068 149.42756653 163.42518616 1.0182671547 37.549015045 3.0973925591 3.0973925591
 704.91430664  -999.250000 17.500000000  -999.250000  -999.250000  -999.250000  -999.250000 21.269361496 149.25567627 163.28437805 1.0980116129 40.768283844 3.4445030689 3.4445030689
 705.06671143  -999.250000 17.500000000  -999.250000  -999.250000  -999.250000  -999.250000 20.989112854 149.13302612 163.14347839 1.1096553802 40.525348663 3.5487172604 3.5487172604
 705.21911621  -999.250000 17.500000000  -999.250000  -999.250000  -999.250000  -999.250000 18.402034760 149.06996155 163.00257874 1.1135739088 40.248348236 3.6527173519 3.6527173519
 705.37152100  -999.250000 17.500000000  -999.250000  -999.250000  -999.250000  -999.250000 18.710876465 148.84193420 162.86178589 1.0990480185 39.916347504 3.7103583813 3.7103583813
 705.52386475  -999.250000 17.500000000  -999.250000  -999.250000  -999.250000  -999.250000 19.830102921 148.77197266 162.72094727 1.0800555944 39.377861023 3.7412042618 3.7412042618
 705.67626953  -999.250000 17.500000000  -999.250000  -999.250000  -999.250000  -999.250000 22.594783783 148.59999084 162.58007813 1.0610556602 38.775867462 3.7595655918 3.7595655918
 705.82867432  -999.250000 17.500000000  -999.250000  -999.250000  -999.250000  -999.250000 27.279247284 148.47741699 162.43917847 1.0420556068 38.170867920 3.7370836735 3.7370836735
 705.98107910  -999.250000 17.500000000  -999.250000  -999.250000  -999.250000  -999.250000 27.309988022 148.35823059 162.29838562 1.0269883871 37.565677643 3.7032878399 3.7032878399
 706.13348389  -999.250000 17.500000000  -999.250000  -999.250000  -999.250000  -999.250000 27.506921768 148.23902893 162.15747070 1.0232135057 36.996768951 3.6897139549 3.6897139549
 706.28588867  -999.250000 17.500000000  -999.250000  -999.250000  -999.250000  -999.250000 27.704919815 148.06367493 162.01667786 1.0237865448 36.462127686 3.7320015430 3.7320015430
 706.43829346  -999.250000 17.500000000  -999.250000  -999.250000  -999.250000  -999.250000 28.066854477 147.99716187 161.87577820 1.0240000486 35.937271118 3.7911443710 3.7911443710
 706.59069824  -999.250000 17.500000000  -999.250000  -999.250000  -999.250000  -999.250000 28.675756454 147.88142395 161.73486328 1.0240000486 35.615203857 3.8511445522 3.8511445522
 706.74310303  -999.250000 17.500000000  -999.250000  -999.250000  -999.250000  -999.250000 29.291753769 147.70599365 161.59408569 1.0240000486 35.488853455 3.9111444950 3.9111444950
 706.89550781  -999.250000 17.500000000  -999.250000  -999.250000  -999.250000  -999.250000 29.308992386 147.58332825 161.45318604 1.0271462202 35.603576660 3.9703588486 3.9703588486
 707.04791260  -999.250000 17.500000000  -999.250000  -999.250000  -999.250000  -999.250000 28.519315720 147.46412659 161.31236267 1.0319342613 35.880435944 4.0301446915 4.0301446915
 707.20031738  -999.250000 17.500000000  -999.250000  -999.250000  -999.250000  -999.250000 28.058185577 147.34492493 161.17147827 1.0369347334 36.186435699 4.0901446342 4.0901446342
 707.35272217  -999.250000 17.500000000  -999.250000  -999.250000  -999.250000  -999.250000 28.938646317 147.22572327 161.03057861 1.0419347286 36.432720184 4.1493592262 4.1493592262
 707.50506592  -999.250000 17.500000000  -999.250000  -999.250000  -999.250000  -999.250000 29.856264114 147.10656738 160.88973999 1.0469326973 36.550323486 4.1855602264 4.1855602264
 707.65747070  -999.250000 17.500000000  -999.250000  -999.250000  -999.250000  -999.250000 30.774265289 146.93043518 160.74897766 1.0519326925 36.638111115 4.2061362267 4.2061362267
 707.80987549  -999.250000 17.500000000  -999.250000  -999.250000  -999.250000  -999.250000 31.595342636 146.86462402 160.60807800 1.0443480015 36.726894379 4.1730890274 4.1730890274
 707.96228027  -999.250000 17.500000000  -999.250000  -999.250000  -999.250000  -999.250000 30.657375336 146.69277954 160.46717834 1.0294153690 36.820667267 4.0671114922 4.0671114922
 708.11468506  -999.250000 17.500000000  -999.250000  -999.250000  -999.250000  -999.250000 29.183589935 146.57012939 160.32629395 1.0134153366 36.965209961 3.9443042278 3.9443042278
 708.26708984  -999.250000 17.500000000  -999.250000  -999.250000  -999.250000  -999.250000 28.707191467 146.39477539 160.18548584 0.9974153042 37.162517548 3.8213043213 3.8213043213
 708.41949463  -999.250000 17.500000000  -999.250000  -999.250000  -999.250000  -999.250000 28.543064117 146.32826233 160.04458618 0.9806287289 37.370517731 3.6959459782 3.6959459782
 708.57189941  -999.250000 17.500000000  -999.250000  -999.250000  -999.250000  -999.250000 28.378067017 146.21252441 159.90379333 0.9652018547 37.578517914 3.5746626854 3.5746626854
 708.72430420  -999.250000 17.500000000  -999.250000  -999.250000  -999.250000  -999.250000 28.212066650 146.03717041 159.76287842 0.9580672979 37.786518097 3.5332772732 3.5332772732
 708.87670898  -999.250000 17.500000000  -999.250000  -999.250000  -999.250000  -999.250000 28.047067642 145.91452026 159.62208557 0.9585731030 37.994518280 3.5368614197 3.5368614197
 709.02911377  -999.250000 17.500000000  -999.250000  -999.250000  -999.250000  -999.250000 27.952037811 145.79533386 159.48118591 0.9613596201 38.397480011 3.5468614101 3.5468614101
 709.18151855  -999.250000 17.500000000  -999.250000  -999.250000  -999.250000  -999.250000 28.105939865 145.67613220 159.34028625 0.9635736942 38.987125397 3.5568614006 3.5568614006
 709.33392334  -999.250000 17.500000000  -999.250000  -999.250000  -999.250000  -999.250000 28.641784668 145.55693054 159.19947815 0.9663608074 39.611553192 3.5660753250 3.5660753250
 709.48632813  -999.250000 17.500000000  -999.250000  -999.250000  -999.250000  -999.250000 28.492059708 145.38026428 159.05857849 0.9685738683 39.868423462 3.5758614540 3.5758614540
 709.63867188  -999.250000 17.500000000  -999.250000  -999.250000  -999.250000  -999.250000 27.437845230 145.25888062 158.91784668 0.9713596106 39.818679810 3.5858607292 3.5858607292
 709.79107666  -999.250000 17.500000000  -999.250000  -999.250000  -999.250000  -999.250000 26.809503555 145.13972473 158.77688599 0.9735730886 39.686729431 3.6076536179 3.6076536179
 709.94348145  -999.250000 17.500000000  -999.250000  -999.250000  -999.250000  -999.250000 26.829982758 145.02043152 158.63598633 0.9724268913 39.652282715 3.6428735256 3.6428735256
 710.09588623  -999.250000 17.500000000  -999.250000  -999.250000  -999.250000  -999.250000 27.525720596 144.90122986 158.49517822 0.9712134600 39.688735962 3.6800873280 3.6800873280
 710.24829102  -999.250000 17.500000000  -999.250000  -999.250000  -999.250000  -999.250000 28.347669601 144.72587585 158.35427856 0.9694269300 39.429351807 3.7123706341 3.7123706341
 710.40069580  -999.250000 17.500000000  -999.250000  -999.250000  -999.250000  -999.250000 29.170669556 144.65936279 158.21348572 0.9674268961 39.226287842 3.6057953835 3.6057953835
 710.55310059  -999.250000 17.500000000  -999.250000  -999.250000  -999.250000  -999.250000 28.981000900 144.48747253 158.07260132 0.9544152617 39.076221466 3.4421417713 3.4421417713
 710.70550537  -999.250000 17.500000000  -999.250000  -999.250000  -999.250000  -999.250000 28.440999985 144.42095947 157.93167114 0.9344825745 38.229766846 3.2723555565 3.2723555565
 710.85791016  -999.250000 17.500000000  -999.250000  -999.250000  -999.250000  -999.250000 27.899999619 144.24906921 157.79087830 0.9134825468 37.853130341 3.0858466625 3.0858466625
 711.01031494  -999.250000 17.500000000  -999.250000  -999.250000  -999.250000  -999.250000 27.360000610 144.12643433 157.64999390 0.8916960359 37.673427582 2.8830544949 2.8830544949
