# LAS format log file from PETREL
# Project units are specified as depth units
#==================================================================
~Version information
VERS.   2.0:
WRAP.   NO:
#==================================================================
~Well
STRT .m      704.45709229 :
STOP .m      3999.9543457 :
STEP .m     0.00000000 :
NULL .        -999.250000 :
COMP.           : COMPANY
WELL.  25/2-5 Lille Froey   : WELL
FLD.            : FIELD
LOC.            : LOCATION
SRVC.           : SERVICE COMPANY
DATE.  2018-09-11 14:48:17   : Log Export Date {yyyy-MM-dd HH:mm:ss}
PROV.           : PROVINCE
UWI.   25/2-5   : UNIQUE WELL ID
API.            : API NUMBER
#==================================================================
~Curve
DEPT .m                   : DEPTH
Lithology_geolink ._      : Lithology_geolink
CALI .in                  : CALI
BS .in                    : BS
DRHO .g/cm3               : DRHO
NPHI .m3/m3               : NPHI
RHOB .g/cm3               : RHOB
GR .gAPI                  : GR
DTC .us/ft                : DTC
DTE .us/ft                : DTE
RDEP .ohm.m               : RDEP
SP .mV                    : SP
RSHA .ohm.m               : RSHA
RMED .ohm.m               : RMED
~Parameter
#==================================================================
~Ascii
# ...
 3554.3366699 5.0000000000 8.5000000000 8.3400001526 0.0283365380 0.2409210503 2.6085767746 79.359001160 77.106399536 76.930412292 5.5864138603 86.665283203 8.1236009598 8.1236009598
 3554.4892578 5.0000000000 8.4960002899 8.3400001526 0.0243173074 0.2744669020 2.6200239658 85.231002808 80.301002502 80.422286987 5.4403076172 86.943191528 7.5658464432 7.5658464432
 3554.6416016 5.0000000000 8.4770002365 8.3400001526 0.0128704002 0.2912922204 2.6048574448 86.735000610 82.405776978 82.287307739 5.2657299042 87.129913330 7.2767052650 7.2767052650
 3554.7939453 5.0000000000 8.4619998932 8.3400001526 0.0154519239 0.2961854041 2.6015577316 87.138999939 82.523300171 82.625045776 5.1278557777 87.083793640 7.1923294067 7.1923294067
 3554.9462891 5.0000000000 8.4600000381 8.3400001526 0.0216730777 0.2947215438 2.6043365002 87.640998840 82.972015381 83.015243530 5.0042166710 86.911933899 7.0591282845 7.0591282845
 3555.0988770 5.0000000000 8.4619998932 8.3400001526 0.0175368600 0.2901241183 2.6034390926 86.768997192 83.323982239 83.408851624 4.8865385056 86.719062805 6.9543972015 6.9543972015
 3555.2512207 5.0000000000 8.4689998627 8.3400001526 0.0144416001 0.2859688997 2.6131296158 86.920997620 83.020118713 83.187164307 4.8163423538 87.071937561 7.2736282349 7.2736282349
 3555.4035645 5.0000000000 8.4759998322 8.3400001526 0.0147788459 0.2910915315 2.6269040108 87.586997986 82.551536560 82.286911011 4.7607226372 87.403747559 7.8763008118 7.8763008118
 3555.5559082 5.0000000000 8.4849996567 8.3400001526 0.0142211542 0.2928678691 2.6284422874 86.305000305 81.177062988 81.137634277 4.7269682884 87.405906677 7.9089565277 7.9089565277
 3555.7082520 5.0000000000 8.4940004349 8.3400001526 0.0116634620 0.2859660685 2.6350097656 86.011001587 80.643478394 80.645851135 4.7068367004 87.274269104 7.1677913666 7.1677913666
 3555.8608398 5.0000000000 8.5030002594 8.3400001526 0.0141217941 0.2904075086 2.6572916508 86.832000732 80.044921875 80.143241882 4.7218928337 87.130943298 6.3056025505 6.3056025505
 3556.0131836 5.0000000000 8.5109996796 8.3400001526 0.0126623996 0.3000954986 2.6894929409 86.574996948 79.231834412 79.126846313 4.7899489403 87.078102112 6.2140636444 6.2140636444
 3556.1655273 5.0000000000 8.5129995346 8.3400001526 0.0010961537 0.3012941182 2.7102403641 84.726997375 79.184188843 79.131591797 4.8707356453 87.213325500 6.9310078621 6.9310078621
 3556.3178711 5.0000000000 8.5100002289 8.3400001526 -0.003557693 0.2973549962 2.7178943157 83.908996582 79.632919312 79.744903564 4.9572434425 87.469184875 7.4668369293 7.4668369293
 3556.4704590 5.0000000000 8.5069999695 8.3400001526 0.0162916668 0.3013382852 2.6955864429 86.987998962 80.438598633 80.250488281 5.0743999481 87.603515625 7.4058074951 7.4058074951
 3556.6228027 5.0000000000 8.5030002594 8.3400001526 0.0219999999 0.3035759628 2.6609487534 87.607002258 81.057243347 81.282379150 5.2410607338 87.739746094 7.2814483643 7.2814483643
 3556.7751465 5.0000000000 8.5000000000 8.3400001526 0.0149903847 0.2975870073 2.6327500343 84.001998901 81.541053772 81.640533447 5.4473876953 87.921134949 8.0312108994 8.0312108994
 3556.9274902 5.0000000000 8.4969997406 8.3400001526 0.0098846154 0.2949165404 2.6238846779 82.396003723 80.671768188 80.694213867 5.6385688782 88.151092529 9.1619052887 9.1619052887
 3557.0800781 5.0000000000 8.4940004349 8.3400001526 0.0074391025 0.2958072722 2.6151955128 81.820999146 80.044921875 79.729820251 5.7828650475 88.643508911 9.9382820129 9.9382820129
 3557.2324219 5.0000000000 8.4919996262 8.3400001526 0.0062207999 0.2921327055 2.6161167622 81.394996643 79.231834412 79.519020081 5.9133358002 88.377319336 9.9828977585 9.9828977585
 3557.3847656 5.0000000000 8.4910001755 8.3400001526 0.0114519233 0.2938817441 2.6115479469 81.383003235 80.081718445 80.155921936 6.0425047874 88.038665771 9.5419569016 9.5419569016
 3557.5371094 5.0000000000 8.4910001755 8.3400001526 0.0176730771 0.3057128787 2.6177883148 82.166000366 81.035644531 80.883689880 6.1691441536 87.925613403 9.3729295731 9.3729295731
 3557.6894531 5.0000000000 8.4899997711 8.3400001526 0.0127692306 0.3075393438 2.6231153011 82.644996643 81.092208862 81.399696350 6.2203927040 87.979896545 9.3205385208 9.3205385208
 3557.8420410 5.0000000000 8.4899997711 8.3400001526 0.0086586541 0.3020736575 2.6068301201 83.397003174 81.867530823 81.563117981 6.2073202133 88.082679749 9.2748079300 9.2748079300
 3557.9943848 5.0000000000 8.4890003204 8.3400001526 0.0111167999 0.3043723702 2.5942080021 84.413002014 81.140914917 81.410331726 6.1917710304 88.314811707 9.2587432861 9.2587432861
 3558.1467285 5.0000000000 8.4890003204 8.3400001526 0.0166730769 0.3084363639 2.5896635056 84.519996643 81.092208862 81.163612366 6.1897869110 88.673614502 9.2491922379 9.2491922379
 3558.2990723 5.0000000000 8.4879999161 8.3400001526 0.0187788457 0.3077167273 2.5952305794 84.818000793 81.092208862 80.854263306 6.1994423866 88.763465881 9.1400785446 9.1400785446
 3558.4516602 5.0000000000 8.4879999161 8.3400001526 0.0166586544 0.3052564561 2.6227548122 85.892997742 80.521163940 80.563179016 6.2248287201 88.509269714 9.0044231415 9.0044231415
 3558.6040039 5.0000000000 8.4870004654 8.3400001526 0.0152207995 0.3011991978 2.6175329685 85.990997314 80.158279419 80.237518311 6.2687692642 88.165061951 8.8647308350 8.8647308350
 3558.7563477 5.0000000000 8.4870004654 8.3400001526 0.0118846148 0.2979902923 2.6054327488 85.661003113 79.689437866 79.828826904 6.3435225487 87.888336182 8.8160409927 8.8160409927
 3558.9086914 5.0000000000 8.4860000610 8.3400001526 0.0078846151 0.2932710648 2.6068942547 84.814002991 79.661201477 79.406753540 6.3901138306 87.833557129 9.3900928497 9.3900928497
 3559.0612793 5.0000000000 8.4860000610 8.3400001526 0.0101217944 0.2802549899 2.6119022369 81.727996826 78.643508911 78.914787292 6.3010191917 87.956001282 10.188807487 10.188807487
 3559.2136230 5.0000000000 8.4849996567 8.3400001526 0.0125584006 0.2675150633 2.6114416122 81.087997437 78.699928284 78.468673706 6.1773872375 88.104965210 10.995551109 10.995551109
 3559.3659668 5.0000000000 8.4849996567 8.3400001526 0.0114423074 0.2610648274 2.6133365631 82.054000854 78.258438110 78.255134583 6.0534296036 88.186965942 11.533290863 11.533290863
 3559.5183105 5.0000000000 8.4840002060 8.3400001526 0.0109999999 0.2655120194 2.6155576706 83.152999878 78.678916931 78.661155701 5.9254951477 88.184608459 11.298626900 11.298626900
 3559.6706543 5.0000000000 8.4849996567 8.3400001526 0.0148942312 0.2752111554 2.6222307682 83.087997437 79.604637146 79.810798645 5.7020721436 88.032493591 9.9264059067 9.9264059067
 3559.8232422 5.0000000000 8.4890003204 8.3400001526 0.0206826925 0.2835684717 2.6388285160 83.043998718 80.887428284 81.001243591 5.4026064873 87.771240234 8.3360509872 8.3360509872
 3559.9755859 5.0000000000 8.4930000305 8.3400001526 0.0165455993 0.2956645191 2.6562464237 81.003997803 81.982139587 81.859886169 5.0621728897 87.060897827 7.2391023636 7.2391023636
 3560.1279297 5.0000000000 8.4980001450 8.3400001526 0.0040961537 0.3050744236 2.6607787609 79.055999756 82.046302795 82.296981812 4.8015141487 86.276443481 6.9087567329 6.9087567329
 3560.2802734 5.0000000000 8.5030002594 8.3400001526 0.0017788463 0.3077667356 2.6617786884 77.628997803 81.597579956 81.690940857 4.6369051933 85.694145203 6.8266124725 6.8266124725
 3560.4328613 5.0000000000 8.5069999695 8.3400001526 -0.005024039 0.3036160767 2.6580977440 76.405998230 80.099967957 80.002067566 4.6437854767 85.410636902 6.2374105453 6.2374105453
 3560.5852051 5.0000000000 8.5120000839 8.3400001526 -0.010116800 0.2961230278 2.6702463627 71.449996948 78.332885742 78.156982422 4.8145189285 85.316299438 5.5921282768 5.5921282768
 3560.7375488 4.0000000000 8.5159997940 8.3400001526 -0.003211539 0.2908451855 2.6942501068 68.271003723 76.435066223 76.654991150 5.0295352936 85.554420471 5.7294993401 5.7294993401
 3560.8898926 4.0000000000 8.5179996490 8.3400001526 0.0153557686 0.2822406590 2.7132403851 65.415000916 76.322105408 76.038993835 5.2797966003 85.705383301 7.2732434273 7.2732434273
