# LAS format log file from PETREL
# Project units are specified as depth units
#==================================================================
~Version information
VERS.   2.0:
WRAP.   NO:
#==================================================================
~Well
STRT .m      704.45709229 :
STOP .m      3999.9543457 :
STEP .m     0.00000000 :
NULL .        -999.250000 :
COMP.           : COMPANY
WELL.  25/2-5 Lille Froey   : WELL
FLD.            : FIELD
LOC.            : LOCATION
SRVC.           : SERVICE COMPANY
DATE.  2018-09-11 14:48:17   : Log Export Date {yyyy-MM-dd HH:mm:ss}
PROV.           : PROVINCE
UWI.   25/2-5   : UNIQUE WELL ID
API.            : API NUMBER
#==================================================================
~Curve
DEPT .m                   : DEPTH
Lithology_geolink ._      : Lithology_geolink
CALI .in                  : CALI
BS .in                    : BS
DRHO .g/cm3               : DRHO
NPHI .m3/m3               : NPHI
RHOB .g/cm3               : RHOB
GR .gAPI                  : GR
DTC .us/ft                : DTC
DTE .us/ft                : DTE
RDEP .ohm.m               : RDEP
SP .mV                    : SP
RSHA .ohm.m               : RSHA
RMED .ohm.m               : RMED
~Parameter
#==================================================================
~Ascii
# ...
 3990.2006836 6.0000000000 6.7399997711 5.8439993858 0.0385288447 0.2609340250 2.6327786446 133.71600342 78.735481262 78.749389648 3.1357514858 102.77130127 3.7625560760 3.7625560760
 3990.3530273 6.0000000000 6.7829999924 5.8439993858 0.0267692301 0.2573373914 2.6392307281 135.61399841 78.140708923 78.440689087 3.2378332615 102.30155182 3.8399488926 3.8399488926
 3990.5056152 6.0000000000 6.8169994354 5.8439993858 0.0460721180 0.2526484728 2.6628525257 138.24400330 78.222976685 78.151199341 3.3867392540 102.02192688 3.8766794205 3.8766794205
 3990.6579590 6.0000000000 6.8359999657 5.8439993858 0.0613504015 0.2474724352 2.6658830643 135.87500000  -999.250000  -999.250000 3.5618476868 101.70658112 3.9072434902 3.9072434902
 3990.8103027 6.0000000000 6.8449997902 5.8439993858 0.0468653850 0.2372965366 2.6361827850 130.81700134  -999.250000  -999.250000 3.7384872437 101.31309509 4.3762335777 4.3762335777
 3990.9626465 6.0000000000 6.8400001526 5.8439993858 0.0256442297 0.2208921164 2.6217691898 123.33499908  -999.250000  -999.250000 3.8759312630 100.70322418 4.8408126831 4.8408126831
 3991.1152344 6.0000000000 6.8330001831 5.8439993858 0.0194391012 0.2042699009 2.6184391975 114.42700195  -999.250000  -999.250000 3.9628272057 100.05179596 5.2165384293 5.2165384293
 3991.2675781 6.0000000000 6.8239998817 5.8439993858 0.0112079997 0.1914664805 2.6211168766 109.53099823  -999.250000  -999.250000 4.0364408493 99.586448669 5.7313847542 5.7313847542
 3991.4199219 6.0000000000 6.8119993210 5.8439993858 0.0292499997 0.1786159575 2.6477019787 106.60600281  -999.250000  -999.250000 4.0992116928 99.600624084 6.3066449165 6.3066449165
 3991.5722656 6.0000000000 6.8000001907 5.8439993858 0.0318846144 0.1741600931 2.6518845558 105.98400116  -999.250000  -999.250000 4.1497693062 99.866477966 6.5932116508 6.5932116508
 3991.7248535 6.0000000000 6.7890000343 5.8439993858 0.0309999995 0.1817274094 2.6494390965 107.28700256  -999.250000  -999.250000 4.2112498283 100.12538147 6.3416023254 6.3416023254
 3991.8771973 6.0000000000 6.7809996605 5.8439993858 0.0411296003 0.1918888837 2.6505584717 109.61000061  -999.250000  -999.250000 4.3572497368 100.34635925 5.9508714676 5.9508714676
 3992.0295410 6.0000000000 6.7750000954 5.8439993858 0.0541249998 0.1994806826 2.6603462696 111.78900146  -999.250000  -999.250000 4.5944361687 100.44453430 5.5956239700 5.5956239700
 3992.1818848 6.0000000000 6.7649998665 5.8439993858 0.0383076929 0.1966228932 2.6614422798 112.20500183  -999.250000  -999.250000 4.8559441566 100.00165558 5.5262436867 5.5262436867
 3992.3342285 6.0000000000 6.7299995422 5.8439993858 0.0174230766 0.1821941286 2.6500961781 108.99900055  -999.250000  -999.250000 5.1189441681 99.421119690 5.7956938744 5.7956938744
 3992.4868164 6.0000000000 6.6880002022 5.8439993858 0.0114391027 0.1619513035 2.6407563686 101.45300293  -999.250000  -999.250000 5.3843951225 99.212669373 7.3396921158 7.3396921158
 3992.6391602 6.0000000000 6.6570000648 5.8439993858 0.0141167995 0.1357417405 2.6389999390 89.780998230  -999.250000  -999.250000 5.6518783569 99.379257202 10.378256798 10.378256798
 3992.7915039  -999.250000 6.6329994202 5.8439993858 0.0126634613 0.1140375063 2.6234230995 81.352996826  -999.250000  -999.250000 5.9332547188 100.23310089 12.835786819 12.835786819
 3992.9438477  -999.250000 6.6370000839 5.8439993858 0.0221250001 0.1066893265 2.6275672913 75.266998291  -999.250000  -999.250000 6.4204773903 100.66638184 13.042941093 13.042941093
 3993.0964355  -999.250000 6.6440000534 5.8439993858 0.0312435888 0.1077564955 2.6424870491 74.194000244  -999.250000  -999.250000 7.1893758774 100.16114044 12.204063416 12.204063416
 3993.2487793  -999.250000 6.6360006332 5.8439993858 0.0259872004 0.1145703569 2.6491167545 74.147003174  -999.250000  -999.250000 8.0395517349 99.056152344 10.653127670 10.653127670
 3993.4011230  -999.250000 6.6230001450 5.8439993858 0.0216634609 0.1173391342 2.6500000954 74.152999878  -999.250000  -999.250000 8.7185077667 98.617881775 9.7178239822 9.7178239822
 3993.5534668  -999.250000 6.6110000610 5.8439993858 0.0248942319 0.1104779840 2.6694710255 74.160003662  -999.250000  -999.250000 8.4965524673 98.725868225 10.114118576 10.114118576
 3993.7060547  -999.250000 6.6019997597 5.8439993858 0.0236586537 0.1024405435 2.6742196083 74.183998108  -999.250000  -999.250000 8.0231151581 99.124267578 16.895538330 16.895538330
 3993.8583984  -999.250000 6.5960001945 5.8439993858 0.0362464003 0.1036719978 2.6856880188 74.227996826  -999.250000  -999.250000 7.4237022400 99.579612732 25.238500595 25.238500595
 3994.0107422  -999.250000 6.5900006294 5.8439993858 0.0524615385 0.1196174026 2.7045769691 74.274002075  -999.250000  -999.250000 6.6004981995 100.02021027 19.119194031 19.119194031
 3994.1630859  -999.250000 6.5910000801 5.8439993858 0.0528846160 0.1423219293 2.7090001106 74.319999695  -999.250000  -999.250000 5.7310066223 100.29862213 10.988904953 10.988904953
 3994.3154297  -999.250000 6.5999999046 5.8439993858 0.0449903868 0.1732908487 2.6942019463 74.365997314  -999.250000  -999.250000 5.1006379128 100.31877899 7.2535672188 7.2535672188
 3994.4680176  -999.250000 6.6090002060 5.8439993858 0.0547067299 0.2070572227 2.6782932281 74.412002563  -999.250000  -999.250000 4.6540989876 100.68460083 5.5360255241 5.5360255241
 3994.6203613  -999.250000 6.6189999580 5.8439993858 0.0579999983 0.2400187999 2.6773376465 74.458000183  -999.250000  -999.250000 4.2457485199 101.19879913 4.7077565193 4.7077565193
 3994.7727051  -999.250000 6.6269998550 5.8439993858 0.0361923054 0.2559107840 2.6538558006 74.501998901  -999.250000  -999.250000 3.8466169834 101.72213745 4.3034319878 4.3034319878
 3994.9250488  -999.250000 6.6350002289 5.8439993858 0.0261057690 0.2564773858 2.6392116547 74.510002136  -999.250000  -999.250000 3.5275161266 102.24439240 4.0918607712 4.0918607712
 3995.0776367  -999.250000 6.6429996490 5.8439993858 0.0296826921 0.2563380301 2.6448044777 74.514999390  -999.250000  -999.250000 3.2569663525 102.70935822 3.9286539555 3.9286539555
 3995.2299805  -999.250000 6.6479997635 5.8439993858 0.0286624003 0.2633459270 2.6493377686 74.521003723  -999.250000  -999.250000 3.0412676334 102.50669098 3.8283076286 3.8283076286
 3995.3823242  -999.250000 6.6529998779 5.8439993858 0.0217692312 0.2746928930 2.6406538486 74.527000427  -999.250000  -999.250000 2.9287564754 102.43392944 3.7498784065 3.7498784065
 3995.5346680  -999.250000 6.6570000648 5.8439993858 0.0176634621 0.2827496231 2.6356635094 74.532997131  -999.250000  -999.250000 2.8753781319 102.43856049 3.6721251011 3.6721251011
 3995.6872559  -999.250000 6.6620001793 5.8439993858 0.0177804492 0.2832497954 2.6342196465 74.539001465  -999.250000  -999.250000 2.8659999371 102.36705017 3.5971281528 3.5971281528
 3995.8395996  -999.250000 6.6659998894 5.8439993858 0.0148831997 0.2774198949 2.6223120689 74.544998169  -999.250000  -999.250000 2.8502559662 102.21248627 3.5160896778 3.5160896778
 3995.9919434  -999.250000 6.6710000038 5.8439993858 0.0124423075 0.2782098949 2.6151058674 74.551002502  -999.250000  -999.250000 2.8231809139 101.95793915 3.5229854584 3.5229854584
 3996.1442871  -999.250000 6.6750001907 5.8439993858 0.0127788465 0.2839191258 2.6186730862 74.556999207  -999.250000  -999.250000 2.7745096684 101.58169556 3.5284392834 3.5284392834
 3996.2966309  -999.250000 6.6799998283 5.8439993858 0.0106634619 0.2917676866 2.6106538773 74.563003540  -999.250000  -999.250000 2.7197227478 101.58431244 3.4616620541 3.4616620541
 3996.4492188  -999.250000 6.6810002327 5.8439993858 0.0037564102 0.3032285273 2.5955128670 74.568000793  -999.250000  -999.250000 2.6647040844 103.01456451 3.3389871120 3.3389871120
 3996.6015625  -999.250000 6.6770005226 5.8439993858 -0.001116800 0.3050127625 2.5787537098 74.573997498  -999.250000  -999.250000 2.6112964153 104.28283691 3.1874144077 3.1874144077
 3996.7539063  -999.250000 6.6720004082 5.8439993858 -0.001221154 0.3050771058 2.5594232082 74.580001831  -999.250000  -999.250000 2.5661649704 104.98165894 3.0257868767 3.0257868767
