# LAS format log file from PETREL
# Project units are specified as depth units
#==================================================================
~Version information
VERS.   2.0:
WRAP.   NO:
#==================================================================
~Well
STRT .m      1198.6790771 :
STOP .m      3629.1542969 :
STEP .m     0.00000000 :
NULL .        -999.250000 :
COMP.           : COMPANY
WELL.  25/2-14 Froey Appr   : WELL
FLD.            : FIELD
LOC.            : LOCATION
SRVC.           : SERVICE COMPANY
DATE.  2018-09-11 14:48:17   : Log Export Date {yyyy-MM-dd HH:mm:ss}
PROV.           : PROVINCE
UWI.   25/2-14   : UNIQUE WELL ID
API.            : API NUMBER
#==================================================================
~Curve
DEPT .m                   : DEPTH
Lithology_geolink ._      : Lithology_geolink
DCAL .in                  : DCAL
CALI .in                  : CALI
BS .in                    : BS
DRHO .g/cm3               : DRHO
THOR .ppm                 : THOR
NPHI .m3/m3               : NPHI
RHOB .g/cm3               : RHOB
PEF .b/e                  : PEF
GR .gAPI                  : GR
URAN .ppm                 : URAN
DTC .us/ft                : DTC
RDEP .ohm.m               : RDEP
SP .mV                    : SP
RSHA .ohm.m               : RSHA
RMED .ohm.m               : RMED
~Parameter
#==================================================================
~Ascii
# ...
 3296.3127441 6.0000000000 0.3319073021 8.8319072723 8.5000000000 0.0406838693 9.5351457596 0.2060218006 2.5909988880 2.5182549953 76.053970337 2.0739209652 23.667385101 8.0507507324 67.063186646 8.9719467163 7.1759209633
 3296.4650879 6.0000000000 0.3279600143 8.8279600143 8.5000000000 0.0347772799 8.3537235260 0.1981571019 2.5878400803 2.5872430801 75.614646912 2.6364240646 23.716419220 8.1546659470 66.931716919 8.5823688507 7.3461937904
 3296.6174316 6.0000000000 0.3221234977 8.8221235275 8.5000000000 0.0307747591 7.5015621185 0.1872256994 2.5879399776 2.7075109482 76.094772339 3.2670710087 23.666320801 8.2524061203 66.893257141 8.4553070068 7.5154018402
 3296.7697754 6.0000000000 0.3170270920 8.8170270920 8.5000000000 0.0305208303 7.3546319008 0.1802822053 2.5919740200 2.8078279495 78.668083191 3.7084050179 23.535083771 8.3098688126 66.870193481 8.7574901581 7.6225838661
 3296.9221191 6.0000000000 0.3199167252 8.8199167252 8.5000000000 0.0323197804 7.6922879219 0.1821881980 2.5996429920 2.8623590469 82.387123108 3.8876869678 23.398454666 8.3336153030 66.869689941 9.3369188309 7.6680870056
 3297.0747070 6.0000000000 0.3309249878 8.8309249878 8.5000000000 0.0346317291 7.8801522255 0.1952351034 2.6063680649 2.8876709938 85.408790588 3.9556748867 23.320497513 8.3707685471 66.932319641 9.8423223495 7.7013320923
 3297.2270508 6.0000000000 0.3434247971 8.8434247971 8.5000000000 0.0373567007 7.9900255203 0.2165738940 2.6112589836 2.8929719925 86.640319824 3.9704992771 23.308998108 8.4402294159 67.069221497 9.9420404434 7.7722740173
 3297.3793945 6.0000000000 0.3509941399 8.8509941101 8.5000000000 0.0410238691 8.4077234268 0.2346524000 2.6140680313 2.8856239319 86.574501038 3.9909951687 23.304927826 8.5071134567 67.265586853 9.7825374603 7.8604159355
 3297.5317383 6.0000000000 0.3495568931 8.8495569229 8.5000000000 0.0451289713 9.1899595261 0.2395042926 2.6165060997 2.8716309071 85.997886658 4.0351781845 23.235576630 8.4664592743 67.538612366 9.6338062286 7.8800058365
 3297.6843262 6.0000000000 0.3434829712 8.8434829712 8.5000000000 0.0481434092 9.6931352615 0.2336927950 2.6189448833 2.8452229500 84.561546326 4.0755262375 23.096214294 8.2021722794 67.907638550 9.6117877960 7.7111601830
 3297.8366699 6.0000000000 0.3388518989 8.8388519287 8.5000000000 0.0497204214 9.4899911880 0.2219997048 2.6213860512 2.8140830994 82.298347473 4.0598998070 22.962230682 7.7390289307 68.315856934 9.6569986343 7.2798781395
 3297.9890137 6.0000000000 0.3370752037 8.8370752335 8.5000000000 0.0511869565 8.8711566925 0.2094618976 2.6238260269 2.7960550785 80.127586365 3.9841220379 22.952785492 7.1540060043 68.706520081 9.5164489746 6.6341657639
 3298.1413574 6.0000000000 0.3370066285 8.8370065689 8.5000000000 0.0542854816 8.4411382675 0.1987615973 2.6223039627 2.7930181026 78.897232056 3.9474279881 23.169586182 6.5416350365 69.098060608 8.8397998810 5.9675111771
 3298.2939453 6.0000000000 0.3377771080 8.8377771378 8.5000000000 0.0573532917 8.5605335236 0.1904191971 2.6137390137 2.7951469421 77.712898254 4.0448379517 23.628660202 6.0010571480 69.546142578 7.5925378799 5.4175667763
 3298.4462891 6.0000000000 0.3408499360 8.8408498764 8.5000000000 0.0589677803 8.9554109573 0.1851170957 2.5957069397 2.8093190193 74.724761963 4.0447897911 24.231304169 5.5669732094 70.065773010 6.2528347969 5.0252652168
 3298.5986328 6.0000000000 0.3468990028 8.8468990326 8.5000000000 0.0615312904 9.1744165421 0.1852851957 2.5706539154 2.8359260559 69.133598328 3.7912509441 24.785659790 5.2217741013 70.659858704 5.3770289421 4.7539501190
 3298.7509766 5.0000000000 0.3518762887 8.8518762589 8.5000000000 0.0667182207 8.8934230804 0.1947896034 2.5449130535 2.8748710155 61.748191833 3.3291790485 25.115194321 4.9450922012 71.329330444 5.0455050468 4.5338339806
 3298.9033203 5.0000000000 0.3463211358 8.8463211060 8.5000000000 0.0706574917 8.0002393723 0.2120399028 2.5250496864 2.9660339355 54.942218781 2.8317210674 25.159839630 4.7106199265 72.128067017 5.1714577675 4.3480758667
 3299.0559082 5.0000000000 0.3302840590 8.8302841187 8.5000000000 0.0695511028 6.5456819534 0.2268950939 2.5167040825 3.1206769943 51.642990112 2.4984169006 25.032285690 4.4690918922 73.076591492 5.5537080765 4.1842060089
 3299.2082520 5.0000000000 0.3063268960 8.8063268661 8.5000000000 0.0648716465 5.0367670059 0.2355622947 2.5183539391 3.3256831169 54.079460144 2.3972470760 24.952888489 4.1581511497 74.185966492 5.9804749489 3.9753379822
 3299.3605957 5.0000000000 0.2826862037 8.7826862335 8.5000000000 0.0609278493 3.8666589260 0.2399064004 2.5279579163 3.5360960960 62.843608856 2.5228888988 25.074968338 3.7554590702 75.380081177 6.3397340775 3.6303379536
 3299.5129395 6.0000000000 0.2681828141 8.7681827545 8.5000000000 0.0594551414 3.5876150131 0.2435386926 2.5410180092 3.6760010719 76.072532654 2.7580499649 25.454441071 3.2885050774 76.564208984 6.5624818802 3.1505429745
 3299.6655273 6.0000000000 0.2623004913 8.7622995377 8.5000000000 0.0584426485 5.3327832222 0.2498338073 2.5515689850 3.7205939293 88.300216675 2.9470360279 26.073728561 2.8555059433 77.707420349 6.3647761345 2.6491429806
 3299.8178711 6.0000000000 0.2609997094 8.7609996796 8.5000000000 0.0559424683 8.8518991470 0.2572922111 2.5516920090 3.6728088856 93.414093018 3.0408120155 26.855920792 2.5380249023 78.865196228 5.2883939743 2.2542529106
 3299.9702148 6.0000000000 0.2609997094 8.7609996796 8.5000000000 0.0528225601 12.315819740 0.2598229051 2.5360419750 3.5671610832 88.246589661 3.0076010227 27.628101349 2.3328859806 80.065193176 3.9316899776 2.0090479851
 3300.1225586 6.0000000000 0.2609997094 8.7609996796 8.5000000000 0.0493534394 13.521340370 0.2515845001 2.5054969788 3.4448618889 73.942573547 2.7666749954 28.107976913 2.2178540230 81.243339539 3.0447158813 1.9212909937
 3300.2751465 5.0000000000 0.2609997094 8.7609996796 8.5000000000 0.0453635789 11.579369545 0.2330802977 2.4756600857 3.3297600746 59.050678253 2.3195021152 28.066423416 2.1823699474 82.209823608 2.7358310223 1.9732300043
 3300.4274902 5.0000000000 0.2609997094 8.7609996796 8.5000000000 0.0428326689 8.2960176468 0.2159038037 2.4629530907 3.2234649658 53.119091034 2.0073800087 27.491687775 2.1854300499 82.982246399 2.9592030048 2.1351048946
 3300.5798340 5.0000000000 0.2609997094 8.7609996796 8.5000000000 0.0437175408 6.8935441971 0.2098942995 2.4774920940 3.1438639164 59.445110321 2.0836269855 26.609954834 2.1998538971 83.623336792 3.8057770729 2.3598771095
 3300.7321777 5.0000000000 0.2609997094 8.7609996796 8.5000000000 0.0491397306 8.2679738998 0.2177564055 2.5124840736 3.1293699741 73.856163025 2.3694789410 25.769155502 2.2016780376 84.228172302 5.2671308517 2.5460650921
 3300.8845215 6.0000000000 0.2609997094 8.7609996796 8.5000000000 0.0571604408 10.837209702 0.2327599972 2.5494439602 3.2003641129 88.853958130 2.3942110538 25.264043808 2.1649739742 84.832107544 6.6417031288 2.5523610115
 3301.0371094 6.0000000000 0.2609997094 8.7609996796 8.5000000000 0.0621132590 12.048959732 0.2445269972 2.5687398911 3.3226399422 97.297859192 1.9734679461 25.234882355 2.0554618835 85.452888489 6.6440339088 2.3227999210
 3301.1894531 6.0000000000 0.2609997094 8.7609996796 8.5000000000 0.0630872473 10.447710037 0.2485873997 2.5637040138 3.4118449688 95.168640137 1.3701690435 25.673055649 1.8621699810 86.114089966 5.2669987679 1.9312360287
 3301.3417969 6.0000000000 0.2609997094 8.7609996796 8.5000000000 0.0631479025 7.4707288742 0.2442381978 2.5356891155 3.4404859543 83.159111023 0.9306849837 26.448980331 1.6371099949 86.802772522 3.7556729317 1.5450069904
 3301.4941406 6.0000000000 0.2609997094 8.7609996796 8.5000000000 0.0631046295 4.8837418556 0.2323171049 2.4898970127 3.4506189823 63.761299133 0.7172691822 27.335748672 1.4187940359 87.441642761 2.7994110584 1.2763400078
 3301.6467285 3.0000000000 0.2609997094 8.7609996796 8.5000000000 0.0607810915 3.3875629902 0.2156808972 2.4352760315 3.4669580460 44.359519958 0.6476718783 28.128379822 1.2296739817 87.923126221 2.2889089584 1.1073180437
 3301.7990723 3.0000000000 0.2609997094 8.7609996796 8.5000000000 0.0560939908 2.8450040817 0.2016499043 2.3831989765 3.4892370701 30.810779572 0.6247395277 28.669593811 1.0775970221 88.252449036 2.0657351017 1.0086799860
