# LAS format log file from PETREL
# Project units are specified as depth units
#==================================================================
~Version information
VERS.   2.0:
WRAP.   NO:
#==================================================================
~Well
STRT .m      1198.6790771 :
STOP .m      3629.1542969 :
STEP .m     0.00000000 :
NULL .        -999.250000 :
COMP.           : COMPANY
WELL.  25/2-14 Froey Appr   : WELL
FLD.            : FIELD
LOC.            : LOCATION
SRVC.           : SERVICE COMPANY
DATE.  2018-09-11 14:48:17   : Log Export Date {yyyy-MM-dd HH:mm:ss}
PROV.           : PROVINCE
UWI.   25/2-14   : UNIQUE WELL ID
API.            : API NUMBER
#==================================================================
~Curve
DEPT .m                   : DEPTH
Lithology_geolink ._      : Lithology_geolink
DCAL .in                  : DCAL
CALI .in                  : CALI
BS .in                    : BS
DRHO .g/cm3               : DRHO
THOR .ppm                 : THOR
NPHI .m3/m3               : NPHI
RHOB .g/cm3               : RHOB
PEF .b/e                  : PEF
GR .gAPI                  : GR
URAN .ppm                 : URAN
DTC .us/ft                : DTC
RDEP .ohm.m               : RDEP
SP .mV                    : SP
RSHA .ohm.m               : RSHA
RMED .ohm.m               : RMED
~Parameter
#==================================================================
~Ascii
# ...
 3454.1989746 5.0000000000 0.8319836259 9.3319835663 8.5000000000 0.0378298312 8.6602802277 0.2186990976 2.6484398842 3.7119801044 84.621032715 2.9244539738 22.566987991 6.4214639664 69.621490479 7.6471791267 5.6548662186
 3454.3515625 5.0000000000 0.8310918808 9.3310918808 8.5000000000 0.0393816382 8.2115306854 0.2115100026 2.6395149231 3.5786070824 78.073173523 2.5896990299 22.296173096 6.4385662079 69.237838745 8.1283645630 5.6253900528
 3454.5039063 5.0000000000 0.8266677856 9.3266677856 8.5000000000 0.0392240994 7.7746791840 0.2097074986 2.6299300194 3.4885549545 73.981758118 2.4138588905 22.206544876 6.4271149635 69.083732605 8.2542295456 5.5188560486
 3454.6562500 5.0000000000 0.8205976486 9.3205976486 8.5000000000 0.0400045291 7.7677249908 0.2127368003 2.6265521049 3.4649798870 74.224731445 2.5132679939 22.284681320 6.3862547874 69.401718140 8.0351915359 5.3759841919
 3454.8085938 5.0000000000 0.8165426254 9.3165426254 8.5000000000 0.0410345085 8.1181097031 0.2193738073 2.6308310032 3.5288701057 77.495956421 2.9124550819 22.451076508 6.3134241104 70.071571350 7.6575779915 5.2229638100
 3454.9609375 5.0000000000 0.8182067275 9.3182067871 8.5000000000 0.0398150608 8.3724756241 0.2262220979 2.6402049065 3.6796669960 81.626228333 3.2607269287 22.623701096 6.2185788155 70.893630981 7.2581000328 5.0894351006
 3455.1135254 5.0000000000 0.8237162232 9.3237161636 8.5000000000 0.0358389616 8.4132232666 0.2313877046 2.6511719227 3.8630208969 84.763839722 3.2283449173 22.750921249 6.1226382256 71.599746704 6.8553638458 5.0129690170
 3455.2658691 5.0000000000 0.8294773102 9.3294773102 8.5000000000 0.0325541385 8.5740013123 0.2352003008 2.6596179008 3.9781079292 86.656417847 2.8243310452 22.816621780 6.0432658195 71.979316711 6.4953031540 5.0074248314
 3455.4182129 5.0000000000 0.8319997191 9.3319997787 8.5000000000 0.0339697786 9.3293590546 0.2386666983 2.6639668941 3.9939689636 88.732406616 2.4813721180 22.809412003 5.9944090843 72.027870178 6.2830729485 5.0654110909
 3455.5705566 5.0000000000 0.8319997191 9.3319997787 8.5000000000 0.0389631689 10.244059563 0.2416487932 2.6634299755 3.9796380997 91.902412415 2.6712739468 22.724069595 5.9798398018 71.822433472 6.2955632210 5.1671199799
 3455.7231445 5.0000000000 0.8319997191 9.3319997787 8.5000000000 0.0434247218 10.428099632 0.2434317023 2.6606459618 3.9669589996 95.439041138 3.1513888836 22.573076248 6.0043067932 71.559181213 6.5550670624 5.2823648453
 3455.8754883 5.0000000000 0.8319997191 9.3319997787 8.5000000000 0.0448028594 9.8216066360 0.2434906960 2.6569800377 3.9578580856 97.749023438 3.4269399643 22.393217087 6.0802869797 71.387191772 6.9494628906 5.3841657639
 3456.0278320 5.0000000000 0.8322525024 9.3322534561 8.5000000000 0.0463999212 9.1833534241 0.2421880066 2.6518840790 3.9296929836 98.176162720 3.2720201015 22.240917206 6.2268171310 71.378540039 7.3706340790 5.4853959084
 3456.1801758 5.0000000000 0.8330001831 9.3330001831 8.5000000000 0.0515359789 9.4561595917 0.2404989004 2.6449029446 3.8440918922 97.323547363 2.8232429028 22.162187576 6.4328918457 71.489158630 7.7310619354 5.6323909760
 3456.3327637 5.0000000000 0.8328933120 9.3328933716 8.5000000000 0.0576307289 10.085809708 0.2386264950 2.6370460987 3.7177219391 95.660743713 2.5813798904 22.156398773 6.6564631462 71.612586975 7.9499449730 5.8636660576
 3456.4851074 5.0000000000 0.8263578415 9.3263578415 8.5000000000 0.0598979704 9.9448108673 0.2369526029 2.6323668957 3.6036880016 93.152946472 2.7028100491 22.164506912 6.8544812202 71.642761230 8.0207033157 6.1344308853
 3456.6374512 5.0000000000 0.8021125793 9.3021125793 8.5000000000 0.0553141795 8.7826938629 0.2352683991 2.6334249973 3.5474040508 90.049423218 3.0030860901 22.125251770 6.9865441322 71.545318604 8.0484552383 6.3303198814
 3456.7897949 5.0000000000 0.7554330826 9.2554330826 8.5000000000 0.0458610505 7.2528190613 0.2320407033 2.6385951042 3.5436170101 87.386512756 3.2519509792 22.031269073 7.0222721100 71.369033813 8.1063652039 6.3933901787
 3456.9421387 5.0000000000 0.7036743164 9.2036743164 8.5000000000 0.0365605205 6.1729998589 0.2276390940 2.6435980797 3.5917630196 86.281990051 3.3969941139 21.927059174 6.9772849083 71.201263428 8.1926507950 6.3602538109
 3457.0947266 5.0000000000 0.6648626328 9.1648626328 8.5000000000 0.0300061796 5.6440649033 0.2241201997 2.6465079784 3.6986570358 87.105628967 3.4810969830 21.861061096 6.9042859077 71.080871582 8.2436532974 6.3115382195
 3457.2470703 5.0000000000 0.6460648775 9.1460647583 8.5000000000 0.0273407008 5.5729317665 0.2227239013 2.6479749680 3.8458349705 89.273933411 3.4711260796 21.834859848 6.8431568146 70.982017517 8.2470741272 6.2962532043
 3457.3994141 5.0000000000 0.6420001984 9.1420001984 8.5000000000 0.0310486499 5.9714908600 0.2221298069 2.6510050297 4.0405340195 91.537170410 3.2929139137 21.801000595 6.8289098740 70.890403748 8.2635631561 6.3322539330
 3457.5517578 5.0000000000 0.6420001984 9.1420001984 8.5000000000 0.0401505418 7.1057448387 0.2192748934 2.6591820717 4.2912621498 92.858383179 2.8712570667 21.689022064 6.8477740288 70.833938599 8.3626852036 6.4287347794
 3457.7043457 5.0000000000 0.6420325637 9.1420326233 8.5000000000 0.0505991206 8.2599983215 0.2115222067 2.6732580662 4.5812711716 92.589202881 2.4475479126 21.431266785 6.8307571411 70.868011475 8.5621519089 6.5910921097
 3457.8566895 5.0000000000 0.6438636780 9.1438636780 8.5000000000 0.0564954504 8.7009859085 0.1976183057 2.6908071041 4.8328227997 90.241966248 2.2347569466 21.020561218 6.7249450684 71.042671204 8.7998647690 6.7243418694
 3458.0090332 5.0000000000 0.6514129639 9.1514129639 8.5000000000 0.0520671010 8.3397684097 0.1795701981 2.7031340599 4.9260950089 85.547523499 2.3488149643 20.583934784 6.5088829994 71.382896423 8.9503955841 6.6355080605
 3458.1613770 5.0000000000 0.6689109802 9.1689109802 8.5000000000 0.0387978293 7.6466193199 0.1648793072 2.7050778866 4.8736557961 79.797409058 2.7943840027 20.371761322 6.1958661079 71.803771973 8.8245115280 6.2378978729
 3458.3139648 5.0000000000 0.6924343109 9.1924343109 8.5000000000 0.0267569907 7.2553958893 0.1615462005 2.6983809471 4.7376151085 75.912117004 3.2884590626 20.634119034 5.8499588966 72.224967957 8.1694173813 5.6308097839
 3458.4663086 5.0000000000 0.7156514525 9.2156524658 8.5000000000 0.0229773596 7.7412085533 0.1732033044 2.6867120266 4.5712537766 76.921493530 3.5571579933 21.401668549 5.5047240257 72.616943359 7.1920561790 5.0483751297
 3458.6186523 5.0000000000 0.7306805849 9.2306804657 8.5000000000 0.0281148702 9.4994382858 0.1967409998 2.6754720211 4.3889517784 84.593162537 3.5682389736 22.438266754 5.1573629379 72.997673035 6.3215899467 4.6081709862
 3458.7709961 5.0000000000 0.7361983657 9.2361984253 8.5000000000 0.0380704217 11.972180367 0.2240882963 2.6685299873 4.2037839890 96.551620483 3.4577679634 23.364326477 4.8036899567 73.424278259 5.7912130356 4.2947759628
 3458.9233398 6.0000000000 0.7370004058 9.2370004654 8.5000000000 0.0451670215 13.408530235 0.2464518994 2.6664159298 4.0475120544 107.11879730 3.4017109871 23.954904556 4.4686012268 73.910140991 5.5535969734 4.0631899834
 3459.0759277 6.0000000000 0.7370004058 9.2370004654 8.5000000000 0.0459874086 12.761839867 0.2609649003 2.6682150364 3.9527680874 112.98169708 3.4472219944 24.246326447 4.1874270439 74.449890137 5.4454288483 3.8922441006
 3459.2282715 6.0000000000 0.7370004058 9.2370004654 8.5000000000 0.0411713198 11.077710152 0.2693595886 2.6689960957 3.9304521084 114.76039886 3.4920349121 24.378562927 3.9631969929 74.999992371 5.3131031990 3.7789840698
 3459.3806152 6.0000000000 0.7370004058 9.2370004654 8.5000000000 0.0350223705 10.241319656 0.2754794955 2.6668019295 3.9564709663 114.69599915 3.4400959015 24.490325928 3.7967820168 75.535621643 5.1556239128 3.7052679062
 3459.5329590 6.0000000000 0.7370004058 9.2370004654 8.5000000000 0.0328670107 10.950480461 0.2817490101 2.6616768837 3.9728651047 115.04319763 3.3195369244 24.621664047 3.6826689243 76.055496216 5.0491490364 3.6462469101
 3459.6855469 6.0000000000 0.7370004058 9.2370004654 8.5000000000 0.0346196517 12.563469887 0.2863172889 2.6565639973 3.9853351116 116.25189972 3.1787419319 24.772972107 3.6050050259 76.547782898 5.0269660950 3.5880289078
