# LAS format log file from PETREL
# Project units are specified as depth units
#==================================================================
~Version information
VERS.   2.0:
WRAP.   NO:
#==================================================================
~Well
STRT .m      1198.6790771 :
STOP .m      3629.1542969 :
STEP .m     0.00000000 :
NULL .        -999.250000 :
COMP.           : COMPANY
WELL.  25/2-14 Froey Appr   : WELL
FLD.            : FIELD
LOC.            : LOCATION
SRVC.           : SERVICE COMPANY
DATE.  2018-09-11 14:48:17   : Log Export Date {yyyy-MM-dd HH:mm:ss}
PROV.           : PROVINCE
UWI.   25/2-14   : UNIQUE WELL ID
API.            : API NUMBER
#==================================================================
~Curve
DEPT .m                   : DEPTH
Lithology_geolink ._      : Lithology_geolink
DCAL .in                  : DCAL
CALI .in                  : CALI
BS .in                    : BS
DRHO .g/cm3               : DRHO
THOR .ppm                 : THOR
NPHI .m3/m3               : NPHI
RHOB .g/cm3               : RHOB
PEF .b/e                  : PEF
GR .gAPI                  : GR
URAN .ppm                 : URAN
DTC .us/ft                : DTC
RDEP .ohm.m               : RDEP
SP .mV                    : SP
RSHA .ohm.m               : RSHA
RMED .ohm.m               : RMED
~Parameter
#==================================================================
~Ascii
# ...
 1520.0906982  -999.250000 1.2170779705 13.467080116 12.250000954 0.0599881895  -999.250000  -999.250000 2.1312909126 4.8151731491 54.834869385  -999.250000 43.343536377 1.1860280037 56.619350433 1.3117640018 1.0683549643
 1520.2430420  -999.250000 1.2295789719 13.479578972 12.250000954 0.0612138212  -999.250000  -999.250000 2.1347849369 4.4546260834 55.091739655  -999.250000 43.208084106 1.1482440233 55.681999207 1.3154870272 1.0784629583
 1520.3955078  -999.250000 1.2204380035 13.470439911 12.250000954 0.0560094304  -999.250000  -999.250000 2.1431550980 4.1792597771 56.607440948  -999.250000 42.712020874 1.1187829971 54.434589386 1.3379549980 1.0721579790
 1520.5478516  -999.250000 1.1936600208 13.443659782 12.250000954 0.0521734394  -999.250000  -999.250000 2.1505179405 4.0367598534 58.849178314  -999.250000 42.118453979 1.1000269651 53.396129608 1.3622210026 1.0540210009
 1520.7001953  -999.250000 1.1632089615 13.413209915 12.250000954 0.0529377609  -999.250000  -999.250000 2.1511650085 4.0171132088 60.517349243  -999.250000 41.686614990 1.0940209627 53.045539856 1.3718440533 1.0352909565
 1520.8526611  -999.250000 1.1398049593 13.389800072 12.250000954 0.0561015308  -999.250000  -999.250000 2.1450650692 4.0840730667 60.970550537  -999.250000 41.564235687 1.1007239819 53.496299744 1.3617219925 1.0291290283
 1521.0050049  -999.250000 1.1257799864 13.375780106 12.250000954 0.0592655502  -999.250000  -999.250000 2.1368660927 4.2337231636 60.794620514  -999.250000 41.769611359 1.1225910187 54.475929260 1.3431400061 1.0431020260
 1521.1574707  -999.250000 1.1231030226 13.373100281 12.250000954 0.0610933788  -999.250000  -999.250000 2.1332979202 4.4199261665 61.085178375  -999.250000 42.138385773 1.1608439684 55.428340912 1.3299310207 1.0778160095
 1521.3098145  -999.250000 1.1309239864 13.380918503 12.250000954 0.0609618202  -999.250000  -999.250000 2.1369020939 4.5362410545 61.596118927  -999.250000 42.408164978 1.2129360437 56.093208313 1.3308800459 1.1356199980
 1521.4622803  -999.250000 1.1409469843 13.390949249 12.250000954 0.0594495498  -999.250000  -999.250000 2.1484069824 4.4910020828 61.445491791  -999.250000 42.346504211 1.2709790468 56.382251740 1.3506649733 1.2088520527
 1521.6146240  -999.250000 1.1345399618 13.384539604 12.250000954 0.0571625084  -999.250000  -999.250000 2.1676189899 4.2774529457 60.179939270  -999.250000 41.790580750 1.3259400129 56.252849579 1.4008029699 1.2767100334
 1521.7670898  -999.250000 1.1015520096 13.351549149 12.250000954 0.0538964793  -999.250000  -999.250000 2.1914610863 4.0257601738 58.092658997  -999.250000 40.813201904 1.3713480234 55.643051147 1.4873189926 1.3109849691
 1521.9194336  -999.250000 1.0595330000 13.309530258 12.250000954 0.0491557941  -999.250000  -999.250000 2.2101449966 3.8801929951 55.746021271  -999.250000 39.661430359 1.4037380219 54.833049774 1.5937190056 1.2976880074
 1522.0718994  -999.250000 1.0306069851 13.280611038 12.250000954 0.0441335887  -999.250000  -999.250000 2.2136430740 3.8429970741 53.448638916  -999.250000 38.716152191 1.4258110523 54.028949738 1.6663650274 1.2509020567
 1522.2242432  -999.250000 1.0256520510 13.275650024 12.250000954 0.0427666008  -999.250000  -999.250000 2.1992650032 3.8941690922 51.529560089  -999.250000 38.354415894 1.4384380579 53.307121277 1.6384509802 1.1993290186
 1522.3767090  -999.250000 1.0383950472 13.288390160 12.250000954 0.0469716191  -999.250000  -999.250000 2.1737511158 4.0525741577 50.585998535  -999.250000 38.711399078 1.4385730028 52.839511871 1.5442320108 1.1576789618
 1522.5290527  -999.250000 1.0547080040 13.304710388 12.250000954 0.0520212799  -999.250000  -999.250000 2.1517629623 4.3679199219 50.906280518  -999.250000 39.652648926 1.4150290489 53.117649078 1.4483389854 1.1218869686
 1522.6813965  -999.250000 1.0657889843 13.315790176 12.250000954 0.0536509417  -999.250000  -999.250000 2.1364901066 4.7348880768 52.231658936  -999.250000 40.793308258 1.3644750118 54.355709076 1.3801070452 1.0866600275
 1522.8338623  -999.250000 1.0710589886 13.321059227 12.250000954 0.0523530990  -999.250000  -999.250000 2.1263039112 4.9930911064 54.187858582  -999.250000 41.751750946 1.2993450165 56.225460052 1.3382480145 1.0522949696
 1522.9862061  -999.250000 1.0756549835 13.325649261 12.250000954 0.0506427214  -999.250000  -999.250000 2.1195490360 5.0740590096 56.344619751  -999.250000 42.346935272 1.2312250137 57.988189697 1.3112829924 1.0237400532
 1523.1386719  -999.250000 1.0928640366 13.342860222 12.250000954 0.0512329303  -999.250000  -999.250000 2.1160271168 5.0565991402 57.874221802  -999.250000 42.603691101 1.1713459492 58.900329590 1.2930639982 1.0032540560
 1523.2910156  -999.250000 1.1392660141 13.389269829 12.250000954 0.0534897596  -999.250000  -999.250000 2.1163361073 5.0563979149 58.357490540  -999.250000 42.659839630 1.1317579746 58.704879761 1.2834290266 0.9909849763
 1523.4434814  -999.250000 1.2204849720 13.470479965 12.250000954 0.0543273389  -999.250000  -999.250000 2.1175479889 5.0820708275 58.433570862  -999.250000 42.672061920 1.1118119955 57.693950653 1.2828079462 0.9872177243
 1523.5958252  -999.250000 1.3284219503 13.578418732 12.250000954 0.0524308197  -999.250000  -999.250000 2.1172280312 5.1282482147 58.782791138  -999.250000 42.734973907 1.1031049490 56.352008820 1.2926340103 0.9910954833
 1523.7482910  -999.250000 1.4429709911 13.692970276 12.250000954 0.0487434901  -999.250000  -999.250000 2.1130540371 5.1794290543 59.411380768  -999.250000 42.840518951 1.1020100117 55.445960999 1.3091700077 0.9974278808
 1523.9006348  -999.250000 1.5382598639 13.788259506 12.250000954 0.0468003713  -999.250000  -999.250000 2.1067531109 5.1942119598 59.741950989  -999.250000 42.942207336 1.1067550182 55.988830566 1.3256989717 1.0034459829
 1524.0531006  -999.250000 1.5920380354 13.842041016 12.250000954 0.0476582982  -999.250000  -999.250000 2.0998759270 5.1042070389 59.563388824  -999.250000 43.027946472 1.1182630062 57.463699341 1.3344449997 1.0112140179
 1524.2054443  -999.250000 1.5956929922 13.845689774 12.250000954 0.0485900491  -999.250000  -999.250000 2.0970160961 4.8394079208 59.170349121  -999.250000 43.110027313 1.1348650455 59.094470978 1.3302409649 1.0278240442
 1524.3579102  -999.250000 1.5514179468 13.801419258 12.250000954 0.0473163798  -999.250000  -999.250000 2.0995929241 4.4458332062 59.058158875  -999.250000 43.143493652 1.1557849646 60.173591614 1.3181970119 1.0559029579
 1524.5102539  -999.250000 1.4728200436 13.722821236 12.250000954 0.0445848890  -999.250000  -999.250000 2.1077609062 4.0751719475 59.435779572  -999.250000 42.987529755 1.1778299809 60.436748505 1.3103100061 1.0894739628
 1524.6625977  -999.250000 1.3848459721 13.634848595 12.250000954 0.0431180187  -999.250000  -999.250000 2.1180989742 3.8692979813 59.784698486  -999.250000 42.560108185 1.2003439665 60.303298950 1.3163750172 1.1171890497
 1524.8150635  -999.250000 1.3101660013 13.560170174 12.250000954 0.0426382311  -999.250000  -999.250000 2.1256000996 3.8552670479 59.599411011  -999.250000 41.918807983 1.2205270529 60.142311096 1.3417060375 1.1275010109
 1524.9674072  -999.250000 1.2563899755 13.506388664 12.250000954 0.0406915210  -999.250000  -999.250000 2.1309609413 3.9561989307 58.875648499  -999.250000 41.257118225 1.2407900095 60.016448975 1.3755630255 1.1227149963
 1525.1198730  -999.250000 1.2217299938 13.471730232 12.250000954 0.0372192711  -999.250000  -999.250000 2.1339199543 4.0732150078 58.015148163  -999.250000 40.767608643 1.2615469694 59.732551575 1.4024000168 1.1116100550
 1525.2722168  -999.250000 1.2058479786 13.455850601 12.250000954 0.0366926603  -999.250000  -999.250000 2.1336259842 4.1384220123 57.730140686  -999.250000 40.513286591 1.2810690403 58.992660522 1.4135830402 1.1020870209
 1525.4246826  -999.250000 1.2018250227 13.451829910 12.250000954 0.0406816714  -999.250000  -999.250000 2.1303970814 4.1654930115 58.172531128  -999.250000 40.468540192 1.2985149622 57.929191589 1.4093830585 1.0957289934
 1525.5770264  -999.250000 1.2042520046 13.454249382 12.250000954 0.0461506918  -999.250000  -999.250000 2.1255331039 4.1832561493 59.192520142  -999.250000 40.573574066 1.3087669611 56.785560608 1.3937360048 1.0905430317
