# LAS format log file from PETREL
# Project units are specified as depth units
#==================================================================
~Version information
VERS.   2.0:
WRAP.   NO:
#==================================================================
~Well
STRT .m      1198.6790771 :
STOP .m      3629.1542969 :
STEP .m     0.00000000 :
NULL .        -999.250000 :
COMP.           : COMPANY
WELL.  25/2-14 Froey Appr   : WELL
FLD.            : FIELD
LOC.            : LOCATION
SRVC.           : SERVICE COMPANY
DATE.  2018-09-11 14:48:17   : Log Export Date {yyyy-MM-dd HH:mm:ss}
PROV.           : PROVINCE
UWI.   25/2-14   : UNIQUE WELL ID
API.            : API NUMBER
#==================================================================
~Curve
DEPT .m                   : DEPTH
Lithology_geolink ._      : Lithology_geolink
DCAL .in                  : DCAL
CALI .in                  : CALI
BS .in                    : BS
DRHO .g/cm3               : DRHO
THOR .ppm                 : THOR
NPHI .m3/m3               : NPHI
RHOB .g/cm3               : RHOB
PEF .b/e                  : PEF
GR .gAPI                  : GR
URAN .ppm                 : URAN
DTC .us/ft                : DTC
RDEP .ohm.m               : RDEP
SP .mV                    : SP
RSHA .ohm.m               : RSHA
RMED .ohm.m               : RMED
~Parameter
#==================================================================
~Ascii
# ...
 2811.3759766 11.000000000 0.4530000985 12.702999115 12.250000954 0.0232777596  -999.250000  -999.250000 2.6290609837 5.9748349190 27.294279099  -999.250000 20.782566071 6.7226338387 33.676689148 4.7452301979 5.7282538414
 2811.5285645 11.000000000 0.4530000985 12.702999115 12.250000954 0.0219118409  -999.250000  -999.250000 2.6380391121 5.9759898186 26.544219971  -999.250000 20.313694000 7.1708750725 33.029289246 5.3005352020 6.3616800308
 2811.6809082 11.000000000 0.4530000985 12.702999115 12.250000954 0.0198458005  -999.250000  -999.250000 2.6476418972 5.9769010544 24.865369797  -999.250000 19.620710373 7.6058111191 32.390789032 5.8883538246 6.7777519226
 2811.8332520 11.000000000 0.4530000985 12.702999115 12.250000954 0.0177731607  -999.250000  -999.250000 2.6536428928 5.9819931984 22.976600647  -999.250000 18.928707123 8.1107091904 31.837198257 6.2803401947 6.8954949379
 2811.9853516 11.000000000 0.4530000985 12.702999115 12.250000954 0.0159655306  -999.250000  -999.250000 2.6558780670 5.9901762009 21.437810898  -999.250000 18.420967102 8.6605653763 31.292509079 6.4689640999 6.7929739952
 2812.1376953 11.000000000 0.4528627098 12.702859879 12.250000954 0.0148761300  -999.250000  -999.250000 2.6547861099 5.9971590042 20.440530777  -999.250000 18.125434875 9.1597909927 30.589809418 6.6167850494 6.6096668243
 2812.2900391 11.000000000 0.4509325027 12.700929642 12.250000954 0.0148655605  -999.250000  -999.250000 2.6513669491 5.9986572266 19.939699173  -999.250000 18.005142212 9.4900102615 29.706630707 6.7206759453 6.4510588646
 2812.4426270 11.000000000 0.4461354911 12.696140289 12.250000954 0.0172535498  -999.250000  -999.250000 2.6441988945 5.9963660240 19.881719589  -999.250000 18.018999100 9.6287937164 28.816730499 6.6786289215 6.4345870018
 2812.5949707 11.000000000 0.4392594993 12.689259529 12.250000954 0.0244394392  -999.250000  -999.250000 2.6349110603 5.9927167892 20.314010620  -999.250000 18.188598633 9.6367025375 27.987699509 6.4603848457 6.6780967712
 2812.7473145 11.000000000 0.4319266677 12.681930542 12.250000954 0.0370783694  -999.250000  -999.250000 2.6261401176 5.9900398254 21.188800812  -999.250000 18.448497772 9.5472669601 27.176319122 6.2300567627 7.1407642365
 2812.8996582 11.000000000 0.4229649901 12.672969818 12.250000954 0.0502565913  -999.250000  -999.250000 2.6242239475 5.9885940552 22.165260315  -999.250000 18.665603638 9.3790979385 26.325469971 6.1426391602 7.6796011925
 2813.0522461 11.000000000 0.4124775231 12.662481308 12.250000954 0.0555613786  -999.250000  -999.250000 2.6266911030 5.9853138924 22.525009155  -999.250000 18.691463470 9.2035064697 25.512739182 6.2395448685 8.0507040024
 2813.2045898 11.000000000 0.4067583382 12.656760216 12.250000954 0.0503931008  -999.250000  -999.250000 2.6328330040 5.9791669846 21.818000793  -999.250000 18.475004196 9.1153135300 24.748159409 6.4708089828 8.1109113693
 2813.3569336 11.000000000 0.4113778770 12.661380768 12.250000954 0.0399009101  -999.250000  -999.250000 2.6401410103 5.9692850113 20.466650009  -999.250000 18.135072708 9.1782264709 23.915269852 6.6954398155 8.0582494736
 2813.5092773 11.000000000 0.4236058891 12.673609734 12.250000954 0.0319342799  -999.250000  -999.250000 2.6495070457 5.9551110268 19.437660217  -999.250000 17.802392960 9.4359703064 22.869039536 6.8346629143 8.1355571747
 2813.6618652 11.000000000 0.4276523888 12.677651405 12.250000954 0.0291127395  -999.250000  -999.250000 2.6580529213 5.9410839081 19.044630051  -999.250000 17.557455063 9.8901758194 21.730989456 6.9115309715 8.3684949875
 2813.8142090 11.000000000 0.4168376625 12.666839600 12.250000954 0.0281894505  -999.250000  -999.250000 2.6660690308 5.9309492111 18.863029480  -999.250000 17.393394470 10.379159927 20.796409607 6.9626097679 8.5982084274
 2813.9665527 11.000000000 0.3955793083 12.645582199 12.250000954 0.0264798701  -999.250000  -999.250000 2.6726551056 5.9236102104 18.704050064  -999.250000 17.277965546 10.706450462 20.255100250 6.9964108467 8.6375846863
 2814.1188965 11.000000000 0.3754147589 12.625410080 12.250000954 0.0234322995  -999.250000  -999.250000 2.6758999825 5.9096360207 18.879669189  -999.250000 17.232246399 10.772080421 20.004240036 6.9952697754 8.4315805435
 2814.2712402 11.000000000 0.3652123809 12.615209579 12.250000954 0.0200961102  -999.250000  -999.250000 2.6756401062 5.8830790520 19.731700897  -999.250000 17.300863266 10.534500122 19.711109161 6.9565401077 8.0669698715
 2814.4238281 11.000000000 0.3624668717 12.612469673 12.250000954 0.0198044404  -999.250000  -999.250000 2.6724250317 5.8574137688 20.904739380  -999.250000 17.482725143 10.174160004 19.103380203 6.8969240189 7.6343450546
 2814.5761719 11.000000000 0.3675251007 12.617529869 12.250000954 0.0242481194  -999.250000  -999.250000 2.6687870026 5.8427667618 21.988189697  -999.250000 17.717844009 9.8322792053 18.096620560 6.8202700615 7.2347660065
 2814.7285156 11.000000000 0.3794946969 12.629489899 12.250000954 0.0318606496  -999.250000  -999.250000 2.6663410664 5.8408432007 22.861200333  -999.250000 17.923593521 9.5678825378 16.837799072 6.6978378296 7.0085167885
 2814.8808594 11.000000000 0.3960886300 12.646089554 12.250000954 0.0384877697  -999.250000  -999.250000 2.6659410000 5.8439707756 23.707729340  -999.250000 18.055864334 9.4035654068 15.618869781 6.5113701820 7.0045838356
 2815.0334473 11.000000000 0.4119349420 12.661931038 12.250000954 0.0405891389  -999.250000  -999.250000 2.6650080681 5.8409700394 24.604660034  -999.250000 18.126703262 9.3315315247 14.813300133 6.2936120033 7.1291999817
 2815.1857910 11.000000000 0.4204587638 12.670459747 12.250000954 0.0387248695  -999.250000  -999.250000 2.6635229588 5.8217320442 25.278259277  -999.250000 18.141288757 9.2961912155 14.567669868 6.1197872162 7.2403821945
 2815.3381348 11.000000000 0.4167910218 12.666790962 12.250000954 0.0347546004  -999.250000  -999.250000 2.6598811150 5.7916250229 25.411899567  -999.250000 18.112632751 9.2287750244 14.695540428 6.0476508141 7.2292680740
 2815.4904785 11.000000000 0.4025650024 12.652569771 12.250000954 0.0303678401  -999.250000  -999.250000 2.6562230587 5.7682709694 24.901290894  -999.250000 18.076929092 9.1027164459 14.820839882 6.0337772369 7.1177349091
 2815.6430664 11.000000000 0.3836050332 12.633608818 12.250000954 0.0287681799  -999.250000  -999.250000 2.6543250084 5.7527179718 24.292490005  -999.250000 18.087396622 8.9224424362 14.583399773 6.0067200661 7.0077810287
 2815.7954102 11.000000000 0.3689013124 12.618901253 12.250000954 0.0328297801  -999.250000  -999.250000 2.6578359604 5.7348828316 24.174310684  -999.250000 18.170143127 8.7320528030 13.909199715 5.9970722198 6.9566431046
 2815.9477539 11.000000000 0.3621987700 12.612199783 12.250000954 0.0403403006  -999.250000  -999.250000 2.6644930840 5.7377490997 24.366409302  -999.250000 18.270441055 8.5954599380 12.859020233 6.0965061188 6.9972438812
 2816.1000977 11.000000000 0.3610000908 12.611001015 12.250000954 0.0456535704  -999.250000  -999.250000 2.6701970100 5.7478232384 24.135110855  -999.250000 18.292657852 8.5463571548 11.464940071 6.3860769272 7.1493949890
 2816.2524414 11.000000000 0.3610000908 12.611001015 12.250000954 0.0438955911  -999.250000  -999.250000 2.6719250679 5.8142290115 23.065450668  -999.250000 18.178110123 8.6122360229 9.9678468704 6.7314891815 7.3635158539
 2816.4050293 11.000000000 0.3610000908 12.611001015 12.250000954 0.0346346498  -999.250000  -999.250000 2.6695230007 5.9334139824 21.591459274  -999.250000 17.950967789 8.8194637299 8.9767246246 6.9518151283 7.6170339584
 2816.5573730 11.000000000 0.3610000908 12.611001015 12.250000954 0.0246067606  -999.250000  -999.250000 2.6684780121 5.9816231728 20.616630554  -999.250000 17.725269318 9.1534614563 8.7444524765 6.9975399971 7.8938579559
 2816.7097168 11.000000000 0.3610000908 12.611001015 12.250000954 0.0189879201  -999.250000  -999.250000 2.6710391045 5.7901539803 20.452810287  -999.250000 17.583269119 9.5520486832 9.1576261520 6.9938459396 8.1382856369
 2816.8620605 11.000000000 0.3610000908 12.611001015 12.250000954 0.0192721691  -999.250000  -999.250000 2.6755940914 5.4999108315 20.693250656  -999.250000 17.510452271 9.9626760483 9.8155670166 7.0731210709 8.2689113617
