# LAS format log file from PETREL
# Project units are specified as depth units
#==================================================================
~Version information
VERS.   2.0:
WRAP.   NO:
#==================================================================
~Well
STRT .m      704.45709229 :
STOP .m      3999.9543457 :
STEP .m     0.00000000 :
NULL .        -999.250000 :
COMP.           : COMPANY
WELL.  25/2-5 Lille Froey   : WELL
FLD.            : FIELD
LOC.            : LOCATION
SRVC.           : SERVICE COMPANY
DATE.  2018-09-11 14:48:17   : Log Export Date {yyyy-MM-dd HH:mm:ss}
PROV.           : PROVINCE
UWI.   25/2-5   : UNIQUE WELL ID
API.            : API NUMBER
#==================================================================
~Curve
DEPT .m                   : DEPTH
Lithology_geolink ._      : Lithology_geolink
CALI .in                  : CALI
BS .in                    : BS
DRHO .g/cm3               : DRHO
NPHI .m3/m3               : NPHI
RHOB .g/cm3               : RHOB
GR .gAPI                  : GR
DTC .us/ft                : DTC
DTE .us/ft                : DTE
RDEP .ohm.m               : RDEP
SP .mV                    : SP
RSHA .ohm.m               : RSHA
RMED .ohm.m               : RMED
~Parameter
#==================================================================
~Ascii
# ...
 3768.9160156 5.0000000000 10.008999825 5.8439993858 0.0501249991 0.2070809752 2.6551153660 69.652999878 67.280761719 67.071640015 13.359257698 83.147407532 23.834627151 23.834627151
 3769.0686035 3.0000000000 10.031000137 5.8439993858 0.0670480803 0.1813246459 2.6677067280 63.004001617 66.359848022 66.533775330 12.949557304 82.502563477 25.100654602 25.100654602
 3769.2209473 3.0000000000 10.051999092 5.8439993858 0.0741168037 0.1596171856 2.6873631477 61.150001526 66.754280090 66.600860596 12.729027748 80.935684204 23.569744110 23.569744110
 3769.3732910 3.0000000000 10.086999893 5.8439993858 0.0726634562 0.1460988373 2.7013461590 64.102996826 67.230659485 67.508460999 12.641641617 79.300933838 19.965251923 19.965251923
 3769.5256348 3.0000000000 10.142000198 5.8439993858 0.0735576898 0.1439338475 2.7078943253 67.188003540 69.397689819 69.279541016 12.655540466 78.003311157 17.958326340 17.958326340
 3769.6779785 3.0000000000 10.194000244 5.8439993858 0.0693269297 0.1505433619 2.6887500286 69.500999451 70.534729004 70.481361389 12.736965179 76.809829712 17.906475067 17.906475067
 3769.8305664 3.0000000000 10.239999771 5.8439993858 0.0586346164 0.1630041152 2.6611473560 70.371002197 70.597900391 70.700317383 12.793998718 75.875656128 18.819576263 18.819576263
 3769.9829102 3.0000000000 10.286000252 5.8439993858 0.0497663990 0.1773117781 2.6409745216 71.129997253 70.149139404 70.144454956 12.704855919 75.499526978 19.616859436 19.616859436
 3770.1352539 3.0000000000 10.327999115 5.8439993858 0.0433269218 0.1802629828 2.6315481663 71.529998779 68.223312378 68.471885681 12.546594620 75.164352417 20.224521637 20.224521637
 3770.2875977 3.0000000000 10.333999634 5.8439993858 0.0427788459 0.1765917242 2.6377885342 71.356002808 67.308998108 67.004112244 12.347333908 74.726776123 20.812244415 20.812244415
 3770.4401855 3.0000000000 10.326999664 5.8439993858 0.0539262816 0.1733613312 2.6509263515 70.810997009 66.359848022 66.650955200 11.947185516 73.790771484 21.275936127 21.275936127
 3770.5925293 3.0000000000 10.345999718 5.8439993858 0.0733631998 0.1744230688 2.6727008820 69.606002808 67.203857422 67.026130676 11.413506508 73.072341919 21.237615585 21.237615585
 3770.7448730 3.0000000000 10.378000259 5.8439993858 0.0733269230 0.1758735478 2.6725480556 67.259002686 68.949798584 69.255142212 10.859867096 72.248336792 18.451023102 18.451023102
 3770.8972168 3.0000000000 10.409000397 5.8439993858 0.0564230755 0.1737395078 2.6390674114 64.168998718 71.852729797 71.779342651 10.407585144 70.881210327 14.101423264 14.101423264
 3771.0498047 3.0000000000 10.434000015 5.8439993858 0.0613653883 0.1703619361 2.6190736294 60.275001526 73.377441406 73.304336548 10.017384529 69.173805237 11.799922943 11.799922943
 3771.2021484 3.0000000000 10.468999863 5.8439993858 0.0710128024 0.1691485941 2.5879487991 54.174999237 73.909477234 73.688056946 9.6370763779 67.354934692 11.729141235 11.729141235
 3771.3544922 3.0000000000 10.503999710 5.8439993858 0.0652115420 0.1642180830 2.5441730022 50.403999329 72.141952515 72.238845825 9.1310958862 66.634872437 13.306794167 13.306794167
 3771.5068359 3.0000000000 10.517999649 5.8439993858 0.0497596152 0.1591550559 2.5269904137 47.929000854 71.024513245 71.139190674 8.6752901077 66.321014404 15.316774368 15.316774368
 3771.6591797 3.0000000000 10.536999702 5.8439993858 0.0350961536 0.1574388146 2.5366826057 50.344001770 71.516967773 71.826477051 8.4240541458 65.755393982 13.551427841 13.551427841
 3771.8117676 3.0000000000 10.580000877 5.8439993858 0.0421458334 0.1530973166 2.5673158169 55.701999664 74.248977661 74.125732422 8.2424526215 65.644500732 9.9055891037 9.9055891037
 3771.9641113 3.0000000000 10.550999641 5.8439993858 0.0629216060 0.1579852551 2.5781168938 63.151000977 76.209152222 76.482093811 8.1507062912 65.504409790 9.1333847046 9.1333847046
 3772.1164551 3.0000000000 10.456000328 5.8439993858 0.0765673146 0.1726156622 2.5571923256 71.997001648 77.103256226 77.112281799 8.0848541260 64.572105408 11.572698593 11.572698593
 3772.2687988 5.0000000000 10.379000664 5.8439993858 0.0821153820 0.1938647181 2.5463271141 77.768997192 76.370086670 76.155570984 8.0127725601 62.876609802 13.035570145 13.035570145
 3772.4213867 5.0000000000 10.406001091 5.8439993858 0.0869022459 0.2131393552 2.5528044701 77.527999878 75.871856689 75.995796204 7.9371728897 61.497909546 11.272718430 11.272718430
 3772.5737305 5.0000000000 10.517000198 5.8439993858 0.0685200021 0.2279692292 2.5705840588 65.628997803 78.546661377 78.255470276 7.8611984253 60.620128632 9.4960899353 9.4960899353
 3772.7260742 4.0000000000 10.588999748 5.8439993858 0.0567692295 0.2370490134 2.5539712906 57.330001831 79.487335205 79.606040955 7.7844119072 60.597011566 8.3554601669 8.3554601669
 3772.8784180 4.0000000000 10.614999771 5.8439993858 0.0347499996 0.2257477194 2.5075001717 53.590000153 78.305282593 78.121643066 7.6987562180 61.006370544 7.9764709473 7.9764709473
 3773.0310059 4.0000000000 10.623999596 5.8439993858 0.0211955123 0.2061126977 2.4679038525 54.453998566 75.978881836 75.952827454 7.6098270416 61.239040375 8.4319486618 8.4319486618
 3773.1833496 4.0000000000 10.541999817 5.8439993858 0.0244543999 0.1857765466 2.4397408962 56.813999176 74.044021606 74.319061279 7.5351085663 61.741100311 9.4758329391 9.4758329391
 3773.3356934 4.0000000000 10.418000221 5.8439993858 0.0283365380 0.1750333309 2.4371154308 60.215000153 73.936996460 73.683906555 7.6167836189 62.282482147 9.9778566360 9.9778566360
 3773.4880371 4.0000000000 10.392000198 5.8439993858 0.0406826921 0.1726902723 2.4465672970 62.263999939 74.274375916 74.173782349 7.7657499313 62.680519104 9.4790534973 9.4790534973
 3773.6403809 4.0000000000 10.600998878 5.8439993858 0.0681442320 0.1837450564 2.4700288773 63.097999573 76.205154419 76.234390259 7.8650960922 61.679077148 9.5226974487 9.5226974487
 3773.7929688 4.0000000000 10.598999977 5.8439993858 0.0632932708 0.1932971776 2.4635128975 62.041000366 77.222587585 77.437301636 7.8294706345 60.499885559 10.763243675 10.763243675
 3773.9453125 4.0000000000 10.421999931 5.8439993858 0.0420784019 0.1920739114 2.4381823540 59.852001190 76.825859070 76.697669983 7.7457566261 59.750041962 11.630970955 11.630970955
 3774.0976563 4.0000000000 10.333000183 5.8439993858 0.0502403863 0.1933528185 2.4397883415 56.972999573 75.785736084 75.720787048 7.6483139992 59.377769470 11.252075195 11.252075195
 3774.2500000 4.0000000000 10.274999619 5.8439993858 0.0617884658 0.1992102265 2.4606924057 52.889999390 75.838104248 76.169075012 7.5483140945 59.332511902 10.161779404 10.161779404
 3774.4025879 3.0000000000 10.235999107 5.8439993858 0.0835112184 0.2071575671 2.4972178936 45.584999084 77.646080017 77.618888855 7.4506416321 59.612499237 9.4191665649 9.4191665649
 3774.5549316 3.0000000000 10.340999603 5.8439993858 0.0874416009 0.2012176961 2.5215840340 43.133998871 78.653686523 78.502693176 7.5071120262 59.784412384 8.9309482574 8.9309482574
 3774.7072754 3.0000000000 10.317000389 5.8439993858 0.0542884618 0.1829208732 2.4831633568 40.153999329 79.487335205 79.403587341 7.6153411865 59.661865234 8.6758403778 8.6758403778
 3774.8596191 3.0000000000 10.057999611 5.8439993858 0.0379903838 0.1670891047 2.4608750343 38.712001801 79.204322815 79.512351990 7.7168989182 59.303916931 9.1244630814 9.1244630814
 3775.0122070 3.0000000000 9.8520002365 5.8439993858 0.0438044854 0.1578178257 2.4556586742 38.691001892 78.733955383 78.675346375 7.8058075905 58.697284698 10.815371513 10.815371513
 3775.1645508 3.0000000000 9.7080001831 5.8439993858 0.0296368003 0.1484637111 2.4378576279 39.862998962 77.806610107 77.491104126 7.8861885071 58.007911682 12.163000107 12.163000107
 3775.3168945 3.0000000000 9.6099996567 5.8439993858 0.0304519236 0.1364450753 2.4322211742 41.240001678 75.952117920 75.858131409 7.8762469292 57.259468079 12.305564880 12.305564880
 3775.4692383 3.0000000000 9.5329999924 5.8439993858 0.0218749996 0.1263649911 2.4234325886 41.944999695 74.833061218 74.994880676 7.9169983864 56.509784698 11.796364784 11.796364784
