# LAS format log file from PETREL
# Project units are specified as depth units
#==================================================================
~Version information
VERS.   2.0:
WRAP.   NO:
#==================================================================
~Well
STRT .m      704.45709229 :
STOP .m      3999.9543457 :
STEP .m     0.00000000 :
NULL .        -999.250000 :
COMP.           : COMPANY
WELL.  25/2-5 Lille Froey   : WELL
FLD.            : FIELD
LOC.            : LOCATION
SRVC.           : SERVICE COMPANY
DATE.  2018-09-11 14:48:17   : Log Export Date {yyyy-MM-dd HH:mm:ss}
PROV.           : PROVINCE
UWI.   25/2-5   : UNIQUE WELL ID
API.            : API NUMBER
#==================================================================
~Curve
DEPT .m                   : DEPTH
Lithology_geolink ._      : Lithology_geolink
CALI .in                  : CALI
BS .in                    : BS
DRHO .g/cm3               : DRHO
NPHI .m3/m3               : NPHI
RHOB .g/cm3               : RHOB
GR .gAPI                  : GR
DTC .us/ft                : DTC
DTE .us/ft                : DTE
RDEP .ohm.m               : RDEP
SP .mV                    : SP
RSHA .ohm.m               : RSHA
RMED .ohm.m               : RMED
~Parameter
#==================================================================
~Ascii
# ...
 1582.8906250  -999.250000 17.500000000 17.500000000  -999.250000  -999.250000  -999.250000 44.701999664 137.69577026 151.67459106 0.9389110208 49.142753601 0.9347844720 0.9347844720
 1583.0429688  -999.250000 17.500000000 17.500000000  -999.250000  -999.250000  -999.250000 43.395000458 136.04000854 149.68693542 0.9275556207 48.943019867 0.9138366580 0.9138366580
 1583.1954346  -999.250000 17.500000000 17.500000000  -999.250000  -999.250000  -999.250000 43.861000061 136.07063293 149.79798889 0.9163357019 48.798023224 0.8868197203 0.8868197203
 1583.3477783  -999.250000 17.500000000 17.500000000  -999.250000  -999.250000  -999.250000 45.743000031 138.42640686 152.41026306 0.9045556188 48.678291321 0.8606204987 0.8606204987
 1583.5002441  -999.250000 17.500000000 17.500000000  -999.250000  -999.250000  -999.250000 47.860000610 142.95561218 157.38256836 0.8980616927 48.561218262 0.8534311056 0.8534311056
 1583.6525879  -999.250000 17.500000000 17.500000000  -999.250000  -999.250000  -999.250000 50.298999786 147.49000549 162.37480164 0.8954259157 48.617584229 0.8545688987 0.8545688987
 1583.8049316  -999.250000 17.500000000 17.500000000  -999.250000  -999.250000  -999.250000 51.419998169 149.77421570 164.81527710 0.8926394582 48.946475983 0.8573514819 0.8573514819
 1583.9573975  -999.250000 17.500000000 17.500000000  -999.250000  -999.250000  -999.250000 52.388999939 149.78842163 164.95588684 0.8904259205 49.321247101 0.8595688939 0.8595688939
 1584.1097412  -999.250000 17.500000000 17.500000000  -999.250000  -999.250000  -999.250000 52.381000519 148.66021729 163.58761597 0.8876394629 49.443328857 0.8615676761 0.8615676761
 1584.2622070  -999.250000 17.500000000 17.500000000  -999.250000  -999.250000  -999.250000 52.320999146 147.58010864 162.45915222 0.8846389055 49.453430176 0.8635689020 0.8635689020
 1584.4145508  -999.250000 17.500000000 17.500000000  -999.250000  -999.250000  -999.250000 52.257999420 147.29180908 162.11450195 0.8832131624 49.450649261 0.8655676842 0.8655676842
 1584.5670166  -999.250000 17.500000000 17.500000000  -999.250000  -999.250000  -999.250000 51.604000092 147.05455017 161.80775452 0.8837870359 49.445293427 0.8659999967 0.8659999967
 1584.7193604  -999.250000 17.500000000 17.500000000  -999.250000  -999.250000  -999.250000 50.567001343 146.70251465 161.51469421 0.8847868443 49.396186829 0.8652161956 0.8652161956
 1584.8718262  -999.250000 17.500000000 17.500000000  -999.250000  -999.250000  -999.250000 49.529998779 145.78561401 160.46687317 0.8857876658 49.330444336 0.8642155528 0.8642155528
 1585.0241699  -999.250000 17.500000000 17.500000000  -999.250000  -999.250000  -999.250000 48.602001190 144.60490417 159.17320251 0.8867870569 49.262699127 0.8640000224 0.8640000224
 1585.1766357  -999.250000 17.500000000 17.500000000  -999.250000  -999.250000  -999.250000 48.194999695 144.31382751 158.84474182 0.8885753155 49.195442200 0.8632155061 0.8632155061
 1585.3289795  -999.250000 17.500000000 17.500000000  -999.250000  -999.250000  -999.250000 48.393001556 144.85813904 159.41001892 0.8897870183 49.127696991 0.8622161746 0.8622161746
 1585.4814453  -999.250000 17.500000000 17.500000000  -999.250000  -999.250000  -999.250000 48.992000580 145.68106079 160.31901550 0.8907876611 49.060443878 0.8612155318 0.8612155318
 1585.6337891  -999.250000 17.500000000 17.500000000  -999.250000  -999.250000  -999.250000 49.847999573 146.28907776 161.04873657 0.8917870522 49.075809479 0.8610000014 0.8610000014
 1585.7861328  -999.250000 17.500000000 17.500000000  -999.250000  -999.250000  -999.250000 50.894001007 146.66030884 161.45278931 0.8927868605 49.131031036 0.8602162004 0.8602162004
 1585.9385986  -999.250000 17.500000000 17.500000000  -999.250000  -999.250000  -999.250000 50.973999023 146.90756226 161.65664673 0.8937870264 49.191066742 0.8592155576 0.8592155576
 1586.0909424  -999.250000 17.500000000 17.500000000  -999.250000  -999.250000  -999.250000 50.099998474 147.14456177 161.90373230 0.8955737352 49.251029968 0.8582161665 0.8582161665
 1586.2434082  -999.250000 17.500000000 17.500000000  -999.250000  -999.250000  -999.250000 49.236999512 147.38418579 162.12498474 0.8967870474 49.310283661 0.8579999804 0.8579999804
 1586.3957520  -999.250000 17.500000000 17.500000000  -999.250000  -999.250000  -999.250000 49.312999725 147.28485107 162.21397400 0.8922788501 49.370029449 0.8572161794 0.8572161794
 1586.5482178  -999.250000 17.500000000 17.500000000  -999.250000  -999.250000  -999.250000 50.224998474 147.16679382 161.98182678 0.8831296563 49.430068970 0.8562155366 0.8562155366
 1586.7005615  -999.250000 17.500000000 17.500000000  -999.250000  -999.250000  -999.250000 51.136001587 146.70948792 161.54936218 0.8731313944 49.490028381 0.8552162051 0.8552162051
 1586.8530273  -999.250000 17.500000000 17.500000000  -999.250000  -999.250000  -999.250000 51.833999634 145.78561401 160.48373413 0.8623426557 49.550067902 0.8542155027 0.8542155027
 1587.0053711  -999.250000 17.500000000 17.500000000  -999.250000  -999.250000  -999.250000 50.950000763 144.49256897 159.09085083 0.8521314263 49.541835785 0.8532161713 0.8532161713
 1587.1578369  -999.250000 17.500000000 17.500000000  -999.250000  -999.250000  -999.250000 49.950000763 143.63374329 158.08529663 0.8413357139 49.348514557 0.8522155285 0.8522155285
 1587.3101807  -999.250000 17.500000000 17.500000000  -999.250000  -999.250000  -999.250000 48.950000763 143.01982117 157.42787170 0.8311296701 49.097908020 0.8512161970 0.8512161970
 1587.4626465  -999.250000 17.500000000 17.500000000  -999.250000  -999.250000  -999.250000 47.923999786 142.76475525 157.09204102 0.8219110370 48.844532013 0.8502155542 0.8502155542
 1587.6149902  -999.250000 17.500000000 17.500000000  -999.250000  -999.250000  -999.250000 46.824001312 141.84829712 156.19657898 0.8325924873 48.689590454 0.8484311104 0.8484311104
 1587.7674561  -999.250000 17.500000000 17.500000000  -999.250000  -999.250000  -999.250000 45.827999115 140.66929626 154.70248413 0.8509655595 48.783618927 0.8252457976 0.8252457976
 1587.9197998  -999.250000 17.500000000 17.500000000  -999.250000  -999.250000  -999.250000 45.006000519 139.59614563 153.70474243 0.8675924540 48.949573517 0.7923285365 0.7923285365
 1588.0721436  -999.250000 17.500000000 17.500000000  -999.250000  -999.250000  -999.250000 44.914001465 139.07800293 153.05158997 0.8702131510 49.118465424 0.7998927236 0.7998927236
 1588.2246094  -999.250000 17.500000000 17.500000000  -999.250000  -999.250000  -999.250000 43.650001526 138.49578857 152.51942444 0.8652778268 49.288356781 0.8291025758 0.8291025758
 1588.3769531  -999.250000 17.500000000 17.500000000  -999.250000  -999.250000  -999.250000 41.901000977 137.89262390 151.70045471 0.8600657582 49.457466125 0.8618662953 0.8618662953
 1588.5294189  -999.250000 17.500000000 17.500000000  -999.250000  -999.250000  -999.250000 40.098999023 135.39692688 149.02813721 0.8542777896 49.542636871 0.8980248570 0.8980248570
 1588.6817627  -999.250000 17.500000000 17.500000000  -999.250000  -999.250000  -999.250000 38.374000549 131.52871704 144.74459839 0.8482788205 49.508186340 0.9005132318 0.9005132318
 1588.8342285  -999.250000 17.500000000 17.500000000  -999.250000  -999.250000  -999.250000 37.553001404 129.29164124 142.30184937 0.8422778249 49.447147369 0.8542860746 0.8542860746
 1588.9865723  -999.250000 17.500000000 17.500000000  -999.250000  -999.250000  -999.250000 37.339000702 132.18377686 145.46777344 0.8339182734 49.386188507 0.8051601648 0.8051601648
 1589.1390381  -999.250000 17.500000000 17.500000000  -999.250000  -999.250000  -999.250000 37.445999146 138.66642761 152.53173828 0.8225480914 49.325149536 0.7824487090 0.7824487090
 1589.2913818  -999.250000 17.500000000 17.500000000  -999.250000  -999.250000  -999.250000 38.381000519 145.44966125 160.04214478 0.8105556369 49.264186859 0.7797837853 0.7797837853
 1589.4438477  -999.250000 17.500000000 17.500000000  -999.250000  -999.250000  -999.250000 39.937999725 150.00131226 165.12115479 0.8072123528 49.203933716 0.7901979089 0.7901979089
