# LAS format log file from PETREL
# Project units are specified as depth units
#==================================================================
~Version information
VERS.   2.0:
WRAP.   NO:
#==================================================================
~Well
STRT .m      704.45709229 :
STOP .m      3999.9543457 :
STEP .m     0.00000000 :
NULL .        -999.250000 :
COMP.           : COMPANY
WELL.  25/2-5 Lille Froey   : WELL
FLD.            : FIELD
LOC.            : LOCATION
SRVC.           : SERVICE COMPANY
DATE.  2018-09-11 14:48:17   : Log Export Date {yyyy-MM-dd HH:mm:ss}
PROV.           : PROVINCE
UWI.   25/2-5   : UNIQUE WELL ID
API.            : API NUMBER
#==================================================================
~Curve
DEPT .m                   : DEPTH
Lithology_geolink ._      : Lithology_geolink
CALI .in                  : CALI
BS .in                    : BS
DRHO .g/cm3               : DRHO
NPHI .m3/m3               : NPHI
RHOB .g/cm3               : RHOB
GR .gAPI                  : GR
DTC .us/ft                : DTC
DTE .us/ft                : DTE
RDEP .ohm.m               : RDEP
SP .mV                    : SP
RSHA .ohm.m               : RSHA
RMED .ohm.m               : RMED
~Parameter
#==================================================================
~Ascii
# ...
 2018.7545166  -999.250000 17.500000000 17.500000000  -999.250000  -999.250000  -999.250000 36.959999084 157.30282593 158.03741455 0.6873285174 57.617485046 0.6504043341 0.6504043341
 2018.9069824  -999.250000 17.500000000 17.500000000  -999.250000  -999.250000  -999.250000 36.383998871 158.41744995 158.80258179 0.6615372300 57.618213654 0.6285264492 0.6285264492
 2019.0593262  -999.250000 17.500000000 17.500000000  -999.250000  -999.250000  -999.250000 35.970001221 159.60224915 159.74989319 0.6363285184 57.616432190 0.6098911166 0.6098911166
 2019.2117920  -999.250000 17.500000000 17.500000000  -999.250000  -999.250000  -999.250000 35.933998108 159.90425110 160.21066284 0.6254907846 57.615215302 0.6052155495 0.6052155495
 2019.3641357  -999.250000 17.500000000 17.500000000  -999.250000  -999.250000  -999.250000 36.237998962 159.46960449 159.92538452 0.6263605356 57.614215851 0.6073514819 0.6073514819
 2019.5166016  -999.250000 17.500000000 17.500000000  -999.250000  -999.250000  -999.250000 36.532001495 158.31172180 158.82189941 0.6293630004 57.613212585 0.6142756343 0.6142756343
 2019.6689453  -999.250000 17.500000000 17.500000000  -999.250000  -999.250000  -999.250000 36.597000122 156.22772217 156.88410950 0.6323611140 57.611431122 0.6222706437 0.6222706437
 2019.8214111  -999.250000 17.500000000 17.500000000  -999.250000  -999.250000  -999.250000 36.685001373 154.52633667 154.90748596 0.6353629827 57.589820862 0.6302756667 0.6302756667
 2019.9737549  -999.250000 17.500000000 17.500000000  -999.250000  -999.250000  -999.250000 36.491001129 153.30999756 153.38153076 0.6383610964 57.494644165 0.6453250647 0.6453250647
 2020.1262207  -999.250000 17.500000000 17.500000000  -999.250000  -999.250000  -999.250000 36.130001068 151.77864075 152.29718018 0.6413630247 57.376651764 0.6866538525 0.6866538525
 2020.2785645  -999.250000 17.500000000 17.500000000  -999.250000  -999.250000  -999.250000 35.283000946 151.24096680 151.51429749 0.6420000196 57.258434296 0.7150424719 0.7150424719
 2020.4309082  -999.250000 17.500000000 17.500000000  -999.250000  -999.250000  -999.250000 35.347000122 150.76296997 151.32151794 0.6333445311 57.140510559 0.7168647051 0.7168647051
 2020.5833740  -999.250000 17.500000000 17.500000000  -999.250000  -999.250000  -999.250000 36.377998352 151.29742432 151.54145813 0.6223426461 57.021648407 0.7034487128 0.7034487128
 2020.7357178  -999.250000 17.500000000 17.500000000  -999.250000  -999.250000  -999.250000 37.139999390 151.66683960 152.10499573 0.6113445759 56.903507233 0.6851072907 0.6851072907
 2020.8881836  -999.250000 17.500000000 17.500000000  -999.250000  -999.250000  -999.250000 37.145999908 152.58827209 152.96426392 0.6066389084 56.928207397 0.6684487462 0.6684487462
 2021.0405273  -999.250000 17.500000000 17.500000000  -999.250000  -999.250000  -999.250000 36.678001404 153.53881836 153.83151245 0.6067868471 57.206150055 0.6540264487 0.6540264487
 2021.1929932  -999.250000 17.500000000 17.500000000  -999.250000  -999.250000  -999.250000 36.233001709 154.15942383 154.54345703 0.6085740924 57.547283173 0.6478621960 0.6478621960
 2021.3453369  -999.250000 17.500000000 17.500000000  -999.250000  -999.250000  -999.250000 35.915000916 154.53137207 154.94369507 0.6097868681 57.869472504 0.6454323530 0.6454323530
 2021.4978027  -999.250000 17.500000000 17.500000000  -999.250000  -999.250000  -999.250000 35.574001312 154.54797363 154.87881470 0.6115740538 57.900344849 0.6457844973 0.6457844973
 2021.6501465  -999.250000 17.500000000 17.500000000  -999.250000  -999.250000  -999.250000 35.368000031 154.21516418 154.46365356 0.6127868295 57.797508240 0.6475676894 0.6475676894
 2021.8026123  -999.250000 17.500000000 17.500000000  -999.250000  -999.250000  -999.250000 35.861000061 153.51733398 154.03756714 0.6145753264 57.678649902 0.6495689154 0.6495689154
 2021.9549561  -999.250000 17.500000000 17.500000000  -999.250000  -999.250000  -999.250000 36.722999573 153.70333862 153.98182678 0.6165740490 57.560508728 0.6531352997 0.6531352997
 2022.1074219  -999.250000 17.500000000 17.500000000  -999.250000  -999.250000  -999.250000 38.033000946 154.05032349 154.34231567 0.6177876592 57.442432404 0.6594911814 0.6594911814
 2022.2597656  -999.250000 17.500000000 17.500000000  -999.250000  -999.250000  -999.250000 38.798999786 154.07504272 154.86248779 0.6195740700 57.323650360 0.6782580614 0.6782580614
 2022.4122314  -999.250000 17.500000000 17.500000000  -999.250000  -999.250000  -999.250000 38.765998840 154.96884155 155.11607361 0.6207876801 57.236801147 0.6900616288 0.6900616288
 2022.5645752  -999.250000 17.500000000 17.500000000  -999.250000  -999.250000  -999.250000 38.828998566 154.24304199 154.80027771 0.6217870116 57.310997009 0.6904310584 0.6904310584
 2022.7169189  -999.250000 17.500000000 17.500000000  -999.250000  -999.250000  -999.250000 39.061000824 153.51791382 154.06709290 0.6227868795 57.439464569 0.6884323359 0.6884323359
 2022.8693848  -999.250000 17.500000000 17.500000000  -999.250000  -999.250000  -999.250000 38.488998413 152.80514526 153.05857849 0.6237870455 57.586452484 0.6872155070 0.6872155070
 2023.0217285  -999.250000 17.500000000 17.500000000  -999.250000  -999.250000  -999.250000 37.472999573 151.75161743 152.02409363 0.6240000129 57.811820984 0.6854323149 0.6854323149
 2023.1741943  -999.250000 17.500000000 17.500000000  -999.250000  -999.250000  -999.250000 36.472999573 149.89356995 150.53518677 0.6247870326 58.062683105 0.6834310889 0.6834310889
 2023.3265381  -999.250000 17.500000000 17.500000000  -999.250000  -999.250000  -999.250000 35.778999329 148.09793091 148.37055969 0.6257868409 58.305118561 0.6814323664 0.6814323664
 2023.4790039  -999.250000 17.500000000 17.500000000  -999.250000  -999.250000  -999.250000 35.868000031 145.63790894 145.98094177 0.6220648289 58.261295319 0.6833533645 0.6833533645
 2023.6313477  -999.250000 17.500000000 17.500000000  -999.250000  -999.250000  -999.250000 36.152000427 143.35589600 143.60206604 0.6131314039 58.115859985 0.6934059262 0.6934059262
 2023.7838135  -999.250000 17.500000000 17.500000000  -999.250000  -999.250000  -999.250000 36.076000214 141.31860352 141.64782715 0.6039110422 57.964546204 0.7061979175 0.7061979175
 2023.9361572  -999.250000 17.500000000 17.500000000  -999.250000  -999.250000  -999.250000 36.270000458 139.96012878 140.31800842 0.5949167013 57.813640594 0.7121353149 0.7121353149
 2024.0886230  -999.250000 17.500000000 17.500000000  -999.250000  -999.250000  -999.250000 36.262001038 139.32943726 139.75131226 0.5851234198 57.663330078 0.7012332082 0.7012332082
 2024.2409668  -999.250000 17.500000000 17.500000000  -999.250000  -999.250000  -999.250000 36.710998535 140.29962158 140.45771790 0.5759167075 57.607486725 0.6862426400 0.6862426400
 2024.3934326  -999.250000 17.500000000 17.500000000  -999.250000  -999.250000  -999.250000 37.463001251 141.15415955 141.55380249 0.5669110417 57.631591797 0.6680953503 0.6680953503
 2024.5457764  -999.250000 17.500000000 17.500000000  -999.250000  -999.250000  -999.250000 38.536998749 141.30867004 141.84025574 0.5571296811 57.670593262 0.6490953565 0.6490953565
 2024.6981201  -999.250000 17.500000000 17.500000000  -999.250000  -999.250000  -999.250000 39.915000916 141.20852661 141.35409546 0.5487051010 57.708786011 0.6473515034 0.6473515034
 2024.8505859  -999.250000 17.500000000 17.500000000  -999.250000  -999.250000  -999.250000 40.438999176 139.96006775 140.56292725 0.5517221689 57.746810913 0.6519222856 0.6519222856
 2025.0029297  -999.250000 17.500000000 17.500000000  -999.250000  -999.250000  -999.250000 40.561000824 139.66633606 139.97230530 0.5585080385 57.765190125 0.6600544453 0.6600544453
 2025.1553955  -999.250000 17.500000000 17.500000000  -999.250000  -999.250000  -999.250000 41.647998810 139.42127991 139.95916748 0.5655092001 57.767215729 0.6721979380 0.6721979380
 2025.3077393  -999.250000 17.500000000 17.500000000  -999.250000  -999.250000  -999.250000 41.847999573 140.30606079 140.45747375 0.5725080371 57.754459381 0.6851897836 0.6851897836
