# LAS format log file from PETREL
# Project units are specified as depth units
#==================================================================
~Version information
VERS.   2.0:
WRAP.   NO:
#==================================================================
~Well
STRT .m      704.45709229 :
STOP .m      3999.9543457 :
STEP .m     0.00000000 :
NULL .        -999.250000 :
COMP.           : COMPANY
WELL.  25/2-5 Lille Froey   : WELL
FLD.            : FIELD
LOC.            : LOCATION
SRVC.           : SERVICE COMPANY
DATE.  2018-09-11 14:48:17   : Log Export Date {yyyy-MM-dd HH:mm:ss}
PROV.           : PROVINCE
UWI.   25/2-5   : UNIQUE WELL ID
API.            : API NUMBER
#==================================================================
~Curve
DEPT .m                   : DEPTH
Lithology_geolink ._      : Lithology_geolink
CALI .in                  : CALI
BS .in                    : BS
DRHO .g/cm3               : DRHO
NPHI .m3/m3               : NPHI
RHOB .g/cm3               : RHOB
GR .gAPI                  : GR
DTC .us/ft                : DTC
DTE .us/ft                : DTE
RDEP .ohm.m               : RDEP
SP .mV                    : SP
RSHA .ohm.m               : RSHA
RMED .ohm.m               : RMED
~Parameter
#==================================================================
~Ascii
# ...
 3333.0520020 4.0000000000 11.547999382 8.3400001526 -0.082057692 0.5220303535 2.4551923275 64.787002563 102.07111359 99.579940796 4.1214809418 79.035896301 5.0981364250 5.0981364250
 3333.2045898 4.0000000000 11.560999870 8.3400001526 -0.183751613 0.5132532120 2.4060752392 69.644996643 100.28287506 98.153907776 3.9756639004 79.074806213 5.0251793861 5.0251793861
 3333.3569336 4.0000000000 11.416000366 8.3400001526 -0.151339203 0.4975628257 2.4578945637 71.318000793 100.39753723 98.145660400 3.9983589649 79.394409180 4.7567305565 4.7567305565
 3333.5092773 4.0000000000 10.543999672 8.3400001526 -0.001038462 0.4876210093 2.6387789249 70.855003357 100.03610229 97.736831665 4.0694408417 79.274459839 4.4538559914 4.4538559914
 3333.6616211 5.0000000000 9.6680002213 8.3400001526 0.0619230755 0.4854790568 2.7122595310 70.060997009 97.470901489 95.173721313 4.0543127060 79.081642151 4.7826876640 4.7826876640
 3333.8142090 5.0000000000 9.6429996490 8.3400001526 0.0666586533 0.4669905305 2.7207803726 70.072998047 96.861221313 94.480644226 3.9664926529 79.032051086 5.0089616776 5.0089616776
 3333.9665527 5.0000000000 9.6420001984 8.3400001526 0.0535328016 0.4404083490 2.7132079601 71.421997070 96.384216309 93.883560181 3.8608062267 79.024307251 5.1090383530 5.1090383530
 3334.1188965 5.0000000000 9.6389999390 8.3400001526 0.0515576936 0.4112090170 2.7071058750 73.609001160 95.234703064 93.183296204 3.7270529270 78.933990479 5.1069183350 5.1069183350
 3334.2712402 5.0000000000 9.6319999695 8.3400001526 0.0574519224 0.3993829489 2.7098941803 75.532997131 96.588897705 94.172508240 3.5797581673 78.459457397 4.8738894463 4.8738894463
 3334.4238281 5.0000000000 9.6239995956 8.3400001526 0.0660240427 0.3882238567 2.7219262123 76.061996460 96.375274658 93.763145447 3.4344615936 77.750366211 4.5996279716 4.5996279716
 3334.5761719 5.0000000000 9.6169996262 8.3400001526 0.0680000037 0.3667842150 2.7249999046 77.801002502 95.907226563 93.415504456 3.3079617023 77.329925537 4.3501791954 4.3501791954
 3334.7285156 5.0000000000 9.6099996567 8.3400001526 0.0781250000 0.3431174755 2.7320096493 78.092002869 96.103981018 94.194084167 3.2198381424 77.361068726 4.1189775467 4.1189775467
 3334.8808594 5.0000000000 9.6040000916 8.3400001526 0.0810000002 0.3021252155 2.7301058769 78.713996887 95.301475525 92.737762451 3.1723124981 77.273712158 3.9472501278 3.9472501278
 3335.0332031 5.0000000000 9.6169996262 8.3400001526 0.0591923073 0.2437012047 2.7017405033 82.862998962 92.701255798 90.476081848 3.1459023952 77.052131653 3.9972884655 3.9972884655
 3335.1857910 5.0000000000 9.6440000534 8.3400001526 0.0420737192 0.1548744887 2.6768300533 89.083000183 89.843620300 87.357940674 3.2425487041 76.650207520 4.2243332863 4.2243332863
 3335.3381348 5.0000000000 9.6680002213 8.3400001526 0.0452335998 0.1012202650 2.6719999313 98.704002380 86.985824585 84.602973938 3.5273027420 75.934394836 4.2348589897 4.2348589897
 3335.4904785 6.0000000000 9.6770000458 8.3400001526 0.0610192269 0.0878390223 2.6860191822 103.51200104 86.909721375 84.552391052 3.8637452126 75.141265869 4.1040992737 4.1040992737
 3335.6428223 6.0000000000 9.6809997559 8.3400001526 0.0813557729 0.0851649567 2.7188172340 109.76000214 88.617240906 86.441841125 4.2302851677 74.382446289 4.2372355461 4.2372355461
 3335.7954102 6.0000000000 9.6879997253 8.3400001526 0.0852195546 0.0842573047 2.7449502945 105.94000244 84.678985596 82.224754333 4.6728992462 73.688552856 5.5861153603 5.5861153603
 3335.9477539 6.0000000000 9.6770000458 8.3400001526 0.0647407994 0.0838853866 2.7336368561 93.346000671 75.441497803 72.833236694 5.1384630203 73.006858826 8.1778459549 8.1778459549
 3336.1000977 6.0000000000 9.6280002594 8.3400001526 0.0309615377 0.0839683488 2.7071924210 77.867996216 69.730155945 67.739936829 5.6070365906 72.240386963 12.629604340 12.629604340
 3336.2524414 4.0000000000 9.4239997864 8.3400001526 0.0043076924 0.0805760249 2.6776347160 66.986999512 66.836898804 64.354698181 6.3010783195 71.411422729 14.710218430 14.710218430
 3336.4050293 4.0000000000 9.0389995575 8.3400001526 -0.006463141 0.0735569224 2.6475865841 58.874000549 64.977714539 62.498859406 7.1960577965 70.573982239 14.709897041 14.709897041
 3336.5573730 4.0000000000 8.9069995880 8.3400001526 0.0021295999 0.0683742315 2.6246366501 51.984001160 64.424316406 61.928688049 8.1243085861 69.819541931 15.347358704 15.347358704
 3336.7097168 4.0000000000 8.8129997253 8.3400001526 0.0042211539 0.0674468502 2.6153268814 46.451000214 63.948036194 61.584552765 8.7138557434 69.107200623 18.164241791 18.164241791
 3336.8620605 4.0000000000 8.7379999161 8.3400001526 0.0008846154 0.0689584613 2.6085481644 41.138000488 64.047554016 62.062618256 8.2219877243 68.400222778 20.035333633 20.035333633
 3337.0144043 4.0000000000 8.6909999847 8.3400001526 -0.006230770 0.0722208396 2.6007692814 38.784999847 66.171432495 63.511646271 7.8066315651 67.697128296 19.155450821 19.155450821
 3337.1669922 2.0000000000 8.6829996109 8.3400001526 -0.009560897 0.0787133276 2.5833909512 39.131000519 68.102813721 65.766517639 7.9222049713 67.006515503 15.547461510 15.547461510
 3337.3193359 2.0000000000 8.6800003052 8.3400001526 -0.011558400 0.0930708945 2.5634160042 40.610000610 71.354324341 69.205162048 7.7091889381 66.432350159 13.284615517 13.284615517
 3337.4716797 2.0000000000 8.6709995270 8.3400001526 -0.017451923 0.1248637289 2.5410864353 44.798999786 75.252365112 73.016952515 7.2579474449 66.218742371 10.184569359 10.184569359
 3337.6240234 2.0000000000 8.6579999924 8.3400001526 -0.029903846 0.1694398820 2.5188653469 49.861999512 79.862327576 77.264953613 6.8001265526 66.248191833 9.2795190811 9.2795190811
 3337.7766113 2.0000000000 8.6160001755 8.3400001526 -0.041584935 0.1997392327 2.4898061752 54.976001740 84.183616638 81.880249023 6.5961537361 66.136520386 9.7936925888 9.7936925888
 3337.9289551 4.0000000000 8.4980001450 8.3400001526 -0.049454398 0.2091107666 2.4494943619 56.077999115 86.678787231 84.448036194 6.3962516785 65.725616455 10.062179565 10.062179565
 3338.0812988 4.0000000000 8.3009996414 8.3400001526 -0.044769231 0.2001835704 2.4400000572 55.153999329 87.040779114 84.705085754 6.1446299553 64.810531616 9.1086301804 9.1086301804
 3338.2336426 4.0000000000 8.2460002899 8.3400001526 -0.039105769 0.1862195879 2.4501249790 56.376998901 86.251823425 83.892570496 5.9481520653 63.779922485 7.8689260483 7.8689260483
 3338.3862305 4.0000000000 8.2440004349 8.3400001526 -0.034878206 0.1909396201 2.4483172894 59.867000580 84.982986450 82.757812500 5.6379809380 63.245876312 7.9608721733 7.9608721733
 3338.5385742 4.0000000000 8.2440004349 8.3400001526 -0.028545601 0.2088492364 2.4337537289 60.146999359 84.458824158 81.773406982 5.2453966141 63.197540283 9.5658845901 9.5658845901
 3338.6909180 4.0000000000 8.2460002899 8.3400001526 -0.033230770 0.2232476622 2.4229903221 55.814998627 84.431297302 82.256370544 5.1125750542 63.378211975 10.208308220 10.208308220
 3338.8432617 4.0000000000 8.2609996796 8.3400001526 -0.039673079 0.2253654003 2.4178845882 52.916000366 86.320327759 84.010940552 5.2022914886 63.649986267 8.8630704880 8.8630704880
 3338.9956055 4.0000000000 8.2790002823 8.3400001526 -0.048009615 0.2196834385 2.4099903107 48.819999695 86.345329285 84.103782654 5.3834376335 63.567840576 7.6131892204 7.6131892204
 3339.1481934 4.0000000000 8.3020000458 8.3400001526 -0.053121798 0.2081375569 2.3970737457 47.754001617 85.889915466 83.201484680 5.6304593086 63.185241699 5.8589487076 5.8589487076
 3339.3005371 4.0000000000 8.3269996643 8.3400001526 -0.055558402 0.1943797469 2.3830912113 47.776000977 85.413635254 83.080909729 5.8748459816 62.707408905 5.1043791771 5.1043791771
 3339.4528809 2.0000000000 8.3459997177 8.3400001526 -0.066903844 0.1887869686 2.3597500324 46.679000854 85.480880737 83.353836060 6.0715689659 62.291725159 5.9584646225 5.9584646225
 3339.6052246 2.0000000000 8.3299999237 8.3400001526 -0.084019229 0.1938084960 2.3275191784 44.247001648 86.737556458 84.402687073 6.1959805489 61.964622498 7.8420896530 7.8420896530
