# LAS format log file from PETREL
# Project units are specified as depth units
#==================================================================
~Version information
VERS.   2.0:
WRAP.   NO:
#==================================================================
~Well
STRT .m      1198.6790771 :
STOP .m      3629.1542969 :
STEP .m     0.00000000 :
NULL .        -999.250000 :
COMP.           : COMPANY
WELL.  25/2-14 Froey Appr   : WELL
FLD.            : FIELD
LOC.            : LOCATION
SRVC.           : SERVICE COMPANY
DATE.  2018-09-11 14:48:17   : Log Export Date {yyyy-MM-dd HH:mm:ss}
PROV.           : PROVINCE
UWI.   25/2-14   : UNIQUE WELL ID
API.            : API NUMBER
#==================================================================
~Curve
DEPT .m                   : DEPTH
Lithology_geolink ._      : Lithology_geolink
DCAL .in                  : DCAL
CALI .in                  : CALI
BS .in                    : BS
DRHO .g/cm3               : DRHO
THOR .ppm                 : THOR
NPHI .m3/m3               : NPHI
RHOB .g/cm3               : RHOB
PEF .b/e                  : PEF
GR .gAPI                  : GR
URAN .ppm                 : URAN
DTC .us/ft                : DTC
RDEP .ohm.m               : RDEP
SP .mV                    : SP
RSHA .ohm.m               : RSHA
RMED .ohm.m               : RMED
~Parameter
#==================================================================
~Ascii
# ...
 2489.9643555 5.0000000000 4.0449700356 16.294969559 12.250000954 0.0530225709  -999.250000  -999.250000 1.9164470434 16.512420654 55.660930634  -999.250000 35.103908539 1.0460740328 77.566001892 0.9604259729 0.7452629209
 2490.1166992 5.0000000000 4.0025272369 16.252529144 12.250000954 0.0602303296  -999.250000  -999.250000 1.9320479631 16.459920883 55.958271027  -999.250000 33.896564484 0.9874029756 77.946189880 0.9579843283 0.7612168789
 2490.2690430 5.0000000000 4.2033209801 16.453319550 12.250000954 0.0661517903  -999.250000  -999.250000 1.9565000534 16.287380219 55.885078430  -999.250000 33.510444641 0.9334949851 78.256187439 0.9710626006 0.7684633136
 2490.4213867 5.0000000000 4.4589290619 16.708929062 12.250000954 0.0744118765  -999.250000  -999.250000 1.9848890305 16.110820770 55.095840454  -999.250000 33.594596863 0.8985881209 78.195343018 0.9881644845 0.7641302943
 2490.5739746 5.0000000000 4.6061530113 16.856149673 12.250000954 0.0840946510  -999.250000  -999.250000 2.0117650032 16.020349503 54.128429413  -999.250000 33.686557770 0.8963071108 77.518852234 0.9990454912 0.7559049129
 2490.7263184 5.0000000000 4.6174302101 16.867429733 12.250000954 0.0902821720  -999.250000  -999.250000 2.0329260826 15.998410225 53.918651581  -999.250000 33.587680817 0.9175977111 76.315856934 0.9977992773 0.7511429191
 2490.8786621 5.0000000000 4.5498070717 16.799810410 12.250000954 0.0875589326  -999.250000  -999.250000 2.0460190773 15.989439964 54.802501678  -999.250000 33.306804657 0.9470341206 74.910949707 0.9909756184 0.7442560792
 2491.0310059 5.0000000000 4.4513168335 16.701320648 12.250000954 0.0754430667  -999.250000  -999.250000 2.0482070446 15.969249725 56.199680328  -999.250000 32.960159302 0.9624617100 73.832908630 0.9854168892 0.7300375104
 2491.1833496 5.0000000000 4.3513550758 16.601350784 12.250000954 0.0609691404  -999.250000  -999.250000 2.0441219807 15.943269730 57.367641449  -999.250000 32.703575134 0.9657332897 73.484382629 0.9822332263 0.7143262029
 2491.3359375 5.0000000000 4.2959179878 16.545919418 12.250000954 0.0486537106  -999.250000  -999.250000 2.0399420261 15.909370422 57.938999176  -999.250000 32.626155853 0.9841679931 73.974990845 0.9790098071 0.7140541077
 2491.4882813 5.0000000000 4.3307151794 16.580720901 12.250000954 0.0415437296  -999.250000  -999.250000 2.0390028954 15.881879807 57.565891266  -999.250000 32.762222290 1.0302530527 75.001869202 0.9744675756 0.7545840740
 2491.6406250 5.0000000000 4.4556431770 16.705640793 12.250000954 0.0464711003  -999.250000  -999.250000 2.0391349792 15.896019936 56.342151642  -999.250000 33.086193085 1.1051160097 75.836929321 0.9694951773 0.8552647829
 2491.7929688 5.0000000000 4.6144909859 16.864490509 12.250000954 0.0644075498  -999.250000  -999.250000 2.0410480499 15.942810059 54.947429657  -999.250000 33.446403503 1.1923840046 76.009246826 0.9690164924 1.0170409679
 2491.9455566 5.0000000000 4.7053298950 16.955329895 12.250000954 0.0844047815  -999.250000  -999.250000 2.0458290577 15.971659660 53.932029724  -999.250000 33.493801117 1.2469290495 75.820129395 0.9846351743 1.1662349701
 2492.0979004 5.0000000000 4.6457610130 16.895759583 12.250000954 0.0938890129  -999.250000  -999.250000 2.0503449440 15.954360008 53.219390869  -999.250000 32.862834930 1.2464070320 75.755996704 1.0297909975 1.1307460070
 2492.2502441 5.0000000000 4.4745712280 16.724569321 12.250000954 0.0895471871  -999.250000  -999.250000 2.0428419113 15.925519943 52.623649597  -999.250000 31.657197952 1.2016819715 76.105323792 1.0862009525 0.9576132298
 2492.4025879 5.0000000000 4.4014000893 16.651399612 12.250000954 0.0802942589  -999.250000  -999.250000 2.0184519291 15.954350471 52.168750763  -999.250000 30.390394211 1.1456220150 76.870033264 1.1179039478 0.7929043174
 2492.5551758 5.0000000000 4.5782909393 16.828290939 12.250000954 0.0767508969  -999.250000  -999.250000 1.9893660545 15.979780197 51.911788940  -999.250000 29.529907227 1.1231470108 77.670593262 1.1015230417 0.7020311952
 2492.7075195 5.0000000000 4.9384393692 17.188440323 12.250000954 0.0753760263  -999.250000  -999.250000 1.9691439867 15.961460114 51.802909851  -999.250000 29.248641968 1.1380870342 78.231002808 1.0468579531 0.6869155765
 2492.8598633 5.0000000000 5.2123742104 17.462369919 12.250000954 0.0671584085  -999.250000  -999.250000 1.9606230259 15.930069923 51.825099945  -999.250000 29.500438690 1.1701339483 78.449462891 0.9876831174 0.7243629098
 2493.0122070 5.0000000000 5.0419878960 17.291990280 12.250000954 0.0416362397  -999.250000  -999.250000 1.9556130171 15.956640244 52.166778564  -999.250000 30.154670715 1.1866879463 78.433372498 0.9463608861 0.7904000878
 2493.1645508 5.0000000000 4.3839359283 16.633939743 12.250000954 0.0007978640  -999.250000  -999.250000 1.9533259869 16.040170670 52.755870819  -999.250000 30.877977371 1.1507710218 78.528388977 0.9330127239 0.8483296037
 2493.3171387 5.0000000000 3.6530978680 15.903100014 12.250000954 -0.033286680  -999.250000  -999.250000 1.9624789953 16.124860764 53.503059387  -999.250000 31.182199478 1.0767469406 78.836250305 0.9559605718 0.8485819101
 2493.4694824 5.0000000000 3.2166152000 15.466609955 12.250000954 -0.042219538  -999.250000  -999.250000 1.9770720005 16.161249161 54.658199310  -999.250000 30.809793472 1.0089590549 79.179077148 0.9957867861 0.7958375812
 2493.6218262 5.0000000000 3.2059972286 15.456000328 12.250000954 -0.025129020  -999.250000  -999.250000 1.9838999510 16.122079849 56.303890228  -999.250000 30.043628693 0.9757080078 79.271202087 1.0200259686 0.7354714870
 2493.7741699 5.0000000000 3.5133869648 15.763389587 12.250000954 0.0045114560  -999.250000  -999.250000 1.9860049486 15.977680206 57.644550323  -999.250000 29.564929962 0.9967399836 78.903427124 1.0106140375 0.6982873082
 2493.9267578 5.0000000000 3.8688488007 16.118850708 12.250000954 0.0282213092  -999.250000  -999.250000 1.9929070473 15.767259598 57.926811218  -999.250000 29.848955154 1.0416049957 78.284927368 0.9783812165 0.6843665838
 2494.0791016 5.0000000000 4.2189521790 16.468950272 12.250000954 0.0429915562  -999.250000  -999.250000 2.0027019978 15.531949997 57.193161011  -999.250000 30.848411560 1.0639369488 77.586456299 0.9430112839 0.6828597784
 2494.2314453 5.0000000000 4.5403161049 16.790319443 12.250000954 0.0523750745  -999.250000  -999.250000 2.0179350376 15.278499603 56.237350464  -999.250000 32.091506958 1.0383050442 77.012977600 0.9180281758 0.6843209863
 2494.3837891 5.0000000000 4.7291531563 16.979150772 12.250000954 0.0583377406  -999.250000  -999.250000 2.0417470932 14.953459740 55.717800140  -999.250000 33.057815552 0.9641640186 76.900238037 0.9089879990 0.6835023165
 2494.5363770 5.0000000000 4.6937270164 16.943729401 12.250000954 0.0632415116  -999.250000  -999.250000 2.0706720352 14.510589600 55.642280579  -999.250000 33.608833313 0.8751838803 77.287117004 0.9138643146 0.6791967154
 2494.6887207 5.0000000000 4.5194239616 16.769420624 12.250000954 0.0721024871  -999.250000  -999.250000 2.0940749645 13.998189926 56.056518555  -999.250000 33.929847717 0.8294627070 77.787849426 0.9260845184 0.6753004193
 2494.8410645 5.0000000000 4.3016948700 16.551689148 12.250000954 0.0856029615  -999.250000  -999.250000 2.0994949341 13.365409851 56.973861694  -999.250000 34.159698486 0.8518487215 77.866058350 0.9361575842 0.6828879118
 2494.9934082 5.0000000000 4.0532321930 16.303230286 12.250000954 0.1007257998  -999.250000  -999.250000 2.0848031044 12.230500221 58.095260620  -999.250000 34.037960052 0.9538046122 77.214317322 0.9372261763 0.7254086137
 2495.1457520 5.0000000000 3.7774889469 16.027490616 12.250000954 0.1129159033  -999.250000  -999.250000 2.0649549961 10.257539749 58.731239319  -999.250000 32.981613159 1.1274950504 76.143516541 0.9288359880 0.8331633806
 2495.2983398 5.0000000000 3.5631966591 15.813199997 12.250000954 0.1184090972  -999.250000  -999.250000 2.0633630753 8.5264883041 58.559600830  -999.250000 30.673974991 1.3039540052 75.330207825 0.9173188210 1.0476050377
 2495.4506836 5.0000000000 3.4172799587 15.667280197 12.250000954 0.1141261980  -999.250000  -999.250000 2.0894539356 7.8243541718 57.897018433  -999.250000 27.718742371 1.3898019791 75.031303406 0.9205880761 1.3617709875
