# LAS format log file from PETREL
# Project units are specified as depth units
#==================================================================
~Version information
VERS.   2.0:
WRAP.   NO:
#==================================================================
~Well
STRT .m      1198.6790771 :
STOP .m      3629.1542969 :
STEP .m     0.00000000 :
NULL .        -999.250000 :
COMP.           : COMPANY
WELL.  25/2-14 Froey Appr   : WELL
FLD.            : FIELD
LOC.            : LOCATION
SRVC.           : SERVICE COMPANY
DATE.  2018-09-11 14:48:17   : Log Export Date {yyyy-MM-dd HH:mm:ss}
PROV.           : PROVINCE
UWI.   25/2-14   : UNIQUE WELL ID
API.            : API NUMBER
#==================================================================
~Curve
DEPT .m                   : DEPTH
Lithology_geolink ._      : Lithology_geolink
DCAL .in                  : DCAL
CALI .in                  : CALI
BS .in                    : BS
DRHO .g/cm3               : DRHO
THOR .ppm                 : THOR
NPHI .m3/m3               : NPHI
RHOB .g/cm3               : RHOB
PEF .b/e                  : PEF
GR .gAPI                  : GR
URAN .ppm                 : URAN
DTC .us/ft                : DTC
RDEP .ohm.m               : RDEP
SP .mV                    : SP
RSHA .ohm.m               : RSHA
RMED .ohm.m               : RMED
~Parameter
#==================================================================
~Ascii
# ...
 2647.8508301 13.000000000 4.3197989464 16.569799423 12.250000954 0.1172271967  -999.250000  -999.250000 2.3843650818 6.5573811531 55.715309143  -999.250000 32.375671387 1.3383369446 79.474418640 1.9937460423 1.7107440233
 2648.0031738 13.000000000 3.9340379238 16.184040070 12.250000954 0.1135231033  -999.250000  -999.250000 2.4956979752 6.0990591049 53.889858246  -999.250000 30.967739105 1.4913829565 79.052993774 2.1629130840 1.9952880144
 2648.1555176 13.000000000 3.2524228096 15.502420425 12.250000954 0.1087587997  -999.250000  -999.250000 2.5820128918 5.9456920624 50.246849060  -999.250000 28.278436661 1.7084649801 78.650962830 2.4843039513 2.3091249466
 2648.3081055 13.000000000 2.4874160290 14.737420082 12.250000954 0.0969436690  -999.250000  -999.250000 2.6377019882 5.9573740959 45.189159393  -999.250000 25.002014160 2.0137259960 78.216056824 2.9981930256 2.7332959175
 2648.4604492 13.000000000 1.8610810041 14.111080170 12.250000954 0.0801312104  -999.250000  -999.250000 2.6665530205 6.0228171349 39.589229584  -999.250000 22.141704559 2.5086510181 77.659973145 3.6946940422 3.4186339378
 2648.6127930 13.000000000 1.4813580513 13.731360435 12.250000954 0.0621561408  -999.250000  -999.250000 2.6764969826 6.1441178322 34.217578888  -999.250000 20.359836578 3.4320390224 76.848747253 4.5958971977 4.5543560982
 2648.7651367 12.000000000 1.3127009869 13.562700272 12.250000954 0.0413594283  -999.250000  -999.250000 2.6659560204 6.1975240707 29.285299301  -999.250000 19.859972000 5.1131381989 75.682579041 5.7208361626 5.8386888504
 2648.9177246 12.000000000 1.2412109375 13.491209984 12.250000954 0.0141497301  -999.250000  -999.250000 2.6316390038 6.1211171150 24.988029480  -999.250000 20.313489914 7.4204010963 74.421257019 6.9317579269 6.2601618767
 2649.0700684 12.000000000 1.2239500284 13.473950386 12.250000954 -0.010120010  -999.250000  -999.250000 2.5774269104 6.3745169640 22.170829773  -999.250000 21.096963882 8.6244735718 73.355842590 7.8121829033 5.4451828003
 2649.2224121 12.000000000 1.2460168600 13.496020317 12.250000954 -0.005405402  -999.250000  -999.250000 2.5153019428 7.0954451561 22.053630829  -999.250000 21.750259399 7.8678359985 72.521217346 7.5509858131 4.1003961563
 2649.3747559 12.000000000 1.2879199982 13.537919998 12.250000954 0.0451658592  -999.250000  -999.250000 2.4742379189 7.5479950905 25.832750320  -999.250000 22.224742889 6.2560777664 71.834716797 6.1482658386 3.0559890270
 2649.5273438 12.000000000 1.3344990015 13.584499359 12.250000954 0.1107200980  -999.250000  -999.250000 2.4666559696 7.0525040627 32.626468658  -999.250000 22.682849884 5.1339030266 71.475532532 4.4996161461 2.5283501148
 2649.6796875 12.000000000 1.3638499975 13.613849640 12.250000954 0.1396362931  -999.250000  -999.250000 2.4851789474 6.2250890732 39.677600861  -999.250000 22.931779861 4.7126932144 71.760971069 3.3120560646 2.5231850147
 2649.8320313 12.000000000 1.3640049696 13.614009857 12.250000954 0.1162317023  -999.250000  -999.250000 2.5334300995 5.6325020790 44.420379639  -999.250000 22.446804047 4.5064158440 72.711357117 2.7656168938 3.1589500904
 2649.9843750 13.000000000 1.3385919333 13.588589668 12.250000954 0.0629910976  -999.250000  -999.250000 2.5944991112 5.4850130081 45.208770752  -999.250000 20.969841003 4.2086071968 73.919113159 2.8165268898 4.3852910995
 2650.1367188 13.000000000 1.3217500448 13.571749687 12.250000954 0.0250706393  -999.250000  -999.250000 2.6300520897 5.7641458511 42.177928925  -999.250000 18.995655060 3.7331559658 74.846946716 3.4168798923 4.8391108513
 2650.2893066 12.000000000 1.3496849537 13.599680901 12.250000954 0.0160875302  -999.250000  -999.250000 2.6141760349 6.2142119408 36.736591339  -999.250000 17.448514938 3.3157250881 75.338813782 4.4810190201 3.7930231094
 2650.4416504 12.000000000 1.4094150066 13.659420013 12.250000954 0.0163543206  -999.250000  -999.250000 2.5696918964 6.5953598022 31.375310898  -999.250000 17.083847046 3.2323060036 75.656570435 5.1222200394 2.7147359848
 2650.5939941 12.000000000 1.4543011189 13.704300880 12.250000954 0.0197851397  -999.250000  -999.250000 2.5337650776 6.7777709961 28.536069870  -999.250000 18.135709763 3.4117770195 75.918693542 4.3909649849 2.2324609756
 2650.7463379 12.000000000 1.4485210180 13.698519707 12.250000954 0.0255522598  -999.250000  -999.250000 2.5309159756 6.7728619576 29.639709473  -999.250000 20.163417816 3.7046120167 76.109733582 3.4114840031 2.1703879833
 2650.8989258 12.000000000 1.3887898922 13.638790131 12.250000954 0.0326388516  -999.250000  -999.250000 2.5605399609 6.6903052330 33.471660614  -999.250000 22.284135818 3.8700120449 76.032592773 2.8877499104 2.4303050041
 2651.0512695 12.000000000 1.3259140253 13.575909615 12.250000954 0.0425305702  -999.250000  -999.250000 2.5933659077 6.5971097946 36.435409546  -999.250000 23.588514328 3.7481460571 75.653831482 2.7873001099 2.8752911091
 2651.2036133 12.000000000 1.2903729677 13.540369987 12.250000954 0.0587957911  -999.250000  -999.250000 2.6151258945 6.2964887619 36.727901459  -999.250000 23.701862335 3.4988100529 74.922996521 3.0700190067 3.2740659714
 2651.3559570 12.000000000 1.2805478573 13.530550003 12.250000954 0.0827680528  -999.250000  -999.250000 2.6284680367 5.7803730965 35.069831848  -999.250000 22.934385300 3.2916619778 73.936393738 3.5706820488 3.4504339695
 2651.5085449 12.000000000 1.2791020870 13.529101372 12.250000954 0.1034533009  -999.250000  -999.250000 2.6395208836 5.3739080429 33.420150757  -999.250000 21.927101135 3.2161118984 72.912193298 4.0321059227 3.4928290844
 2651.6608887 12.000000000 1.2832760811 13.533280373 12.250000954 0.1025073975  -999.250000  -999.250000 2.6475260258 5.2616062164 32.655628204  -999.250000 21.178461075 3.3117909431 72.118347168 4.2949099541 3.4805729389
 2651.8132324 12.000000000 1.3128030300 13.562799454 12.250000954 0.0831477419  -999.250000  -999.250000 2.6469531059 5.3323369026 32.302871704  -999.250000 20.753772736 3.5052990913 71.628707886 4.4617781639 3.3573648930
 2651.9655762 12.000000000 1.4031109810 13.653109550 12.250000954 0.0614162907  -999.250000  -999.250000 2.6392099857 5.3822698593 32.240840912  -999.250000 20.524524689 3.7053790092 71.350883484 4.6392688751 3.1771070957
 2652.1179199 12.000000000 1.5549540520 13.804949760 12.250000954 0.0494689085  -999.250000  -999.250000 2.6322948933 5.3710360527 32.998970032  -999.250000 20.521757126 3.8705339432 71.012512207 4.6325731277 3.0728681087
 2652.2705078 12.000000000 1.6951249838 13.945119858 12.250000954 0.0477542616  -999.250000  -999.250000 2.6343550682 5.3737201691 34.899879456  -999.250000 20.913284302 3.9813311100 70.330093384 4.2991409302 3.0890939236
 2652.4228516 12.000000000 1.7317160368 13.981719971 12.250000954 0.0509801395  -999.250000  -999.250000 2.6459729671 5.3787488937 36.835571289  -999.250000 21.603569031 4.0315108299 69.460983276 3.8689019680 3.1563379765
 2652.5751953 12.000000000 1.6564890146 13.906490326 12.250000954 0.0616385899  -999.250000  -999.250000 2.6617848873 5.3292779922 37.471000671  -999.250000 22.157394409 4.0050997734 68.734130859 3.6072258949 3.1732950211
 2652.7275391 12.000000000 1.5359510183 13.785949707 12.250000954 0.0820054635  -999.250000  -999.250000 2.6719028950 5.3725109100 36.476131439  -999.250000 22.276124954 3.9357819557 68.473503113 3.6456990242 3.1039888859
 2652.8801270 12.000000000 1.4423580170 13.692359924 12.250000954 0.1056628972  -999.250000  -999.250000 2.6695880890 5.7000360489 34.537029266  -999.250000 22.095981598 3.8810820580 68.768997192 3.8680489063 3.0427389145
 2653.0324707 12.000000000 1.3993680477 13.649370193 12.250000954 0.1156556979  -999.250000  -999.250000 2.6592059135 6.0466980934 32.807579041  -999.250000 21.987783432 3.9330580235 69.267402649 4.0982718468 3.0587980747
 2653.1848145 12.000000000 1.3805099726 13.630509377 12.250000954 0.1038952991  -999.250000  -999.250000 2.6530709267 6.1173691750 31.787759781  -999.250000 22.133491516 4.1271519661 69.583633423 4.2262430191 3.1568310261
 2653.3371582 12.000000000 1.3731540442 13.623149872 12.250000954 0.0735526979  -999.250000  -999.250000 2.6520059109 6.0033130646 31.345350266  -999.250000 22.401050568 4.3439869881 69.526672363 4.2527232170 3.2773799896
