# LAS format log file from PETREL
# Project units are specified as depth units
#==================================================================
~Version information
VERS.   2.0:
WRAP.   NO:
#==================================================================
~Well
STRT .m      1198.6790771 :
STOP .m      3629.1542969 :
STEP .m     0.00000000 :
NULL .        -999.250000 :
COMP.           : COMPANY
WELL.  25/2-14 Froey Appr   : WELL
FLD.            : FIELD
LOC.            : LOCATION
SRVC.           : SERVICE COMPANY
DATE.  2018-09-11 14:48:17   : Log Export Date {yyyy-MM-dd HH:mm:ss}
PROV.           : PROVINCE
UWI.   25/2-14   : UNIQUE WELL ID
API.            : API NUMBER
#==================================================================
~Curve
DEPT .m                   : DEPTH
Lithology_geolink ._      : Lithology_geolink
DCAL .in                  : DCAL
CALI .in                  : CALI
BS .in                    : BS
DRHO .g/cm3               : DRHO
THOR .ppm                 : THOR
NPHI .m3/m3               : NPHI
RHOB .g/cm3               : RHOB
PEF .b/e                  : PEF
GR .gAPI                  : GR
URAN .ppm                 : URAN
DTC .us/ft                : DTC
RDEP .ohm.m               : RDEP
SP .mV                    : SP
RSHA .ohm.m               : RSHA
RMED .ohm.m               : RMED
~Parameter
#==================================================================
~Ascii
# ...
 3132.7873535 5.0000000000 0.3559998870 8.8559999466 8.5000000000 0.0163147692 12.101699829 0.3372077942 2.6465120316 4.8816790581 103.84999847 3.2253689766 29.226633072 3.8500730991 72.710823059 4.3011097908 3.7067959309
 3132.9396973 5.0000000000 0.3559998870 8.8559999466 8.5000000000 0.0287843607 14.764260292 0.3280481994 2.6298110485 4.9416937828 111.54550171 2.2870419025 28.753396988 3.8505890369 73.889190674 4.4371581078 3.7759809494
 3133.0922852 5.0000000000 0.3559998870 8.8559999466 8.5000000000 0.0360051505 17.954990387 0.3227644861 2.6210789680 5.1756777763 121.18039703 1.9849359989 28.268516541 3.7944068909 74.844978333 4.7867918015 3.7874109745
 3133.2446289 5.0000000000 0.3559998870 8.8559999466 8.5000000000 0.0367159583 20.770900726 0.3229717910 2.6228699684 5.5370621681 131.76939392 2.7899310589 27.915424347 3.6712210178 75.674346924 5.1402268410 3.6725668907
 3133.3969727 6.0000000000 0.3559998870 8.8559999466 8.5000000000 0.0309378691 22.825740814 0.3279064000 2.6325840950 5.9091358185 143.14779663 4.2360038757 27.740438461 3.4787759781 76.539176941 5.2417092323 3.3934950829
 3133.5493164 6.0000000000 0.3559998870 8.8559999466 8.5000000000 0.0247570705 24.430570602 0.3320898116 2.6411399841 6.1065697670 153.82179260 5.0345802307 27.718166351 3.2639060020 77.431159973 4.8955521584 3.0232949257
 3133.7019043 6.0000000000 0.3559998870 8.8559999466 8.5000000000 0.0245459508 25.643890381 0.3293476105 2.6386539936 6.0278081894 160.77310181 4.8347949982 27.786691666 3.0771319866 78.262893677 4.1440258026 2.6830430031
 3133.8542480 6.0000000000 0.3559998870 8.8559999466 8.5000000000 0.0323671997 25.644239426 0.3165378869 2.6243069172 5.7712740898 161.48680115 4.3107447624 27.860151291 2.9346508980 79.019096375 3.3920919895 2.4671840668
 3134.0065918 6.0000000000 0.3559998870 8.8559999466 8.5000000000 0.0441030003 24.023090363 0.2970033884 2.6042790413 5.5106458664 154.19940186 4.1995592117 27.854192734 2.8297948837 79.832832336 2.9378070831 2.3896119595
 3134.1589355 6.0000000000 0.3559998870 8.8559999466 8.5000000000 0.0527181812 21.895729065 0.2781754136 2.5877408981 5.3415250778 140.96350098 4.2204031944 27.705221176 2.7370049953 80.747703552 2.7686750889 2.3899428844
 3134.3112793 6.0000000000 0.3559998870 8.8559999466 8.5000000000 0.0560765713 20.921949387 0.2629710138 2.5730960369 5.2078671455 125.38960266 3.5508859158 27.419921875 2.6167409420 81.642601013 2.8439829350 2.3919439316
 3134.4638672 6.0000000000 0.3559998870 8.8559999466 8.5000000000 0.0550414808 20.341600418 0.2492372990 2.5541810989 5.0295209885 110.93309784 2.4888489246 27.076356888 2.4639890194 82.428146362 3.0277628899 2.3353219032
 3134.6162109 5.0000000000 0.3559998870 8.8559999466 8.5000000000 0.0514348112 18.508180618 0.2352320999 2.5248520374 4.8009080887 101.06580353 1.8905550241 26.788320541 2.2908620834 83.026412964 3.1559400558 2.2105679512
 3134.7685547 5.0000000000 0.3559998870 8.8559999466 8.5000000000 0.0467283316 15.029259682 0.2227302939 2.4851279259 4.5922417641 96.865386963 2.1038389206 26.680301666 2.1111869812 83.305511475 3.1341550350 2.0499310493
 3134.9208984 5.0000000000 0.3559922874 8.8559923172 8.5000000000 0.0411742888 11.322369576 0.2146085054 2.4460179806 4.4644799232 94.297241211 2.6198511124 26.808166504 1.9367769957 83.377868652 2.9698638916 1.8716549873
 3135.0734863 5.0000000000 0.3553428948 8.8553428650 8.5000000000 0.0359183811 9.0401382446 0.2116664052 2.4123740196 4.4215698242 89.082206726 2.7087049484 27.153787613 1.7731200457 83.408760071 2.7142810822 1.6944199800
 3135.2258301 5.0000000000 0.3515605927 8.8515605927 8.5000000000 0.0328552909 8.0100717545 0.2117244005 2.3859059811 4.4228630066 80.150337219 2.3449659348 27.631797791 1.6298990250 83.516723633 2.4380030632 1.5416870117
 3135.3781738 5.0000000000 0.3411932290 8.8411931992 8.5000000000 0.0330667384 7.4494900703 0.2118276954 2.3678390980 4.4195389748 70.347099304 1.8739249706 28.097919464 1.5103449821 83.626052856 2.2215108871 1.4287149906
 3135.5305176 5.0000000000 0.3241719604 8.8241720200 8.5000000000 0.0356137082 7.0412979126 0.2108411938 2.3585770130 4.4066338539 63.802349091 1.5882400274 28.421346664 1.4200769663 83.561492920 2.0925910473 1.3551950455
 3135.6831055 5.0000000000 0.3116188049 8.8116188049 8.5000000000 0.0387040488 7.1310567856 0.2095457017 2.3574819565 4.4234747887 61.586170197 1.5335890055 28.520465851 1.3596669436 83.318763733 2.0439679623 1.3195899725
 3135.8354492 5.0000000000 0.3127068877 8.8127069473 8.5000000000 0.0413932502 7.6092591286 0.2083885968 2.3607389927 4.4614500999 61.930641174 1.3997030258 28.383453369 1.3236800432 83.005569458 2.0449080467 1.3207169771
 3135.9877930 5.0000000000 0.3270826042 8.8270826340 8.5000000000 0.0424500108 7.8599958420 0.2071782947 2.3674199581 4.4528870583 62.579219818 1.0247240067 28.073511124 1.3069080114 82.688133240 2.0805070400 1.3537939787
 3136.1401367 2.0000000000 0.3433695138 8.8433685303 8.5000000000 0.0411339402 7.3195390701 0.2054024041 2.3743400574 4.3290839195 61.663169861 0.5473567843 27.725751877 1.3056190014 82.404212952 2.1671459675 1.3960340023
 3136.2927246 2.0000000000 0.3524541855 8.8524541855 8.5000000000 0.0387568101 5.8864631653 0.2036025971 2.3759350777 4.1415858269 58.622859955 0.3142861128 27.510915756 1.3112560511 82.243499756 2.3139760494 1.4222919941
 3136.4450684 2.0000000000 0.3543539047 8.8543539047 8.5000000000 0.0380462892 4.3182759285 0.2025966942 2.3683609962 3.9526290894 54.190689087 0.2963736951 27.555534363 1.3204079866 82.280189514 2.4626069069 1.4171240330
 3136.5974121 2.0000000000 0.3498801887 8.8498802185 8.5000000000 0.0404887907 3.0286409855 0.2023704946 2.3522889614 3.7858550549 49.141670227 0.2970410883 27.862878799 1.3363059759 82.486183167 2.4638650417 1.3893909454
 3136.7497559 2.0000000000 0.3407087028 8.8407087326 8.5000000000 0.0438892096 2.0213050842 0.2029702961 2.3330600262 3.6505320072 44.166801453 0.3694013059 28.306032181 1.3618669510 82.691162109 2.3082239628 1.3668309450
 3136.9020996 2.0000000000 0.3305273056 8.8305273056 8.5000000000 0.0460785404 1.2687770128 0.2049003989 2.3214099407 3.5893509388 40.321899414 0.6298766732 28.678459167 1.3957109451 82.629592896 2.0991139412 1.3657070398
 3137.0546875 2.0000000000 0.3265161812 8.8265161514 8.5000000000 0.0477990992 1.0740530491 0.2063422054 2.3216750622 3.6133520603 38.336109161 0.8839974999 28.753921509 1.4315739870 82.324943542 1.9417469501 1.3891530037
 3137.2070313 2.0000000000 0.3311843872 8.8311843872 8.5000000000 0.0495500714 1.3377870321 0.2050559074 2.3342010975 3.7100200653 38.374580383 0.9119582176 28.446418762 1.4610830545 81.928176880 1.9040160179 1.4318000078
 3137.3593750 2.0000000000 0.3420361578 8.8420362473 8.5000000000 0.0498230904 1.7339940071 0.2008462995 2.3538630009 3.8092789650 39.948379517 0.7703483105 27.871187210 1.4871979952 81.605590820 2.0050020218 1.4730859995
 3137.5117188 2.0000000000 0.3514986038 8.8514986038 8.5000000000 0.0469884798 1.8674000502 0.1969535053 2.3657848835 3.8230528831 42.066970825 0.6756528020 27.277263641 1.5257019997 81.379203796 2.2079610825 1.4992460012
 3137.6643066 2.0000000000 0.3553391397 8.8553390503 8.5000000000 0.0421764292 1.6851589680 0.1966280937 2.3611590862 3.7710609436 43.279159546 0.7320392132 26.902030945 1.6075040102 81.048286438 2.3714890480 1.5212179422
 3137.8166504 2.0000000000 0.3559998870 8.8559999466 8.5000000000 0.0394887701 1.5484650135 0.1977970004 2.3428590298 3.6981010437 42.686180115 0.7824466228 26.718067169 1.7659449577 80.508033752 2.3020939827 1.5827529430
 3137.9689941 2.0000000000 0.3559998870 8.8559999466 8.5000000000 0.0398561098 1.6847980022 0.1959093958 2.3219950199 3.6513309479 40.738811493 0.7223541141 26.441783905 1.9977680445 79.818367004 2.0987639427 1.7296379805
 3138.1213379 2.0000000000 0.3559998870 8.8559999466 8.5000000000 0.0414581485 2.0711190701 0.1879502982 2.3092710972 3.7109839916 38.986049652 0.5913550854 25.763858795 2.2827301025 79.117156982 1.9564319849 1.9995640516
 3138.2739258 2.0000000000 0.3559998870 8.8559999466 8.5000000000 0.0434452109 2.4218900204 0.1729813069 2.3167569637 3.9338500500 38.593681335 0.4836691022 24.558946609 2.5997629166 78.529716492 1.9338159561 2.3992450237
