# LAS format log file from PETREL
# Project units are specified as depth units
#==================================================================
~Version information
VERS.   2.0:
WRAP.   NO:
#==================================================================
~Well
STRT .m      704.45709229 :
STOP .m      3999.9543457 :
STEP .m     0.00000000 :
NULL .        -999.250000 :
COMP.           : COMPANY
WELL.  25/2-5 Lille Froey   : WELL
FLD.            : FIELD
LOC.            : LOCATION
SRVC.           : SERVICE COMPANY
DATE.  2018-09-11 14:48:17   : Log Export Date {yyyy-MM-dd HH:mm:ss}
PROV.           : PROVINCE
UWI.   25/2-5   : UNIQUE WELL ID
API.            : API NUMBER
#==================================================================
~Curve
DEPT .m                   : DEPTH
Lithology_geolink ._      : Lithology_geolink
CALI .in                  : CALI
BS .in                    : BS
DRHO .g/cm3               : DRHO
NPHI .m3/m3               : NPHI
RHOB .g/cm3               : RHOB
GR .gAPI                  : GR
DTC .us/ft                : DTC
DTE .us/ft                : DTE
RDEP .ohm.m               : RDEP
SP .mV                    : SP
RSHA .ohm.m               : RSHA
RMED .ohm.m               : RMED
~Parameter
#==================================================================
~Ascii
# ...
 1361.6058350  -999.250000 17.500000000 17.500000000  -999.250000  -999.250000  -999.250000 48.319999695 123.51672363 135.91075134 1.6181377172 45.614101410 1.4468870163 1.4468870163
 1361.7581787  -999.250000 17.500000000 17.500000000  -999.250000  -999.250000  -999.250000 49.742000580 122.64939117 135.05117798 1.6089254618 45.646865845 1.4806501865 1.4806501865
 1361.9106445  -999.250000 17.500000000 17.500000000  -999.250000  -999.250000  -999.250000 51.334999084 121.02037811 133.18359375 1.5999239683 45.679885864 1.5091803074 1.5091803074
 1362.0629883  -999.250000 17.500000000 17.500000000  -999.250000  -999.250000  -999.250000 52.119998932 119.48539734 131.52439880 1.6152932644 45.712104797 1.5299047232 1.5299047232
 1362.2153320  -999.250000 17.500000000 17.500000000  -999.250000  -999.250000  -999.250000 52.733001709 118.47642517 130.38903809 1.6569447517 45.744865417 1.5481089354 1.5481089354
 1362.3677979  -999.250000 17.500000000 17.500000000  -999.250000  -999.250000  -999.250000 53.888000488 118.44147491 130.34921265 1.7047389746 45.828876495 1.5661202669 1.5661202669
 1362.5201416  -999.250000 17.500000000 17.500000000  -999.250000  -999.250000  -999.250000 54.993000031 119.31741333 131.31394958 1.7511587143 46.038902283 1.5841089487 1.5841089487
 1362.6726074  -999.250000 17.500000000 17.500000000  -999.250000  -999.250000  -999.250000 54.921001434 120.06789398 132.06472778 1.7688623667 46.284759521 1.5966290236 1.5966290236
 1362.8249512  -999.250000 17.500000000 17.500000000  -999.250000  -999.250000  -999.250000 54.430000305 120.31399536 132.35578918 1.7584230900 46.519847870 1.6044867039 1.6044867039
 1362.9774170  -999.250000 17.500000000 17.500000000  -999.250000  -999.250000  -999.250000 53.889999390 120.34806824 132.46582031 1.7424203157 46.448410034 1.6075689793 1.6075689793
 1363.1297607  -999.250000 17.500000000 17.500000000  -999.250000  -999.250000  -999.250000 54.251998901 120.10337830 132.15290833 1.7248508930 46.271556854 1.5938911438 1.5938911438
 1363.2822266  -999.250000 17.500000000 17.500000000  -999.250000  -999.250000  -999.250000 54.849998474 120.22189331 132.38571167 1.7076340914 46.089229584 1.5750952959 1.5750952959
 1363.4345703  -999.250000 17.500000000 17.500000000  -999.250000  -999.250000  -999.250000 55.199001312 121.44370270 133.58741760 1.6906369925 45.906558990 1.5561072826 1.5561072826
 1363.5870361  -999.250000 17.500000000 17.500000000  -999.250000  -999.250000  -999.250000 54.729000092 122.32506561 134.73889160 1.6728478670 45.723442078 1.5370953083 1.5370953083
 1363.7393799  -999.250000 17.500000000 17.500000000  -999.250000  -999.250000  -999.250000 54.712001801 123.14110565 135.53611755 1.6556370258 45.545261383 1.5181072950 1.5181072950
 1363.8918457  -999.250000 17.500000000 17.500000000  -999.250000  -999.250000  -999.250000 55.011001587 123.86238098 136.31910706 1.6386340857 45.550144196 1.4936041832 1.4936041832
 1364.0441895  -999.250000 17.500000000 17.500000000  -999.250000  -999.250000  -999.250000 55.324001312 124.25952148 136.78462219 1.6216369867 45.701633453 1.4668196440 1.4668196440
 1364.1966553  -999.250000 17.500000000 17.500000000  -999.250000  -999.250000  -999.250000 54.904998779 124.26305389 136.82115173 1.6132826805 45.879665375 1.4405996799 1.4405996799
 1364.3489990  -999.250000 17.500000000 17.500000000  -999.250000  -999.250000  -999.250000 54.212001801 123.94385529 136.50817871 1.6104278564 46.058418274 1.4404911995 1.4404911995
 1364.5013428  -999.250000 17.500000000 17.500000000  -999.250000  -999.250000  -999.250000 53.175998688 122.89566803 135.14718628 1.6084278822 46.212223053 1.4757045507 1.4757045507
 1364.6538086  -999.250000 17.500000000 17.500000000  -999.250000  -999.250000  -999.250000 51.342998505 120.83113861 132.95259094 1.6064275503 46.185947418 1.5195161104 1.5195161104
 1364.8061523  -999.250000 17.500000000 17.500000000  -999.250000  -999.250000  -999.250000 49.445999146 119.22719574 131.29211426 1.6044278145 46.096321106 1.5493794680 1.5493794680
 1364.9586182  -999.250000 17.500000000 17.500000000  -999.250000  -999.250000  -999.250000 46.604000092 118.70768738 130.58598328 1.6102898121 46.003047943 1.5471553802 1.5471553802
 1365.1109619  -999.250000 17.500000000 17.500000000  -999.250000  -999.250000  -999.250000 46.698001862 119.10751343 131.17608643 1.6528750658 45.910102844 1.5379455090 1.5379455090
 1365.2634277  -999.250000 17.500000000 17.500000000  -999.250000  -999.250000  -999.250000 47.625999451 120.16613007 132.18244934 1.7056701183 45.816261292 1.5454134941 1.5454134941
 1365.4157715  -999.250000 17.500000000 17.500000000  -999.250000  -999.250000  -999.250000 49.442001343 119.98409271 132.09486389 1.7586610317 45.751319885 1.5738662481 1.5738662481
 1365.5682373  -999.250000 17.500000000 17.500000000  -999.250000  -999.250000  -999.250000 50.075000763 118.53208923 130.44560242 1.8116700649 45.852745056 1.6061025858 1.6061025858
 1365.7205811  -999.250000 17.500000000 17.500000000  -999.250000  -999.250000  -999.250000 50.575000763 115.94988251 127.51871490 1.8646610975 46.010192871 1.6639487743 1.6639487743
 1365.8730469  -999.250000 17.500000000 17.500000000  -999.250000  -999.250000  -999.250000 49.776000977 112.65106201 124.00247192 1.9168839455 46.170513153 1.7642900944 1.7642900944
 1366.0253906  -999.250000 17.500000000 17.500000000  -999.250000  -999.250000  -999.250000 48.987998962 109.90301514 121.02856445 1.9696609974 46.331195831 1.8750048876 1.8750048876
 1366.1778564  -999.250000 17.500000000 17.500000000  -999.250000  -999.250000  -999.250000 48.923000336 109.15348053 120.10374451 2.0210976601 46.492298126 1.9350849390 1.9350849390
 1366.3302002  -999.250000 17.500000000 17.500000000  -999.250000  -999.250000  -999.250000 49.431999207 110.94171906 122.16201782 2.0209951401 46.652511597 1.8908725977 1.8908725977
 1366.4825439  -999.250000 17.500000000 17.500000000  -999.250000  -999.250000  -999.250000 50.360000610 114.61660767 126.14264679 1.9724086523 46.668972015 1.7819408178 1.7819408178
 1366.6350098  -999.250000 17.500000000 17.500000000  -999.250000  -999.250000  -999.250000 49.458000183 117.78339386 129.52586365 1.9136124849 46.560451508 1.6563742161 1.6563742161
 1366.7873535  -999.250000 17.500000000 17.500000000  -999.250000  -999.250000  -999.250000 48.416000366 119.06481171 131.09269714 1.8546226025 46.428535461 1.6054852009 1.6054852009
 1366.9398193  -999.250000 17.500000000 17.500000000  -999.250000  -999.250000  -999.250000 47.887001038 119.04426575 130.91377258 1.7995436192 46.296451569 1.6052756310 1.6052756310
 1367.0921631  -999.250000 17.500000000 17.500000000  -999.250000  -999.250000  -999.250000 47.312000275 118.67932129 130.71879578 1.7502692938 46.202156067 1.6140544415 1.6140544415
 1367.2446289  -999.250000 17.500000000 17.500000000  -999.250000  -999.250000  -999.250000 46.816001892 119.68950653 131.74867249 1.7022610903 46.187137604 1.6160000563 1.6160000563
 1367.3969727  -999.250000 17.500000000 17.500000000  -999.250000  -999.250000  -999.250000 46.388999939 120.74218750 132.86233521 1.6542693377 46.192703247 1.6011073589 1.6011073589
 1367.5494385  -999.250000 17.500000000 17.500000000  -999.250000  -999.250000  -999.250000 45.410999298 121.27352142 133.37680054 1.6070472002 46.199489594 1.5820952654 1.5820952654
 1367.7017822  -999.250000 17.500000000 17.500000000  -999.250000  -999.250000  -999.250000 44.546001434 121.50643921 133.69911194 1.5907114744 46.206485748 1.5623234510 1.5623234510
 1367.8542480  -999.250000 17.500000000 17.500000000  -999.250000  -999.250000  -999.250000 44.266998291 121.29454041 133.57617188 1.5850688219 46.212707520 1.5423108339 1.5423108339
 1368.0065918  -999.250000 17.500000000 17.500000000  -999.250000  -999.250000  -999.250000 44.687999725 121.07695007 133.28485107 1.5800696611 46.219486237 1.5497573614 1.5497573614
 1368.1590576  -999.250000 17.500000000 17.500000000  -999.250000  -999.250000  -999.250000 45.826999664 121.60484314 133.88401794 1.5742826462 46.226490021 1.5577067137 1.5577067137
