# LAS format log file from PETREL
# Project units are specified as depth units
#==================================================================
~Version information
VERS.   2.0:
WRAP.   NO:
#==================================================================
~Well
STRT .m      693.74005127 :
STOP .m      3929.9541016 :
STEP .m     0.00000000 :
NULL .        -999.250000 :
COMP.           : COMPANY
WELL.  25/3-1   : WELL
FLD.            : FIELD
LOC.            : LOCATION
SRVC.           : SERVICE COMPANY
DATE.  2018-09-11 14:48:19   : Log Export Date {yyyy-MM-dd HH:mm:ss}
PROV.           : PROVINCE
UWI.   25/3-1   : UNIQUE WELL ID
API.            : API NUMBER
#==================================================================
~Curve
DEPT .m                   : DEPTH
Lithology_geolink ._      : Lithology_geolink
CALI .in                  : CALI
BS .in                    : BS
DRHO .g/cm3               : DRHO
NPHI .m3/m3               : NPHI
RHOB .g/cm3               : RHOB
PEF .b/e                  : PEF
GR .gAPI                  : GR
DTC .us/ft                : DTC
RDEP .ohm.m               : RDEP
SP .mV                    : SP
RSHA .ohm.m               : RSHA
RMED .ohm.m               : RMED
~Parameter
#==================================================================
~Ascii
# ...
 1122.8984375  -999.250000 17.618000031 17.500000000 0.3759999871  -999.250000 2.2324688435 2.4179999828 36.840660095 146.07374573 0.9207996726 -100.0999985 0.8100520968 0.7239999771
 1123.0509033  -999.250000 17.667999268 17.500000000 0.4420000017  -999.250000 2.5774214268 2.7809998989 39.971973419 146.88378906 0.9937077761 -100.1090012 0.8090040088 0.7480000257
 1123.2032471  -999.250000 17.621999741 17.500000000 0.3889999986  -999.250000 2.4934656620 3.2990000248 37.164772034 147.20516968 1.0567476749 -100.2490005 0.8508317471 0.8140000105
 1123.3557129  -999.250000 17.482000351 17.500000000 0.0099999998  -999.250000 2.0644295216 3.7790000439 43.254215240 146.59011841 1.0898679495 -101.1269989 0.8908398151 0.8999999762
 1123.5080566  -999.250000 17.365999222 17.500000000 0.0179999992  -999.250000 1.9920907021 4.1209998131 47.724262238 145.61222839 1.1198798418 -101.0699997 0.9278517365 0.9639999866
 1123.6605225  -999.250000 17.423000336 17.500000000 0.0199999996  -999.250000 1.9756684303 4.0590000153 54.510124207 145.64187622 1.1818013191 -100.5139999 0.9299935699 1.0199999809
 1123.8128662  -999.250000 17.608999252 17.500000000 0.0240000002  -999.250000 1.9985468388 3.8459999561 53.757225037 147.60244751 1.2477358580 -99.78500366 0.9280079603 1.0700000525
 1123.9652100  -999.250000 18.176000595 17.500000000 0.0320000015  -999.250000 2.0339534283 3.7620000839 54.753597260 149.47846985 1.3595513105 -100.8600006 0.9220240116 1.1050000191
 1124.1176758  -999.250000 18.427000046 17.500000000 0.0320000015  -999.250000 2.0216343403 3.9389998913 56.291534424 150.91589355 1.4346996546 -102.1719971 0.8961040974 1.1200000048
 1124.2700195  -999.250000 17.785999298 17.500000000 0.0280000009  -999.250000 1.9885530472 4.0590000153 60.819107056 152.06303406 1.4449599981 -102.1809998 0.8701041937 1.1369999647
 1124.4224854  -999.250000 17.472000122 17.500000000 0.0219999999  -999.250000 1.9739371538 3.9389998913 61.184432983 152.55332947 1.4141241312 -101.9270020 0.8630279899 1.1369999647
 1124.5748291  -999.250000 18.000999451 17.500000000 0.0250000004  -999.250000 2.0013999939 3.4920001030 57.866989136 151.19500732 1.3681843281 -100.2639999 0.8600120544 1.1089999676
 1124.7272949  -999.250000 18.568000793 17.500000000 0.0240000002  -999.250000 2.0381445885 3.3980000019 51.848648071 149.43861389 1.2942962646 -100.8389969 0.8600000143 1.0690000057
 1124.8796387  -999.250000 18.125999451 17.500000000 0.0230000000  -999.250000 2.0707843304 3.5329999924 47.876541138 148.76705933 1.2222884893 -101.7170029 0.8600000143 1.0349999666
 1125.0321045  -999.250000 17.851999283 17.500000000 0.0109999999  -999.250000 2.0773220062 3.4340000153 43.601848602 148.58680725 1.1931160688 -101.5950012 0.8619920015 0.9940000176
 1125.1844482  -999.250000 18.618999481 17.500000000 0.0099999998  -999.250000 2.0897064209 3.1909999847 43.045322418 148.46284485 1.1920040846 -100.6039963 0.8679759502 0.9700000286
 1125.3369141  -999.250000 17.834999084 17.500000000 0.0080000004  -999.250000 2.1012408733 2.9219999313 42.596717834 148.09210205 1.2188918591 -99.80899811 0.8789559603 0.9789999723
 1125.4892578  -999.250000 17.681999207 17.500000000 0.0030000000  -999.250000 2.1156468391 2.9159998894 46.224266052 147.03599548 1.2488797903 -100.3840027 0.8919479251 1.0279999971
 1125.6417236  -999.250000 17.752000809 17.500000000 0.0020000001  -999.250000 2.1287908554 2.9140000343 48.925678253 144.54713440 1.2649487257 -101.1969986 0.9039615393 1.0829999447
 1125.7940674  -999.250000 17.766000748 17.500000000 0.0030000000  -999.250000 2.1301686764 2.9530000687 54.256450653 141.86524963 1.2640041113 -100.9020004 0.9169479609 1.1269999743
 1125.9465332  -999.250000 17.754999161 17.500000000 0.0040000002  -999.250000 2.1212873459 3.0179998875 57.380001068 139.78057861 1.2739679813 -101.9110031 0.9289615750 1.1569999456
 1126.0988770  -999.250000 17.684999466 17.500000000 0.0060000001  -999.250000 2.1260373592 3.0720000267 60.963256836 137.86189270 1.3108518124 -102.9199982 0.9299960136 1.1740000248
 1126.2512207  -999.250000 17.662000656 17.500000000 0.0080000004  -999.250000 2.1413121223 3.0680000782 60.842304230 136.99389648 1.3787275553 -103.8639984 0.9369719028 1.1859999895
 1126.4036865  -999.250000 17.606000900 17.500000000 0.0099999998  -999.250000 2.1565253735 3.1389999390 59.522117615 137.90994263 1.4716277122 -104.3069992 0.9549279213 1.2050000429
 1126.5560303  -999.250000 17.740999222 17.500000000 0.0089999996  -999.250000 2.1466343403 3.0820000172 56.142131805 142.16735840 1.5078557730 -104.2500000 0.9599799514 1.2259999514
 1126.7084961  -999.250000 18.027999878 17.500000000 0.0070000002  -999.250000 2.1352560520 3.0350000858 54.744232178 145.21833801 1.5179599524 -103.9560013 0.9590039849 1.2640000582
 1126.8608398  -999.250000 17.606000900 17.500000000 0.0040000002  -999.250000 2.1387751102 2.8239998817 55.179946899 145.04727173 1.5010681152 -104.7689972 0.9530240297 1.2860000134
 1127.0133057  -999.250000 17.714000702 17.500000000 0.0030000000  -999.250000 2.1584692001 2.8180000782 58.885051727 143.31175232 1.4751040936 -104.2119980 0.9639559388 1.2899999619
 1127.1656494  -999.250000 17.900999069 17.500000000 -0.001000000  -999.250000 2.1741154194 0.6769999862 61.863842010 142.03552246 1.4530880451 -103.2870026 0.9888998866 1.2890000343
 1127.3181152  -999.250000 18.165000916 17.500000000 0.0500000007  -999.250000 2.1812844276 0.7200000286 62.843441010 141.08763123 1.4500120878 -102.7969971 0.9959719777 1.2779999971
 1127.4704590  -999.250000 19.326999664 17.500000000 0.3950000107  -999.250000 2.2310028076 0.7670000196 60.851799011 140.16906738 1.4619519711 -102.5670013 0.9979920387 1.2419999838
 1127.6229248  -999.250000 18.299999237 17.500000000 0.4140000045  -999.250000 2.2311468124 3.2990000248 58.927082062 139.39337158 1.4829326868 -103.9449997 0.9920192361 1.2300000191
 1127.7752686  -999.250000 17.707000732 17.500000000 0.4379999936  -999.250000 2.2692687511 3.3570001125 60.981697083 138.48320007 1.5158679485 -104.3880005 0.9900079966 1.2500000000
 1127.9277344  -999.250000 17.724000931 17.500000000 0.4920000136  -999.250000 2.5526072979 3.5899999142 60.144676208 137.81845093 1.5508878231 -104.2669983 0.9900000095 1.2940000296
 1128.0800781  -999.250000 17.635999680 17.500000000 0.4429999888  -999.250000 2.5009593964 3.6949999332 60.276786804 137.71891785 1.5679318905 -103.5370026 0.9900000095 1.3159999847
 1128.2324219  -999.250000 17.503999710 17.500000000 0.0480000004  -999.250000 2.1252563000 3.4920001030 57.894821167 137.69624329 1.5510680676 -104.4899979 0.9929879308 1.2999999523
 1128.3848877  -999.250000 17.537000656 17.500000000 0.0359999985  -999.250000 2.1211440563 3.3519999981 59.645183563 136.94830322 1.5490080118 -104.9219971 0.9989759922 1.2640000582
 1128.5372314  -999.250000 17.587999344 17.500000000 0.0219999999  -999.250000 2.1533689499 3.0820000172 56.345302582 136.44847107 1.5559719801 -104.3000031 0.9820681214 1.2380000353
 1128.6896973  -999.250000 17.732000351 17.500000000 0.0240000002  -999.250000 2.1885976791 2.9860000610 52.320446014 135.92927551 1.5480320454 -102.8740005 0.9720400572 1.2489999533
 1128.8420410  -999.250000 18.163000107 17.500000000 0.0089999996  -999.250000 2.2025845051 2.8849999905 50.483936310 135.14675903 1.5310680866 -102.0139999 0.9779759645 1.2599999905
 1128.9945068  -999.250000 17.708000183 17.500000000 0.0049999999  -999.250000 2.2014501095 2.9179999828 50.945255280 134.55110168 1.5001240969 -102.1559982 0.9471241236 1.2469999790
 1129.1468506  -999.250000 17.846000671 17.500000000 0.0099999998  -999.250000 2.1989781857 2.9609999657 53.181411743 134.25381470 1.4760961533 -102.9670029 0.9091522098 1.1990000010
 1129.2993164  -999.250000 17.825000763 17.500000000 0.0179999992  -999.250000 2.1833994389 3.1619999409 50.917636871 133.55857849 1.4670360088 -102.4100037 0.8960520625 1.1519999504
 1129.4516602  -999.250000 17.556999207 17.500000000 0.0219999999  -999.250000 2.1646873951 3.3199999332 47.798000336 133.63265991 1.4450881481 -101.6159973 0.8999839425 1.1280000210
