# LAS format log file from PETREL
# Project units are specified as depth units
#==================================================================
~Version information
VERS.   2.0:
WRAP.   NO:
#==================================================================
~Well
STRT .m      693.74005127 :
STOP .m      3929.9541016 :
STEP .m     0.00000000 :
NULL .        -999.250000 :
COMP.           : COMPANY
WELL.  25/3-1   : WELL
FLD.            : FIELD
LOC.            : LOCATION
SRVC.           : SERVICE COMPANY
DATE.  2018-09-11 14:48:19   : Log Export Date {yyyy-MM-dd HH:mm:ss}
PROV.           : PROVINCE
UWI.   25/3-1   : UNIQUE WELL ID
API.            : API NUMBER
#==================================================================
~Curve
DEPT .m                   : DEPTH
Lithology_geolink ._      : Lithology_geolink
CALI .in                  : CALI
BS .in                    : BS
DRHO .g/cm3               : DRHO
NPHI .m3/m3               : NPHI
RHOB .g/cm3               : RHOB
PEF .b/e                  : PEF
GR .gAPI                  : GR
DTC .us/ft                : DTC
RDEP .ohm.m               : RDEP
SP .mV                    : SP
RSHA .ohm.m               : RSHA
RMED .ohm.m               : RMED
~Parameter
#==================================================================
~Ascii
# ...
 2417.0793457 5.0000000000 13.022000313 12.250000954 0.0060000001  -999.250000 2.2224822044 5.0549998283 52.450000763 106.45606232 1.2609920502 -81.73500061 1.6400448084 1.2489999533
 2417.2316895 5.0000000000 12.947999954 12.250000954 0.0109999999  -999.250000 2.2030088902 6.1599998474 52.109001160 106.91230774 1.2590031624 -80.94000244 1.5980674028 1.1900000572
 2417.3840332 5.0000000000 12.645999908 12.250000954 0.0399999991  -999.250000 2.1823623180 7.6090002060 49.202659607 108.47367096 1.2330417633 -80.39600372 1.5620577335 1.0859999657
 2417.5363770 5.0000000000 13.659999847 12.250000954 0.0460000001  -999.250000 2.0860667229 11.921999931 48.885498047 109.01949310 1.2260223627 -81.02500153 1.5301023722 1.1009999514
 2417.6889648 5.0000000000 13.963000298 12.250000954 0.0410000011  -999.250000 1.9947677851 13.805000305 51.601001740 107.94020081 1.1611042023 -81.02200317 1.5060385466 1.1360000372
 2417.8413086 5.0000000000 13.692000389 12.250000954 0.0450000018  -999.250000 1.9527332783 12.187999725 49.914001465 107.42384338 1.1410320997 -82.25700378 1.5089951754 1.1469999552
 2417.9936523 5.0000000000 13.244000435 12.250000954 0.0469999984  -999.250000 1.9617608786 10.897999763 48.823745728 110.44136810 1.1360080242 -81.26599884 1.5219790936 1.1449999809
 2418.1459961 5.0000000000 13.892000198 12.250000954 0.0370000005  -999.250000 1.9948166609 10.961000443 45.618141174 115.52439880 1.1240191460 -80.24199677 1.5399711132 1.1469999552
 2418.2983398 5.0000000000 14.236000061 12.250000954 0.0419999994  -999.250000 2.0117743015 12.343999863 47.500972748 116.98365784 1.1060575247 -79.59200287 1.5499680042 1.1660000086
 2418.4509277 5.0000000000 13.338000298 12.250000954 0.0430000015  -999.250000 2.0250980854 13.022999763 49.360000610 115.24081421 1.1269663572 -82.46499634 1.5499999523 1.2020000219
 2418.6032715 5.0000000000 13.138999939 12.250000954 0.0570000000  -999.250000 2.0072724819 12.133000374 47.422103882 114.83421326 1.1220079660 -82.64800262 1.5210465193 1.1469999552
 2418.7556152 5.0000000000 13.051000595 12.250000954 0.0500000007  -999.250000 1.9733040333 12.328000069 44.428798676 114.98158264 1.1359776258 -81.70899963 1.4890512228 1.0959999561
 2418.9079590 5.0000000000 12.965000153 12.250000954 0.0230000000  -999.250000 1.8966031075 10.555000305 42.082756042 114.39933777 1.1330096722 -79.63200378 1.4760415554 1.1230000257
 2419.0605469 5.0000000000 13.512999535 12.250000954 0.0099999998  -999.250000 1.8735455275 12.147999763 43.097999573 113.78668976 1.0880721807 -78.96900177 1.4610240459 1.1189999580
 2419.2128906 5.0000000000 13.182000160 12.250000954 0.0080000004  -999.250000 1.8883159161 12.680000305 49.518001556 113.22259521 1.0530561209 -80.41100311 1.4430288076 1.1050000191
 2419.3652344 5.0000000000 13.178000450 12.250000954 0.0000000000  -999.250000 1.8894776106 14.359000206 52.713878632 112.71664429 1.0330320597 -81.45500183 1.4190385342 1.0609999895
 2419.5175781 5.0000000000 13.439000130 12.250000954 -0.002000000  -999.250000 1.8735288382 14.890999794 56.202407837 112.68203735 1.0280159712 -82.28700256 1.3920863867 0.9879999757
 2419.6701660 5.0000000000 13.984000206 12.250000954 0.0049999999  -999.250000 1.8593292236 13.288999557 54.589000702 112.59781647 1.0339903831 -80.59100342 1.3560576439 0.9879999757
 2419.8225098 5.0000000000 14.706000328 12.250000954 0.0070000002  -999.250000 1.8684016466 13.288999557 53.812000275 112.35845184 1.0250144005 -80.81800079 1.3629888296 1.0169999599
 2419.9748535 5.0000000000 13.979999542 12.250000954 0.0130000003  -999.250000 1.8753792048 11.531000137 52.567996979 111.82790375 1.0100240707 -81.12200165 1.4059311152 1.0310000181
 2420.1271973 5.0000000000 13.574000359 12.250000954 0.0320000015  -999.250000 1.8949589729 11.944999695 49.721565247 110.99942780 0.9950240254 -82.65000153 1.4209759235 1.0169999599
 2420.2795410 5.0000000000 14.219999313 12.250000954 0.0579999983  -999.250000 1.9341243505 12.272999763 48.249359131 111.19792175 0.9920095801 -80.18399811 1.4269808531 0.9990000129
 2420.4321289 5.0000000000 14.628000259 12.250000954 0.0649999976  -999.250000 1.9384056330 16.437999725 47.138000488 112.69642639 1.0179582834 -82.62599945 1.4150191545 0.9700000286
 2420.5844727 5.0000000000 14.979000092 12.250000954 0.0640000030  -999.250000 1.9105769396 19.781000137 49.475254059 114.49891663 1.0848926306 -81.20999908 1.4100079536 0.9549999833
 2420.7368164 5.0000000000 15.435999870 12.250000954 0.0520000011  -999.250000 1.8394231796 17.358999252 49.092620850 115.99121857 1.0610384941 -81.63300323 1.4099999666 1.0110000372
 2420.8891602 5.0000000000 14.979000092 12.250000954 0.0379999988  -999.250000 1.8223872185 11.875000000 48.310253143 116.09931946 1.0609999895 -80.20700073 1.4329264164 1.1339999437
 2421.0417480 5.0000000000 13.163000107 12.250000954 0.0219999999  -999.250000 1.8563190699 9.4530000687 44.265998840 114.38694000 1.0609999895 -81.01000214 1.4569615126 1.1759999990
 2421.1940918 5.0000000000 13.956000328 12.250000954 0.0219999999  -999.250000 1.9459199905 7.9609999657 42.618000031 112.34932709 1.0470224619 -80.66799927 1.4819599390 1.1820000410
 2421.3464355 5.0000000000 13.442998886 12.250000954 0.0340000018  -999.250000 2.0567288399 10.022999763 45.404533386 112.22383881 1.0659695864 -83.57399750 1.4620320797 1.1490000486
 2421.4987793 5.0000000000 13.491000175 12.250000954 0.0540000014  -999.250000 2.0853698254 13.812999725 49.640209198 114.01145172 1.0889264345 -79.78600311 1.4211312532 1.0290000439
 2421.6513672 5.0000000000 14.403999329 12.250000954 0.0640000030  -999.250000 2.0549802780 20.891000748 54.043998718 115.02770996 1.1329294443 -80.41100311 1.4080208540 1.0679999590
 2421.8037109 5.0000000000 13.437000275 12.250000954 0.0320000015  -999.250000 1.8733725548 21.422000885 51.543998718 115.02401733 1.1439824104 -82.02899933 1.4020096064 1.0089999437
 2421.9560547 5.0000000000 14.319999695 12.250000954 0.0219999999  -999.250000 1.7914216518 15.086000443 47.982707977 115.04901886 1.0970753431 -81.85299683 1.4079903364 1.0069999695
 2422.1083984 5.0000000000 14.294999123 12.250000954 0.0230000000  -999.250000 1.7838666439 14.883000374 46.203845978 114.46727753 1.0490769148 -79.17800140 1.3970175982 0.9950000048
 2422.2607422 5.0000000000 14.071999550 12.250000954 0.0120000001  -999.250000 1.8007359505 14.086000443 47.773475647 114.45203400 1.0250767469 -79.31099701 1.3780608177 0.9459999800
 2422.4133301 5.0000000000 15.850999832 12.250000954 0.0070000002  -999.250000 1.8081839085 16.547000885 48.013000488 114.01589966 1.0309903622 -81.18800354 1.3480480909 0.9509999752
 2422.5656738 5.0000000000 16.676000595 12.250000954 0.0080000004  -999.250000 1.7756291628 18.281000137 46.784969330 111.92227173 1.0539631844 -80.82299805 1.3499968052 0.9610000253
 2422.7180176 5.0000000000 16.924999237 12.250000954 0.0130000003  -999.250000 1.7598863840 19.641000748 45.251457214 110.45568848 1.0939358473 -79.80100250 1.3979231119 1.0160000324
 2422.8703613 5.0000000000 16.358999252 12.250000954 0.0170000009  -999.250000 1.7662724257 15.109000206 47.425506592 108.89694977 1.0780510902 -80.18000031 1.4189327955 1.1339999437
 2423.0229492 5.0000000000 16.134000778 12.250000954 0.0260000005  -999.250000 1.8478453159 8.3360004425 48.706001282 107.67911530 1.0360673666 -82.36000061 1.4239920378 1.0870000124
 2423.1752930 5.0000000000 13.302000046 12.250000954 0.0480000004  -999.250000 1.9871066809 7.1760001183 51.023998260 109.32697296 0.9850817323 -80.54499817 1.3830657005 0.9679999948
 2423.3276367 5.0000000000 13.496999741 12.250000954 0.0710000023  -999.250000 2.0683560371 8.3590002060 53.267406464 112.54215240 0.9330833554 -80.53600311 1.3300849199 0.8939999938
 2423.4799805 5.0000000000 15.005999565 12.250000954 0.0719999969  -999.250000 2.0282132626 10.640999794 53.298954010 115.86168671 0.9001055956 -82.10900116 1.2632144690 0.8690000176
 2423.6325684 5.0000000000 15.602999687 12.250000954 0.0890000015  -999.250000 2.0237944126 12.086000443 52.453998566 119.17450714 0.8730432987 -83.41999817 1.2110832930 0.8610000014
