# LAS format log file from PETREL
# Project units are specified as depth units
#==================================================================
~Version information
VERS.   2.0:
WRAP.   NO:
#==================================================================
~Well
STRT .m      693.74005127 :
STOP .m      3929.9541016 :
STEP .m     0.00000000 :
NULL .        -999.250000 :
COMP.           : COMPANY
WELL.  25/3-1   : WELL
FLD.            : FIELD
LOC.            : LOCATION
SRVC.           : SERVICE COMPANY
DATE.  2018-09-11 14:48:19   : Log Export Date {yyyy-MM-dd HH:mm:ss}
PROV.           : PROVINCE
UWI.   25/3-1   : UNIQUE WELL ID
API.            : API NUMBER
#==================================================================
~Curve
DEPT .m                   : DEPTH
Lithology_geolink ._      : Lithology_geolink
CALI .in                  : CALI
BS .in                    : BS
DRHO .g/cm3               : DRHO
NPHI .m3/m3               : NPHI
RHOB .g/cm3               : RHOB
PEF .b/e                  : PEF
GR .gAPI                  : GR
DTC .us/ft                : DTC
RDEP .ohm.m               : RDEP
SP .mV                    : SP
RSHA .ohm.m               : RSHA
RMED .ohm.m               : RMED
~Parameter
#==================================================================
~Ascii
# ...
 2202.5000000 5.0000000000 12.223000526 12.250000954 0.0070000002  -999.250000 2.2154865265 4.4380002022 37.794364929 110.80468750 0.9201025963 -105.6669998 1.2201570272 0.9319999814
 2202.6525879 5.0000000000 12.315999985 12.250000954 0.0070000002  -999.250000 2.2183086872 4.6170001030 46.383998871 114.58008575 0.9000320435 -103.9260025 1.1411266327 0.8659999967
 2202.8049316 6.0000000000 12.404000282 12.250000954 0.0089999996  -999.250000 2.2426388264 4.9099998474 59.561000824 116.72483826 0.8750799894 -102.4469986 1.0742144585 0.8420000076
 2202.9572754 6.0000000000 12.470999718 12.250000954 0.0099999998  -999.250000 2.2615306377 4.9340000153 66.093528748 116.49963379 0.8440993428 -102.2200012 1.0700129271 0.8640000224
 2203.1096191 6.0000000000 12.331998825 12.250000954 0.0109999999  -999.250000 2.2775881290 4.4530000687 69.102188110 115.87623596 0.8130993843 -98.72299957 1.0729902983 0.8690000176
 2203.2619629 6.0000000000 12.376999855 12.250000954 0.0160000008  -999.250000 2.2826492786 4.5229997635 68.619789124 115.01262665 0.7741249800 -95.85600281 1.0779839754 0.8420000076
 2203.4145508 6.0000000000 12.496000290 12.250000954 0.0140000004  -999.250000 2.2790186405 5.3670001030 75.138000488 115.24926758 0.7430991530 -97.01599884 1.0630480051 0.8100000024
 2203.5668945 6.0000000000 12.532999039 12.250000954 0.0140000004  -999.250000 2.2763791084 6.1799998283 82.072883606 119.22369385 0.7290448546 -97.45999908 1.0430641174 0.7950000167
 2203.7192383 6.0000000000 12.602999687 12.250000954 0.0289999992  -999.250000 2.2841408253 6.3200001717 94.396240234 126.31468201 0.7230192423 -97.23899841 1.0180801153 0.7820000052
 2203.8715820 6.0000000000 12.689998627 12.250000954 0.0430000015  -999.250000 2.2883687019 6.1640000343 94.678581238 130.47042847 0.7080481052 -95.79399872 1.0180000067 0.7630000114
 2204.0241699 6.0000000000 12.828000069 12.250000954 0.0280000009  -999.250000 2.2591226101 5.8049998283 93.212997437 129.47787476 0.6960192323 -96.33499908 1.0349726677 0.7519999743
 2204.1765137 6.0000000000 12.607000351 12.250000954 0.0350000001  -999.250000 2.2642111778 5.3200001717 83.636001587 128.19218445 0.6890224218 -96.93199921 1.0808527470 0.7549999952
 2204.3288574 6.0000000000 12.527000427 12.250000954 0.0350000001  -999.250000 2.2849216461 4.6519999504 82.351058960 125.62204742 0.6919903755 -96.57199860 1.1298429966 0.7670000196
 2204.4812012 6.0000000000 12.442000389 12.250000954 0.0160000008  -999.250000 2.3041846752 4.7769999504 79.096221924 124.90799713 0.7089455128 -97.03199768 1.1788430214 0.7850000262
 2204.6337891 6.0000000000 12.418999672 12.250000954 0.0089999996  -999.250000 2.3247728348 4.6250000000 79.859001160 123.81468201 0.7649102211 -97.57599640 1.3037997484 0.8309999704
 2204.7861328 6.0000000000 12.387000084 12.250000954 0.0109999999  -999.250000 2.3344168663 4.5859999657 74.129997253 116.34522247 0.8417536020 -100.2600021 1.4575071335 0.9330000281
 2204.9384766 6.0000000000 12.293000221 12.250000954 0.0040000002  -999.250000 2.3464317322 4.4099998474 61.785781860 104.40899658 0.8788813949 -99.32499695 1.6394166946 1.0809999704
 2205.0908203 6.0000000000 12.173000336 12.250000954 0.0049999999  -999.250000 2.4175608158 4.1989998817 43.659065247 90.925987244 0.8550769687 -99.45099640 1.7426699400 1.1519999504
 2205.2431641 16.000000000 12.244999886 12.250000954 0.0170000009  -999.250000 2.5124359131 4.1840000153 32.701538086 82.126693726 0.8390512466 -98.44899750 1.7599455118 1.0859999657
 2205.3957520 16.000000000 12.329999924 12.250000954 0.0309999995  -999.250000 2.5380904675 4.3319997787 36.312000275 85.422187805 0.8389999866 -96.46299744 1.5965247154 0.9490000010
 2205.5480957 16.000000000 12.442000389 12.250000954 0.0149999997  -999.250000 2.4395179749 4.4730000496 51.358886719 96.871856689 0.8549487591 -99.11100006 1.3986346722 0.8349999785
 2205.7004395 5.0000000000 12.421999931 12.250000954 0.0160000008  -999.250000 2.3511192799 4.6840000153 64.533889771 109.85894775 0.8619775772 -98.77300262 1.1966474056 0.8140000105
 2205.8527832 5.0000000000 12.428000450 12.250000954 0.0299999993  -999.250000 2.3287475109 4.8010001183 70.893821716 119.11166382 0.8370801210 -95.06300354 1.1013044119 0.8209999800
 2206.0053711 6.0000000000 12.465999603 12.250000954 0.0350000001  -999.250000 2.3272273540 4.8709998131 72.848999023 122.72012329 0.7651153803 -94.92099762 1.0730447769 0.8149999976
 2206.1577148 6.0000000000 12.446000099 12.250000954 0.0309999995  -999.250000 2.3399012089 4.8709998131 73.944000244 121.86184692 0.7071856260 -95.72499847 1.0700097084 0.8019999862
 2206.3100586 6.0000000000 12.451999664 12.250000954 0.0260000005  -999.250000 2.3412680626 4.6329998970 77.003097534 120.45984650 0.6930449009 -98.05699921 1.0719935894 0.7979999781
 2206.4624023 6.0000000000 12.447999001 12.250000954 0.0270000007  -999.250000 2.3382024765 5.2659997940 77.774772644 118.80712128 0.6989807487 -97.33599854 1.0779807568 0.7940000296
 2206.6149902 6.0000000000 12.505000114 12.250000954 0.0299999993  -999.250000 2.3106615543 5.2579998970 76.772003174 118.95937347 0.7309487462 -95.35800171 1.0799968243 0.7940000296
 2206.7673340 6.0000000000 12.732999802 12.250000954 0.0320000015  -999.250000 2.2669458389 5.7030000687 73.517997742 118.98049927 0.7878175974 -95.24900055 1.0809967518 0.8100000024
 2206.9196777 6.0000000000 12.640000343 12.250000954 0.0250000004  -999.250000 2.2440135479 5.3319997787 66.705917358 116.10100555 0.8418269157 -96.53199768 1.0869808197 0.8669999838
 2207.0720215 5.0000000000 12.413000107 12.250000954 0.0260000005  -999.250000 2.2507531643 5.5269999504 60.575824738 112.27619934 0.8908429146 -100.9970016 1.1139134169 0.9559999704
 2207.2243652 5.0000000000 12.290999413 12.250000954 0.0230000000  -999.250000 2.2734563351 5.1840000153 51.478588104 105.27552795 0.9278813601 -102.8809967 1.1628429890 1.0160000324
 2207.3769531 5.0000000000 12.197999954 12.250000954 0.0099999998  -999.250000 2.2747817039 4.9569997787 43.535999298 83.640792847 0.9638847709 -101.4619980 1.2168271542 1.0299999714
 2207.5292969 5.0000000000 12.168001175 12.250000954 0.0040000002  -999.250000 2.2742183208 4.6599998474 37.429782867 87.415115356 1.0058654547 -105.1419983 1.2578686476 1.0479999781
 2207.6816406 5.0000000000 12.213999748 12.250000954 0.0070000002  -999.250000 2.2784593105 4.2150001526 35.010868073 101.52187347 1.0289263725 -106.2900009 1.2599967718 1.0920000076
 2207.8339844 5.0000000000 12.350000381 12.250000954 0.0080000004  -999.250000 2.2749218941 3.8710000515 35.052928925 101.69181061 1.0090640783 -105.0159988 1.2749519348 1.1130000353
 2207.9865723 5.0000000000 12.446000099 12.250000954 0.0109999999  -999.250000 2.2702431679 3.8340001106 37.435001373 101.72532654 0.9750545025 -103.5250015 1.2899758816 1.0160000324
 2208.1389160 5.0000000000 12.526000977 12.250000954 0.0289999992  -999.250000 2.2615680695 4.6760001183 44.950000763 103.14198303 0.9351279736 -101.8700027 1.2001442909 0.8899999857
 2208.2912598 5.0000000000 13.022999763 12.250000954 0.0329999998  -999.250000 2.2414557934 5.3709998131 52.599739075 112.60646057 0.9060929418 -99.35900116 1.1121410131 0.8379999995
 2208.4436035 5.0000000000 13.062999725 12.250000954 0.0379999988  -999.250000 2.2400257587 6.1519999504 63.889900208 119.53572083 0.8790865541 -98.23600006 1.0561791658 0.8439999819
 2208.5961914 6.0000000000 12.645001411 12.250000954 0.0410000011  -999.250000 2.2728679180 5.5349998474 70.551002502 115.15218353 0.8360689282 -96.50800323 1.0400255919 0.8539999723
 2208.7485352 6.0000000000 12.569999695 12.250000954 0.0419999994  -999.250000 2.3127789497 5.5859999657 77.721000671 119.32578278 0.7881535888 -96.71399689 1.0459903479 0.8539999723
 2208.9008789 6.0000000000 12.552000046 12.250000954 0.0289999992  -999.250000 2.3290040493 5.4219999313 78.788291931 112.67634583 0.7800256014 -97.99400330 1.0799455643 0.8550000191
 2209.0532227 6.0000000000 12.423000336 12.250000954 0.0230000000  -999.250000 2.3162391186 5.4770002365 75.596130371 105.99156189 0.8019294739 -97.53900146 1.1139454842 0.8679999709
