# LAS format log file from PETREL
# Project units are specified as depth units
#==================================================================
~Version information
VERS.   2.0:
WRAP.   NO:
#==================================================================
~Well
STRT .m      693.74005127 :
STOP .m      3929.9541016 :
STEP .m     0.00000000 :
NULL .        -999.250000 :
COMP.           : COMPANY
WELL.  25/3-1   : WELL
FLD.            : FIELD
LOC.            : LOCATION
SRVC.           : SERVICE COMPANY
DATE.  2018-09-11 14:48:19   : Log Export Date {yyyy-MM-dd HH:mm:ss}
PROV.           : PROVINCE
UWI.   25/3-1   : UNIQUE WELL ID
API.            : API NUMBER
#==================================================================
~Curve
DEPT .m                   : DEPTH
Lithology_geolink ._      : Lithology_geolink
CALI .in                  : CALI
BS .in                    : BS
DRHO .g/cm3               : DRHO
NPHI .m3/m3               : NPHI
RHOB .g/cm3               : RHOB
PEF .b/e                  : PEF
GR .gAPI                  : GR
DTC .us/ft                : DTC
RDEP .ohm.m               : RDEP
SP .mV                    : SP
RSHA .ohm.m               : RSHA
RMED .ohm.m               : RMED
~Parameter
#==================================================================
~Ascii
# ...
 1987.9208984  -999.250000 22.794000626 12.250000954 0.0710000023  -999.250000 1.8336671591 14.828000069 25.061178207 126.57511902 0.6601569653 -115.9400024 0.8620768785 0.6940000057
 1988.0732422  -999.250000 22.938999176 12.250000954 0.0769999996  -999.250000 1.8606905937 18.218999863 24.269271851 131.01669312 0.6221217513 -116.8170013 0.8380769491 0.6719999909
 1988.2257080  -999.250000 22.650999069 12.250000954 0.0489999987  -999.250000 1.7611348629 20.077999115 24.933465958 132.10112000 0.5940672755 -116.8259964 0.8220384717 0.6539999843
 1988.3780518  -999.250000 22.614000320 12.250000954 0.0189999994  -999.250000 1.6498843431 20.281000137 23.098943710 131.10636902 0.5680832863 -116.6380005 0.8100384474 0.6380000114
 1988.5305176  -999.250000 21.792999268 12.250000954 0.0030000000  -999.250000 1.5883704424 17.641000748 23.390764236 130.94464111 0.5500432849 -115.3440018 0.8040144444 0.6250000000
 1988.6828613  -999.250000 21.153001785 12.250000954 -0.010000000  -999.250000 1.5710968971 20.406000137 23.192159653 130.02957153 0.5380384326 -115.3529968 0.7950288653 0.6110000014
 1988.8353271  -999.250000 22.625000000 12.250000954 -0.022000000  -999.250000 1.5333989859 25.656000137 22.934206009 135.04960632 0.5270264745 -115.4940033 0.7830288410 0.5970000029
 1988.9876709  -999.250000 22.958000183 12.250000954 -0.028000001  -999.250000 1.4479187727 33.187999725 20.986562729 137.44677734 0.5200223923 -116.2399979 0.7710384727 0.5839999914
 1989.1401367  -999.250000 23.091999054 12.250000954 -0.035000000  -999.250000 1.3794201612 39.250000000 20.744192123 141.19123840 0.5190023780 -115.1829987 0.7590288520 0.5780000091
 1989.2924805  -999.250000 23.079999924 12.250000954 -0.037000000  -999.250000 1.3524031639 42.155998230 22.107906342 143.67481995 0.5150128007 -114.0859985 0.7530192137 0.5809999704
 1989.4449463  -999.250000 23.087999344 12.250000954 -0.039999999  -999.250000 1.3520843983 47.094001770 23.911556244 141.72007751 0.5149999857 -115.4639969 0.7500072122 0.5870000124
 1989.5972900  -999.250000 23.041002274 12.250000954 -0.039000001  -999.250000 1.3532624245 40.000000000 23.942975998 137.44879150 0.5189871788 -115.9729996 0.7509967685 0.5910000205
 1989.7496338  -999.250000 23.003999710 12.250000954 -0.033000000  -999.250000 1.3746125698 29.952999115 21.906267166 133.57069397 0.5239839554 -116.4160004 0.7599711418 0.5939999819
 1989.9020996  -999.250000 23.038999557 12.250000954 -0.017999999  -999.250000 1.4679149389 23.483999252 22.635412216 130.74183655 0.5319743752 -116.6220016 0.7709648013 0.5989999771
 1990.0544434  -999.250000 23.076999664 12.250000954 -0.006000000  -999.250000 1.6178593636 19.952999115 23.732240677 131.06184387 0.5409711599 -117.8690033 0.7769807577 0.6029999852
 1990.2069092  -999.250000 22.389999390 12.250000954 0.0020000001  -999.250000 1.7162805796 20.968999863 25.304740906 130.20024109 0.5419967771 -117.3789978 0.7799903750 0.6050000191
 1990.3592529  -999.250000 18.829000473 12.250000954 0.0130000003  -999.250000 1.8019343615 16.468999863 26.396251678 127.87556458 0.5350224376 -116.8919983 0.7799999714 0.6039999723
 1990.5117188  -999.250000 20.836999893 12.250000954 0.0189999994  -999.250000 1.8397665024 16.312999725 23.936973572 126.48714447 0.5210337043 -116.6240005 0.7750120163 0.5970000029
 1990.6640625  -999.250000 22.533000946 12.250000954 0.0289999992  -999.250000 1.9265373945 19.375000000 25.318889618 126.33009338 0.5060480237 -117.5670013 0.7700160146 0.5820000172
 1990.8165283  -999.250000 23.072999954 12.250000954 0.0089999996  -999.250000 1.7792367935 26.516000748 22.555213928 131.49795532 0.4970216453 -117.8799973 0.7699999809 0.5659999847
 1990.9688721  -999.250000 23.141000748 12.250000954 0.0010000000  -999.250000 1.6114562750 33.750000000 24.202676773 140.26239014 0.4970000088 -117.0199966 0.7590352297 0.5600000024
 1991.1213379  -999.250000 23.131999969 12.250000954 -0.007000000  -999.250000 1.5319918394 32.969001770 22.789133072 147.09634399 0.5019879341 -117.0869980 0.7420408726 0.5630000234
 1991.2736816  -999.250000 23.083999634 12.250000954 -0.012000000  -999.250000 1.5301812887 26.077999115 24.993232727 145.34819031 0.5089775920 -117.6070023 0.7400063872 0.5730000138
 1991.4261475  -999.250000 23.091999054 12.250000954 -0.018999999  -999.250000 1.5602320433 20.843999863 24.810148239 144.99372864 0.5149855614 -118.4189987 0.7439904213 0.5870000124
 1991.5784912  -999.250000 22.610000610 12.250000954 -0.020000000  -999.250000 1.6673749685 19.125000000 24.263439178 139.31443787 0.5279583931 -117.9280014 0.7559615374 0.6050000191
 1991.7308350  -999.250000 20.888000488 12.250000954 -0.014000000  -999.250000 1.7602409124 20.843999863 22.838285446 136.04336548 0.5489327312 -117.4380035 0.7759359479 0.6169999838
 1991.8833008  -999.250000 21.173000336 12.250000954 -0.008000000  -999.250000 1.7578718662 22.891000748 23.723289490 133.94100952 0.5689359307 -117.0120010 0.7999231219 0.6250000000
 1992.0356445  -999.250000 21.771999359 12.250000954 -0.001000000  -999.250000 1.6635375023 20.547000885 28.063039780 132.19494629 0.5929230452 -117.0859985 0.8119615316 0.6349999905
 1992.1881104  -999.250000 21.594999313 12.250000954 0.0120000001  -999.250000 1.6655375957 18.156000137 29.535825729 129.32601929 0.6199135184 -117.3990021 0.8199743629 0.6510000229
 1992.3404541  -999.250000 21.511999130 12.250000954 0.0469999984  -999.250000 1.7965780497 16.672000885 31.198335648 126.15470886 0.6339551210 -116.5390015 0.8199999928 0.6690000296
 1992.4929199  -999.250000 21.525999069 12.250000954 0.0700000003  -999.250000 1.8878928423 13.194999695 30.536531448 124.42077637 0.6409831643 -116.6129990 0.8239904046 0.6819999814
 1992.6452637  -999.250000 20.966999054 12.250000954 0.0960000008  -999.250000 1.9620000124 11.383000374 31.785997391 124.45329285 0.6419968009 -117.1880035 0.8309775591 0.6890000105
 1992.7977295  -999.250000 20.343000412 12.250000954 0.1010000035  -999.250000 1.9837723970 10.913999557 32.478446960 125.44336700 0.6420000196 -118.0660019 0.8429711461 0.6869999766
 1992.9500732  -999.250000 20.864999771 12.250000954 0.1000000015  -999.250000 2.0016436577 10.602000237 33.234394073 127.11714172 0.6429967880 -118.0749969 0.8529679775 0.6850000024
 1993.1025391  -999.250000 19.642999649 12.250000954 0.0869999975  -999.250000 1.9882496595 9.3280000687 32.095912933 127.33123016 0.6489855647 -118.0179977 0.8589856029 0.6850000024
 1993.2548828  -999.250000 20.284999847 12.250000954 0.0970000029  -999.250000 2.0146343708 8.9770002365 30.372381210 126.57061768 0.6559776068 -117.7239990 0.8599967957 0.6850000024
 1993.4073486  -999.250000 21.131999969 12.250000954 0.0850000009  -999.250000 2.0058124065 9.2340002060 28.623399734 126.92531586 0.6550023556 -118.6679993 0.8600000143 0.6809999943
 1993.5596924  -999.250000 21.719001770 12.250000954 0.0680000037  -999.250000 1.9812812805 9.8360004425 29.450336456 127.00760651 0.6480224133 -118.9800034 0.8600000143 0.6800000072
 1993.7121582  -999.250000 21.007999420 12.250000954 0.0640000030  -999.250000 1.9920284748 9.0080003738 28.690608978 127.36875153 0.6340336800 -118.0540009 0.8570072055 0.6800000072
 1993.8645020  -999.250000 19.906002045 12.250000954 0.0780000016  -999.250000 2.0141000748 9.8199996948 27.055311203 127.63554382 0.6230352521 -117.6949997 0.8510192037 0.6769999862
 1994.0168457  -999.250000 21.218999863 12.250000954 0.0799999982  -999.250000 2.0194499493 9.1800003052 26.224330902 128.38017273 0.6130320430 -118.1380005 0.8500032425 0.6710000038
 1994.1693115  -999.250000 21.829000473 12.250000954 0.0829999968  -999.250000 2.0092339516 10.069999695 25.235792160 131.18981934 0.6070191860 -118.0149994 0.8500000238 0.6669999957
 1994.3216553  -999.250000 22.167999268 12.250000954 0.0909999982  -999.250000 2.0173282623 9.9449996948 25.259960175 134.16043091 0.6079967618 -117.2220001 0.8500000238 0.6650000215
 1994.4741211  -999.250000 20.576999664 12.250000954 0.0949999988  -999.250000 2.0076215267 13.897999763 24.595531464 135.94567871 0.6089976430 -117.8619995 0.8500000238 0.6579999924
