# LAS format log file from PETREL
# Project units are specified as depth units
#==================================================================
~Version information
VERS.   2.0:
WRAP.   NO:
#==================================================================
~Well
STRT .m      693.74005127 :
STOP .m      3929.9541016 :
STEP .m     0.00000000 :
NULL .        -999.250000 :
COMP.           : COMPANY
WELL.  25/3-1   : WELL
FLD.            : FIELD
LOC.            : LOCATION
SRVC.           : SERVICE COMPANY
DATE.  2018-09-11 14:48:19   : Log Export Date {yyyy-MM-dd HH:mm:ss}
PROV.           : PROVINCE
UWI.   25/3-1   : UNIQUE WELL ID
API.            : API NUMBER
#==================================================================
~Curve
DEPT .m                   : DEPTH
Lithology_geolink ._      : Lithology_geolink
CALI .in                  : CALI
BS .in                    : BS
DRHO .g/cm3               : DRHO
NPHI .m3/m3               : NPHI
RHOB .g/cm3               : RHOB
PEF .b/e                  : PEF
GR .gAPI                  : GR
DTC .us/ft                : DTC
RDEP .ohm.m               : RDEP
SP .mV                    : SP
RSHA .ohm.m               : RSHA
RMED .ohm.m               : RMED
~Parameter
#==================================================================
~Ascii
# ...
 1773.3416748  -999.250000 17.010999680 17.500000000 0.0540000014  -999.250000 2.0887467861 4.2300000191 65.090965271 141.61254883 0.7809872031 -108.0709991 0.7360191941 0.7459999919
 1773.4941406  -999.250000 17.458999634 17.500000000 0.0410000011  -999.250000 2.0522334576 4.1020002365 65.845397949 140.77874756 0.7859879732 -107.4599991 0.7300144434 0.7480000257
 1773.6464844  -999.250000 17.232999802 17.500000000 0.0439999998  -999.250000 2.0486781597 3.8870000839 63.849601746 140.16485596 0.7810160518 -106.5339966 0.7240191698 0.7459999919
 1773.7989502  -999.250000 17.590999603 17.500000000 0.0419999994  -999.250000 2.0438530445 3.8320000172 62.224300385 139.81976318 0.7760120630 -106.3050003 0.7180144191 0.7429999709
 1773.9512939  -999.250000 17.958000183 17.500000000 0.0399999991  -999.250000 2.0365312099 4.2620000839 57.994392395 139.11370850 0.7760000229 -107.6179962 0.7120192051 0.7440000176
 1774.1037598  -999.250000 17.783000946 17.500000000 0.0370000005  -999.250000 2.0237059593 4.2420001030 57.464424133 138.18469238 0.7720096111 -107.6920013 0.7139951587 0.7480000257
 1774.2561035  -999.250000 17.731000900 17.500000000 0.0299999993  -999.250000 2.0075092316 4.2930002213 58.988777161 138.12748718 0.7570480704 -107.9390030 0.7199808359 0.7440000176
 1774.4084473  -999.250000 17.399000168 17.500000000 0.0240000002  -999.250000 1.9977967739 4.2109999657 62.399528503 139.59359741 0.7340737581 -106.8420029 0.7200000286 0.7319999933
 1774.5609131  -999.250000 18.143999100 17.500000000 0.0289999992  -999.250000 1.9964343309 4.3790001869 62.007320404 142.01763916 0.7160576582 -108.1539993 0.7200000286 0.7129999995
 1774.7132568  -999.250000 18.392999649 17.500000000 0.0289999992  -999.250000 1.9835157394 4.3829998970 60.961673737 144.19000244 0.6980577111 -108.1630020 0.7200000286 0.6919999719
 1774.8657227  -999.250000 17.136999130 17.500000000 0.0280000009  -999.250000 1.9706027508 4.1880002022 62.088096619 145.50701904 0.6870352030 -108.0410004 0.7200000286 0.6769999862
 1775.0180664  -999.250000 16.919000626 17.500000000 0.0299999993  -999.250000 1.9794031382 4.0199999809 63.252136230 145.86775208 0.6780288219 -107.2470016 0.7200000286 0.6679999828
 1775.1705322  -999.250000 17.000000000 17.500000000 0.0390000008  -999.250000 2.0148665905 4.0000000000 64.078338623 145.61508179 0.6750072241 -107.7559967 0.7200000286 0.6660000086
 1775.3228760  -999.250000 16.979000092 17.500000000 0.0370000005  -999.250000 2.0382812023 4.4879999161 62.368373871 145.32388306 0.6640352011 -108.0680008 0.7200000286 0.6679999828
 1775.4753418  -999.250000 16.836000443 17.500000000 0.0480000004  -999.250000 2.0384187698 5.2340002060 60.757289886 144.70147705 0.6540240049 -107.0770035 0.7200000286 0.6729999781
 1775.6276855  -999.250000 16.795999527 17.500000000 0.0480000004  -999.250000 1.9963562489 5.7030000687 57.263801575 143.62695313 0.6480191946 -106.2829971 0.7289711237 0.6750000119
 1775.7801514  -999.250000 16.886999130 17.500000000 0.0590000004  -999.250000 1.9680681229 5.5079998970 57.043174744 142.83764648 0.6460048556 -106.8570023 0.7399735451 0.6750000119
 1775.9324951  -999.250000 16.885999680 17.500000000 0.0599999987  -999.250000 1.9608062506 4.7189998627 56.754234314 142.53988647 0.6460000277 -107.7350006 0.7469775677 0.6750000119
 1776.0849609  -999.250000 17.041999817 17.500000000 0.0590000004  -999.250000 1.9707721472 4.6329998970 58.725421906 142.31123352 0.6460000277 -107.6790009 0.7529855967 0.6750000119
 1776.2373047  -999.250000 16.881999969 17.500000000 0.0430000015  -999.250000 1.9718749523 4.5390000343 60.917243958 142.02442932 0.6479936242 -107.1869965 0.7579839826 0.6750000119
 1776.3897705  -999.250000 16.801000595 17.500000000 0.0329999998  -999.250000 1.9536869526 4.4060001373 62.789501190 141.52920532 0.6569783688 -106.8929977 0.7500192523 0.6769999862
 1776.5421143  -999.250000 17.291999817 17.500000000 0.0179999992  -999.250000 1.9407968521 3.9509999752 63.436481476 140.48867798 0.6649743915 -107.8369980 0.7410288453 0.6840000153
 1776.6944580  -999.250000 16.940999985 17.500000000 0.0149999997  -999.250000 1.9508625269 3.8090000153 61.497112274 139.09063721 0.6819455028 -108.2149963 0.7400032282 0.6899999976
 1776.8469238  -999.250000 16.849000931 17.500000000 0.0199999996  -999.250000 1.9822007418 4.0390000343 59.158874512 137.23124695 0.6989455819 -107.6589966 0.7429903746 0.6999999881
 1776.9992676  -999.250000 16.774999619 17.500000000 0.0219999999  -999.250000 2.0005407333 4.2699999809 56.266635895 134.27359009 0.7219262719 -106.6679993 0.7489807606 0.7210000157
 1777.1517334  -999.250000 16.754999161 17.500000000 0.0199999996  -999.250000 2.0038125515 4.3359999657 56.690658569 131.14321899 0.7429494858 -105.9420013 0.7549855709 0.7419999838
 1777.3040771  -999.250000 16.875999451 17.500000000 0.0289999992  -999.250000 2.0182373524 4.7579998970 59.082164764 129.82809448 0.7479839921 -106.8479996 0.7599839568 0.7570000291
 1777.4565430  -999.250000 16.802000046 17.500000000 0.0390000008  -999.250000 2.0445661545 4.9840002060 59.590595245 131.35191345 0.7480000257 -106.8560028 0.7599999905 0.7620000243
 1777.6088867  -999.250000 16.945999146 17.500000000 0.0460000001  -999.250000 2.0589625835 5.0159997940 59.214302063 135.56343079 0.7499936223 -106.8659973 0.7599999905 0.7450000048
 1777.7613525  -999.250000 17.016000748 17.500000000 0.0469999984  -999.250000 2.0533936024 4.3480000496 60.180225372 140.69889832 0.7490023971 -107.0070038 0.7590023875 0.7269999981
 1777.9136963  -999.250000 17.121000290 17.500000000 0.0469999984  -999.250000 2.0290782452 3.9470000267 64.330673218 144.27326965 0.7430191636 -107.8840027 0.7490320206 0.7179999948
 1778.0661621  -999.250000 17.121999741 17.500000000 0.0419999994  -999.250000 2.0142526627 3.5369999409 65.975685120 145.56117249 0.7400072217 -107.9589996 0.7390240431 0.7039999962
 1778.2185059  -999.250000 17.378000259 17.500000000 0.0280000009  -999.250000 2.0108935833 3.4530000687 64.246391296 145.15995789 0.7280384302 -108.3359985 0.7330191731 0.6959999800
 1778.3709717  -999.250000 17.861999512 17.500000000 0.0250000004  -999.250000 2.0202939510 3.6250000000 59.399883270 143.48844910 0.7140336633 -107.9110031 0.7300072312 0.6980000138
 1778.5233154  -999.250000 18.070999146 17.500000000 0.0320000015  -999.250000 2.0345501900 3.9730000496 60.386207581 141.38960266 0.7080191970 -107.9199982 0.7290031910 0.7020000219
 1778.6756592  -999.250000 17.301000595 17.500000000 0.0359999985  -999.250000 2.0381968021 4.1840000153 62.047336578 139.54910278 0.7129839659 -107.7979965 0.7020865679 0.6990000010
 1778.8281250  -999.250000 17.333999634 17.500000000 0.0320000015  -999.250000 2.0442094803 4.0229997635 62.901317596 138.20657349 0.7159904242 -106.8730011 0.6840576530 0.6959999800
 1778.9804688  -999.250000 17.332000732 17.500000000 0.0410000011  -999.250000 2.0524406433 4.1090002060 62.128238678 138.11412048 0.7169967890 -106.4469986 0.6949647069 0.6959999800
 1779.1329346  -999.250000 17.073999405 17.500000000 0.0489999987  -999.250000 2.0661661625 4.0980000496 61.557456970 139.21659851 0.7209872007 -106.6520004 0.6959967613 0.6990000010
 1779.2852783  -999.250000 17.267999649 17.500000000 0.0500000007  -999.250000 2.0693125725 4.1909999847 62.848930359 140.41633606 0.7080416679 -107.9000015 0.6900192499 0.6940000057
 1779.4377441  -999.250000 17.402999878 17.500000000 0.0480000004  -999.250000 2.0758910179 3.9839999676 60.231101990 141.07034302 0.6860528588 -107.4739990 0.6840144396 0.6840000153
 1779.5900879  -999.250000 17.478000641 17.500000000 0.0560000017  -999.250000 2.0945062637 3.9140000343 57.682041168 141.40281677 0.6670608521 -107.4179993 0.6800128222 0.6679999828
 1779.7425537  -999.250000 17.413000107 17.500000000 0.0610000007  -999.250000 2.1105036736 4.0590000153 58.228561401 142.19255066 0.6500408649 -107.0579987 0.6800000072 0.6570000052
 1779.8948975  -999.250000 17.242000580 17.500000000 0.0630000010  -999.250000 2.1189436913 4.1680002213 58.364891052 143.46453857 0.6290672421 -107.5009995 0.6839872003 0.6460000277
