# LAS format log file from PETREL
# Project units are specified as depth units
#==================================================================
~Version information
VERS.   2.0:
WRAP.   NO:
#==================================================================
~Well
STRT .m      693.74005127 :
STOP .m      3929.9541016 :
STEP .m     0.00000000 :
NULL .        -999.250000 :
COMP.           : COMPANY
WELL.  25/3-1   : WELL
FLD.            : FIELD
LOC.            : LOCATION
SRVC.           : SERVICE COMPANY
DATE.  2018-09-11 14:48:19   : Log Export Date {yyyy-MM-dd HH:mm:ss}
PROV.           : PROVINCE
UWI.   25/3-1   : UNIQUE WELL ID
API.            : API NUMBER
#==================================================================
~Curve
DEPT .m                   : DEPTH
Lithology_geolink ._      : Lithology_geolink
CALI .in                  : CALI
BS .in                    : BS
DRHO .g/cm3               : DRHO
NPHI .m3/m3               : NPHI
RHOB .g/cm3               : RHOB
PEF .b/e                  : PEF
GR .gAPI                  : GR
DTC .us/ft                : DTC
RDEP .ohm.m               : RDEP
SP .mV                    : SP
RSHA .ohm.m               : RSHA
RMED .ohm.m               : RMED
~Parameter
#==================================================================
~Ascii
# ...
 908.31927490  -999.250000 23.463998795 17.500000000 0.0920000002  -999.250000 2.0092780590 5.2340002060 34.501907349 148.04846191 0.6329119205 -95.53600311  -999.250000 0.5329999924
 908.47167969  -999.250000 24.142000198 17.500000000 0.1159999967  -999.250000 2.0485253334 5.1020002365 32.933147430 148.18588257 0.6479399204 -96.47899628  -999.250000 0.5559999943
 908.62408447  -999.250000 24.076000214 17.500000000 0.1089999974  -999.250000 2.1017255783 5.1209998131 34.709430695 148.24227905 0.6699119210 -96.72599792  -999.250000 0.5699999928
 908.77648926  -999.250000 24.246999741 17.500000000 0.1239999980  -999.250000 2.1335284710 5.1329998970 34.465496063 149.03552246 0.6968919039 -95.36599731  -999.250000 0.5759999752
 908.92889404  -999.250000 24.100000381 17.500000000 0.1110000014  -999.250000 2.1323685646 4.6090002060 33.967994690 149.46032715 0.7209038734 -95.00700378  -999.250000 0.5709999800
 909.08129883  -999.250000 23.929000854 17.500000000 0.0930000022  -999.250000 2.1208686829 4.6050000191 30.570814133 149.33815002 0.7349439263 -95.64700317  -999.250000 0.5590000153
 909.23370361  -999.250000 23.868999481 17.500000000 0.0729999989  -999.250000 2.1220500469 4.7620000839 29.237661362 148.92605591 0.7350000143 -96.89299774  -999.250000 0.5479999781
 909.38610840  -999.250000 23.778999329 17.500000000 0.0759999976  -999.250000 2.1233594418 5.3159999847 33.374694824 148.14173889 0.7130792737 -96.40200043  -999.250000 0.5410000086
 909.53851318  -999.250000 23.371000290 17.500000000 0.0700000003  -999.250000 2.0919151306 5.6680002213 33.753406525 147.03521729 0.6860973239 -95.97699738  -999.250000 0.5429999828
 909.69091797  -999.250000 22.792999268 17.500000000 0.0759999976  -999.250000 2.0678434372 5.1514401436 35.594047546 145.83235168 0.6561081409 -96.05200195  -999.250000 0.5460000038
 909.84320068  -999.250000 22.572999954 17.500000000 0.0740000010  -999.250000 2.0876290798 4.4530000687 34.165447235 145.02970886 0.6430572867 -96.56079102  -999.250000 0.5410020351
 909.99560547  -999.250000 22.570999146 17.500000000 0.0799999982  -999.250000 2.1396231651 4.3590002060 35.352134705 145.81423950 0.6360307932 -96.87287903  -999.250000 0.5370016098
 910.14801025  -999.250000 22.163000107 17.500000000 0.0909999982  -999.250000 2.1576652527 4.4730000496 34.538963318 146.00138855 0.6330132484 -96.07932281  -999.250000 0.5320020318
 910.30041504  -999.250000 22.556999207 17.500000000 0.0689999983  -999.250000 2.1218717098 4.0780000687 32.968776703 145.89163208 0.6310088038 -96.65277100  -999.250000 0.5260024071
 910.45281982  -999.250000 22.822000504 17.500000000 0.0509999990  -999.250000 2.0988059044 3.6559998989 34.851455688 146.61071777 0.6220396161 -97.59661865  -999.250000 0.5150043964
 910.60522461  -999.250000 22.783000946 17.500000000 0.0610000007  -999.250000 2.1560320854 3.2929999828 36.679607391 146.98977661 0.6070660949 -97.90887451  -999.250000 0.5000060201
 910.75762939  -999.250000 22.816997528 17.500000000 0.0520000011  -999.250000 2.1786315441 3.5940001011 37.034156799 147.02323914 0.5900748372 -96.91839600  -999.250000 0.4870052040
 910.91003418  -999.250000 22.933000565 17.500000000 0.0260000005  -999.250000 2.1611840725 3.7599999905 35.393951416 147.19630432 0.5700880885 -96.05834198  -999.250000 0.4830016196
 911.06243896  -999.250000 22.827999115 17.500000000 0.0230000000  -999.250000 2.1390936375 4.0700001717 35.281261444 147.78393555 0.5570572615 -96.13297272  -999.250000 0.4790016115
 911.21484375  -999.250000 23.063999176 17.500000000 0.0340000018  -999.250000 2.1308438778 4.0700001717 35.211166382 147.90728760 0.5490352511 -96.70677185  -999.250000 0.4780003726
 911.36718750  -999.250000 23.283000946 17.500000000 0.0370000005  -999.250000 2.1197540760 4.1129999161 34.685474396 148.05871582 0.5509911776 -97.58429718  -999.250000 0.4819967747
 911.51959229  -999.250000 23.301000595 17.500000000 0.0480000004  -999.250000 2.1220157146 4.4569997787 34.369880676 148.06759644 0.5629471540 -97.39715576  -999.250000 0.4839983881
 911.67199707  -999.250000 23.315999985 17.500000000 0.0529999994  -999.250000 2.1274280548 4.7230000496 35.277175903 147.96253967 0.5839074850 -96.03809357  -999.250000 0.4939919710
 911.82440186  -999.250000 23.219999313 17.500000000 0.0579999983  -999.250000 2.1252748966 4.7849998474 36.366817474 147.41914368 0.6068986654 -95.74311066  -999.250000 0.5119928122
 911.97680664  -999.250000 23.149999619 17.500000000 0.0410000011  -999.250000 2.1129937172 4.3480000496 38.118492126 147.08705139 0.6348766685 -96.68661499  -999.250000 0.5289931893
 912.12921143  -999.250000 23.308000565 17.500000000 0.0439999998  -999.250000 2.1223845482 4.1449999809 37.745754242 147.20036316 0.6658634543 -96.99887848  -999.250000 0.5439940095
 912.28161621  -999.250000 23.298000336 17.500000000 0.0430000015  -999.250000 2.1383938789 4.1560001373 37.756977081 147.82270813 0.6869074702 -96.00839996  -999.250000 0.5549955964
 912.43402100  -999.250000 23.393999100 17.500000000 0.0419999994  -999.250000 2.1350250244 4.4730000496 35.186157227 148.32965088 0.6989471316 -95.14834595  -999.250000 0.5619971752
 912.58642578  -999.250000 23.291999817 17.500000000 0.0340000018  -999.250000 2.1117465496 4.4019999504 34.408550262 148.59362793 0.7149294615 -95.35391235  -999.250000 0.5679976344
 912.73883057  -999.250000 23.142000198 17.500000000 0.0370000005  -999.250000 2.0953061581 4.2930002213 34.923961639 148.35908508 0.7289382815 -96.66547394  -999.250000 0.5670003891
 912.89123535  -999.250000 23.104000092 17.500000000 0.0299999993  -999.250000 2.0943157673 3.9730000496 34.224403381 147.50569153 0.7309911847 -96.60902405  -999.250000 0.5620020032
 913.04364014  -999.250000 23.510999680 17.500000000 0.0340000018  -999.250000 2.1030189991 4.0700001717 34.306831360 147.78854370 0.7110881209 -96.18416595  -999.250000 0.5550028086
 913.19604492  -999.250000 23.680999756 17.500000000 0.0370000005  -999.250000 2.1187033653 4.3239998817 35.002883911 147.33024597 0.6871057153 -96.32394409  -999.250000 0.5460035801
 913.34844971  -999.250000 23.642999649 17.500000000 0.0399999991  -999.250000 2.1152279377 4.4489998817 36.812099457 146.58195496 0.6650969386 -97.26799774  -999.250000 0.5339999795
 913.50079346  -999.250000 23.652000427 17.500000000 0.0370000005  -999.250000 2.1098687649 4.3909997940 34.931781769 146.29400635 0.6480749249 -97.71099854  -999.250000 0.5260000229
 913.65319824  -999.250000 23.632999420 17.500000000 0.0309999995  -999.250000 2.1047592163 4.3200001717 34.566726685 146.26371765 0.6380440593 -97.65399933  -999.250000 0.5199999809
 913.80560303  -999.250000 23.645999908 17.500000000 0.0309999995  -999.250000 2.1017906666 4.8709998131 34.162807465 146.36682129 0.6340176463 -97.29499817  -999.250000 0.5159999728
 913.95800781  -999.250000 23.302999496 17.500000000 0.0520000011  -999.250000 2.0828092098 5.1880002022 34.932453156 146.12313843 0.6340000033 -97.80400085  -999.250000 0.5170000196
 914.11041260  -999.250000 22.840000153 17.500000000 0.0410000011  -999.250000 2.0155491829 5.2189998627 31.659570694 145.21696472 0.6340000033 -98.11499786  -999.250000 0.5220000148
 914.26281738  -999.250000 22.895000458 17.500000000 0.0370000005  -999.250000 2.0065217018 4.5939998627 32.064174652 143.78993225 0.6399735808 -97.12599945  -999.250000 0.5270000100
 914.41522217  -999.250000 22.711000443 17.500000000 0.0610000007  -999.250000 2.0745978355 4.2659997940 33.420280457 142.75393677 0.6499559283 -96.13500214  -999.250000 0.5310000181
 914.56762695  -999.250000 22.683000565 17.500000000 0.0619999990  -999.250000 2.1359915733 4.1050000191 36.722381592 142.92016602 0.6569691896 -95.47200012  -999.250000 0.5339999795
 914.72003174  -999.250000 22.843002319 17.500000000 0.0390000008  -999.250000 2.1335406303 4.4180002213 35.966529846 143.46656799 0.6589911580 -96.91500092  -999.250000 0.5360000134
 914.87243652  -999.250000 22.736000061 17.500000000 0.0419999994  -999.250000 2.1263279915 4.5590000153 35.757415771 143.66610718 0.6629823446 -97.79299927  -999.250000 0.5379999876
