# LAS format log file from PETREL
# Project units are specified as depth units
#==================================================================
~Version information
VERS.   2.0:
WRAP.   NO:
#==================================================================
~Well
STRT .m      693.74005127 :
STOP .m      3929.9541016 :
STEP .m     0.00000000 :
NULL .        -999.250000 :
COMP.           : COMPANY
WELL.  25/3-1   : WELL
FLD.            : FIELD
LOC.            : LOCATION
SRVC.           : SERVICE COMPANY
DATE.  2018-09-11 14:48:19   : Log Export Date {yyyy-MM-dd HH:mm:ss}
PROV.           : PROVINCE
UWI.   25/3-1   : UNIQUE WELL ID
API.            : API NUMBER
#==================================================================
~Curve
DEPT .m                   : DEPTH
Lithology_geolink ._      : Lithology_geolink
CALI .in                  : CALI
BS .in                    : BS
DRHO .g/cm3               : DRHO
NPHI .m3/m3               : NPHI
RHOB .g/cm3               : RHOB
PEF .b/e                  : PEF
GR .gAPI                  : GR
DTC .us/ft                : DTC
RDEP .ohm.m               : RDEP
SP .mV                    : SP
RSHA .ohm.m               : RSHA
RMED .ohm.m               : RMED
~Parameter
#==================================================================
~Ascii
 693.74005127  -999.250000 18.718999863 17.500000000 -1.465000033  -999.250000  -999.250000 48.187999725 22.807371140 159.46060181 1.1299735308 -91.61100006 1.1199735403 2000.0000000
 693.89245605  -999.250000 18.718999863 17.500000000 -1.450000048  -999.250000 1.5556253195 50.655998230 22.517700195 159.46060181 1.1359735727 -90.83799744 1.1259735823 2000.0000000
 694.04479980  -999.250000 18.718999863 17.500000000 -1.442000031  -999.250000 1.5699539185 93.125000000 22.592786789 159.46060181 1.1419734955 -89.81400299 1.1319735050 2000.0000000
 694.19720459  -999.250000 18.718999863 17.500000000 -1.445999980  -999.250000 1.5746625662 248.00000000 22.731611252 159.46060181 1.1479735374 -88.83599854 1.1379735470 2000.0000000
 694.34960938  -999.250000 18.718999863 17.500000000 -1.450999975  -999.250000 1.5686968565 157.37500000 22.870666504 159.46060181 1.1579558849 -89.59500122 1.1479558945 2000.0000000
 694.50201416  -999.250000 18.718999863 17.500000000 -1.440000057  -999.250000 1.5785751343 66.250000000 23.030614853 159.46060181 1.1709427834 -90.15699768 1.1609427929 2000.0000000
 694.65441895  -999.250000 18.718999863 17.500000000 -1.437000036  -999.250000 1.5888782740 51.155998230 23.334268570 159.46060181 1.1829471588 -89.48100281 1.1729471684 2000.0000000
 694.80682373  -999.250000 18.718999863 17.500000000 -1.439000010  -999.250000 1.5798999071 39.594001770 23.696130753 159.46060181 1.1969383955 -89.27300262 1.1849471331 2000.0000000
 694.95922852  -999.250000 18.718999863 17.500000000 -1.439000010  -999.250000 1.5652623177 34.875000000 24.090053558 159.46060181 1.2159162760 -89.38099670 1.1969472170 2000.0000000
 695.11163330  -999.250000 18.718999863 17.500000000 -1.450000048  -999.250000 1.5367058516 24.641000748 24.484054565 159.46060181 1.2289427519 -89.97499847 1.2089471817 2000.0000000
 695.26403809  -999.250000 18.718999863 17.500000000 -1.452000022  -999.250000 1.5393843651 24.422000885 24.888029099 159.46060181 1.2419427633 -89.51699829 1.2219427824 2000.0000000
 695.41644287  -999.250000 18.718999863 17.500000000 -1.455000043  -999.250000 1.5480251312 32.155998230 25.364046097 159.46060181 1.2539471388 -89.24299622 1.2339471579 2000.0000000
 695.56884766  -999.250000 18.718999863 17.500000000 -1.457000017  -999.250000 1.5432624817 37.344001770 25.890945435 159.46060181 1.2659472227 -88.88400269 1.2459472418 2000.0000000
 695.72125244  -999.250000 18.718999863 17.500000000 -1.465999961  -999.250000 1.5345748663 82.000000000 26.419940948 159.46060181 1.2779471874 -89.32700348 1.2579472065 2000.0000000
 695.87365723  -999.250000 18.718999863 17.500000000 -1.488999963  -999.250000 1.5036870241 215.25000000 26.959135056 159.46060181 1.2949250937 -89.20500183 1.2749251127 2000.0000000
 696.02606201  -999.250000 18.718999863 17.500000000 -1.501000047  -999.250000 1.4844871759 63.969001770 27.584997177 159.46060181 1.3119319677 -88.21399689 1.2919319868 2000.0000000
 696.17840576  -999.250000 18.718999863 17.500000000 -1.503999949  -999.250000 1.4581311941 30.797000885 28.862438202 159.46060181 1.3249428272 -87.35399628 1.3049427271 2000.0000000
 696.33081055  -999.250000 18.718999863 17.500000000 -1.503999949  -999.250000 1.4706689119 20.343999863 31.049617767 159.46060181 1.3369472027 -87.55999756 1.3169472218 2000.0000000
 696.48321533  -999.250000 18.718999863 17.500000000 -1.496999979  -999.250000 1.4894095659 34.500000000 33.529033661 159.46060181 1.3489471674 -88.93699646 1.3289471865 2000.0000000
 696.63562012  -999.250000 18.718999863 17.500000000 -1.476999998  -999.250000 1.5222598314 51.155998230 35.386283875 159.46060181 1.2773171663 -89.41400146 1.2573171854 2000.0000000
 696.78802490  -999.250000 18.718999863 17.500000000 -1.481999993  -999.250000 1.5027621984 114.75000000 33.202392578 159.46060181 1.2292114496 -89.47599792 1.2092114687 2000.0000000
 696.94042969  -999.250000 18.718999863 17.500000000 -1.493000031  -999.250000 1.4980312586 64.188003540 31.010389328 159.46060181 1.2588677406 -88.39900208 1.2388677597 2000.0000000
 697.09283447  -999.250000 18.718999863 17.500000000 -1.485000014  -999.250000 1.4991593361 40.500000000 28.818387985 159.46060181 1.2699515820 -88.53900146 1.2499516010 2000.0000000
 697.24523926  -999.250000 18.718999863 17.500000000 -1.475000024  -999.250000 1.5006531477 28.952999115 26.697248459 159.46060181 1.2699999809 -89.44999695 1.2500000000 2000.0000000
 697.39764404  -999.250000 18.718999863 17.500000000 -1.467000008  -999.250000 1.5113564730 40.094001770 25.328737259 159.46060181 1.2699999809 -89.74199677 1.2500000000 2000.0000000
 697.55004883  -999.250000 18.718999863 17.500000000 -1.463999987  -999.250000 1.5341752768 107.68800354 25.863920212 159.46060181 1.2680088282 -90.02100372 1.2480088472 2000.0000000
 697.70245361  -999.250000 18.718999863 17.500000000 -1.455999970  -999.250000 1.5492377281 83.500000000 26.402919769 159.46060181 1.2620264292 -88.94400024 1.2420264482 2000.0000000
 697.85485840  -999.250000 18.718999863 17.500000000 -1.455999970  -999.250000 1.5433061123 57.155998230 26.941921234 159.46060181 1.2600088120 -89.11699677 1.2400088310 2000.0000000
 698.00726318  -999.250000 18.718999863 17.500000000 -1.460000038  -999.250000 1.5368030071 58.530998230 27.482133865 159.46060181 1.2599999905 -90.31099701 1.2400000095 2000.0000000
 698.15960693  -999.250000 18.718999863 17.500000000 -1.470000029  -999.250000 1.5349537134 675.00000000 28.060840607 159.46060181 1.2599999905 -91.00399780 1.2400000095 2000.0000000
 698.31201172  -999.250000 18.718999863 17.500000000 -1.453999996  -999.250000 1.5317031145 97.063003540 29.007104874 159.46060181 1.2490483522 -91.23000336 1.2320352793 2000.0000000
 698.46441650  -999.250000 18.718999863 17.500000000 -1.458999991  -999.250000 1.5256905556 98.750000000 30.400209427 159.46060181 1.2251057625 -91.37000275 1.2140792608 2000.0000000
 698.61682129  -999.250000 18.718999863 17.500000000 -1.457000017  -999.250000 1.5203655958 350.00000000 30.247312546 159.46060181 1.2100660801 -92.34700012 1.2000616789 2000.0000000
 698.76922607  -999.250000 18.718999863 17.500000000 -1.455999970  -999.250000 1.5301783085 1000.0000000 28.610284805 159.46060181 1.1980527639 -93.10600281 1.1880527735 2000.0000000
 698.92163086  -999.250000 18.718999863 17.500000000 -1.452000022  -999.250000 1.5253655910 1000.0000000 26.970283508 159.46060181 1.1860527992 -93.73300171 1.1760528088 2000.0000000
 699.07403564  -999.250000 18.718999863 17.500000000 -1.462000012  -999.250000 1.5302375555 89.563003540 25.330284119 159.46060181 1.1800264120 -93.55799866 1.1700264215 2000.0000000
 699.22644043  -999.250000 18.718999863 17.500000000 -1.445999980  -999.250000 1.5585910082 86.313003540 23.775112152 159.46060181 1.1799999475 -93.88300323 1.1699999571 2000.0000000
 699.37884521  -999.250000 18.718999863 17.500000000 -1.447999954  -999.250000 1.5498123169 93.938003540 23.042463303 159.46060181 1.1799999475 -94.57599640 1.1699999571 2000.0000000
 699.53125000  -999.250000 18.718999863 17.500000000 -1.455999970  -999.250000 1.5248934031 167.62500000 24.038000107 159.46060181 1.1799999475 -94.73600006 1.1699999571 2000.0000000
 699.68365479  -999.250000 18.718999863 17.500000000 -1.458999991  -999.250000 1.5066623688 319.75000000 25.036998749 159.46060181 1.1799999475 -94.27799988 1.1699999571 2000.0000000
 699.83605957  -999.250000 18.718999863 17.500000000 -1.444000006  -999.250000 1.5209220648 583.00000000 26.036996841 159.46060181 1.1799999475 -94.16899872 1.1699999571 2000.0000000
 699.98846436  -999.250000 18.718999863 17.500000000 -1.445999980  -999.250000 1.5080310106 74.438003540 27.382843018 159.46060181 1.1799999475 -94.99299622 1.1699999571 2000.0000000
 700.14086914  -999.250000 18.718999863 17.500000000 -1.460999966  -999.250000 1.4768903255 51.000000000 31.090055466 159.46060181 1.2028986216 -96.18699646 1.1869251728 2000.0000000
 700.29321289  -999.250000 18.718999863 17.500000000 -1.460000038  -999.250000 1.4821000099 36.312999725 34.919326782 159.46060181 1.2278898954 -96.84700012 1.2079074383 2000.0000000
