# LAS format log file from PETREL
# Project units are specified as depth units
#==================================================================
~Version information
VERS.   2.0:
WRAP.   NO:
#==================================================================
~Well
STRT .m      693.74005127 :
STOP .m      3929.9541016 :
STEP .m     0.00000000 :
NULL .        -999.250000 :
COMP.           : COMPANY
WELL.  25/3-1   : WELL
FLD.            : FIELD
LOC.            : LOCATION
SRVC.           : SERVICE COMPANY
DATE.  2018-09-11 14:48:19   : Log Export Date {yyyy-MM-dd HH:mm:ss}
PROV.           : PROVINCE
UWI.   25/3-1   : UNIQUE WELL ID
API.            : API NUMBER
#==================================================================
~Curve
DEPT .m                   : DEPTH
Lithology_geolink ._      : Lithology_geolink
CALI .in                  : CALI
BS .in                    : BS
DRHO .g/cm3               : DRHO
NPHI .m3/m3               : NPHI
RHOB .g/cm3               : RHOB
PEF .b/e                  : PEF
GR .gAPI                  : GR
DTC .us/ft                : DTC
RDEP .ohm.m               : RDEP
SP .mV                    : SP
RSHA .ohm.m               : RSHA
RMED .ohm.m               : RMED
~Parameter
#==================================================================
~Ascii
# ...
 1558.7625732  -999.250000 18.174999237 17.500000000 0.0430000015  -999.250000 2.0874593258 3.8010001183 55.654491425 138.61990356 1.0919735432 -109.2559967 0.9159855843 0.9769999981
 1558.9149170  -999.250000 18.267999649 17.500000000 0.0509999990  -999.250000 2.0677344799 1.0690000057 54.972545624 139.87023926 1.1089454889 -108.1999969 0.9279615283 0.9539999962
 1559.0673828  -999.250000 18.379999161 17.500000000 0.0949999988  -999.250000 2.0061640739 1.0959999561 56.411846161 138.81033325 1.1159832478 -107.0360031 0.9349831939 0.9549999833
 1559.2197266  -999.250000 20.070999146 17.500000000 0.4449999928  -999.250000 2.0998156071 0.6790000200 58.891014099 137.09867859 1.1020448208 -108.0449982 0.9409807920 1.0140000582
 1559.3720703  -999.250000 18.333999634 17.500000000 0.4990000129  -999.250000 2.1419405937 0.9330000281 59.053741455 136.18792725 1.0960191488 -108.9229965 0.9479776025 1.0690000057
 1559.5245361  -999.250000 19.877000809 17.500000000 0.7739999890  -999.250000 2.3195171356 0.9459999800 62.017623901 137.13069153 1.0780576468 -108.8659973 0.9499936104 1.0499999523
 1559.6768799  -999.250000 18.183000565 17.500000000 0.7900000215  -999.250000 2.5212750435 4.0000000000 61.753425598 138.50950623 1.0600576401 -108.5070038 0.9499999881 1.0180000067
 1559.8293457  -999.250000 17.841999054 17.500000000 0.7480000257  -999.250000 2.5074493885 4.1329998970 62.947044373 138.36624146 1.0739663839 -109.0159988 0.9440144300 0.9919999838
 1559.9816895  -999.250000 17.861000061 17.500000000 0.4779999852  -999.250000 2.4513874054 4.0510001183 60.732551575 137.25236511 1.0919423103 -109.5250015 0.9449967742 0.9929999709
 1560.1341553  -999.250000 18.087999344 17.500000000 0.4199999869  -999.250000 2.3893420696 3.6038999557 57.785362244 135.99455261 1.1059663296 -109.8369980 0.9559735060 1.0039999485
 1560.2864990  -999.250000 18.163999557 17.500000000 0.0590000004  -999.250000 2.0581216812 3.4792940617 56.788795471 134.80081177 1.1119807959 -108.9769974 0.9420447946 1.0199999809
 1560.4389648  -999.250000 18.240999222 17.500000000 0.0649999976  -999.250000 2.0707507133 3.8464963436 56.067577362 134.17247009 1.1419278383 -109.0510025 0.9200528860 1.0180000067
 1560.5913086  -999.250000 18.356000900 17.500000000 0.0649999976  -999.250000 2.0569686890 4.1561570168 59.006641388 134.67353821 1.1519678831 -109.4950027 0.9200000167 1.0670000315
 1560.7437744  -999.250000 18.121000290 17.500000000 0.0649999976  -999.250000 2.0368340015 4.3514800072 57.536178589 135.07281494 1.1549928188 -109.3730011 0.9229927659 1.1050000191
 1560.8959961  -999.250000 18.069000244 17.500000000 0.0630000010  -999.250000 2.0377488136 4.0269999504 56.449745178 134.32838440 1.1769119501 -108.4487381 0.9289759994 1.0980056524
 1561.0483398  -999.250000 17.913999557 17.500000000 0.0640000030  -999.250000 2.0481488705 4.1090002060 53.371406555 133.91709900 1.1730159521 -108.1534729 0.9299960136 1.0920096636
 1561.2008057  -999.250000 17.972999573 17.500000000 0.0450000018  -999.250000 2.0602121353 3.9609999657 54.822658539 134.01074219 1.1590560675 -109.1611938 0.9290040135 1.1059887409
 1561.3531494  -999.250000 18.000000000 17.500000000 0.0350000001  -999.250000 2.0729897022 3.9260001183 56.952877045 134.57313538 1.1659719944 -109.9733505 0.9220280647 1.0970071554
 1561.5056152  -999.250000 18.013999939 17.500000000 0.0379999988  -999.250000 2.0987610817 3.6889998913 58.595371246 136.30694580 1.1679919958 -109.4843903 0.9200080037 1.0370479822
 1561.6579590  -999.250000 18.118000031 17.500000000 0.0399999991  -999.250000 2.0766596794 3.7070000172 61.734447479 137.22633362 1.1550520658 -108.9274445 0.9190040231 1.0150176287
 1561.8104248  -999.250000 18.187999725 17.500000000 0.0359999985  -999.250000 2.0383427143 4.0630002022 61.708053589 136.93852234 1.1540032625 -108.1336365 0.9140160084 1.0120023489
 1561.9627686  -999.250000 18.288999557 17.500000000 0.0509999990  -999.250000 2.0292596817 4.5390000343 61.974357605 137.32853699 1.1470279694 -108.5756378 0.9100160599 1.0189944506
 1562.1152344  -999.250000 18.194999695 17.500000000 0.0659999996  -999.250000 2.0276448727 4.8750000000 62.965408325 139.05229187 1.1141057014 -108.6509399 0.9100000262 1.0259944201
 1562.2675781  -999.250000 17.944000244 17.500000000 0.0670000017  -999.250000 2.0077571869 4.8750000000 64.202018738 141.40748596 1.0920881033 -108.9627457 0.9149799943 1.0040175915
 1562.4199219  -999.250000 18.017000198 17.500000000 0.0649999976  -999.250000 1.9679293633 4.8400001526 66.362800598 142.62928772 1.0830359459 -108.0384827 0.9199799895 0.9660608768
 1562.5723877  -999.250000 18.194999695 17.500000000 0.0619999990  -999.250000 1.9220744371 4.9770002365 62.090866089 141.25727844 1.0829999447 -107.8101807 0.9200000167 0.9590055943
 1562.7247314  -999.250000 17.958000183 17.500000000 0.0520000011  -999.250000 1.8792051077 4.9180002213 61.276943207 139.05386353 1.0829999447 -109.1189041 0.9170120358 0.9889519811
 1562.8771973  -999.250000 18.101999283 17.500000000 0.0419999994  -999.250000 1.8894153833 4.5939998627 60.473285675 137.84033203 1.0740360022 -109.1299896 0.9110240340 1.0179767609
 1563.0295410  -999.250000 18.145999908 17.500000000 0.0480000004  -999.250000 1.9579857588 4.1880002022 61.343902588 137.20989990 1.0670280457 -109.0730896 0.9100040197 1.0199967623
 1563.1820068  -999.250000 18.107000351 17.500000000 0.0379999988  -999.250000 2.0087943077 4.1560001373 64.134521484 136.69319153 1.0789519548 -108.7792358 0.9100000262 1.0090087652
 1563.3343506  -999.250000 18.277999878 17.500000000 0.0260000005  -999.250000 2.0237576962 4.0000000000 63.518493652 136.27313232 1.0999158621 -109.5903549 0.9100000262 1.0199911594
 1563.4868164  -999.250000 18.149999619 17.500000000 0.0250000004  -999.250000 2.0254583359 3.7750000954 63.869434357 134.69281006 1.1438238621 -109.1663437 0.9100000262 1.0609672070
 1563.6391602  -999.250000 18.125999451 17.500000000 0.0280000009  -999.250000 2.0535705090 3.4800000191 61.046798706 132.44235229 1.1818478107 -109.1090469 0.9100000262 1.1089614630
 1563.7916260  -999.250000 18.197000504 17.500000000 0.0240000002  -999.250000 2.0755050182 3.4939999580 59.055183411 131.21492004 1.1969399452 -108.7492905 0.9100000262 1.1309823990
 1563.9439697  -999.250000 17.943000793 17.500000000 0.0289999992  -999.250000 2.0905256271 3.5720000267 59.100883484 132.46238708 1.2159237862 -109.2585907 0.9119920135 1.1549807787
 1564.0964355  -999.250000 17.875000000 17.500000000 0.0329999998  -999.250000 2.0930328369 3.5469999313 58.794490814 136.47174072 1.2399231195 -109.6356964 0.9179807305 1.1719864607
 1564.2487793  -999.250000 17.878999710 17.500000000 0.0219999999  -999.250000 2.0699660778 3.4219999313 60.348506927 139.18846130 1.2589238882 -109.1463928 0.9199920297 1.1660047770
 1564.4011230  -999.250000 17.920999527 17.500000000 0.0199999996  -999.250000 2.0672655106 3.2750000954 58.610191345 137.28004456 1.2709519863 -108.7216797 0.9200000167 1.1510239840
 1564.5535889  -999.250000 18.025999069 17.500000000 0.0260000005  -999.250000 2.0821065903 3.1840000153 54.659336090 132.31753540 1.2919160128 -108.8608856 0.9200000167 1.1440056562
 1564.7059326  -999.250000 18.096000671 17.500000000 0.0320000015  -999.250000 2.1147100925 3.4979999065 51.957489014 129.02026367 1.2880159616 -109.8034897 0.9200000167 1.1809407473
 1564.8583984  -999.250000 18.103000641 17.500000000 0.0350000001  -999.250000 2.1778454781 0.8330000043 48.223979950 127.64253998 1.2850120068 -110.1816940 0.9200000167 1.1919912100
 1565.0107422  -999.250000 18.281999588 17.500000000 0.1049999967  -999.250000 2.2498266697 0.9060000181 50.587295532 130.29711914 1.2750400305 -109.5609970 0.9200000167 1.1740288734
 1565.1632080  -999.250000 19.518999100 17.500000000 0.4149999917  -999.250000 2.2468762398 0.9670000076 52.952213287 137.87275696 1.2351601124 -108.2670364 0.9200000167 1.1460224390
 1565.3155518  -999.250000 18.061000824 17.500000000 0.4149999917  -999.250000 2.2082064152 3.5099999905 55.161689758 139.60615540 1.2110961676 -108.3409424 0.9200000167 1.1420031786
