# LAS format log file from PETREL
# Project units are specified as depth units
#==================================================================
~Version information
VERS.   2.0:
WRAP.   NO:
#==================================================================
~Well
STRT .m      693.74005127 :
STOP .m      3929.9541016 :
STEP .m     0.00000000 :
NULL .        -999.250000 :
COMP.           : COMPANY
WELL.  25/3-1   : WELL
FLD.            : FIELD
LOC.            : LOCATION
SRVC.           : SERVICE COMPANY
DATE.  2018-09-11 14:48:19   : Log Export Date {yyyy-MM-dd HH:mm:ss}
PROV.           : PROVINCE
UWI.   25/3-1   : UNIQUE WELL ID
API.            : API NUMBER
#==================================================================
~Curve
DEPT .m                   : DEPTH
Lithology_geolink ._      : Lithology_geolink
CALI .in                  : CALI
BS .in                    : BS
DRHO .g/cm3               : DRHO
NPHI .m3/m3               : NPHI
RHOB .g/cm3               : RHOB
PEF .b/e                  : PEF
GR .gAPI                  : GR
DTC .us/ft                : DTC
RDEP .ohm.m               : RDEP
SP .mV                    : SP
RSHA .ohm.m               : RSHA
RMED .ohm.m               : RMED
~Parameter
#==================================================================
~Ascii
# ...
 1337.4777832  -999.250000 17.847999573 17.500000000 0.0170000009  -999.250000 1.7849469185 3.4815342426 52.416984558 141.69349670 1.6239663363 -109.3610001 1.0899879932 1.4119999409
 1337.6301270  -999.250000 17.961000443 17.500000000 0.0140000004  -999.250000 1.8137718439 3.1906995773 53.049491882 141.32160950 1.6070544720 -109.6070023 1.0900000334 1.3960000277
 1337.7823486  -999.250000 18.444999695 17.500000000 0.0130000003  -999.250000 1.8214756250 2.8159999847 53.981758118 140.06900024 1.5900681019 -108.3140411 1.0790441036 1.3999967575
 1337.9348145  -999.250000 17.867000580 17.500000000 0.0099999998  -999.250000 1.8530623913 2.5039999485 54.176689148 138.70431519 1.6139038801 -108.4528885 1.0620681047 1.3690247536
 1338.0871582  -999.250000 17.805999756 17.500000000 0.0120000001  -999.250000 1.8873006105 2.5409998894 56.469478607 139.51608276 1.6369078159 -109.3302994 1.0540320873 1.3460184336
 1338.2396240  -999.250000 17.766000748 17.500000000 0.0140000004  -999.250000 1.9061139822 2.6449999809 58.127349854 141.66847229 1.6250480413 -109.2090988 1.0540000200 1.3220192194
 1338.3919678  -999.250000 17.826999664 17.500000000 0.0130000003  -999.250000 1.8697243929 3.0160000324 56.340309143 143.02989197 1.6728076935 -108.2187958 1.0669479370 1.3170040846
 1338.5444336  -999.250000 18.190999985 17.500000000 0.0120000001  -999.250000 1.8264898062 2.8629999161 54.944236755 143.57093811 1.6680159569 -107.3586884 1.0749744177 1.3669599295
 1338.6967773  -999.250000 17.913999557 17.500000000 0.0099999998  -999.250000 1.7910281420 2.9159998894 52.827396393 143.70530701 1.6361281872 -107.4329376 1.0789840221 1.4609246254
 1338.8491211  -999.250000 17.936000824 17.500000000 0.0089999996  -999.250000 1.7856445313 2.7990000248 51.992004395 144.43708801 1.6200641394 -107.9411850 1.0730240345 1.4759759903
 1339.0015869  -999.250000 17.784000397 17.500000000 0.0089999996  -999.250000 1.7698192596 3.0039999485 50.111019135 145.27651978 1.5970920324 -108.3186951 1.0670239925 1.3890697956
 1339.1539307  -999.250000 18.297000885 17.500000000 0.0070000002  -999.250000 1.7577906847 2.7909998894 50.573879242 145.03973389 1.5561642647 -107.9605713 1.0620200634 1.3540560007
 1339.3063965  -999.250000 18.690000534 17.500000000 0.0040000002  -999.250000 1.7624332905 2.4059998989 52.304222107 144.08076477 1.5480320454 -108.4026413 1.0649880171 1.3839758635
 1339.4587402  -999.250000 17.875000000 17.500000000 0.0070000002  -999.250000 1.8032213449 2.2969999313 56.298389435 143.53018188 1.5619438887 -108.5427780 1.0659959316 1.3310848475
 1339.6112061  -999.250000 17.908000946 17.500000000 0.0089999996  -999.250000 1.8438019753 2.5309998989 55.738910675 143.54852295 1.5878959894 -109.2894058 1.0470761061 1.3150129318
 1339.7635498  -999.250000 18.077999115 17.500000000 0.0089999996  -999.250000 1.8613615036 2.6250000000 55.824790955 143.04840088 1.6109077930 -108.4306870 1.0440120697 1.3769502640
 1339.9160156  -999.250000 17.780000687 17.500000000 0.0070000002  -999.250000 1.8768068552 2.5840001106 52.985557556 141.11518860 1.6657798290 -108.5698853 1.0509719849 1.4669280052
 1340.0683594  -999.250000 17.878999710 17.500000000 0.0060000001  -999.250000 1.8996596336 2.3829998970 54.500343323 138.98490906 1.6829319000 -109.5132446 1.0619559288 1.5099655390
 1340.2208252  -999.250000 17.913999557 17.500000000 0.0070000002  -999.250000 1.9276001453 2.4609999657 57.649948120 137.62351990 1.6760280132 -109.9566498 1.0699679852 1.5469703674
 1340.3731689  -999.250000 17.968999863 17.500000000 0.0040000002  -999.250000 1.9501819611 2.5269999504 60.702659607 136.67738342 1.6680320501 -109.7032089 1.0700000525 1.5669840574
 1340.5256348  -999.250000 17.961000443 17.500000000 0.0020000001  -999.250000 1.9739377499 0.8560000062 61.583595276 136.65641785 1.6470673084 -108.0413361 1.0610288382 1.5340265036
 1340.6779785  -999.250000 18.121999741 17.500000000 0.0560000017  -999.250000 2.0095460415 0.8840000033 61.206607819 137.29719543 1.5902282000 -108.6155396 1.0500439405 1.4340801239
 1340.8303223  -999.250000 19.325000763 17.500000000 0.4120000005  -999.250000 2.1148512363 0.9330000281 63.305946350 137.57397461 1.5700801611 -109.6223831 1.0430279970 1.3321633339
 1340.9827881  -999.250000 17.975999832 17.500000000 0.4199999869  -999.250000 2.1195595264 3.2290000916 64.271461487 137.76870728 1.5630279779 -110.5022964 1.0569440126 1.2840385437
 1341.1351318  -999.250000 18.641000748 17.500000000 0.4350000024  -999.250000 2.1655187607 3.1270000935 65.263610840 137.47265625 1.5590159893 -110.3143082 1.0908637047 1.2899903059
 1341.2875977  -999.250000 17.917999268 17.500000000 0.4839999974  -999.250000 2.4577293396 3.3849999905 65.611442566 137.07800293 1.5580040216 -108.9560928 1.0840280056 1.2959952354
 1341.4399414  -999.250000 17.913000107 17.500000000 0.4350000024  -999.250000 2.4298999310 3.5940001011 67.151290894 136.98600769 1.5659679174 -108.6614761 1.0660721064 1.3189631701
 1341.5924072  -999.250000 18.086999893 17.500000000 0.0399999991  -999.250000 2.0271427631 3.5610001087 66.609878540 136.93855286 1.5749640465 -109.5382996 1.0480719805 1.3849470615
 1341.7447510  -999.250000 18.201000214 17.500000000 0.0350000001  -999.250000 1.9771937132 3.1860001087 63.533405304 137.37634277 1.5998998880 -109.5479889 1.0440160036 1.4949119091
 1341.8972168  -999.250000 17.871000290 17.500000000 0.0230000000  -999.250000 1.9535244703 2.8399999142 57.104309082 137.54672241 1.6139439344 -109.4261017 1.0479840040 1.5639448166
 1342.0495605  -999.250000 17.847999573 17.500000000 0.0149999997  -999.250000 1.9521219730 2.6800000668 54.347610474 136.91110229 1.6159920692 -108.5666885 1.0380400419 1.5540080070
 1342.2020264  -999.250000 17.875000000 17.500000000 0.0099999998  -999.250000 1.9596564770 2.5099999905 54.280097961 136.68525696 1.6169959307 -108.7058868 1.0399919748 1.5000432730
 1342.3543701  -999.250000 17.871000290 17.500000000 0.0070000002  -999.250000 1.9623218775 2.4749999046 56.891712189 137.31419373 1.6379158497 -109.5832977 1.0708757639 1.4160673618
 1342.5068359  -999.250000 17.840000153 17.500000000 0.0049999999  -999.250000 1.9708282948 2.6289999485 57.824512482 138.25335693 1.6479679346 -109.5929947 1.0759840012 1.3340656757
 1342.6591797  -999.250000 17.825000763 17.500000000 0.0109999999  -999.250000 1.9612187147 3.0529999733 57.631313324 138.65589905 1.6350520849 -109.5360489 1.0680320263 1.2810424566
 1342.8116455  -999.250000 17.893999100 17.500000000 0.0170000009  -999.250000 1.9513090849 3.2439999580 58.469654083 137.55874634 1.6210448742 -109.1762924 1.0570353270 1.2869951725
 1342.9639893  -999.250000 17.825000763 17.500000000 0.0299999993  -999.250000 1.9655312300 3.5350000858 58.199436188 135.50538635 1.5731921196 -109.7505417 1.0440521240 1.3099814653
 1343.1163330  -999.250000 17.892000198 17.500000000 0.0410000011  -999.250000 2.0141470432 3.5309998989 57.788986206 136.23291016 1.4833606482 -110.6275940 1.0320479870 1.2770527601
 1343.2687988  -999.250000 17.809000015 17.500000000 0.0649999976  -999.250000 2.0565822124 4.1599998474 58.540790558 138.75117493 1.4302121401 -110.5730438 1.0100880861 1.2140504122
 1343.4211426  -999.250000 18.007999420 17.500000000 0.0670000017  -999.250000 2.0107219219 4.5659999847 57.685062408 140.34324646 1.4339840412 -110.2135773 0.9960560799 1.1730656624
 1343.5736084  -999.250000 18.670000076 17.500000000 0.0480000004  -999.250000 1.9384794235 4.3909997940 56.596744537 140.00428772 1.4200559855 -110.6556396 1.0199038982 1.2779158354
 1343.7259521  -999.250000 17.916999817 17.500000000 0.0430000015  -999.250000 1.9210875034 3.8299999237 53.575271606 138.42700195 1.4070520401 -110.5990906 1.0369318724 1.3448927402
 1343.8784180  -999.250000 17.781000137 17.500000000 0.0549999997  -999.250000 1.9794046879 3.3159999847 52.688411713 136.77076721 1.4069999456 -110.0434418 1.0479559898 1.2810512781
 1344.0307617  -999.250000 17.784999847 17.500000000 0.0469999984  -999.250000 2.0187907219 3.2539999485 52.288955688 135.77320862 1.4099879265 -109.0527954 1.0440160036 1.2230465412
