# LAS format log file from PETREL
# Project units are specified as depth units
#==================================================================
~Version information
VERS.   2.0:
WRAP.   NO:
#==================================================================
~Well
STRT .m      693.74005127 :
STOP .m      3929.9541016 :
STEP .m     0.00000000 :
NULL .        -999.250000 :
COMP.           : COMPANY
WELL.  25/3-1   : WELL
FLD.            : FIELD
LOC.            : LOCATION
SRVC.           : SERVICE COMPANY
DATE.  2018-09-11 14:48:19   : Log Export Date {yyyy-MM-dd HH:mm:ss}
PROV.           : PROVINCE
UWI.   25/3-1   : UNIQUE WELL ID
API.            : API NUMBER
#==================================================================
~Curve
DEPT .m                   : DEPTH
Lithology_geolink ._      : Lithology_geolink
CALI .in                  : CALI
BS .in                    : BS
DRHO .g/cm3               : DRHO
NPHI .m3/m3               : NPHI
RHOB .g/cm3               : RHOB
PEF .b/e                  : PEF
GR .gAPI                  : GR
DTC .us/ft                : DTC
RDEP .ohm.m               : RDEP
SP .mV                    : SP
RSHA .ohm.m               : RSHA
RMED .ohm.m               : RMED
~Parameter
#==================================================================
~Ascii
# ...
 2631.6586914 11.000000000 12.444999695 12.250000954 0.0099999998  -999.250000 2.6583483219 5.5659999847 10.076000214 63.164730072 14.688908577 -72.40799713 9.1127614975 9.8920001984
 2631.8110352 11.000000000 12.444999695 12.250000954 0.0099999998  -999.250000 2.6488013268 5.4099998474 11.859000206 63.941810608 14.460367203 -72.49800110 9.0131597519 9.9790000916
 2631.9633789 11.000000000 12.444999695 12.250000954 0.0060000001  -999.250000 2.6361095905 5.3130002022 13.013999939 64.564979553 13.984763145 -70.48999786 8.9101648331 10.378000259
 2632.1157227 11.000000000 12.444999695 12.250000954 0.0070000002  -999.250000 2.6326024532 5.2930002213 11.798999786 64.554649353 13.349019051 -70.26200104 8.8191461563 10.475999832
 2632.2680664 11.000000000 12.444999695 12.250000954 0.0109999999  -999.250000 2.6418890953 5.5630002022 10.715999603 65.056030273 12.725996971 -71.91500092 8.7322788239 10.038999557
 2632.4206543 11.000000000 12.437999725 12.250000954 0.0070000002  -999.250000 2.6316318512 5.5859999657 9.2650003433 65.408966064 12.390535355 -73.81400299 8.6521282196 9.4930000305
 2632.5729980 11.000000000 12.371999741 12.250000954 0.0070000002  -999.250000 2.6168537140 5.7030000687 11.135000229 65.949531555 12.766395569 -71.48999786 8.6310329437 9.2500000000
 2632.7253418 11.000000000 12.239000320 12.250000954 0.0109999999  -999.250000 2.6059458256 5.5120000839 10.765999794 66.249877930 13.585685730 -70.81600189 8.6130285263 9.6379995346
 2632.8776855 11.000000000 12.166000366 12.250000954 0.0109999999  -999.250000 2.6052129269 5.3550000191 11.038999557 65.229568481 14.390420914 -73.61599731 8.5950574875 10.383000374
 2633.0302734 11.000000000 12.185999870 12.250000954 0.0099999998  -999.250000 2.6181919575 5.2270002365 9.4969997406 63.687702179 14.722470284 -74.07099915 8.6618919373 11.357000351
 2633.1826172 11.000000000 12.237000465 12.250000954 0.0120000001  -999.250000 2.6293618679 5.2699999809 10.017999649 62.070354462 14.689054489 -71.04399872 8.7578468323 12.071000099
 2633.3349609 11.000000000 12.305000305 12.250000954 0.0080000004  -999.250000 2.6351206303 5.4770002365 10.965999603 60.815608978 14.339560509 -69.84500122 8.8498525620 12.239000320
 2633.4873047 11.000000000 12.305000305 12.250000954 0.0040000002  -999.250000 2.6361711025 5.3829998970 11.357999802 60.302410126 13.994107246 -73.61799622 8.9427022934 11.911000252
 2633.6398926 11.000000000 12.305000305 12.250000954 0.0040000002  -999.250000 2.6465740204 5.1760001183 11.567999840 60.594142914 13.546715736 -72.95500183 9.0408430099 11.064999580
 2633.7922363 11.000000000 12.309000015 12.250000954 0.0040000002  -999.250000 2.6509721279 5.0229997635 10.940999985 61.344467163 13.583938599 -72.21399689 9.0789394379 9.7569999695
 2633.9445801 11.000000000 12.345999718 12.250000954 0.0060000001  -999.250000 2.6508095264 5.0390000343 10.631999969 62.240703583 13.965387344 -70.48600006 9.1039600372 9.3009996414
 2634.0969238 11.000000000 12.418000221 12.250000954 0.0089999996  -999.250000 2.6485736370 5.0549998283 10.866000175 62.724060059 14.085807800 -70.88899994 9.1279621124 10.045999527
 2634.2492676 11.000000000 12.444999695 12.250000954 0.0099999998  -999.250000 2.6505327225 5.0040001869 11.128000259 62.040157318 14.063073158 -73.33999634 9.1549129486 10.913999557
 2634.4018555 11.000000000 12.449000359 12.250000954 0.0099999998  -999.250000 2.6590352058 5.0939998627 11.234000206 61.592453003 14.075979233 -72.09799957 9.1859502792 11.557000160
 2634.5541992 11.000000000 12.456000328 12.250000954 0.0109999999  -999.250000 2.6638569832 5.3159999847 8.8629999161 60.856037140 14.027078629 -71.12000275 9.0282535553 11.800000191
 2634.7065430 11.000000000 12.317999840 12.250000954 0.0080000004  -999.250000 2.6564495564 5.7810001373 7.3810000420 60.712959290 14.326519012 -71.64900208 8.9012031555 11.880000114
 2634.8588867 11.000000000 12.305999756 12.250000954 0.0089999996  -999.250000 2.6460366249 5.8280000687 6.5479998589 61.066764832 15.180260658 -71.15000153 8.9677858353 11.878999710
 2635.0114746 11.000000000 12.324000359 12.250000954 0.0070000002  -999.250000 2.6306719780 5.7729997635 8.4849996567 61.023273468 15.695178032 -73.22000122 9.0967931747 11.770999908
 2635.1638184 11.000000000 12.387999535 12.250000954 0.0060000001  -999.250000 2.6310725212 5.6449999809 9.9110002518 61.157192230 15.751910210 -71.01599884 9.2667274475 11.628999710
 2635.3161621 11.000000000 12.319999695 12.250000954 0.0070000002  -999.250000 2.6478464603 5.5120000839 10.729000092 61.484729767 15.620211601 -70.99199677 9.2630062103 11.373000145
 2635.4685059 11.000000000 12.317999840 12.250000954 0.0060000001  -999.250000 2.6616609097 5.0700001717 10.437999725 61.371833801 15.114622116 -72.60800171 9.2011985779 11.326000214
 2635.6210938 11.000000000 12.310999870 12.250000954 0.0040000002  -999.250000 2.6621000767 4.8670001030 10.088999748 61.331630707 14.229417801 -72.72799683 9.0332689285 11.302000046
 2635.7734375 11.000000000 12.345001221 12.250000954 0.0049999999  -999.250000 2.6593854427 5.2030000687 9.7489995956 61.902725220 13.522132874 -72.03099823 8.8972187042 11.078000069
 2635.9257813 11.000000000 12.307000160 12.250000954 0.0099999998  -999.250000 2.6539759636 5.1880002022 9.4820003510 62.521999359 12.910979271 -72.41000366 8.7821836472 10.479000092
 2636.0781250 11.000000000 12.329999924 12.250000954 0.0109999999  -999.250000 2.6393775940 5.1799998283 9.7399997711 63.407012939 12.375857353 -74.59100342 8.6671838760 9.9600000381
 2636.2307129 11.000000000 12.397999763 12.250000954 0.0109999999  -999.250000 2.6325979233 5.0510001183 9.0900001526 63.924701691 12.218251228 -72.54799652 8.5431985855 9.5839996338
 2636.3830566 11.000000000 12.442999840 12.250000954 0.0099999998  -999.250000 2.6312367916 5.3709998131 8.5360002518 63.919540405 12.106179237 -70.98100281 8.4032239914 9.3769998550
 2636.5354004 11.000000000 12.432999611 12.250000954 0.0089999996  -999.250000 2.6248009205 5.4569997787 7.8090000153 63.826587677 11.921296120 -72.28099823 8.3600683212 9.3269996643
 2636.6877441 11.000000000 12.468999863 12.250000954 -0.050000001  -999.250000 2.5536456108 5.1050000191 8.1029996872 63.656860352 11.694363594 -73.64800262 8.3510141373 9.2889995575
 2636.8400879 11.000000000 12.555000305 12.250000954 -0.404000014  -999.250000 2.2038064003 5.1329998970 9.4160003662 63.916465759 11.491649628 -73.55899811 8.2403545380 9.2700004578
 2636.9926758 11.000000000 12.437999725 12.250000954 -0.400999993  -999.250000 2.2029650211 5.1989998817 11.102999687 64.217971802 11.258374214 -73.15399933 8.1221885681 9.2799997330
 2637.1450195 11.000000000 12.331998825 12.250000954 -0.398000002  -999.250000 2.2132863998 5.4569997787 11.362000465 64.198539734 11.102250099 -74.44100189 8.0001955032 9.2119998932
 2637.2973633 11.000000000 12.305000305 12.250000954 -0.402999997  -999.250000 2.2027583122 5.2849998474 10.753000259 63.843677521 10.931273460 -72.56999969 7.9470849037 9.0729999542
 2637.4497070 11.000000000 12.312999725 12.250000954 -0.356000006  -999.250000 2.2426667213 5.6090002060 9.3940000534 63.800727844 10.854246140 -73.03500366 7.9170956612 8.8109998703
 2637.6022949 11.000000000 12.358999252 12.250000954 0.0020000001  -999.250000 2.5847973824 5.5000000000 9.7410001755 63.916778564 10.936867714 -72.80200195 7.8870482445 8.5830001831
 2637.7546387 11.000000000 12.310999870 12.250000954 0.0020000001  -999.250000 2.5878405571 5.9489998817 9.1470003128 63.933494568 11.093748093 -72.31099701 7.8510575294 8.6149997711
 2637.9069824 11.000000000 12.364000320 12.250000954 0.0010000000  -999.250000 2.5915689468 5.1129999161 9.3929996490 63.707923889 11.207817078 -70.61900330 7.8080692291 8.9729995728
 2638.0593262 11.000000000 12.444999695 12.250000954 0.0030000000  -999.250000 2.6005084515 5.1090002060 9.8260002136 63.443099976 11.229928970 -73.83599854 7.8050093651 9.3090000153
 2638.2119141 11.000000000 12.444999695 12.250000954 0.0049999999  -999.250000 2.6266870499 4.8290143013 10.503000259 63.288871765 11.248969078 -72.31800079 7.8169808388 9.4189996719
