# LAS format log file from PETREL
# Project units are specified as depth units
#==================================================================
~Version information
VERS.   2.0:
WRAP.   NO:
#==================================================================
~Well
STRT .m      693.74005127 :
STOP .m      3929.9541016 :
STEP .m     0.00000000 :
NULL .        -999.250000 :
COMP.           : COMPANY
WELL.  25/3-1   : WELL
FLD.            : FIELD
LOC.            : LOCATION
SRVC.           : SERVICE COMPANY
DATE.  2018-09-11 14:48:19   : Log Export Date {yyyy-MM-dd HH:mm:ss}
PROV.           : PROVINCE
UWI.   25/3-1   : UNIQUE WELL ID
API.            : API NUMBER
#==================================================================
~Curve
DEPT .m                   : DEPTH
Lithology_geolink ._      : Lithology_geolink
CALI .in                  : CALI
BS .in                    : BS
DRHO .g/cm3               : DRHO
NPHI .m3/m3               : NPHI
RHOB .g/cm3               : RHOB
PEF .b/e                  : PEF
GR .gAPI                  : GR
DTC .us/ft                : DTC
RDEP .ohm.m               : RDEP
SP .mV                    : SP
RSHA .ohm.m               : RSHA
RMED .ohm.m               : RMED
~Parameter
#==================================================================
~Ascii
# ...
 3711.2600098 6.0000000000 9.5319995880 8.5000000000 0.0260000005 0.2987358272 2.6385684013 3.7130000591 93.720382690 87.416610718 4.8738732338 -26.22396660 5.8940210342 3.9389982224
 3711.4123535 6.0000000000 9.5430002213 8.5000000000 0.0320000015 0.3014556468 2.6507062912 3.6819999218 97.779495239 87.857887268 5.0886588097 -26.79907990 5.8091363907 3.9399983883
 3711.5646973 6.0000000000 9.5209999084 8.5000000000 0.0390000008 0.3054535985 2.6653289795 3.8980000019 98.616661072 87.893569946 5.0989837646 -27.72551346 5.7391119003 3.9409983158
 3711.7170410 6.0000000000 9.5310001373 8.5000000000 0.0350000001 0.3069452345 2.6768345833 4.1799998283 99.366600037 87.630386353 5.1049809456 -27.99514008 5.6781949997 3.9071087837
 3711.8696289 6.0000000000 9.5270004272 8.5000000000 0.0260000005 0.2999612093 2.6768121719 4.3270001411 95.605041504 87.565048218 5.1289615631 -27.62160110 5.6051168442 3.7512500286
 3712.0219727 6.0000000000 9.5249996185 8.5000000000 0.0199999996 0.3006688356 2.6740853786 4.1900000572 90.355415344 87.577735901 5.1339917183 -27.97043991 5.5241298676 3.5682933331
 3712.1743164 6.0000000000 9.5450000763 8.5000000000 0.0120000001 0.3007798195 2.6585118771 4.0310001373 91.851577759 87.664817810 5.1389918327 -28.20362663 5.4331459999 4.7820510864
 3712.3266602 6.0000000000 9.5489997864 8.5000000000 0.0089999996 0.2938422561 2.6451263428 3.9249999523 92.312530518 88.111923218 5.1340160370 -28.88880157 5.3592371941 5.7568769455
 3712.4792480 6.0000000000 9.5679998398 8.5000000000 0.0099999998 0.2863619924 2.6411128044 4.1220002174 92.888076782 88.516227722 5.1230177879 -28.37382889 5.2921071053 5.7090816498
 3712.6315918 6.0000000000 9.5699996948 8.5000000000 0.0140000004 0.2915416658 2.6501138210 4.2670001984 88.428161621 88.671318054 5.1210031509 -28.44188881 5.2251071930 5.6980175972
 3712.7839355 6.0000000000 9.5830001831 8.5000000000 0.0149999997 0.3014540970 2.6610481739 4.4970002174 88.828346252 88.698448181 5.1479563713 -28.12550735 5.1670928001 5.6740384102
 3712.9362793 6.0000000000 9.5939998627 8.5000000000 0.0140000004 0.3137206435 2.6683692932 4.3420000076 92.020751953 88.498924255 5.2038207054 -28.03728294 5.1181569099 5.6739997864
 3713.0888672 6.0000000000 9.6459999084 8.5000000000 0.0130000003 0.3117332458 2.6706364155 4.0430002213 90.376655579 88.435379028 5.2179775238 -27.37805939 5.1100130081 5.6739997864
 3713.2412109 6.0000000000 9.6560001373 8.5000000000 0.0109999999 0.3094037175 2.6760325432 3.8320000172 89.086067200 88.185920715 5.1441187859 -27.22823906 5.1129951477 5.6739997864
 3713.3935547 6.0000000000 9.6560001373 8.5000000000 0.0089999996 0.3030202687 2.6930432320 3.9609999657 88.624740601 86.752807617 5.1360130310 -27.04229736 5.1249809265 5.6739997864
 3713.5458984 6.0000000000 9.6560001373 8.5000000000 0.0120000001 0.3007636070 2.7147982121 4.0349998474 87.581672668 84.558151245 5.1369986534 -27.91859245 5.1888976097 5.6730012894
 3713.6984863 6.0000000000 9.6560001373 8.5000000000 0.0130000003 0.2950491607 2.7177298069 3.8710000515 88.435623169 82.610687256 5.1379985809 -28.04380226 5.2928338051 5.6650128365
 3713.8508301 6.0000000000 9.6630001068 8.5000000000 0.0109999999 0.2836483121 2.7015116215 3.7500000000 85.097366333 81.375587463 5.1380000114 -28.87766075 5.5276231766 5.6530189514
 3714.0031738 6.0000000000 9.7030000687 8.5000000000 0.0109999999 0.2676656246 2.6865537167 3.7360000610 84.104583740 80.425346375 5.1380000114 -29.27236938 5.7586297989 5.6390223503
 3714.1555176 6.0000000000 9.7790002823 8.5000000000 0.0109999999 0.2641456127 2.6728384495 3.6400001049 79.107017517 79.899192810 5.1489825249 -28.92356110 5.9606761932 5.6389999390
 3714.3078613 6.0000000000 9.7889995575 8.5000000000 0.0109999999 0.2592257559 2.6664955616 3.5880000591 79.085044861 79.891845703 5.2596449852 -28.76450920 6.2301359177 5.6389999390
 3714.4604492 5.0000000000 9.7889995575 8.5000000000 0.0120000001 0.2535191476 2.6606767178 3.5940001011 74.926673889 79.534294128 5.5056056976 -29.06551552 6.5355110168 5.6389999390
 3714.6127930 5.0000000000 9.7889995575 8.5000000000 0.0099999998 0.2472799867 2.6524527073 3.5639998913 75.730697632 79.217285156 5.6298012733 -28.57678604 6.8165497780 5.6389999390
 3714.7651367 5.0000000000 9.7889995575 8.5000000000 0.0089999996 0.2473898083 2.6378734112 3.5880000591 71.484817505 78.978248596 5.6689376831 -26.67904472 7.0905609131 5.6380014420
 3714.9174805 5.0000000000 9.7889995575 8.5000000000 0.0109999999 0.2442201674 2.6289789677 3.7139999866 73.493530273 78.653396606 5.6939196587 -26.30120277 7.3531584740 5.6360063553
 3715.0700684 5.0000000000 9.7889995575 8.5000000000 0.0140000004 0.2359931767 2.6316087246 3.7839999199 71.266586304 78.692886353 5.6939997673 -26.75027657 7.5656604767 5.6360001564
 3715.2224121 5.0000000000 9.7889995575 8.5000000000 0.0160000008 0.2321860939 2.6388747692 3.7349998951 70.192718506 78.884796143 5.6930012703 -27.40295219 7.7427163124 5.6220226288
 3715.3747559 6.0000000000 9.7889995575 8.5000000000 0.0219999999 0.2293245792 2.6552658081 3.7139999866 71.083564758 79.068443298 5.6910033226 -26.49046707 7.7739505768 5.6539483070
 3715.5270996 6.0000000000 9.7889995575 8.5000000000 0.0280000009 0.2337358296 2.6660602093 3.9030001163 74.769172668 79.052421570 5.6710639000 -25.39949799 7.7211699486 5.7307534218
 3715.6796875 6.0000000000 9.7899999619 8.5000000000 0.0260000005 0.2426756769 2.6632974148 4.0339999199 79.352661133 78.931678772 5.6450414658 -25.19931602 7.5742354393 5.7849135399
 3715.8320313 6.0000000000 9.7950000763 8.5000000000 0.0240000002 0.2555393875 2.6534075737 4.0549998283 80.541107178 78.749023438 5.6120529175 -24.29345322 7.4941282272 5.7820048332
 3715.9843750 6.0000000000 9.8020000458 8.5000000000 0.0219999999 0.2673211396 2.6523241997 4.0460000038 77.351127625 79.398612976 5.6050114632 -22.15642738 7.4390883446 5.7240929604
 3716.1367188 6.0000000000 9.7969999313 8.5000000000 0.0209999997 0.2690871954 2.6643033028 3.9949998856 72.648536682 80.419639587 5.6079950333 -19.50125694 7.4330096245 5.6850624084
 3716.2890625 5.0000000000 9.7939996719 8.5000000000 0.0199999996 0.2690202296 2.6780576706 3.9709999561 67.350982666 79.967056274 5.6428880692 -19.78308105 7.4200415611 5.6879906654
 3716.4416504 5.0000000000 9.7889995575 8.5000000000 0.0219999999 0.2584868968 2.6850931644 3.9000000954 66.905685425 79.163131714 5.6939182281 -19.61527061 7.4010305405 5.6880002022
 3716.5939941 5.0000000000 9.7899999619 8.5000000000 0.0209999997 0.2458103299 2.6793856621 3.8529999256 66.392822266 79.035430908 5.7209568024 -20.61539459 7.4339470863 5.6710271835
 3716.7463379 5.0000000000 9.7969999313 8.5000000000 0.0149999997 0.2348276079 2.6687457561 3.7999999523 69.864425659 79.153198242 5.7100176811 -20.68589020 7.4509730339 5.6450414658
 3716.8986816 5.0000000000 9.8030004501 8.5000000000 0.0160000008 0.2364148498 2.6638507843 3.8559999466 70.714294434 79.119544983 5.6960449219 -20.48464584 7.4210958481 5.6390190125
 3717.0512695 5.0000000000 9.7889995575 8.5000000000 0.0170000009 0.2457150817 2.6574947834 3.9040000439 73.766113281 79.165046692 5.6960000992 -21.13695335 7.3660883904 5.6389999390
 3717.2036133 5.0000000000 9.7889995575 8.5000000000 0.0109999999 0.2464089245 2.6397511959 3.8580000401 73.582305908 79.322685242 5.6920061111 -20.43712616 7.3001060486 5.6389999390
 3717.3559570 5.0000000000 9.7889995575 8.5000000000 0.0089999996 0.2421168834 2.6369736195 3.6949999332 74.017295837 79.344940186 5.6630463600 -20.75448799 7.2690496445 5.6389999390
 3717.5083008 5.0000000000 9.7889995575 8.5000000000 0.0120000001 0.2338066548 2.6423203945 3.5299999714 73.339179993 79.368850708 5.6510386467 -20.62342072 7.2341122627 5.6389999390
 3717.6608887 6.0000000000 9.7910003662 8.5000000000 0.0120000001 0.2339197844 2.6479294300 3.4249999523 73.921058655 79.306411743 5.6490035057 -20.34943962 7.1910691261 5.6389999390
 3717.8132324 6.0000000000 9.8050003052 8.5000000000 0.0130000003 0.2333708853 2.6444156170 3.3770000935 76.876251221 79.230072021 5.6559886932 -20.03849792 7.1750259399 5.6389999390
