# LAS format log file from PETREL
# Project units are specified as depth units
#==================================================================
~Version information
VERS.   2.0:
WRAP.   NO:
#==================================================================
~Well
STRT .m      693.74005127 :
STOP .m      3929.9541016 :
STEP .m     0.00000000 :
NULL .        -999.250000 :
COMP.           : COMPANY
WELL.  25/3-1   : WELL
FLD.            : FIELD
LOC.            : LOCATION
SRVC.           : SERVICE COMPANY
DATE.  2018-09-11 14:48:19   : Log Export Date {yyyy-MM-dd HH:mm:ss}
PROV.           : PROVINCE
UWI.   25/3-1   : UNIQUE WELL ID
API.            : API NUMBER
#==================================================================
~Curve
DEPT .m                   : DEPTH
Lithology_geolink ._      : Lithology_geolink
CALI .in                  : CALI
BS .in                    : BS
DRHO .g/cm3               : DRHO
NPHI .m3/m3               : NPHI
RHOB .g/cm3               : RHOB
PEF .b/e                  : PEF
GR .gAPI                  : GR
DTC .us/ft                : DTC
RDEP .ohm.m               : RDEP
SP .mV                    : SP
RSHA .ohm.m               : RSHA
RMED .ohm.m               : RMED
~Parameter
#==================================================================
~Ascii
# ...
 3060.8168945 5.0000000000 9.9479999542 8.5000000000 0.1389999986 0.3016359210 2.3753633499 7.7179999352 102.65599823 104.87508392 1.4119710922 -17.57999992 2.6400289536 1.4789999723
 3060.9692383 5.0000000000 9.9469995499 8.5000000000 0.1529999971 0.3053779602 2.3865249157 7.8600001335 100.12899780 106.07714081 1.4618400335 -16.93700027 2.7386832237 1.4509999752
 3061.1218262 5.0000000000 9.9680004120 8.5000000000 0.1449999958 0.3254777491 2.3853485584 7.4320001602 98.804000854 107.08709717 1.4939486980 -16.84700012 2.8378415108 1.5210000277
 3061.2741699 5.0000000000 10.012000084 8.5000000000 0.1410000026 0.3446892202 2.3821003437 7.2849998474 100.78800201 106.80255890 1.4900064468 -16.20499992 2.8469855785 1.5939999819
 3061.4265137 5.0000000000 9.9409999847 8.5000000000 0.1280000061 0.3323199153 2.3754177094 7.2699999809 100.37000275 106.33464050 1.4710303545 -16.31299973 2.8539888859 1.5670000315
 3061.5788574 5.0000000000 9.9360008240 8.5000000000 0.1150000021 0.3346225619 2.3690047264 7.2389998436 98.088996887 106.29073334 1.4440864325 -17.00600052 2.8520064354 1.5429999828
 3061.7314453 5.0000000000 9.9309997559 8.5000000000 0.1059999987 0.3318744004 2.3694787025 8.2860002518 94.269996643 106.32855225 1.4290241003 -17.21500015 2.7831106186 1.5210000277
 3061.8837891 5.0000000000 9.9300003052 8.5000000000 0.0979999974 0.3432417512 2.3789045811 7.2290000916 94.959999084 106.06222534 1.4439759254 -17.10000038 2.7131123543 1.5140000582
 3062.0361328 5.0000000000 9.9300003052 8.5000000000 0.0850000009 0.3592742980 2.3829753399 6.3600001335 95.872001648 105.83016205 1.4499903917 -17.04899979 2.6640784740 1.5130000114
 3062.1884766 5.0000000000 9.9350004196 8.5000000000 0.1000000015 0.3604562879 2.4097185135 6.4019999504 95.355003357 106.15593719 1.4529902935 -17.36800003 2.7068624496 1.5340000391
 3062.3410645 5.0000000000 9.9639997482 8.5000000000 0.1049999967 0.3592619300 2.3930511475 6.4970002174 94.935997009 105.88878632 1.4589903355 -17.23500061 2.7758893967 1.5429999828
 3062.4934082 5.0000000000 9.9110002518 8.5000000000 0.1010000035 0.3516322374 2.3751449585 7.9530000687 96.283996582 105.58424377 1.4699823856 -17.10899925 2.7929728031 1.5449999571
 3062.6457520 5.0000000000 9.8380002975 8.5000000000 0.1120000035 0.3501224220 2.3967671394 6.7969999313 99.902999878 105.85525513 1.4680032730 -17.69400024 2.7860000134 1.5659999847
 3062.7980957 5.0000000000 9.8240003586 8.5000000000 0.1199999973 0.3467154801 2.4340884686 6.5970001221 101.01899719 106.32034302 1.4660031796 -17.85499954 2.7550001144 1.5820000172
 3062.9504395 5.0000000000 9.7939996719 8.5000000000 0.1010000035 0.3329442143 2.4418821335 5.3740000725 104.34400177 106.86770630 1.4560319185 -17.29800034 2.8169999123 1.5670000315
 3063.1030273 5.0000000000 9.7950000763 8.5000000000 0.0860000029 0.3267598450 2.4363796711 6.0689997673 103.91200256 106.42977142 1.4470144510 -16.60199928 2.8710000515 1.5049999952
 3063.2553711 6.0000000000 9.8070001602 8.5000000000 0.0829999968 0.3442019820 2.4245655537 6.9939999580 107.09500122 105.74865723 1.4360176325 -17.69700050 2.8499999046 1.4680000544
 3063.4077148 6.0000000000 9.9239997864 8.5000000000 0.0829999968 0.3475247025 2.3832535744 10.222999573 102.72599792 105.37326813 1.4280128479 -17.65699959 2.8220000267 1.4709999561
 3063.5600586 6.0000000000 9.9589996338 8.5000000000 0.0860000029 0.3604983687 2.3468601704 10.508000374 108.01999664 105.44017792 1.4329839945 -17.25699997 2.7909998894 1.4830000401
 3063.7126465 6.0000000000 9.9200000763 8.5000000000 0.1019999981 0.3621973693 2.3432760239 10.166999817 109.14600372 106.74399567 1.4260112047 -16.79000092 2.7609999180 1.5140000582
 3063.8649902 6.0000000000 9.9090003967 8.5000000000 0.1120000035 0.3678110242 2.3771343231 8.7740001678 112.42500305 106.99149323 1.4110240936 -17.29899979 2.7149999142 1.5399999619
 3064.0173340 6.0000000000 9.8800001144 8.5000000000 0.1049999967 0.3672908545 2.4019160271 7.7589998245 108.45300293 105.43569946 1.4259759188 -17.49600029 2.6419999599 1.5049999952
 3064.1696777 6.0000000000 9.6070003510 8.5000000000 0.0920000002 0.3634523153 2.4112179279 6.6360001564 107.18299866 104.25409698 1.4519168139 -15.85999870 2.6719999313 1.4950000048
 3064.3222656 6.0000000000 9.5220003128 8.5000000000 0.0810000002 0.3514292836 2.4209046364 5.7399997711 106.75599670 102.91803741 1.4789566994 -15.76000118 2.7520000935 1.5310000181
 3064.4746094 6.0000000000 9.5249996185 8.5000000000 0.0740000010 0.3396488726 2.4220726490 5.9479999542 110.12200165 103.74470520 1.5179375410 -15.96599960 2.8919999599 1.5789999962
 3064.6269531 6.0000000000 9.6020002365 8.5000000000 0.0750000030 0.3264910877 2.4147431850 6.3639998436 112.93499756 105.64566803 1.5479519367 -17.19700050 3.0090000629 1.6480000019
 3064.7792969 6.0000000000 9.6940002441 8.5000000000 0.0799999982 0.3384008408 2.3872039318 6.7220001221 112.28099823 106.85578156 1.5679678917 -16.59700012 3.0950000286 1.6809999943
 3064.9316406 6.0000000000 9.7410001755 8.5000000000 0.0829999968 0.3458960056 2.3739104271 7.0000000000 110.25399780 107.99562073 1.6038848162 -16.23699951 3.0980000496 1.6770000458
 3065.0842285 6.0000000000 9.7709999084 8.5000000000 0.0900000036 0.3615149558 2.3953149319 6.0879998207 106.63600159 107.85247803 1.6069952250 -16.76199913 3.0810000896 1.6610000134
 3065.2365723 6.0000000000 9.7919998169 8.5000000000 0.0820000023 0.3655135930 2.4062771797 5.9409999847 106.48400116 107.28145599 1.5930000544 -17.37999916 3.0529999733 1.6269999743
 3065.3889160 5.0000000000 9.8260002136 8.5000000000 0.0829999968 0.3548671007 2.4210231304 6.0079998970 102.17600250 106.55465698 1.5679999590 -17.77400017 3.0220000744 1.5909999609
 3065.5412598 5.0000000000 9.8109998703 8.5000000000 0.0860000029 0.3449617326 2.4198546410 6.8860001564 101.71199799 106.45594025 1.5219999552 -17.53899956 2.9909999371 1.5970000029
 3065.6938477 5.0000000000 9.8360004425 8.5000000000 0.0900000036 0.3284963667 2.4230964184 7.1779999733 102.34300232 106.30798340 1.5069999695 -18.07500076 2.9590001106 1.6059999466
 3065.8461914 5.0000000000 9.9160003662 8.5000000000 0.1099999994 0.3332822621 2.4237816334 7.2389998436 105.27300262 106.44974518 1.5190000534 -17.87599945 2.9279999733 1.5850000381
 3065.9985352 5.0000000000 9.9440002441 8.5000000000 0.1289999932 0.3457699716 2.4144103527 8.0310001373 104.21199799 106.85054779 1.5279999971 -17.15200043 2.9189999104 1.6009999514
 3066.1508789 6.0000000000 10.036000252 8.5000000000 0.1309999973 0.3532958925 2.3915467262 8.9540004730 104.99900055 107.04949188 1.5549999475 -16.66699982 2.9900000095 1.6430000067
 3066.3034668 6.0000000000 10.001000404 8.5000000000 0.1340000033 0.3565148711 2.3912847042 8.3889999390 110.44499969 108.17214203 1.6059999466 -17.11800003 3.0729999542 1.7120000124
 3066.4558105 6.0000000000 9.9849996567 8.5000000000 0.1439999938 0.3535547554 2.4111757278 7.6750001907 119.58000183 108.45314789 1.6230000257 -17.81999969 3.1510000229 1.7669999599
 3066.6081543 6.0000000000 9.9750003815 8.5000000000 0.1420000046 0.3616669774 2.4219641685 7.3569998741 122.97499847 108.63357544 1.6339999437 -17.28000069 3.2139999866 1.8120000362
 3066.7604980 6.0000000000 9.8959999084 8.5000000000 0.1260000020 0.3700665236 2.4161050320 7.1209998131 122.66500092 109.50407410 1.6629999876 -16.65999985 3.2360000610 1.8240000010
 3066.9128418 6.0000000000 9.7760000229 8.5000000000 0.1099999994 0.3812242448 2.4153192043 5.9140000343 121.62200165 110.15383911 1.6990000010 -17.55500031 3.2230000496 1.7619999647
 3067.0654297 6.0000000000 9.6899995804 8.5000000000 0.0970000029 0.3975139260 2.4134578705 5.3229999542 120.52200317 108.66693115 1.7730000019 -17.63999939 3.1480000019 1.7170000076
 3067.2177734 6.0000000000 9.6730003357 8.5000000000 0.0860000029 0.3877257705 2.4065163136 6.0890002251 115.22299957 106.47824860 1.8420000076 -17.35000038 3.1059999466 1.7300000191
 3067.3701172 5.0000000000 9.7679996490 8.5000000000 0.0740000010 0.3553120196 2.3804545403 8.5729999542 108.52799988 105.15097046 1.8769999743 -16.75099945 3.1219999790 1.9079999924
