# LAS format log file from PETREL
# Project units are specified as depth units
#==================================================================
~Version information
VERS.   2.0:
WRAP.   NO:
#==================================================================
~Well
STRT .m      693.74005127 :
STOP .m      3929.9541016 :
STEP .m     0.00000000 :
NULL .        -999.250000 :
COMP.           : COMPANY
WELL.  25/3-1   : WELL
FLD.            : FIELD
LOC.            : LOCATION
SRVC.           : SERVICE COMPANY
DATE.  2018-09-11 14:48:19   : Log Export Date {yyyy-MM-dd HH:mm:ss}
PROV.           : PROVINCE
UWI.   25/3-1   : UNIQUE WELL ID
API.            : API NUMBER
#==================================================================
~Curve
DEPT .m                   : DEPTH
Lithology_geolink ._      : Lithology_geolink
CALI .in                  : CALI
BS .in                    : BS
DRHO .g/cm3               : DRHO
NPHI .m3/m3               : NPHI
RHOB .g/cm3               : RHOB
PEF .b/e                  : PEF
GR .gAPI                  : GR
DTC .us/ft                : DTC
RDEP .ohm.m               : RDEP
SP .mV                    : SP
RSHA .ohm.m               : RSHA
RMED .ohm.m               : RMED
~Parameter
#==================================================================
~Ascii
# ...
 2846.2375488 12.000000000 12.578000069 12.250000954 0.2939999998  -999.250000 2.8398571014 5.3520002365 37.785121918 86.256973267 1.6638079882 -36.73400116 2.4585456848 1.8459999561
 2846.3901367 12.000000000 12.531999588 12.250000954 0.1759999990  -999.250000 2.7406935692 5.0590000153 34.639053345 84.033676147 1.7259006500 -38.05400085 2.5867948532 1.8619999886
 2846.5424805 12.000000000 12.586000443 12.250000954 0.0049999999  -999.250000 2.5844109058 4.7420001030 32.773986816 83.222053528 1.7958878279 -38.47000122 2.6998188496 1.8270000219
 2846.6948242 12.000000000 12.576999664 12.250000954 0.0030000000  -999.250000 2.5768854618 4.2769999504 33.970073700 83.850708008 1.8928445578 -38.47900009 2.7559103966 1.8170000315
 2846.8471680 12.000000000 12.524999619 12.250000954 0.0000000000  -999.250000 2.5688624382 4.3979997635 35.430656433 84.804542542 1.9888460636 -38.42599869 2.7929406166 1.9129999876
 2846.9995117 12.000000000 12.586000443 12.250000954 0.0030000000  -999.250000 2.5733428001 4.3949999809 34.889743805 84.419334412 1.9830192327 -38.09400177 2.8109424114 2.0209999084
 2847.1520996 12.000000000 12.586000443 12.250000954 0.0030000000  -999.250000 2.5763118267 4.6680002213 31.176956177 83.651947021 1.9071217775 -38.60599899 2.7530930042 1.9759999514
 2847.3044434 12.000000000 12.586000443 12.250000954 0.0060000001  -999.250000 2.5823142529 4.7030000687 29.347925186 84.385269165 1.8281265497 -38.74900055 2.6172180176 1.8470000029
 2847.4567871 12.000000000 12.586000443 12.250000954 0.0070000002  -999.250000 2.5800800323 5.3090000153 30.127742767 86.351264954 1.7461314201 -36.91899872 2.4812178612 1.7339999676
 2847.6091309 13.000000000 12.586000443 12.250000954 0.0030000000  -999.250000 2.5668358803 5.0549998283 33.614810944 88.240386963 1.6423327923 -38.93399811 2.3564000130 1.6369999647
 2847.7617188 13.000000000 12.588999748 12.250000954 0.0000000000  -999.250000 2.5460393429 4.7620000839 41.272724152 89.520156860 1.5351713896 -37.46400070 2.3210561275 1.5590000153
 2847.9140625 13.000000000 12.609000206 12.250000954 0.0030000000  -999.250000 2.5449151993 4.2699999809 43.973686218 90.671714783 1.4900721312 -36.64300156 2.3319823742 1.4919999838
 2848.0664063 13.000000000 12.614998817 12.250000954 0.0040000002  -999.250000 2.5468361378 4.2890000343 43.117382050 91.894470215 1.4939935207 -39.50099945 2.4108734131 1.4579999447
 2848.2187500 13.000000000 12.640999794 12.250000954 0.0089999996  -999.250000 2.5540628433 4.4219999313 39.756782532 92.211334229 1.5069583654 -35.71900177 2.5674977303 1.4689999819
 2848.3713379 13.000000000 12.600000381 12.250000954 0.0130000003  -999.250000 2.5568206310 4.7189998627 39.630187988 90.669754028 1.5489326715 -39.26399994 2.7556986809 1.5199999809
 2848.5236816 13.000000000 12.633000374 12.250000954 0.0280000009  -999.250000 2.5783271790 4.9920001030 38.501811981 87.573089600 1.6338636875 -39.48199844 2.9087548256 1.6410000324
 2848.6760254 12.000000000 12.584000587 12.250000954 0.0219999999  -999.250000 2.5859806538 5.1209998131 34.243831635 84.312095642 1.7138718367 -38.08399963 3.0198221207 1.8589999676
 2848.8283691 12.000000000 12.571999550 12.250000954 0.0260000005  -999.250000 2.5998489857 5.4180002213 29.115221024 81.835289001 1.7649182081 -37.60499954 3.0499517918 1.9869999886
 2848.9807129 12.000000000 12.586000443 12.250000954 0.0160000008  -999.250000 2.6015582085 5.5780000687 26.214286804 81.017768860 1.8018816710 -37.74800110 2.9572975636 1.9290000200
 2849.1333008 12.000000000 12.586999893 12.250000954 0.0130000003  -999.250000 2.5902562141 5.6050000191 29.489728928 82.246009827 1.8339487314 -38.38600159 2.8002514839 1.8750000000
 2849.2856445 12.000000000 12.593000412 12.250000954 0.0060000001  -999.250000 2.5762293339 5.1449999809 33.254966736 84.542373657 1.8419871330 -36.46900177 2.6492419243 1.8409999609
 2849.4379883 12.000000000 12.586000443 12.250000954 0.0089999996  -999.250000 2.5625383854 4.8949999809 38.161132813 86.700904846 1.8080544472 -35.87500000 2.5381779671 1.7740000486
 2849.5903320 12.000000000 12.588000298 12.250000954 0.0080000004  -999.250000 2.5537755489 4.8480000496 37.403457642 88.314277649 1.7063263655 -37.75400162 2.5021152496 1.6820000410
 2849.7429199 12.000000000 12.602000237 12.250000954 0.0160000008  -999.250000 2.5457437038 4.9260001183 36.898803711 89.309600830 1.6321185827 -38.65100098 2.5229663849 1.6360000372
 2849.8952637 12.000000000 12.600000381 12.250000954 0.0329999998  -999.250000 2.5573284626 4.8010001183 35.198726654 89.116424561 1.6359935999 -38.27299881 2.5739181042 1.6430000067
 2850.0476074 12.000000000 12.586000443 12.250000954 0.0309999995  -999.250000 2.5593457222 4.7379999161 34.893486023 88.021911621 1.6449855566 -36.38000107 2.6748380661 1.6749999523
 2850.1999512 12.000000000 12.591000557 12.250000954 0.0359999985  -999.250000 2.5724673271 4.5630002022 32.424922943 86.894744873 1.6788911819 -38.12300110 2.7886352539 1.7259999514
 2850.3525391 12.000000000 12.621998787 12.250000954 0.0689999983  -999.250000 2.6144936085 4.4800000191 31.409618378 85.674385071 1.7598701715 -38.06700134 2.9207885265 1.7949999571
 2850.5048828 12.000000000 12.595999718 12.250000954 0.0680000037  -999.250000 2.6207447052 4.6640000343 31.251251221 84.319519043 1.8887933493 -37.37799835 3.0278286934 1.9010000229
 2850.6572266 12.000000000 12.564000130 12.250000954 0.0579999983  -999.250000 2.6265144348 4.6719999313 32.073680878 83.100189209 1.9928333759 -35.98199844 3.1188540459 2.0710000992
 2850.8095703 12.000000000 12.574000359 12.250000954 0.0599999987  -999.250000 2.6329915524 4.9770002365 31.259307861 82.338958740 2.0549006462 -37.83100128 3.1579375267 2.1779999733
 2850.9619141 12.000000000 12.600000381 12.250000954 0.0659999996  -999.250000 2.6438474655 4.7420001030 30.583166122 81.805953979 2.1038432121 -36.12799835 3.1729521751 2.1789999008
 2851.1145020 12.000000000 12.588999748 12.250000954 0.0509999990  -999.250000 2.6230638027 4.7230000496 30.074811935 81.553459167 2.1439359188 -38.98400116 3.1540305614 2.1740000248
 2851.2668457 12.000000000 12.608000755 12.250000954 0.0610000007  -999.250000 2.6344223022 4.4959998131 31.319999695 81.942337036 2.1619710922 -37.51800156 3.1230494976 2.1610000134
 2851.4191895 12.000000000 12.600000381 12.250000954 0.0729999989  -999.250000 2.6477711201 4.2890000343 30.863737106 82.692298889 2.1669919491 -36.29199982 3.0910513401 2.1489999294
 2851.5715332 12.000000000 12.588000298 12.250000954 0.0729999989  -999.250000 2.6529428959 4.4219999313 30.548011780 83.367462158 2.1650063992 -36.86700058 3.0840225220 2.1419999599
 2851.7241211 12.000000000 12.608000755 12.250000954 0.1199999973  -999.250000 2.6963419914 4.6519999504 29.062381744 83.528060913 2.1520206928 -37.67900085 3.0929856300 2.1579999924
 2851.8764648 12.000000000 12.640000343 12.250000954 0.1860000044  -999.250000 2.7604298592 4.8280000687 29.440389633 83.170593262 2.1370241642 -37.32400131 3.1229517460 2.1740000248
 2852.0288086 12.000000000 12.581000328 12.250000954 0.1529999971  -999.250000 2.7268743515 4.9730000496 29.417037964 82.601234436 2.1389968395 -37.66199875 3.1529519558 2.1809999943
 2852.1811523 12.000000000 12.549999237 12.250000954 0.1369999945  -999.250000 2.7114710808 4.9409999847 29.675170898 82.280426025 2.1589360237 -36.93399811 3.1819071770 2.1789999008
 2852.3337402 12.000000000 12.581999779 12.250000954 0.1400000006  -999.250000 2.7099332809 5.3709998131 28.765460968 82.153404236 2.1939439774 -37.75000000 3.2069599628 2.1830000877
 2852.4860840 12.000000000 12.651999474 12.250000954 0.1330000013  -999.250000 2.6942901611 5.2150001526 27.850467682 82.034027100 2.2249503136 -37.35200119 3.2309615612 2.2190001011
 2852.6384277 12.000000000 12.611001015 12.250000954 0.0680000037  -999.250000 2.6300086975 5.1950001717 26.595012665 81.956153870 2.2459664345 -37.48400116 3.2549617290 2.2590000629
 2852.7907715 12.000000000 12.524999619 12.250000954 0.0740000010  -999.250000 2.6380634308 4.9609999657 26.558055878 81.615234375 2.2559840679 -38.11399841 3.2739694118 2.2799999714
