# LAS format log file from PETREL
# Project units are specified as depth units
#==================================================================
~Version information
VERS.   2.0:
WRAP.   NO:
#==================================================================
~Well
STRT .m      693.74005127 :
STOP .m      3929.9541016 :
STEP .m     0.00000000 :
NULL .        -999.250000 :
COMP.           : COMPANY
WELL.  25/3-1   : WELL
FLD.            : FIELD
LOC.            : LOCATION
SRVC.           : SERVICE COMPANY
DATE.  2018-09-11 14:48:19   : Log Export Date {yyyy-MM-dd HH:mm:ss}
PROV.           : PROVINCE
UWI.   25/3-1   : UNIQUE WELL ID
API.            : API NUMBER
#==================================================================
~Curve
DEPT .m                   : DEPTH
Lithology_geolink ._      : Lithology_geolink
CALI .in                  : CALI
BS .in                    : BS
DRHO .g/cm3               : DRHO
NPHI .m3/m3               : NPHI
RHOB .g/cm3               : RHOB
PEF .b/e                  : PEF
GR .gAPI                  : GR
DTC .us/ft                : DTC
RDEP .ohm.m               : RDEP
SP .mV                    : SP
RSHA .ohm.m               : RSHA
RMED .ohm.m               : RMED
~Parameter
#==================================================================
~Ascii
# ...
 3496.6809082 6.0000000000 9.2419996262 8.5000000000 0.0080000004 0.3373000026 2.5019383430 14.090000153 81.594001770 94.653717041 2.3229999542 -22.51399994 4.1170001030 2.4430000782
 3496.8332520 6.0000000000 9.2419996262 8.5000000000 0.0099999998 0.3209699988 2.5000607967 13.642999649 83.181999207 94.587173462 2.3840000629 -22.99900055 4.1919999123 2.6730000973
 3496.9858398 6.0000000000 9.2419996262 8.5000000000 0.0109999999 0.3131799996 2.4987394810 13.331000328 87.053001404 94.677513123 2.4670000076 -23.96599960 4.2030000687 2.7960000038
 3497.1381836 6.0000000000 9.2419996262 8.5000000000 0.0120000001 0.3175500035 2.5010268688 14.041999817 89.002998352 94.676124573 2.5829999447 -23.68600082 4.1539998055 2.7650001049
 3497.2905273 6.0000000000 9.2419996262 8.5000000000 0.0149999997 0.3266999722 2.5128128529 14.538000107 91.639999390 93.553047180 2.6380000114 -22.56699944 4.1770000458 2.9030001163
 3497.4428711 6.0000000000 9.2419996262 8.5000000000 0.0160000008 0.3318500221 2.5203628540 14.039999962 92.644996643 92.597717285 2.7279999256 -23.05999947 4.2470002174 2.9839999676
 3497.5952148 6.0000000000 9.2419996262 8.5000000000 0.0149999997 0.3277199864 2.5239877701 13.159999847 92.744003296 92.236114502 2.8659999371 -23.24600029 4.4000000954 2.9860000610
 3497.7478027 6.0000000000 9.2419996262 8.5000000000 0.0130000003 0.3153800070 2.5230333805 11.911000252 89.680999756 91.611419678 2.9489998817 -22.26199913 4.5729999542 3.1089999676
 3497.9001465 6.0000000000 9.2320003510 8.5000000000 0.0140000004 0.2988199890 2.5273628235 8.8929996490 88.747001648 91.369857788 3.0290000439 -22.22800064 4.7480001450 3.2279999256
 3498.0524902 6.0000000000 9.1660003662 8.5000000000 0.0170000009 0.2965199947 2.5416326523 6.6789999008 88.523002625 91.236785889 3.1359999180 -22.67099953 4.8509998322 3.2279999256
 3498.2048340 6.0000000000 9.1079998016 8.5000000000 0.0350000001 0.2988100052 2.5643627644 7.3229999542 89.814002991 91.013725281 3.1549999714 -22.59799957 4.9279999733 3.1640000343
 3498.3574219 6.0000000000 8.8219995499 8.5000000000 0.0590000004 0.2998699844 2.5477449894 10.975999832 89.000000000 90.364227295 3.1600000858 -22.06399918 4.9790000916 3.2079999447
 3498.5097656 6.0000000000 8.7030000687 8.5000000000 0.0810000002 0.3014100194 2.4810767174 16.587999344 88.917999268 88.823013306 3.1840000153 -22.23699951 5.0809998512 3.2960000038
 3498.6621094 6.0000000000 8.8149995804 8.5000000000 0.1070000008 0.3034299910 2.4215009212 17.937999725 88.621002197 87.501884460 3.2049999237 -23.31599998 5.1900000572 3.3120000362
 3498.8144531 6.0000000000 8.9160003662 8.5000000000 0.1350000054 0.3115699887 2.4071133137 15.593000412 89.627998352 87.424163818 3.2279999256 -23.21599960 5.2179999352 3.2999999523
 3498.9670410 6.0000000000 9.0920000076 8.5000000000 0.1449999958 0.3105800152 2.4374349117 12.914999962 85.776000977 88.047241211 3.2590000629 -23.14299965 5.2119998932 3.4000000954
 3499.1193848 6.0000000000 9.0850000381 8.5000000000 0.1330000013 0.3006899953 2.4898831844 9.5900001526 86.891998291 88.439842224 3.2639999390 -22.60899925 5.1830000877 3.5439999104
 3499.2717285 6.0000000000 8.8179998398 8.5000000000 0.1070000008 0.2920299768 2.5555815697 6.5520000458 85.863998413 89.284210205 3.2599999905 -22.68400002 5.2399997711 3.5639998913
 3499.4240723 6.0000000000 8.5349998474 8.5000000000 0.0740000010 0.2942300141 2.6046454906 4.8899998665 91.670997620 90.496177673 3.2039999962 -22.99600029 5.2950000763 3.4479999542
 3499.5764160 6.0000000000 8.4930000305 8.5000000000 0.0390000008 0.3028500080 2.6168472767 5.2220001221 89.426002502 91.335327148 3.1559998989 -22.15200043 5.2769999504 3.3039999008
 3499.7290039 6.0000000000 8.5459995270 8.5000000000 0.0270000007 0.3116399944 2.5892767906 6.3179998398 88.666999817 91.757400513 3.1510000229 -22.36800003 5.2280001640 3.1340000629
 3499.8813477 6.0000000000 8.5869998932 8.5000000000 0.0289999992 0.3208299875 2.5195620060 7.1640000343 87.158996582 91.255081177 3.1730000973 -23.09399986 5.1640000343 3.0650000572
 3500.0336914 6.0000000000 8.7580003738 8.5000000000 0.0410000011 0.3206000030 2.4743239880 6.9340000153 88.932998657 90.329811096 3.1949999332 -23.50600052 5.1230001450 3.1480000019
 3500.1860352 6.0000000000 8.6789999008 8.5000000000 0.0520000011 0.3200400174 2.4863543510 6.3870000839 87.807998657 89.699424744 3.2479999065 -23.24799919 5.0999999046 3.2479999065
 3500.3386230 6.0000000000 8.5439996719 8.5000000000 0.0579999983 0.3127900064 2.5391559601 6.2880001068 85.976997375 88.928047180 3.2639999390 -22.83200073 5.1009998322 3.3420000076
 3500.4909668 6.0000000000 8.5459995270 8.5000000000 0.0460000001 0.3126100004 2.5662021637 5.9990000725 84.704002380 87.922859192 3.2420001030 -22.15699959 5.1409997940 3.4340000153
 3500.6433105 6.0000000000 8.5489997864 8.5000000000 0.0250000004 0.3151099980 2.5618696213 6.3000001907 82.455001831 87.353454590 3.2179999352 -21.99799919 5.2020001411 3.3970000744
 3500.7956543 6.0000000000 8.6479997635 8.5000000000 0.0240000002 0.3096800148 2.5612158775 7.9099998474 81.263999939 87.293891907 3.1960000992 -22.31699944 5.2870001793 3.3550000191
 3500.9482422 6.0000000000 8.8109998703 8.5000000000 0.0570000000 0.2955699861 2.5460748672 10.128000259 86.640998840 87.568298340 3.1879999638 -22.36499977 5.2930002213 3.2400000095
 3501.1005859 6.0000000000 8.9270000458 8.5000000000 0.1049999967 0.2896200120 2.5143804550 11.446999550 89.067001343 88.503524780 3.2119998932 -23.25200081 5.2140002251 3.0739998817
 3501.2529297 6.0000000000 8.9610004425 8.5000000000 0.1500000060 0.2943800092 2.4990735054 11.892000198 90.109001160 89.533775330 3.2369999886 -22.62599945 5.0809998512 2.9800000191
 3501.4052734 6.0000000000 8.9610004425 8.5000000000 0.2060000002 0.3026899993 2.5360596180 12.010000229 86.000000000 90.007514954 3.2039999962 -22.82699966 4.9530000687 2.9670000076
 3501.5576172 6.0000000000 8.9739999771 8.5000000000 0.2540000081 0.3054700196 2.5861814022 13.149999619 86.670997620 90.276634216 3.1270000935 -23.34499931 4.8850002289 2.9719998837
 3501.7102051 6.0000000000 9.1009998322 8.5000000000 0.2630000114 0.3014100194 2.5980772972 14.317999840 85.420997620 90.599075317 3.0039999485 -23.17000008 4.8099999428 2.8819999695
 3501.8625488 6.0000000000 9.4110002518 8.5000000000 0.2479999959 0.2964299917 2.5677623749 16.357999802 82.634002686 91.153053284 2.8550000191 -23.36300087 4.7270002365 2.7379999161
 3502.0148926 6.0000000000 9.7519998550 8.5000000000 0.2409999967 0.2938899994 2.5438585281 16.190999985 78.776000977 91.663902283 2.7239999771 -23.17099953 4.6310000420 2.5920000076
 3502.1672363 6.0000000000 10.057999611 8.5000000000 0.2440000027 0.2944099903 2.5424222946 14.807999611 80.030998230 91.965759277 2.6210000515 -23.42000008 4.5000000000 2.4590001106
 3502.3198242 5.0000000000 10.409998894 8.5000000000 0.2489999980 0.2931300104 2.5560705662 13.678999901 79.640998840 92.023498535 2.4920001030 -24.19899940 4.3179998398 2.3870000839
 3502.4721680 5.0000000000 10.640000343 8.5000000000 0.2529999912 0.2982299924 2.5663893223 13.888999939 83.251998901 92.258789063 2.3659999371 -23.39299965 4.2189998627 2.3489999771
 3502.6245117 5.0000000000 10.946999550 8.5000000000 0.2520000041 0.3079999983 2.5620534420 15.565999985 79.620002747 93.181381226 2.2939999104 -22.47800064 4.1519999504 2.3250000477
 3502.7768555 5.0000000000 11.211999893 8.5000000000 0.2469999939 0.3181000054 2.5540597439 16.548999786 82.757003784 93.710838318 2.2420001030 -23.65699959 4.0900001526 2.2420001030
 3502.9294434 5.0000000000 11.362999916 8.5000000000 0.2450000048 0.3331399858 2.5440075397 17.635000229 81.957000732 93.297027588 2.2249999046 -24.15999985 4.0659999847 2.1640000343
 3503.0817871 5.0000000000 11.451000214 8.5000000000 0.2360000014 0.3443399668 2.5159709454 16.627000809 84.225997925 92.839889526 2.3239998817 -23.74399948 4.0840001106 2.1010000706
 3503.2341309 5.0000000000 10.989999771 8.5000000000 0.2080000043 0.3473300040 2.4401767254 13.722999573 82.304000854 92.109397888 2.4300000668 -23.15200043 4.1620001793 2.4149999619
