# LAS format log file from PETREL
# Project units are specified as depth units
#==================================================================
~Version information
VERS.   2.0:
WRAP.   NO:
#==================================================================
~Well
STRT .m      693.74005127 :
STOP .m      3929.9541016 :
STEP .m     0.00000000 :
NULL .        -999.250000 :
COMP.           : COMPANY
WELL.  25/3-1   : WELL
FLD.            : FIELD
LOC.            : LOCATION
SRVC.           : SERVICE COMPANY
DATE.  2018-09-11 14:48:19   : Log Export Date {yyyy-MM-dd HH:mm:ss}
PROV.           : PROVINCE
UWI.   25/3-1   : UNIQUE WELL ID
API.            : API NUMBER
#==================================================================
~Curve
DEPT .m                   : DEPTH
Lithology_geolink ._      : Lithology_geolink
CALI .in                  : CALI
BS .in                    : BS
DRHO .g/cm3               : DRHO
NPHI .m3/m3               : NPHI
RHOB .g/cm3               : RHOB
PEF .b/e                  : PEF
GR .gAPI                  : GR
DTC .us/ft                : DTC
RDEP .ohm.m               : RDEP
SP .mV                    : SP
RSHA .ohm.m               : RSHA
RMED .ohm.m               : RMED
~Parameter
#==================================================================
~Ascii
# ...
 3282.1015625 6.0000000000 9.6610002518 8.5000000000 0.0560000017 0.3480201364 2.4486401081 4.3949999809 83.768676758 81.715118408 4.4147996902 -19.81900024 5.5728797913 6.0029997826
 3282.2539063 6.0000000000 9.6520004272 8.5000000000 0.0419999994 0.3403345942 2.5223186016 4.1680002213 84.827613831 81.531272888 4.3940672874 -20.08900070 5.5969233513 5.5219998360
 3282.4064941 6.0000000000 9.6110000610 8.5000000000 0.0250000004 0.3247250021 2.5711414814 4.1659998894 85.122535706 82.137390137 4.5178012848 -19.92300034 5.6059856415 4.0180001259
 3282.5588379 6.0000000000 9.5380001068 8.5000000000 0.0060000001 0.3103630245 2.5612561703 4.5869998932 83.186111450 84.563919067 4.4471139908 -21.59000015 5.5940189362 3.5889999866
 3282.7111816 6.0000000000 9.5150003433 8.5000000000 0.0149999997 0.3159909546 2.5375711918 5.2249999046 81.469749451 85.340476990 4.3611378670 -21.05599976 5.5640482903 4.4270000458
 3282.8635254 6.0000000000 9.5129995346 8.5000000000 0.0340000018 0.3419068456 2.4964365959 5.6399998665 81.946456909 85.709808350 4.4666609764 -21.06500053 5.5390801430 4.6909999847
 3283.0161133 6.0000000000 9.5139999390 8.5000000000 0.0509999990 0.3510754406 2.4922881126 5.8060002327 87.546012878 85.107200623 4.5788207054 -20.94300079 5.6328492165 4.5980000496
 3283.1684570 6.0000000000 9.5200004578 8.5000000000 0.0869999975 0.3198201656 2.5618135929 5.8790001869 94.647613525 84.965896606 4.2535223961 -20.06699944 5.6459789276 4.7649998665
 3283.3208008 6.0000000000 9.5170001984 8.5000000000 0.1209999993 0.2749918997 2.6495144367 5.9949998856 97.731071472 85.691230774 4.2120656967 -20.14800072 5.5751137733 4.4289999008
 3283.4731445 6.0000000000 9.5270004272 8.5000000000 0.1190000027 0.2598741353 2.6675913334 5.4730000496 93.861221313 86.966949463 4.5155124664 -21.36700058 5.4801521301 4.8779997826
 3283.6254883 5.0000000000 9.5539999008 8.5000000000 0.0930000022 0.2691700757 2.6285107136 5.0659999847 86.818588257 84.595504761 4.4621725082 -21.43600082 5.4361405373 5.3449997902
 3283.7780762 5.0000000000 9.5769996643 8.5000000000 0.0790000036 0.2652662992 2.6155655384 5.0300002098 78.703987122 80.774787903 4.7425498962 -21.02000046 5.5238590240 5.0650000572
 3283.9304199 5.0000000000 9.5590000153 8.5000000000 0.0640000030 0.2553858757 2.6202416420 5.2360000610 74.774284363 79.866256714 5.0844521523 -20.52700043 5.6937274933 4.7649998665
 3284.0827637 5.0000000000 9.5129995346 8.5000000000 0.0500000007 0.2384871095 2.6323063374 5.0679998398 73.006828308 78.116371155 4.9162707329 -21.54500008 5.8856925964 4.9149999619
 3284.2351074 5.0000000000 9.4840002060 8.5000000000 0.0379999988 0.2382706106 2.6203103065 4.5029997826 71.846717834 76.951271057 4.9060320854 -21.78700066 6.0165810585 5.2810001373
 3284.3876953 5.0000000000 9.4189996719 8.5000000000 0.0299999993 0.2331781536 2.5903286934 3.8440001011 74.826210022 77.546485901 5.1056795120 -21.85600090 6.0958733559 4.8870000839
 3284.5400391 5.0000000000 9.3750000000 8.5000000000 0.0280000009 0.2288569361 2.5717539787 3.2190001011 74.774093628 78.271064758 5.2118301392 -21.55500031 6.1249537468 4.4089999199
 3284.6923828 5.0000000000 9.3750000000 8.5000000000 0.0329999998 0.2277517617 2.5787503719 3.2149999142 79.613235474 78.384300232 5.1421122551 -21.75499916 6.0790739059 4.2960000038
 3284.8447266 6.0000000000 9.3760004044 8.5000000000 0.0390000008 0.2282683253 2.5994236469 3.9500000477 84.518272400 78.898635864 5.1758913994 -22.32299995 6.0550765991 4.5599999428
 3284.9973145 6.0000000000 9.3889999390 8.5000000000 0.0359999985 0.2335714847 2.6031055450 5.4089999199 92.604042053 79.770103455 5.4535546303 -22.44099998 6.0969328880 5.6880002022
 3285.1496582 6.0000000000 9.4549999237 8.5000000000 0.0370000005 0.2363954782 2.5984492302 6.6510000229 91.324073792 80.450538635 5.4130659103 -22.59799957 6.2148108482 6.7569999695
 3285.3020020 6.0000000000 9.5069999695 8.5000000000 0.0299999993 0.2480413169 2.5680015087 6.7769999504 81.530715942 80.686828613 5.3311314583 -23.58399963 6.3497834206 6.1290001869
 3285.4543457 6.0000000000 9.3859996796 8.5000000000 0.0209999997 0.2648829818 2.5472538471 5.5320000648 70.876075745 80.956939697 5.2641072273 -23.67499924 6.3499999046 5.2389998436
 3285.6066895 6.0000000000 9.2510004044 8.5000000000 0.0219999999 0.2675316036 2.5637328625 5.0749998093 71.421188354 82.025222778 5.2669906616 -24.19400024 6.3928623199 4.7420001030
 3285.7592773 5.0000000000 9.2419996262 8.5000000000 0.0329999998 0.2563978732 2.5864057541 5.7870001793 75.875854492 82.666465759 5.3139247894 -24.11700058 6.4808588028 4.7039999962
 3285.9116211 5.0000000000 9.2410001755 8.5000000000 0.0340000018 0.2368113995 2.5647032261 6.9070000648 75.060317993 82.251548767 5.5176730156 -24.92900085 6.5738506317 5.3689999580
 3286.0639648 5.0000000000 9.2180004120 8.5000000000 0.0289999992 0.2303702682 2.5255703926 6.8530001640 68.344779968 81.188018799 5.5439586639 -24.50399971 6.6049504280 5.8480000496
 3286.2163086 5.0000000000 9.0930004120 8.5000000000 0.0450000018 0.2187173665 2.5285589695 6.1890001297 61.678367615 79.558013916 5.3835148811 -24.57900047 6.4863810539 5.2820000648
 3286.3688965 5.0000000000 8.9139995575 8.5000000000 0.0689999983 0.2035442889 2.5679669380 5.1570000648 57.796199799 80.041221619 4.9666681290 -25.25200081 6.1595239639 5.0650000572
 3286.5212402 5.0000000000 8.8610000610 8.5000000000 0.0780000016 0.1995363832 2.5954747200 5.3540000916 59.040992737 81.925567627 4.6554985046 -26.88100052 5.7726202011 4.7309999466
 3286.6735840 5.0000000000 8.8889999390 8.5000000000 0.0769999996 0.2034137547 2.6055927277 5.6329998970 55.810188293 83.843238831 4.3924217224 -27.54000092 5.5273923874 4.3449997902
 3286.8259277 5.0000000000 8.7819995880 8.5000000000 0.0790000036 0.2005990595 2.5906064510 6.1250000000 53.893138885 85.493392944 4.1906466484 -27.51600075 5.3206624985 3.9010000229
 3286.9785156 5.0000000000 8.5509996414 8.5000000000 0.0729999989 0.1941603422 2.5460822582 6.3379998207 52.610050201 85.554435730 4.0492258072 -27.42300034 5.1412868500 3.6710000038
 3287.1308594 5.0000000000 8.4720001221 8.5000000000 0.0649999976 0.1978340894 2.5049483776 6.5609998703 54.812461853 84.695716858 3.9611411095 -28.29199982 4.9912405014 3.6300001144
 3287.2832031 5.0000000000 8.5209999084 8.5000000000 0.0610000007 0.2195651233 2.5063138008 6.7870001793 56.281646729 83.462821960 3.8431890011 -28.93499947 4.8971505165 3.6640000343
 3287.4355469 5.0000000000 8.5559997559 8.5000000000 0.0630000010 0.2337872386 2.5435693264 6.9450001717 54.970108032 81.887153625 3.7551412582 -28.78599930 4.9059858322 3.6870000362
 3287.5878906 5.0000000000 8.5200004578 8.5000000000 0.0610000007 0.2402493358 2.5643525124 6.7779998779 55.187294006 80.840637207 3.6583104134 -28.51799965 4.8711118698 3.7300000191
 3287.7404785 5.0000000000 8.5059995651 8.5000000000 0.0529999994 0.2287984192 2.5560801029 6.3229999542 60.844921112 79.766502380 3.4972579479 -28.83699989 4.8150897026 3.8050000668
 3287.8928223 5.0000000000 8.5869998932 8.5000000000 0.0489999987 0.2110285014 2.5551211834 5.4450001717 60.793098450 80.730918884 3.3073043823 -28.81900024 4.7580914497 3.7379999161
 3288.0451660 3.0000000000 8.7469997406 8.5000000000 0.0560000017 0.1916111410 2.5910129547 4.9580001831 55.464553833 82.284172058 3.1742131710 -29.37100029 4.6102371216 3.4489998817
 3288.1975098 3.0000000000 8.7629995346 8.5000000000 0.0630000010 0.1856590062 2.6138820648 5.3220000267 43.194362640 83.352294922 3.0793039799 -29.49500084 4.3667807579 3.1989998817
 3288.3500977 3.0000000000 8.4709997177 8.5000000000 0.0560000017 0.1880461425 2.5726184845 5.5529999733 35.492298126 84.385742188 3.0071153641 -30.29700089 4.1233897209 3.0260000229
 3288.5024414 3.0000000000 8.2290000916 8.5000000000 0.0370000005 0.1839266121 2.4913120270 5.4520001411 31.136970520 83.879402161 2.8891890049 -30.52300072 3.9173302650 2.9000000954
 3288.6547852 3.0000000000 8.1459999084 8.5000000000 0.0230000000 0.1773804873 2.4275255203 5.0900001526 30.106641769 83.893821716 2.7721874714 -30.54800034 3.8051795959 2.7660000324
