# LAS format log file from PETREL
# Project units are specified as depth units
#==================================================================
~Version information
VERS.   2.0:
WRAP.   NO:
#==================================================================
~Well
STRT .m      693.74005127 :
STOP .m      3929.9541016 :
STEP .m     0.00000000 :
NULL .        -999.250000 :
COMP.           : COMPANY
WELL.  25/3-1   : WELL
FLD.            : FIELD
LOC.            : LOCATION
SRVC.           : SERVICE COMPANY
DATE.  2018-09-11 14:48:19   : Log Export Date {yyyy-MM-dd HH:mm:ss}
PROV.           : PROVINCE
UWI.   25/3-1   : UNIQUE WELL ID
API.            : API NUMBER
#==================================================================
~Curve
DEPT .m                   : DEPTH
Lithology_geolink ._      : Lithology_geolink
CALI .in                  : CALI
BS .in                    : BS
DRHO .g/cm3               : DRHO
NPHI .m3/m3               : NPHI
RHOB .g/cm3               : RHOB
PEF .b/e                  : PEF
GR .gAPI                  : GR
DTC .us/ft                : DTC
RDEP .ohm.m               : RDEP
SP .mV                    : SP
RSHA .ohm.m               : RSHA
RMED .ohm.m               : RMED
~Parameter
#==================================================================
~Ascii
# ...
 3925.8393555  -999.250000 8.1000003815 8.5000000000 0.0689999983 0.4076100290 2.6952371597 4.9809999466 78.000000000  -999.250000 12.675000191 -14.48999977  -999.250000 18.825000763
 3925.9916992  -999.250000 8.0179996490 8.5000000000 0.0689999983 0.4086700082 2.6906399727 4.8829998970 78.000000000  -999.250000 12.675000191 -13.81999969  -999.250000 18.969999313
 3926.1440430  -999.250000 7.9990000725 8.5000000000 0.0710000023 0.4088999927 2.6907904148 4.8870000839 78.000000000  -999.250000 12.675000191 -14.43900013  -999.250000 19.059000015
 3926.2963867  -999.250000 7.9899997711 8.5000000000 0.0689999983 0.4090200067 2.6869282722 4.9439997673 78.000000000  -999.250000 12.675000191 -14.86600018  -999.250000 19.087999344
 3926.4489746  -999.250000 7.9409999847 8.5000000000 0.0750000030 0.4096799791 2.6857333183 5.2309999466 78.000000000  -999.250000 12.675000191 -14.79899979  -999.250000 19.054000854
 3926.6013184  -999.250000 7.8580002785 8.5000000000 0.0810000002 0.4109199941 2.6737744808 5.7210001945 78.000000000  -999.250000 12.675000191 -14.90999985  -999.250000 18.934999466
 3926.7536621  -999.250000 7.8420000076 8.5000000000 0.0850000009 0.4110699892 2.6560726166 6.2039999962 78.000000000  -999.250000 12.675000191 -14.07600021  -999.250000 18.886999130
 3926.9060059  -999.250000 7.7719998360 8.5000000000 0.0860000029 0.4117200077 2.6438846588 6.5359997749 78.000000000  -999.250000 12.675000191 -13.60900021  -999.250000 19.059999466
 3927.0585938  -999.250000 7.7230000496 8.5000000000 0.0989999995 0.4121799767 2.6446635723 6.7410001755 78.000000000  -999.250000 12.675999641 -14.24899960  -999.250000 19.059999466
 3927.2109375  -999.250000 7.7220001221 8.5000000000 0.1080000028 0.4121900201 2.6486749649 6.9559998512 78.000000000  -999.250000 12.675000191 -15.41300011  -999.250000 19.059999466
 3927.3632813  -999.250000 7.7079997063 8.5000000000 0.1080000028 0.4123199880 2.6412496567 7.3049998283 78.000000000  -999.250000 12.677000046 -14.39599991  -999.250000 19.059999466
 3927.5156250  -999.250000 7.6409997940 8.5000000000 0.1150000021 0.4129299819 2.6441941261 6.8870000839 78.000000000  -999.250000 12.675000191 -14.06299973  -999.250000 19.059999466
 3927.6682129  -999.250000 7.5820002556 8.5000000000 0.1190000027 0.4134500027 2.6404218674 6.8119997978 78.000000000  -999.250000 12.675000191 -13.96300030  -999.250000 19.059999466
 3927.8205566  -999.250000 7.5820002556 8.5000000000 0.1180000007 0.4134500027 2.6363248825 6.4819998741 78.000000000  -999.250000 12.675000191 -13.92300034  -999.250000 19.059999466
 3927.9729004  -999.250000 7.5820002556 8.5000000000 0.1150000021 0.4134500027 2.6286375523 6.6259999275  -999.250000  -999.250000  -999.250000  -999.250000  -999.250000  -999.250000
 3928.1252441  -999.250000 7.5789999962 8.5000000000 0.1169999987 0.4134799838 2.6296584606 6.8920001984  -999.250000  -999.250000  -999.250000  -999.250000  -999.250000  -999.250000
 3928.2775879  -999.250000 7.4759998322 8.5000000000 0.1199999973 0.4144300222 2.6293129921 7.4270000458  -999.250000  -999.250000  -999.250000  -999.250000  -999.250000  -999.250000
 3928.4301758  -999.250000 6.4070000648 8.5000000000 0.1250000000 0.4242699742 2.6224162579 7.8520002365  -999.250000  -999.250000  -999.250000  -999.250000  -999.250000  -999.250000
 3928.5825195  -999.250000 2.9059998989 8.5000000000 0.1260000020 0.4564400017 2.6093051434 8.1529998779  -999.250000  -999.250000  -999.250000  -999.250000  -999.250000  -999.250000
 3928.7348633  -999.250000 2.8949999809 8.5000000000 0.1340000033 0.4565599859 2.6147081852 8.3769998550  -999.250000  -999.250000  -999.250000  -999.250000  -999.250000  -999.250000
 3928.8872070  -999.250000 2.8949999809 8.5000000000 0.1500000060 0.4565599859 2.6312582493 8.0530004501  -999.250000  -999.250000  -999.250000  -999.250000  -999.250000  -999.250000
 3929.0397949  -999.250000 2.8949999809 8.5000000000 0.1580000073 0.4565599859 2.6382958889 7.6059999466  -999.250000  -999.250000  -999.250000  -999.250000  -999.250000  -999.250000
 3929.1921387  -999.250000 2.8949999809 8.5000000000 0.1650000066 0.4565599859 2.6378211975 7.1680002213  -999.250000  -999.250000  -999.250000  -999.250000  -999.250000  -999.250000
 3929.3444824  -999.250000 2.8949999809 8.5000000000 0.1739999950 0.4565599859 2.6444792747 7.1680002213  -999.250000  -999.250000  -999.250000  -999.250000  -999.250000  -999.250000
 3929.4968262  -999.250000 2.8949999809 8.5000000000 0.1790000051 0.4565599859 2.6508948803 7.1680002213  -999.250000  -999.250000  -999.250000  -999.250000  -999.250000  -999.250000
 3929.6494141  -999.250000 2.8949999809 8.5000000000 0.1739999950 0.4565599859 2.6462523937 7.1680002213  -999.250000  -999.250000  -999.250000  -999.250000  -999.250000  -999.250000
 3929.8017578  -999.250000 2.8949999809 8.5000000000 0.1739999950 0.4565599859 2.6459062099 7.1680002213  -999.250000  -999.250000  -999.250000  -999.250000  -999.250000  -999.250000
 3929.9541016  -999.250000 2.8949999809 8.5000000000 0.1739999950 0.4565599859 2.6459000111 7.1550002098  -999.250000  -999.250000  -999.250000  -999.250000  -999.250000  -999.250000
