# LAS format log file from PETREL
# Project units are specified as depth units
#==================================================================
~Version information
VERS.   2.0:
WRAP.   NO:
#==================================================================
~Well
STRT .m      1910.3216553 :
STOP .m      4062.5144043 :
STEP .m     0.00000000 :
NULL .        -999.250000 :
COMP.           : COMPANY
WELL.  25/4-1  Heimdal   : WELL
FLD.            : FIELD
LOC.            : LOCATION
SRVC.           : SERVICE COMPANY
DATE.  2018-09-11 14:48:19   : Log Export Date {yyyy-MM-dd HH:mm:ss}
PROV.           : PROVINCE
UWI.   25/4-1   : UNIQUE WELL ID
API.            : API NUMBER
#==================================================================
~Curve
DEPT .m                   : DEPTH
Lithology_geolink ._      : Lithology_geolink
DCAL .in                  : DCAL
CALI .in                  : CALI
BS .in                    : BS
DRHO .g/cm3               : DRHO
NPHI .m3/m3               : NPHI
RHOB .g/cm3               : RHOB
GR .gAPI                  : GR
DTC .us/ft                : DTC
DTE .us/ft                : DTE
RDEP .ohm.m               : RDEP
SP .mV                    : SP
RSHA .ohm.m               : RSHA
RMED .ohm.m               : RMED
~Parameter
#==================================================================
~Ascii
# ...
 2197.7480469 2.0000000000 -0.035977360 12.214020729 12.250000954 0.0352166295 0.2520095110 2.4076089859 31.259540558 90.631866455 90.639999390 0.8896260262 41.659900665 1.0744290352 1.0744290352
 2197.9003906 2.0000000000 -0.050956730 12.199041367 12.250000954 0.0335909128 0.2503755093 2.3355948925 27.537830353 84.430679321 84.481697083 0.9618185163 41.712066650 1.1706850529 1.1706850529
 2198.0527344 2.0000000000 -0.072030067 12.177970886 12.250000954 0.0184213351 0.2332406938 2.2625939846 26.619710922 74.409942627 74.423309326 1.0261989832 42.118827820 1.3005609512 1.3005609512
 2198.2050781 16.000000000 -0.093771920 12.156229973 12.250000954 0.0114030661 0.2125128359 2.2490429878 28.483179092 64.769317627 64.877403259 1.0731920004 42.636417389 1.4145510197 1.4145510197
 2198.3576660 16.000000000 -0.102862403 12.147139549 12.250000954 0.0143078500 0.1927987933 2.3020770550 32.803699493 63.920169830 64.040496826 1.1064690351 43.734020233 1.4434880018 1.4434880018
 2198.5100098 16.000000000 -0.100189202 12.149809837 12.250000954 0.0150607098 0.1863698959 2.3758950233 39.841430664 76.798278809 76.620002747 1.1299610138 44.917949677 1.3802119493 1.3802119493
 2198.6623535 5.0000000000 -0.096562400 12.153441429 12.250000954 0.0268798396 0.2172619998 2.4381029606 49.456169128 96.362899780 96.643096924 1.1441659927 45.751766205 1.2946779728 1.2946779728
 2198.8146973 6.0000000000 -0.092947967 12.157050133 12.250000954 0.0534521006 0.3045557737 2.4493720531 58.412990570 116.69059753 116.41709900 1.1480079889 46.744720459 1.2176460028 1.2176460028
 2198.9672852 6.0000000000 -0.089332581 12.160670280 12.250000954 0.0910631493 0.4217132926 2.4079229832 64.479431152 130.69380188 130.58279419 1.1331820488 47.893810272 1.1480040550 1.1480040550
 2199.1196289 6.0000000000 -0.085741051 12.164259911 12.250000954 0.1115123034 0.5194749832 2.3415129185 67.054237366 132.60929871 132.78489685 1.0948469639 48.962928772 1.0793600082 1.0793600082
 2199.2719727 6.0000000000 -0.083840370 12.166159630 12.250000954 0.0945020244 0.5619986653 2.2828938961 66.563850403 126.64689636 126.18049622 1.0311750174 49.845394135 1.0220520496 1.0220479965
 2199.4243164 6.0000000000 -0.083431244 12.166570663 12.250000954 0.0633083805 0.5948333144 2.2498960495 64.970870972 125.92929840 125.94139862 0.9809827805 50.301853180 1.0060909986 1.0060850382
 2199.5766602 6.0000000000 -0.083141327 12.166858673 12.250000954 0.0433290601 0.6145672798 2.2423191071 63.222690582 121.91669464 122.00399780 0.9928014874 50.579177856 1.0695550442 1.0695550442
 2199.7292480 6.0000000000 -0.082885735 12.167110443 12.250000954 0.0434580892 0.6140038967 2.2625939846 61.902481079 118.30039978 118.19589996 1.0597480536 50.748699188 1.1497969627 1.1497969627
 2199.8815918 6.0000000000 -0.096130371 12.153869629 12.250000954 0.0371593945 0.5863438249 2.2890009880 60.924068451 114.00599670 114.31199646 1.1005660295 50.804092407 1.1510000229 1.1510000229
 2200.0339355 6.0000000000 -0.140357003 12.109640121 12.250000954 0.0267681405 0.5323947668 2.3084061146 60.074619293 112.57440186 112.29250336 1.1033949852 50.838287354 1.1461989880 1.1461989880
 2200.1862793 6.0000000000 -0.165700898 12.084300041 12.250000954 0.0275558997 0.4802788198 2.3222150803 60.070869446 110.96629333 110.96810150 1.0877959728 50.867763519 1.1313949823 1.1313949823
 2200.3388672 6.0000000000 -0.125819206 12.124179840 12.250000954 0.0363577083 0.4705717862 2.3414909840 61.003620148 111.14398956 111.19170380 1.0738040209 50.832519531 1.1123880148 1.1123880148
 2200.4912109 6.0000000000 -0.102941498 12.147060394 12.250000954 0.0473275706 0.4960264862 2.3517990112 62.888938904 113.05200958 113.36450195 1.0701960325 50.711380005 1.0949909687 1.0949909687
 2200.6435547 6.0000000000 -0.100503899 12.149499893 12.250000954 0.0458058305 0.5342959762 2.3380959034 64.417091370 123.54789734 123.41940308 1.0747849941 50.508045197 1.0828030109 1.0828030109
 2200.7958984 6.0000000000 -0.091006279 12.158989906 12.250000954 0.0401770994 0.5652229786 2.3257989883 64.539093018 128.58729553 128.55599976 1.0817810297 50.263862610 1.0748080015 1.0748080015
 2200.9484863 6.0000000000 -0.076941490 12.173060417 12.250000954 0.0420943610 0.5875477195 2.3237009048 64.771186829 128.31669617 128.20100403 1.0743499994 50.018779755 1.0631929636 1.0631929636
 2201.1008301 6.0000000000 -0.067383774 12.182620049 12.250000954 0.0512363873 0.5859119892 2.3305990696 65.934371948 126.88580322 126.85839844 1.0445250273 49.742378235 1.0421470404 1.0421470404
 2201.2531738 6.0000000000 -0.093469627 12.156530380 12.250000954 0.0544832349 0.5468645692 2.3480019569 68.153190613 124.02249146 123.97489929 1.0159620047 49.227775574 1.0256010294 1.0256010294
 2201.4055176 6.0000000000 -0.116641998 12.133359909 12.250000954 0.0481743068 0.4928587675 2.3592970371 69.390663147 118.77310181 118.85379791 0.9856321216 48.503192902 1.0141680241 1.0139759779
 2201.5581055 6.0000000000 -0.072457314 12.177539825 12.250000954 0.0397733487 0.4596072137 2.3529050350 65.582313538 112.87529755 112.78060150 0.9380351901 47.791030884 0.9923995137 0.9920315146
 2201.7104492 5.0000000000 0.0695447922 12.319540024 12.250000954 0.0263881106 0.4303657115 2.3400039673 57.707328796 104.94550323 105.23439026 0.8839017749 46.922321320 0.9836012125 0.9835010767
 2201.8627930 5.0000000000 0.3441925049 12.594189644 12.250000954 0.0083728936 0.3819907010 2.3239989281 50.042751312 97.310569763 97.196502686 0.8417379856 45.482017517 0.9826008081 0.9827693105
 2202.0151367 5.0000000000 0.2757359147 12.525739670 12.250000954 -0.000724885 0.3293387890 2.3041911125 42.392398834 94.448738098 94.297302246 0.7934036851 43.478061676 0.9625679851 0.9628673196
 2202.1674805 5.0000000000 0.6280717850 12.878070831 12.250000954 0.0065979334 0.2941684127 2.2818770409 36.177341461 94.774940491 94.997497559 0.7325524092 42.121440887 0.9194942713 0.9196503162
 2202.3200684 5.0000000000 0.6133031845 12.863299370 12.250000954 0.0113525102 0.2830371857 2.2527129650 31.920209885 96.355987549 96.142791748 0.6813272238 41.215759277 0.8907815814 0.8909351826
 2202.4724121 2.0000000000 0.9642344117 13.214228630 12.250000954 0.0130793229 0.2722884119 2.2338008881 29.094650269 97.310630798 97.304298401 0.6465489268 40.641548157 0.8743876219 0.8747389913
 2202.6247559 2.0000000000 1.1356890202 13.385689735 12.250000954 0.0168750715 0.2610118687 2.2232940197 27.721649170 96.356376648 96.363998413 0.6260048151 40.334091187 0.8611956239 0.8612505794
 2202.7770996 2.0000000000 0.5358629227 12.785860062 12.250000954 0.0099389507 0.2530460656 2.2032909393 28.096460342 95.250717163 95.507400513 0.6213606000 40.275543213 0.8492025137 0.8489995003
 2202.9296875 2.0000000000 0.1254663020 12.375471115 12.250000954 -0.000277360 0.2541317046 2.1895079613 30.011659622 96.356056213 96.247802734 0.6270533800 40.391929626 0.8380010128 0.8378689885
 2203.0820313 2.0000000000 0.1320151985 12.382019997 12.250000954 0.0035984730 0.2616994083 2.1968979836 33.507770538 103.98729706 103.77549744 0.6478217840 40.562999725 0.8279972076 0.8276482821
 2203.2343750 2.0000000000 0.3006496131 12.550649643 12.250000954 0.0137530966 0.2758517265 2.2168030739 38.391738892 111.14498901 111.24839020 0.6763015985 40.760532379 0.8179997206 0.8177161813
 2203.3867188 5.0000000000 0.5493584275 12.799360275 12.250000954 0.0136796143 0.3112971485 2.2350111008 43.694980621 116.86810303 117.02660370 0.6944754720 41.064903259 0.8080055118 0.8077880144
 2203.5393066 5.0000000000 0.8635634780 13.113558769 12.250000954 0.0071545788 0.3627186120 2.2563850880 45.524810791 116.68129730 116.78730011 0.6969845295 41.495800018 0.7976000905 0.7975614071
 2203.6916504 5.0000000000 1.1346780062 13.384679794 12.250000954 0.0089949733 0.3931596875 2.2902889252 41.240180969 114.00700378 113.79039764 0.7004472017 41.846199036 0.7865958214 0.7865201831
 2203.8439941 5.0000000000 0.8061113358 13.056110382 12.250000954 0.0132478448 0.4022485316 2.3005990982 33.786159515 103.98860168 103.94960022 0.7022566795 41.864540100 0.7775999904 0.7775124907
