# LAS format log file from PETREL
# Project units are specified as depth units
#==================================================================
~Version information
VERS.   2.0:
WRAP.   NO:
#==================================================================
~Well
STRT .m      1910.3216553 :
STOP .m      4062.5144043 :
STEP .m     0.00000000 :
NULL .        -999.250000 :
COMP.           : COMPANY
WELL.  25/4-1  Heimdal   : WELL
FLD.            : FIELD
LOC.            : LOCATION
SRVC.           : SERVICE COMPANY
DATE.  2018-09-11 14:48:19   : Log Export Date {yyyy-MM-dd HH:mm:ss}
PROV.           : PROVINCE
UWI.   25/4-1   : UNIQUE WELL ID
API.            : API NUMBER
#==================================================================
~Curve
DEPT .m                   : DEPTH
Lithology_geolink ._      : Lithology_geolink
DCAL .in                  : DCAL
CALI .in                  : CALI
BS .in                    : BS
DRHO .g/cm3               : DRHO
NPHI .m3/m3               : NPHI
RHOB .g/cm3               : RHOB
GR .gAPI                  : GR
DTC .us/ft                : DTC
DTE .us/ft                : DTE
RDEP .ohm.m               : RDEP
SP .mV                    : SP
RSHA .ohm.m               : RSHA
RMED .ohm.m               : RMED
~Parameter
#==================================================================
~Ascii
# ...
 2054.0346680 5.0000000000 2.2552039623 14.505201340 12.250000954 0.0881194547 0.5572754741 2.2162079811 45.758499146 126.20700073 126.29969025 0.9981675744 49.213298798 1.0156019926 1.0156019926
 2054.1872559 5.0000000000 2.4253139496 14.675310135 12.250000954 0.0907159820 0.5150051713 2.2247970104 48.038490295 127.12371063 127.14309692 0.9952114224 49.404270172 1.0149999857 1.0149999857
 2054.3395996 5.0000000000 2.9314160347 15.181419373 12.250000954 0.0814315155 0.4896558225 2.2174000740 49.464698792 126.64700317 126.75340271 0.9985321760 49.705829620 1.0153989792 1.0153989792
 2054.4919434 5.0000000000 2.1301000118 14.380100250 12.250000954 0.0645206273 0.4858037233 2.2001988888 49.820449829 125.69300079 125.76540375 1.0075789690 49.838111877 1.0383579731 1.0383579731
 2054.6442871 5.0000000000 1.8403029442 14.090299606 12.250000954 0.0528078973 0.4797389209 2.1981070042 49.826820374 125.73069763 125.76470184 1.0130000114 49.748119354 1.0817060471 1.0817060471
 2054.7968750 5.0000000000 2.2810249329 14.531020164 12.250000954 0.0484923609 0.4782331884 2.2075951099 50.251560211 126.64659882 126.60250092 1.0209239721 50.008590698 1.1013489962 1.1013489962
 2054.9492188 5.0000000000 1.6033970118 13.853401184 12.250000954 0.0516089983 0.4865298867 2.2153990269 51.046588898 127.83938599 127.82230377 1.0440800190 50.021850586 1.1109999418 1.1109999418
 2055.1015625 5.0000000000 1.6370060444 13.887009621 12.250000954 0.0498749986 0.4874467254 2.2025969028 51.928478241 127.60089874 127.59149933 1.0716819763 49.617149353 1.1185359955 1.1185359955
 2055.2539063 5.0000000000 2.2617239952 14.511719704 12.250000954 0.0586159267 0.4852003157 2.1919069290 52.530208588 127.12400055 127.01620483 1.0943410397 49.720359802 1.1299999952 1.1299999952
 2055.4064941 5.0000000000 2.5407769680 14.790780067 12.250000954 0.0781854764 0.5029762983 2.2028930187 53.235710144 127.15869904 127.10600281 1.1146789789 50.057899475 1.1375319958 1.1375319958
 2055.5588379 6.0000000000 1.7947319746 14.044730186 12.250000954 0.0879988968 0.5414509773 2.2096979618 54.173618317 127.60089874 127.60310364 1.1444380283 50.268909454 1.1533739567 1.1533739567
 2055.7111816 6.0000000000 1.4289789200 13.678978920 12.250000954 0.0886068642 0.5901899338 2.2011990547 56.160739899 127.36219788 127.29399872 1.1792160273 50.366569519 1.1706860065 1.1706860065
 2055.8635254 6.0000000000 1.9617329836 14.211730003 12.250000954 0.0794098750 0.6259913445 2.1926980019 59.082420349 124.97608948 125.04340363 1.2140239477 50.089488983 1.2066500187 1.2066500187
 2056.0161133 6.0000000000 2.6106350422 14.860630035 12.250000954 0.0600012392 0.6261749268 2.1890029907 61.412208557 122.16020203 122.10389709 1.2482149601 49.704299927 1.2480770350 1.2480770350
 2056.1684570 6.0000000000 2.0962140560 14.346209526 12.250000954 0.0467020310 0.6039499044 2.1919989586 63.507469177 121.16179657 121.25759888 1.2947510481 49.598201752 1.2760889530 1.2760889530
 2056.3208008 6.0000000000 1.4805129766 13.730509758 12.250000954 0.0482775941 0.5844711065 2.2004001141 66.384292603 120.56510925 120.41070557 1.3608900309 49.596199036 1.3005479574 1.3005479574
 2056.4731445 6.0000000000 1.5720629692 13.822060585 12.250000954 0.0541048683 0.5676974058 2.2168109417 68.635032654 119.73030090 119.78199768 1.4272359610 49.613739014 1.3163750172 1.3163750172
 2056.6254883 6.0000000000 1.6950880289 13.945089340 12.250000954 0.0523013994 0.5448450446 2.2462220192 70.007362366 119.77629089 119.68869781 1.4713259935 49.578289032 1.3229999542 1.3229999542
 2056.7780762 6.0000000000 1.7763650417 14.026370049 12.250000954 0.0512711182 0.5475723743 2.2755849361 71.806907654 119.01519012 118.90209961 1.4954899549 49.321788788 1.3265800476 1.3265800476
 2056.9304199 6.0000000000 1.6756440401 13.925641060 12.250000954 0.0481645465 0.5719869733 2.2864990234 73.553451538 118.29939270 118.25980377 1.5217380524 48.930809021 1.3355829716 1.3355829716
 2057.0827637 6.0000000000 1.6229689121 13.872970581 12.250000954 0.0352214873 0.6007013917 2.2782969475 74.855232239 120.44640350 120.38390350 1.5425460339 48.694438934 1.3409999609 1.3409999609
 2057.2351074 6.0000000000 1.7060790062 13.956080437 12.250000954 0.0227061044 0.6181924939 2.2660961151 75.083412170 123.06960297 123.04779816 1.5555909872 48.871250153 1.3326009512 1.3326009512
 2057.3876953 6.0000000000 2.1562070847 14.406209946 12.250000954 0.0200424697 0.6252896786 2.2595040798 74.233261108 123.34849548 123.37920380 1.5548080206 49.430339813 1.3200000525 1.3200000525
 2057.5400391 6.0000000000 1.4945881367 13.744589806 12.250000954 0.0295727905 0.6185215712 2.2595999241 73.060058594 123.06951141 123.06009674 1.5403840542 50.039169312 1.3196010590 1.3196010590
 2057.6923828 6.0000000000 1.9300969839 14.180099487 12.250000954 0.0392472409 0.5869175792 2.2560000420 72.080993652 122.35379791 122.36479950 1.5083110332 50.256561279 1.3186010122 1.3186010122
 2057.8447266 6.0000000000 1.1742999554 13.424300194 12.250000954 0.0412886702 0.5569309592 2.2530999184 71.841796875 121.16101074 121.09870148 1.4586429596 50.056480408 1.3179999590 1.3179999590
 2057.9973145 6.0000000000 1.1874239445 13.437419891 12.250000954 0.0265763607 0.5547664762 2.2541990280 71.847381592 120.25380707 120.36059570 1.3956960440 50.105430603 1.3176020384 1.3176020384
 2058.1496582 6.0000000000 1.2250759602 13.475078583 12.250000954 0.0103783002 0.5517734289 2.2686939240 71.892272949 120.68410492 120.65641022 1.3277029991 50.307590485 1.3170000315 1.3170000315
 2058.3020020 6.0000000000 1.8357160091 14.085720062 12.250000954 0.0184989106 0.5443915129 2.2983989716 72.138732910 118.77629089 118.81079865 1.2700359821 50.239181519 1.3085800409 1.3085800409
 2058.4543457 6.0000000000 2.2805860043 14.530590057 12.250000954 0.0328292288 0.5364745855 2.3148980141 72.688957214 120.68550110 120.72470093 1.2234489918 50.007579803 1.2798990011 1.2798990011
 2058.6066895 6.0000000000 1.8259290457 14.075930595 12.250000954 0.0392474085 0.5285592079 2.3084859848 73.364730835 124.06529236 123.98149872 1.1879960299 49.605419159 1.2635309696 1.2635309696
 2058.7592773 6.0000000000 1.9961720705 14.246169090 12.250000954 0.0388711318 0.5263544917 2.2894101143 74.107986450 127.12249756 127.12560272 1.1756010056 49.325000763 1.2669910192 1.2669910192
 2058.9116211 6.0000000000 2.1410939693 14.391091347 12.250000954 0.0295866393 0.5434680581 2.2653028965 75.724708557 127.60089874 127.61360168 1.1757969856 49.503929138 1.2441589832 1.2441589832
 2059.0639648 6.0000000000 1.5099650621 13.759960175 12.250000954 0.0315606892 0.5873374343 2.2502028942 78.518013000 128.79339600 128.88490295 1.1825610399 49.538200378 1.2191820145 1.2191820145
 2059.2163086 6.0000000000 1.8340830803 14.084079742 12.250000954 0.0532469898 0.6338898540 2.2622060776 80.726516724 128.31709290 128.40170288 1.1965529919 49.347091675 1.2087810040 1.2087810040
 2059.3688965 6.0000000000 2.2663199902 14.516320229 12.250000954 0.0678996891 0.6471862793 2.2723929882 81.402992249 129.30119324 129.39520264 1.2081810236 49.366611481 1.2130000591 1.2130000591
 2059.5212402 6.0000000000 1.7439661026 13.993969917 12.250000954 0.0519576110 0.6361778975 2.2555050850 80.802566528 129.98590088 130.00750732 1.2126009464 49.467700958 1.2126009464 1.2126009464
 2059.6735840 6.0000000000 1.3347439766 13.584739685 12.250000954 0.0219310392 0.6060253382 2.2395989895 79.745033264 130.22459412 130.14340210 1.2116010189 49.545879364 1.2116010189 1.2116010189
 2059.8259277 6.0000000000 1.6931730509 13.943168640 12.250000954 0.0065213218 0.5570217371 2.2349998951 78.230903625 130.22470093 130.18099976 1.2109999657 49.426479340 1.2109999657 1.2109999657
 2059.9785156 6.0000000000 1.4606009722 13.710599899 12.250000954 0.0069652158 0.5213931203 2.2357990742 76.502769470 130.49229431 130.42239380 1.2106020451 49.260620117 1.2106020451 1.2106020451
 2060.1308594 6.0000000000 1.5477708578 13.797770500 12.250000954 0.0106922304 0.5058469772 2.2402980328 75.144790649 130.22470093 130.26499939 1.1840690374 49.550460815 1.2100000381 1.2100000381
