# LAS format log file from PETREL
# Project units are specified as depth units
#==================================================================
~Version information
VERS.   2.0:
WRAP.   NO:
#==================================================================
~Well
STRT .m      1910.3216553 :
STOP .m      4062.5144043 :
STEP .m     0.00000000 :
NULL .        -999.250000 :
COMP.           : COMPANY
WELL.  25/4-1  Heimdal   : WELL
FLD.            : FIELD
LOC.            : LOCATION
SRVC.           : SERVICE COMPANY
DATE.  2018-09-11 14:48:19   : Log Export Date {yyyy-MM-dd HH:mm:ss}
PROV.           : PROVINCE
UWI.   25/4-1   : UNIQUE WELL ID
API.            : API NUMBER
#==================================================================
~Curve
DEPT .m                   : DEPTH
Lithology_geolink ._      : Lithology_geolink
DCAL .in                  : DCAL
CALI .in                  : CALI
BS .in                    : BS
DRHO .g/cm3               : DRHO
NPHI .m3/m3               : NPHI
RHOB .g/cm3               : RHOB
GR .gAPI                  : GR
DTC .us/ft                : DTC
DTE .us/ft                : DTE
RDEP .ohm.m               : RDEP
SP .mV                    : SP
RSHA .ohm.m               : RSHA
RMED .ohm.m               : RMED
~Parameter
#==================================================================
~Ascii
# ...
 3903.5612793 7.0000000000 0.1057920009 6.1057920456 5.9999995232  -999.250000  -999.250000  -999.250000 145.62150574 72.267936707 62.791198730 5.6860690117 47.818290710 6.1768579483 6.1768579483
 3903.7136230 7.0000000000 0.1064129025 6.1064133644 5.9999995232  -999.250000  -999.250000  -999.250000 142.88670349 71.790573120 62.788501740 5.6410260201 47.870300293 6.1395812035 6.1395812035
 3903.8659668 7.0000000000 0.1128173098 6.1128163338 5.9999995232  -999.250000  -999.250000  -999.250000 133.02059937 74.653312683 65.372299194 5.2934269905 47.897880554 5.9611802101 5.9611802101
 3904.0183105 5.0000000000 0.1170001104 6.1169996262 5.9999995232  -999.250000  -999.250000  -999.250000 116.30449677 77.867530823 68.517898560 4.7821860313 48.169139862 5.6890759468 5.6890759468
 3904.1706543 5.0000000000 0.1149874032 6.1149873734 5.9999995232  -999.250000  -999.250000  -999.250000 103.54879761 78.946609497 69.679000854 4.2869467735 48.358810425 5.3715338707 5.3715338707
 3904.3232422 5.0000000000 0.1095881015 6.1095876694 5.9999995232  -999.250000  -999.250000  -999.250000 100.95580292 79.899429321 70.552902222 3.8933761120 48.441558838 5.0581688881 5.0581688881
 3904.4755859 5.0000000000 0.1039882004 6.1039876938 5.9999995232  -999.250000  -999.250000  -999.250000 104.05130005 81.092178345 71.267799377 3.5968890190 48.398269653 4.7886419296 4.7886419296
 3904.6279297 5.0000000000 0.0985837057 6.0985841751 5.9999995232  -999.250000  -999.250000  -999.250000 105.49610138 80.853866577 71.433403015 3.3699390888 48.089641571 4.5632629395 4.5632629395
 3904.7802734 5.0000000000 0.0929846689 6.0929851532 5.9999995232  -999.250000  -999.250000  -999.250000 105.56990051 81.201499939 71.927001953 3.1946868896 47.720741272 4.3610010147 4.3610010147
 3904.9328613 5.0000000000 0.0875835493 6.0875844955 5.9999995232  -999.250000  -999.250000  -999.250000 106.01699829 82.284370422 73.337501526 3.0570950508 47.610599518 4.1824002266 4.1824002266
 3905.0852051 5.0000000000 0.0819887966 6.0819888115 5.9999995232  -999.250000  -999.250000  -999.250000 108.45729828 84.192741394 74.801094055 2.9474210739 47.699619293 4.0432128906 4.0432128906
 3905.2375488 6.0000000000 0.0773897171 6.0773906708 5.9999995232  -999.250000  -999.250000  -999.250000 112.08300018 86.101173401 76.448188782 2.8646540642 47.642200470 3.9421119690 3.9421119690
 3905.3898926 6.0000000000 0.0737910271 6.0737905502 5.9999995232  -999.250000  -999.250000  -999.250000 115.09059906 86.915367126 77.535499573 2.8122498989 47.379760742 3.8608620167 3.8608620167
 3905.5424805 6.0000000000 0.0707917213 6.0707921982 5.9999995232  -999.250000  -999.250000  -999.250000 117.90160370 86.578079224 77.614799500 2.7871620655 47.047660828 3.8189859390 3.8189859390
 3905.6948242 6.0000000000 0.0677933693 6.0677919388 5.9999995232  -999.250000  -999.250000  -999.250000 120.13909912 86.577903748 77.260498047 2.7828121185 47.044410706 3.8232269287 3.8232269287
 3905.8471680 6.0000000000 0.0647926331 6.0647931099 5.9999995232  -999.250000  -999.250000  -999.250000 120.49340057 87.054954529 77.699989319 2.7966339588 47.392860413 3.8424379826 3.8424379826
 3905.9995117 6.0000000000 0.0617914237 6.0617904663 5.9999995232  -999.250000  -999.250000  -999.250000 118.64630127 87.391700745 78.123703003 2.8516509533 47.743648529 3.8678588867 3.8678588867
 3906.1518555 6.0000000000 0.0587925911 6.0587925911 5.9999995232  -999.250000  -999.250000  -999.250000 117.42359924 87.054901123 77.667602539 2.9567909241 47.938560486 3.9138329029 3.9138329029
 3906.3044434 6.0000000000 0.0557942353 6.0557942390 5.9999995232  -999.250000  -999.250000  -999.250000 118.41049957 87.054901123 77.631500244 3.0631999969 48.087509155 3.9815909863 3.9815909863
 3906.4567871 6.0000000000 0.0539999008 6.0539989471 5.9999995232  -999.250000  -999.250000  -999.250000 121.11910248 86.577819824 77.257591248 3.1638538837 48.245971680 4.0514159203 4.0514159203
 3906.6091309 6.0000000000 0.0535974503 6.0535964966 5.9999995232  -999.250000  -999.250000  -999.250000 123.57620239 85.622978210 76.383903503 3.2639029026 48.347850800 4.1296100616 4.1296100616
 3906.7614746 6.0000000000 0.0529999696 6.0529999733 5.9999995232  -999.250000  -999.250000  -999.250000 124.17169952 83.580436707 74.590896606 3.3635540009 48.287460327 4.2214331627 4.2214331627
 3906.9140625 6.0000000000 0.0525970459 6.0525970459 5.9999995232  -999.250000  -999.250000  -999.250000 120.50039673 81.808532715 72.454498291 3.4629330635 48.103248596 4.3257470131 4.3257470131
 3907.0664063 6.0000000000 0.0524020195 6.0524024963 5.9999995232  -999.250000  -999.250000  -999.250000 114.23870087 80.615234375 70.942901611 3.5672309399 47.948799133 4.4482269287 4.4482269287
 3907.2187500 5.0000000000 0.0534024201 6.0534019470 5.9999995232  -999.250000  -999.250000  -999.250000 109.44129944 78.945663452 69.960899353 3.6794700623 47.993228912 4.5650072098 4.5650072098
 3907.3710938 5.0000000000 0.0548057593 6.0548062325 5.9999995232  -999.250000  -999.250000  -999.250000 107.53150177 78.819488525 69.485603333 3.7931289673 48.221199036 4.6336641312 4.6336641312
 3907.5236816 5.0000000000 0.0568056144 6.0568065643 5.9999995232  -999.250000  -999.250000  -999.250000 108.32749939 78.945640564 69.598999023 3.8862450123 48.381248474 4.6376838684 4.6376838684
 3907.6760254 5.0000000000 0.0588040389 6.0588035583 5.9999995232  -999.250000  -999.250000  -999.250000 109.53949738 79.899543762 70.368301392 3.9408340454 48.470169067 4.5949959755 4.5949959755
 3907.8283691 5.0000000000 0.0608048365 6.0608048439 5.9999995232  -999.250000  -999.250000  -999.250000 110.45529938 81.330963135 72.069602966 3.9788470268 48.550598145 4.5395960808 4.5395960808
 3907.9807129 5.0000000000 0.0624027327 6.0624032021 5.9999995232  -999.250000  -999.250000  -999.250000 110.45919800 82.630020142 73.639602661 4.0032310486 48.686809540 4.4946780205 4.4946780205
 3908.1330566 5.0000000000 0.0638051033 6.0638051033 5.9999995232  -999.250000  -999.250000  -999.250000 110.65589905 83.716247559 74.487998962 4.0061650276 48.885829926 4.4717779160 4.4717779160
 3908.2856445 5.0000000000 0.0658039972 6.0658040047 5.9999995232  -999.250000  -999.250000  -999.250000 111.68389893 84.192672729 74.671401978 3.9739630222 48.758888245 4.4633798599 4.4633798599
 3908.4379883 5.0000000000 0.0678043365 6.0678038597 5.9999995232  -999.250000  -999.250000  -999.250000 112.63970184 83.715751648 74.684097290 3.9009490013 48.109420776 4.4390311241 4.4390311241
 3908.5903320 5.0000000000 0.0702080727 6.0702080727 5.9999995232  -999.250000  -999.250000  -999.250000 112.01509857 83.238952637 73.970596313 3.8155829906 47.540260315 4.3810501099 4.3810501099
 3908.7426758 6.0000000000 0.0732092932 6.0732088089 5.9999995232  -999.250000  -999.250000  -999.250000 112.52469635 83.582015991 73.976196289 3.7249119282 47.467899323 4.3066129684 4.3066129684
 3908.8952637 6.0000000000 0.0762081072 6.0762085915 5.9999995232  -999.250000  -999.250000  -999.250000 115.94239807 83.715744019 74.692100525 3.6020660400 47.734100342 4.2316308022 4.2316308022
 3909.0476074 6.0000000000 0.0792064518 6.0792059898 5.9999995232  -999.250000  -999.250000  -999.250000 119.32150269 85.146827698 75.893402100 3.4514050484 48.030361176 4.1623578072 4.1623578072
 3909.1999512 6.0000000000 0.0822076872 6.0822081566 5.9999995232  -999.250000  -999.250000  -999.250000 122.34680176 86.101013184 76.643402100 3.3101670742 48.280609131 4.1057991982 4.1057991982
 3909.3522949 6.0000000000 0.0848059803 6.0848059654 5.9999995232  -999.250000  -999.250000  -999.250000 125.30139923 86.439834595 77.394500732 3.2102019787 48.574298859 4.0626711845 4.0626711845
 3909.5048828 6.0000000000 0.0872082636 6.0872077942 5.9999995232  -999.250000  -999.250000  -999.250000 127.91770172 87.054573059 77.862403870 3.1554811001 48.903709412 4.0397768021 4.0397768021
 3909.6572266 7.0000000000 0.0902061611 6.0902061462 5.9999995232  -999.250000  -999.250000  -999.250000 130.06649780 87.531806946 78.224899292 3.1277320385 49.080501556 4.0345978737 4.0345978737
