# LAS format log file from PETREL
# Project units are specified as depth units
#==================================================================
~Version information
VERS.   2.0:
WRAP.   NO:
#==================================================================
~Well
STRT .m      1910.3216553 :
STOP .m      4062.5144043 :
STEP .m     0.00000000 :
NULL .        -999.250000 :
COMP.           : COMPANY
WELL.  25/4-1  Heimdal   : WELL
FLD.            : FIELD
LOC.            : LOCATION
SRVC.           : SERVICE COMPANY
DATE.  2018-09-11 14:48:19   : Log Export Date {yyyy-MM-dd HH:mm:ss}
PROV.           : PROVINCE
UWI.   25/4-1   : UNIQUE WELL ID
API.            : API NUMBER
#==================================================================
~Curve
DEPT .m                   : DEPTH
Lithology_geolink ._      : Lithology_geolink
DCAL .in                  : DCAL
CALI .in                  : CALI
BS .in                    : BS
DRHO .g/cm3               : DRHO
NPHI .m3/m3               : NPHI
RHOB .g/cm3               : RHOB
GR .gAPI                  : GR
DTC .us/ft                : DTC
DTE .us/ft                : DTE
RDEP .ohm.m               : RDEP
SP .mV                    : SP
RSHA .ohm.m               : RSHA
RMED .ohm.m               : RMED
~Parameter
#==================================================================
~Ascii
# ...
 2622.6394043 13.000000000 0.0563249588 12.306320190 12.250000954 0.1310860962 0.2380492985 2.5859971046 43.085018158 65.834823608 65.895896912 6.2066230774 53.917270660 3.6948299408 3.6948299408
 2622.7917480 13.000000000 -0.036577221 12.213419914 12.250000954 0.1265809983 0.2394932956 2.5832030773 39.859489441 64.295188904 64.206298828 6.7079558372 53.798049927 3.8306879997 3.8306879997
 2622.9440918 13.000000000 0.0051002498 12.255100250 12.250000954 0.1270287931 0.2416041046 2.5806021690 37.199729919 64.396743774 64.587097168 6.9399781227 53.662990570 3.9482440948 3.9482440948
 2623.0964355 13.000000000 0.0990457535 12.349049568 12.250000954 0.1252575070 0.2436988950 2.5713019371 36.883510590 67.258232117 67.090301514 6.8038539886 53.558170319 4.0454468727 4.0454468727
 2623.2487793 13.000000000 0.0848264769 12.334830284 12.250000954 0.1256529987 0.2453361005 2.5686020851 39.541751862 69.644348145 69.728202820 6.4519720078 53.507801056 4.1149191856 4.1149191856
 2623.4013672 13.000000000 0.2338905036 12.483890533 12.250000954 0.1347354054 0.2447952926 2.5834839344 43.826679230 72.979339600 73.106796265 6.0789070129 53.504798889 4.1479997635 4.1479997635
 2623.5537109 13.000000000 0.1633244157 12.413319588 12.250000954 0.1389071941 0.2414744049 2.5930929184 47.761550903 78.577125549 78.682197571 5.9135961533 53.469009399 4.1355748177 4.1355748177
 2623.7060547 13.000000000 0.1436748952 12.393670082 12.250000954 0.1349629015 0.2375129014 2.5846030712 49.741989136 82.045059204 81.995903015 5.9863958359 53.386779785 4.0928769112 4.0928769112
 2623.8583984 13.000000000 0.2056513131 12.455649376 12.250000954 0.1281495988 0.2363819927 2.5708000660 48.985569000 80.138137817 79.840400696 6.2333889008 53.361198425 4.0369248390 4.0369248390
 2624.0109863 13.000000000 0.2052841038 12.455280304 12.250000954 0.1219767034 0.2390346974 2.5637090206 45.089160919 74.421089172 74.605697632 6.4873690605 53.450519562 4.0026030540 4.0026030540
 2624.1633301 13.000000000 0.2049178928 12.454918861 12.250000954 0.1191060990 0.2405159026 2.5608019829 39.070060730 66.205711365 66.119499207 6.5971899033 53.661731720 3.9960000515 3.9960000515
 2624.3156738 13.000000000 0.2045498192 12.454548836 12.250000954 0.1122689024 0.2407200038 2.5547029972 33.572269440 61.060192108 61.092399597 6.5239682198 53.941841125 3.9976000786 3.9976000786
 2624.4680176 13.000000000 0.2041836083 12.454179764 12.250000954 0.1025786027 0.2407200038 2.5489010811 32.428741455 63.442520142 63.107799530 6.2498078346 54.152980804 3.9971990585 3.9971990585
 2624.6206055 13.000000000 0.2038173974 12.453820229 12.250000954 0.1059478000 0.2413668036 2.5545918941 36.826988220 73.446510315 73.373596191 5.8808608055 54.283359528 3.9894039631 3.9894039631
 2624.7729492 13.000000000 0.2034512162 12.453451157 12.250000954 0.1144014969 0.2437268049 2.5639910698 45.931980133 83.334121704 83.242996216 5.5107030869 54.300609589 3.9274458885 3.9274458885
 2624.9252930 13.000000000 0.2030858994 12.453089714 12.250000954 0.1054309011 0.2465340048 2.5571041107 58.217220306 90.628059387 90.979103088 5.1401801109 54.262401581 3.7754819393 3.7754819393
 2625.0776367 13.000000000 0.2027177960 12.452719688 12.250000954 0.0951113030 0.2478159070 2.5490019321 70.882347107 93.970802307 93.679298401 4.7483282089 54.247200012 3.6068949699 3.6068949699
 2625.2299805 13.000000000 0.2023506016 12.452349663 12.250000954 0.0968804881 0.2477387935 2.5494000912 80.125328064 92.540390015 92.492301941 4.2057571411 54.245418549 3.4487950802 3.4487950802
 2625.3825684 13.000000000 0.2019843906 12.451979637 12.250000954 0.1055821031 0.2465208024 2.5500988960 86.503570557 90.872840881 90.789901733 3.6484599113 54.171070099 3.3133070469 3.3133070469
 2625.5349121 13.000000000 0.2016182095 12.451620102 12.250000954 0.1126540005 0.2453899980 2.5492010117 89.685707092 90.487777710 90.481002808 3.2913360596 54.031009674 3.1951460838 3.1951460838
 2625.6872559 13.000000000 0.2012520134 12.451249123 12.250000954 0.1127393991 0.2463607937 2.5451009274 88.072189331 88.725151062 88.466201782 3.0378820896 53.896358490 3.1056540012 3.1056540012
 2625.8395996 13.000000000 0.2008858025 12.450889587 12.250000954 0.1198875010 0.2483180016 2.5525000095 85.368797302 87.293403625 87.519302368 2.9167261124 53.751800537 3.0621809959 3.0621809959
 2625.9921875 13.000000000 0.2005195916 12.450519562 12.250000954 0.1311012059 0.2474416941 2.5679810047 82.792587280 87.293403625 86.981803894 2.8240211010 53.663009644 3.0397930145 3.0397930145
 2626.1445313 13.000000000 0.2001533955 12.450148582 12.250000954 0.1301584989 0.2443087995 2.5717968941 82.200080872 85.726341248 85.981498718 2.7458870411 53.681579590 3.0167839527 3.0167839527
 2626.2968750 13.000000000 0.1997862160 12.449790001 12.250000954 0.1236452013 0.2411915958 2.5684020519 83.250869751 86.339103699 86.409500122 2.6673939228 53.753009796 2.9937748909 2.9937748909
 2626.4492188 13.000000000 0.1994199902 12.449419975 12.250000954 0.1185854003 0.2395379990 2.5618009567 84.691291809 89.201156616 89.177200317 2.6343870163 53.873981476 2.9859890938 2.9859890938
 2626.6018066 13.000000000 0.1990527958 12.449049950 12.250000954 0.1046506986 0.2385395020 2.5475189686 85.105377197 93.012443542 92.709602356 2.6583158970 54.050689697 3.0061490536 3.0061490536
 2626.7541504 13.000000000 0.1986865848 12.448690414 12.250000954 0.1038682014 0.2357074022 2.5473001003 84.255012512 93.820396423 94.020401001 2.7226519585 54.207740784 3.0337619781 3.0337619781
 2626.9064941 13.000000000 0.1983241886 12.448321342 12.250000954 0.1082279980 0.2327940017 2.5522971153 81.425903320 92.064674377 91.726600647 2.8724761009 54.351600647 3.0691111088 3.0691111088
 2627.0588379 13.000000000 0.1993113011 12.449311256 12.250000954 0.1091526970 0.2341606021 2.5463008881 76.715476990 84.910171509 85.214202881 3.0824069977 54.473571777 3.1383790970 3.1383790970
 2627.2111816 13.000000000 0.2005253136 12.450530052 12.250000954 0.1244063005 0.2408207953 2.5528020859 71.225273132 77.752182007 77.671600342 3.3003981113 54.543399811 3.2407219410 3.2407219410
 2627.3637695 13.000000000 0.2017478794 12.451749802 12.250000954 0.1369480044 0.2485449016 2.5717790127 64.284126282 70.129379272 70.027099609 3.6763429642 54.525020599 3.3838109970 3.3838109970
 2627.5161133 13.000000000 0.2029715031 12.452969551 12.250000954 0.1348612010 0.2517442107 2.5797939301 55.476181030 63.822189331 63.803199768 4.3117737770 54.468208313 3.5961470604 3.5961470604
 2627.6684570 13.000000000 0.2041922063 12.454190254 12.250000954 0.1348762959 0.2485926002 2.5843980312 45.657470703 57.720890045 57.627601624 5.3886947632 54.369369507 3.8375809193 3.8375809193
 2627.8208008 13.000000000 0.2054138035 12.455409050 12.250000954 0.1372957975 0.2442120016 2.5843000412 37.245429993 57.718601227 57.671100616 6.7331328392 54.262199402 4.1249961853 4.1249961853
 2627.9733887 13.000000000 0.2066364139 12.456640244 12.250000954 0.1339969933 0.2411836982 2.5764100552 34.088809967 58.195011139 58.131999969 8.0154743195 54.177459717 4.4773302078 4.4773302078
 2628.1257324 13.000000000 0.2078600228 12.457860947 12.250000954 0.1295567006 0.2397298962 2.5707049370 35.076259613 58.102577209 58.137599945 12.277130127 54.043651581 4.8714628220 4.8714628220
 2628.2780762 13.000000000 0.2090844959 12.459080696 12.250000954 0.1220164001 0.2412744015 2.5637040138 36.749271393 57.242031097 57.280101776 19.413030624 53.891788483 5.2065300941 5.2065300941
 2628.4304199 13.000000000 0.2103081048 12.460309982 12.250000954 0.1138449982 0.2433259040 2.5531020164 38.496601105 55.333751678 55.322498322 23.577690125 53.843799591 5.4504871368 5.4504871368
 2628.5830078 13.000000000 0.2115287781 12.461529732 12.250000954 0.1136609018 0.2433885932 2.5519020557 39.804439545 54.380798340 54.417301178 23.763580322 53.840801239 5.5668621063 5.5668621063
 2628.7353516 13.000000000 0.2127514184 12.462750435 12.250000954 0.1094651967 0.2434275001 2.5528988838 40.658599854 53.341026306 53.207000732 19.644239426 53.836601257 5.6000008583 5.6000008583
