# LAS format log file from PETREL
# Project units are specified as depth units
#==================================================================
~Version information
VERS.   2.0:
WRAP.   NO:
#==================================================================
~Well
STRT .m      1910.3216553 :
STOP .m      4062.5144043 :
STEP .m     0.00000000 :
NULL .        -999.250000 :
COMP.           : COMPANY
WELL.  25/4-1  Heimdal   : WELL
FLD.            : FIELD
LOC.            : LOCATION
SRVC.           : SERVICE COMPANY
DATE.  2018-09-11 14:48:19   : Log Export Date {yyyy-MM-dd HH:mm:ss}
PROV.           : PROVINCE
UWI.   25/4-1   : UNIQUE WELL ID
API.            : API NUMBER
#==================================================================
~Curve
DEPT .m                   : DEPTH
Lithology_geolink ._      : Lithology_geolink
DCAL .in                  : DCAL
CALI .in                  : CALI
BS .in                    : BS
DRHO .g/cm3               : DRHO
NPHI .m3/m3               : NPHI
RHOB .g/cm3               : RHOB
GR .gAPI                  : GR
DTC .us/ft                : DTC
DTE .us/ft                : DTE
RDEP .ohm.m               : RDEP
SP .mV                    : SP
RSHA .ohm.m               : RSHA
RMED .ohm.m               : RMED
~Parameter
#==================================================================
~Ascii
# ...
 3622.3833008 6.0000000000 0.0684022903 6.0684018135 5.9999995232  -999.250000  -999.250000  -999.250000 100.98449707 100.88819885 91.840797424 1.4334119558 43.575839996 2.0448219776 2.0448219776
 3622.5356445 6.0000000000 0.0694017410 6.0694017410 5.9999995232  -999.250000  -999.250000  -999.250000 100.06169891 101.36519623 91.831703186 1.4414110184 43.379920959 2.0648028851 2.0648028851
 3622.6879883 6.0000000000 0.0704026222 6.0704026222 5.9999995232  -999.250000  -999.250000  -999.250000 98.202827454 100.88819885 91.541099548 1.4544160366 43.420768738 2.0976130962 2.0976130962
 3622.8403320 6.0000000000 0.0714025497 6.0714030266 5.9999995232  -999.250000  -999.250000  -999.250000 94.139030457 99.934020996 90.709098816 1.4740159512 43.631359100 2.1324241161 2.1324241161
 3622.9929199 6.0000000000 0.0724024773 6.0724020004 5.9999995232  -999.250000  -999.250000  -999.250000 90.282806396 99.298606873 90.070304871 1.5010010004 43.864578247 2.1712019444 2.1712019444
 3623.1452637 5.0000000000 0.0734019279 6.0734019279 5.9999995232  -999.250000  -999.250000  -999.250000 88.757659912 98.741928101 89.376899719 1.5317779779 43.940921783 2.2117929459 2.2117929459
 3623.2976074 5.0000000000 0.0744018629 6.0744018555 5.9999995232  -999.250000  -999.250000  -999.250000 88.507781982 98.503211975 88.953697205 1.5633939505 43.866138458 2.2476129532 2.2476129532
 3623.4499512 5.0000000000 0.0754027367 6.0754036903 5.9999995232  -999.250000  -999.250000  -999.250000 89.461883545 97.549156189 88.592300415 1.5924160480 43.711269379 2.2808279991 2.2808279991
 3623.6022949 5.0000000000 0.0764026567 6.0764031410 5.9999995232  -999.250000  -999.250000  -999.250000 89.941062927 97.392219543 87.756805420 1.6160160303 43.384651184 2.3064229488 2.3064229488
 3623.7548828 5.0000000000 0.0774016380 6.0774021149 5.9999995232  -999.250000  -999.250000  -999.250000 89.362922668 96.118789673 87.049102783 1.6344079971 42.887569427 2.3168029785 2.3168029785
 3623.9072266 5.0000000000 0.0788040236 6.0788035393 5.9999995232  -999.250000  -999.250000  -999.250000 89.259613037 95.164268494 85.802001953 1.6472120285 42.725269318 2.3163909912 2.3163909912
 3624.0595703 5.0000000000 0.0804023668 6.0804023743 5.9999995232  -999.250000  -999.250000  -999.250000 87.398612976 94.686981201 85.237396240 1.6532069445 43.151210785 2.3071429729 2.3071429729
 3624.2119141 5.0000000000 0.0814027786 6.0814027786 5.9999995232  -999.250000  -999.250000  -999.250000 84.982040405 94.059753418 85.056503296 1.6525809765 43.460960388 2.2881131172 2.2881131172
 3624.3645020 5.0000000000 0.0824027210 6.0824027061 5.9999995232  -999.250000  -999.250000  -999.250000 87.240547180 94.686683655 85.266403198 1.6433500051 43.328899384 2.2697579861 2.2697579861
 3624.5168457 5.0000000000 0.0834021643 6.0834021568 5.9999995232  -999.250000  -999.250000  -999.250000 92.348983765 96.594619751 87.031799316 1.6313769817 43.348670959 2.2607939243 2.2607939243
 3624.6691895 5.0000000000 0.0844025537 6.0844030380 5.9999995232  -999.250000  -999.250000  -999.250000 95.346260071 97.549301147 88.573402405 1.6288130283 43.731620789 2.2622148991 2.2622148991
 3624.8215332 5.0000000000 0.0854025036 6.0854020119 5.9999995232  -999.250000  -999.250000  -999.250000 94.315299988 98.980339050 89.335998535 1.6398240328 43.983528137 2.2746319771 2.2746319771
 3624.9741211 5.0000000000 0.0864024237 6.0864019394 5.9999995232  -999.250000  -999.250000  -999.250000 93.309310913 99.297851563 90.105400085 1.6596159935 43.714889526 2.2928259373 2.2928259373
 3625.1264648 5.0000000000 0.0874018669 6.0874018669 5.9999995232  -999.250000  -999.250000  -999.250000 93.284912109 99.457130432 90.054901123 1.6867849827 43.070991516 2.3094160557 2.3094160557
 3625.2788086 5.0000000000 0.0884022638 6.0884013176 5.9999995232  -999.250000  -999.250000  -999.250000 92.754341125 98.503250122 89.351196289 1.7180030346 42.713829041 2.3270230293 2.3270230293
 3625.4311523 5.0000000000 0.0894026831 6.0894031525 5.9999995232  -999.250000  -999.250000  -999.250000 91.707038879 97.071403503 87.521797180 1.7440240383 43.125820160 2.3450269699 2.3450269699
 3625.5834961 5.0000000000 0.0908045769 6.0908050537 5.9999995232  -999.250000  -999.250000  -999.250000 90.078758240 94.535873413 85.472396851 1.7596149445 43.932628632 2.3580179214 2.3580179214
 3625.7360840 5.0000000000 0.0924014971 6.0924019814 5.9999995232  -999.250000  -999.250000  -999.250000 88.632392883 94.925376892 85.226593018 1.7662039995 44.440338135 2.3680119514 2.3680119514
 3625.8884277 5.0000000000 0.0934019014 6.0934023857 5.9999995232  -999.250000  -999.250000  -999.250000 87.774963379 94.210227966 85.033302307 1.7659879923 44.606239319 2.3780159950 2.3780159950
 3626.0407715 5.0000000000 0.0944023132 6.0944018364 5.9999995232  -999.250000  -999.250000  -999.250000 87.429740906 94.687072754 85.226303101 1.7569479942 44.523689270 2.3880190849 2.3880190849
 3626.1931152 5.0000000000 0.0954027101 6.0954031944 5.9999995232  -999.250000  -999.250000  -999.250000 87.503761292 94.535949707 85.460700989 1.7407269478 44.043220520 2.3940000534 2.3940000534
 3626.3457031 5.0000000000 0.0964026600 6.0964021683 5.9999995232  -999.250000  -999.250000  -999.250000 86.851020813 95.163673401 85.695198059 1.7219220400 43.486080170 2.3903729916 2.3903729916
 3626.4980469 5.0000000000 0.0974021032 6.0974020958 5.9999995232  -999.250000  -999.250000  -999.250000 85.954559326 94.687240601 85.723396301 1.7023379803 43.098609924 2.3829889297 2.3829889297
 3626.6503906 5.0000000000 0.0984025002 6.0984025002 5.9999995232  -999.250000  -999.250000  -999.250000 85.935752869 94.687133789 85.438507080 1.6833300591 42.915000916 2.3779869080 2.3779869080
 3626.8027344 5.0000000000 0.0994024351 6.0994019508 5.9999995232  -999.250000  -999.250000  -999.250000 86.926567078 95.163421631 85.689903259 1.6643229723 42.995540619 2.3709681034 2.3709681034
 3626.9553223 5.0000000000 0.1004023999 6.1004014015 5.9999995232  -999.250000  -999.250000  -999.250000 87.191017151 93.584373474 84.472999573 1.6453280449 43.169731140 2.3589529991 2.3589529991
 3627.1076660 5.0000000000 0.1154652014 6.1154651642 5.9999995232  -999.250000  -999.250000  -999.250000 87.164451599 94.209823608 84.761703491 1.6255290508 43.280330658 2.3362789154 2.3362789154
 3627.2600098 5.0000000000 0.1410216987 6.1410217285 5.9999995232  -999.250000  -999.250000  -999.250000 87.457450867 94.687072754 85.482299805 1.6041159630 43.333248138 2.2957599163 2.2957599163
 3627.4123535 5.0000000000 0.1510252953 6.1510243416 5.9999995232  -999.250000  -999.250000  -999.250000 87.477508545 94.687347412 85.581398010 1.5821069479 43.334518433 2.2498130798 2.2498130798
 3627.5646973 5.0000000000 0.1610226780 6.1610231400 5.9999995232  -999.250000  -999.250000  -999.250000 85.898773193 95.488533020 85.943901062 1.5621390343 43.314788818 2.2159090042 2.2159090042
 3627.7172852 5.0000000000 0.1710166931 6.1710171700 5.9999995232  -999.250000  -999.250000  -999.250000 84.827232361 96.117752075 87.105697632 1.5491839647 43.347549438 2.1953659058 2.1953659058
 3627.8696289 5.0000000000 0.1810203046 6.1810202599 5.9999995232  -999.250000  -999.250000  -999.250000 85.688079834 98.025833130 88.567100525 1.5454020500 43.456489563 2.1910150051 2.1910150051
 3628.0219727 5.0000000000 0.1910243034 6.1910233498 5.9999995232  -999.250000  -999.250000  -999.250000 87.009506226 98.026168823 88.986198425 1.5496159792 43.575801849 2.2114169598 2.2114169598
 3628.1743164 5.0000000000 0.2010279000 6.2010278702 5.9999995232  -999.250000  -999.250000  -999.250000 88.462303162 97.869476318 88.540802002 1.5618250370 43.678760529 2.2502210140 2.2502210140
 3628.3269043 5.0000000000 0.2110251784 6.2110252380 5.9999995232  -999.250000  -999.250000  -999.250000 90.194000244 98.026092529 88.532699585 1.5804189444 43.911571503 2.2928130627 2.2928130627
 3628.4792480 6.0000000000 0.2230287045 6.2230296135 5.9999995232  -999.250000  -999.250000  -999.250000 91.726387024 97.787773132 88.349197388 1.6026029587 44.264789581 2.3347899914 2.3347899914
