# LAS format log file from PETREL
# Project units are specified as depth units
#==================================================================
~Version information
VERS.   2.0:
WRAP.   NO:
#==================================================================
~Well
STRT .m      1910.3216553 :
STOP .m      4062.5144043 :
STEP .m     0.00000000 :
NULL .        -999.250000 :
COMP.           : COMPANY
WELL.  25/4-1  Heimdal   : WELL
FLD.            : FIELD
LOC.            : LOCATION
SRVC.           : SERVICE COMPANY
DATE.  2018-09-11 14:48:19   : Log Export Date {yyyy-MM-dd HH:mm:ss}
PROV.           : PROVINCE
UWI.   25/4-1   : UNIQUE WELL ID
API.            : API NUMBER
#==================================================================
~Curve
DEPT .m                   : DEPTH
Lithology_geolink ._      : Lithology_geolink
DCAL .in                  : DCAL
CALI .in                  : CALI
BS .in                    : BS
DRHO .g/cm3               : DRHO
NPHI .m3/m3               : NPHI
RHOB .g/cm3               : RHOB
GR .gAPI                  : GR
DTC .us/ft                : DTC
DTE .us/ft                : DTE
RDEP .ohm.m               : RDEP
SP .mV                    : SP
RSHA .ohm.m               : RSHA
RMED .ohm.m               : RMED
~Parameter
#==================================================================
~Ascii
# ...
 3759.8479004 6.0000000000 0.2224174142 6.2224168777 5.9999995232  -999.250000  -999.250000  -999.250000 113.64790344 95.965141296 86.912696838 1.9138790369 47.504570007 2.7302510738 2.7302510738
 3760.0004883 6.0000000000 0.2251944989 6.2251939774 5.9999995232  -999.250000  -999.250000  -999.250000 114.59040070 97.071563721 87.425598145 1.8676069975 47.555839539 2.7079861164 2.7079861164
 3760.1528320 6.0000000000 0.2159595042 6.2159605026 5.9999995232  -999.250000  -999.250000  -999.250000 115.88310242 98.979797363 89.890197754 1.8353129625 47.782611847 2.7090160847 2.7090160847
 3760.3051758 6.0000000000 0.1959518939 6.1959519386 5.9999995232  -999.250000  -999.250000  -999.250000 117.39720154 100.88849640 91.638496399 1.8145450354 47.630371094 2.7141950130 2.7141950130
 3760.4575195 6.0000000000 0.1803751141 6.1803750992 5.9999995232  -999.250000  -999.250000  -999.250000 118.73609924 102.15420532 92.820098877 1.7985379696 46.729400635 2.7045218945 2.7045218945
 3760.6098633 6.0000000000 0.1790252030 6.1790251732 5.9999995232  -999.250000  -999.250000  -999.250000 118.34190369 99.456771851 90.239501953 1.7817330360 45.622081757 2.6815049648 2.6815049648
 3760.7624512 6.0000000000 0.1894212216 6.1894211769 5.9999995232  -999.250000  -999.250000  -999.250000 116.55449677 98.980354309 89.690002441 1.7637439966 45.005111694 2.6571359634 2.6571359634
 3760.9147949 6.0000000000 0.2000226974 6.2000231743 5.9999995232  -999.250000  -999.250000  -999.250000 115.03829956 98.980201721 89.492401123 1.7501809597 45.089199066 2.6363399029 2.6363399029
 3761.0671387 6.0000000000 0.2132472992 6.2132468224 5.9999995232  -999.250000  -999.250000  -999.250000 114.57830048 98.503227234 89.307395935 1.7488149405 45.539440155 2.6189498901 2.6189498901
 3761.2194824 6.0000000000 0.2336726040 6.2336730957 5.9999995232  -999.250000  -999.250000  -999.250000 117.28050232 98.584373474 89.315399170 1.7566219568 45.909278870 2.6099998951 2.6099998951
 3761.3720703 6.0000000000 0.2592768967 6.2592763901 5.9999995232  -999.250000  -999.250000  -999.250000 120.57790375 99.456787109 89.898895264 1.7640119791 46.059909821 2.6156289577 2.6156289577
 3761.5244141 6.0000000000 0.2944988906 6.2944993973 5.9999995232  -999.250000  -999.250000  -999.250000 122.29260254 101.84210205 92.507011414 1.7690089941 46.036739349 2.6320250034 2.6320250034
 3761.6767578 6.0000000000 0.3336730003 6.3336730003 5.9999995232  -999.250000  -999.250000  -999.250000 125.52320099 103.75061035 94.338401794 1.7764199972 45.837001801 2.6504290104 2.6504290104
 3761.8291016 6.0000000000 0.3509997725 6.3509998322 5.9999995232  -999.250000  -999.250000  -999.250000 125.64199829 104.53729248 95.435203552 1.7930309772 45.537818909 2.6628179550 2.6628179550
 3761.9816895 6.0000000000 0.3509997725 6.3509998322 5.9999995232  -999.250000  -999.250000  -999.250000 122.47679901 105.18099976 95.682098389 1.8287589550 45.425521851 2.6694140434 2.6694140434
 3762.1340332 6.0000000000 0.3501959443 6.3501963615 5.9999995232  -999.250000  -999.250000  -999.250000 117.58119965 102.31990051 93.192100525 1.8882240057 45.578601837 2.6810228825 2.6810228825
 3762.2863770 6.0000000000 0.3389401436 6.3389396667 5.9999995232  -999.250000  -999.250000  -999.250000 113.03450012 100.41100311 90.797996521 1.9616229534 45.697799683 2.7106199265 2.7106199265
 3762.4387207 6.0000000000 0.3119167984 6.3119163513 5.9999995232  -999.250000  -999.250000  -999.250000 111.63379669 98.344688416 89.064002991 2.0441670418 45.683700562 2.7633929253 2.7633929253
 3762.5910645 6.0000000000 0.2803153992 6.2803149223 5.9999995232  -999.250000  -999.250000  -999.250000 110.50540161 96.594772339 87.577697754 2.1418180466 45.613910675 2.8376970291 2.8376970291
 3762.7436523 6.0000000000 0.2423166782 6.2423171997 5.9999995232  -999.250000  -999.250000  -999.250000 109.65630341 96.118270874 86.919296265 2.2525179386 45.496570587 2.9274179935 2.9274179935
 3762.8959961 6.0000000000 0.1987023056 6.1987018585 5.9999995232  -999.250000  -999.250000  -999.250000 108.76950073 95.641036987 86.136901855 2.3660299778 45.416751862 3.0218579769 3.0218579769
 3763.0483398 6.0000000000 0.1552838981 6.1552834511 5.9999995232  -999.250000  -999.250000  -999.250000 107.53520203 93.255668640 84.255203247 2.4708139896 45.467819214 3.1145300865 3.1145300865
 3763.2006836 15.000000000 0.1209402010 6.1209402084 5.9999995232  -999.250000  -999.250000  -999.250000 105.52380371 92.153427124 82.847000122 2.5547909737 45.639759064 3.1980140209 3.1980140209
 3763.3532715 15.000000000 0.1065835953 6.1065840721 5.9999995232  -999.250000  -999.250000  -999.250000 101.55729675 90.871597290 81.294410706 2.6126310825 45.693199158 3.2733960152 3.2733960152
 3763.5056152 15.000000000 0.1009892896 6.1009888649 5.9999995232  -999.250000  -999.250000  -999.250000 95.987426758 88.486137390 79.281600952 2.6581990719 45.263370514 3.3552989960 3.3552989960
 3763.6579590 15.000000000 0.0967922211 6.0967926979 5.9999995232  -999.250000  -999.250000  -999.250000 90.583717346 85.623672485 76.367698669 2.7113890648 44.277420044 3.4479250908 3.4479250908
 3763.8103027 15.000000000 0.1014461964 6.1014456749 5.9999995232  -999.250000  -999.250000  -999.250000 84.462707520 84.772140503 75.349502563 2.7712209225 43.464038849 3.5310440063 3.5310440063
 3763.9628906 15.000000000 0.1186494976 6.1186490059 5.9999995232  -999.250000  -999.250000  -999.250000 79.638313293 84.193145752 75.236000061 2.8220360279 43.524009705 3.5792419910 3.5792419910
 3764.1152344 15.000000000 0.1376385987 6.1376390457 5.9999995232  -999.250000  -999.250000  -999.250000 79.051918030 84.669700623 75.357604980 2.8500161171 43.976249695 3.6030299664 3.6030299664
 3764.2675781 15.000000000 0.1614741981 6.1614742279 5.9999995232  -999.250000  -999.250000  -999.250000 81.303031921 85.146942139 75.742797852 2.8551950455 44.154708862 3.6408290863 3.6408290863
 3764.4199219 15.000000000 0.1940966100 6.1940970421 5.9999995232  -999.250000  -999.250000  -999.250000 84.725120544 85.487213135 76.263702393 2.8592290878 44.052249908 3.7066149712 3.7066149712
 3764.5722656 15.000000000 0.2339168042 6.2339167595 5.9999995232  -999.250000  -999.250000  -999.250000 87.586593628 86.101318359 76.848991394 2.8794369698 43.845458984 3.7812221050 3.7812221050
 3764.7248535 15.000000000 0.2857117951 6.2857117653 5.9999995232  -999.250000  -999.250000  -999.250000 89.066688538 86.577751160 77.330398560 2.9163999557 43.650901794 3.8372271061 3.8372271061
 3764.8771973 15.000000000 0.3290453255 6.3290448189 5.9999995232  -999.250000  -999.250000  -999.250000 89.383049011 85.623886108 76.332801819 2.9663999081 43.534870148 3.8640189171 3.8640189171
 3765.0295410 15.000000000 0.3446235955 6.3446245193 5.9999995232  -999.250000  -999.250000  -999.250000 88.647247314 85.146835327 75.595993042 3.0216259956 43.546291351 3.8704030514 3.8704030514
 3765.1818848 15.000000000 0.3435521126 6.3435521126 5.9999995232  -999.250000  -999.250000  -999.250000 87.276077271 85.010696411 75.772201538 3.0704569817 43.786899567 3.8754289150 3.8754289150
 3765.3344727 15.000000000 0.3251400292 6.3251399994 5.9999995232  -999.250000  -999.250000  -999.250000 86.567413330 85.146827698 76.074501038 3.1054449081 44.315418243 3.8904440403 3.8904440403
 3765.4868164 15.000000000 0.3031530082 6.3031530380 5.9999995232  -999.250000  -999.250000  -999.250000 87.748901367 85.623840332 76.053001404 3.1238129139 44.967140198 3.9066169262 3.9066169262
 3765.6391602 15.000000000 0.2803396881 6.2803401947 5.9999995232  -999.250000  -999.250000  -999.250000 92.054023743 85.146987915 76.184799194 3.1203379631 45.496559143 3.9099860191 3.9099860191
 3765.7915039 15.000000000 0.2527050972 6.2527050972 5.9999995232  -999.250000  -999.250000  -999.250000 97.211631775 85.487289429 76.266296387 3.0732429028 45.683700562 3.8912410736 3.8912410736
 3765.9440918 6.0000000000 0.2197141945 6.2197141647 5.9999995232  -999.250000  -999.250000  -999.250000 102.28209686 86.100532532 76.456092834 2.9646639824 45.309391022 3.8282430172 3.8282430172
