# LAS format log file from PETREL
# Project units are specified as depth units
#==================================================================
~Version information
VERS.   2.0:
WRAP.   NO:
#==================================================================
~Well
STRT .m      1910.3216553 :
STOP .m      4062.5144043 :
STEP .m     0.00000000 :
NULL .        -999.250000 :
COMP.           : COMPANY
WELL.  25/4-1  Heimdal   : WELL
FLD.            : FIELD
LOC.            : LOCATION
SRVC.           : SERVICE COMPANY
DATE.  2018-09-11 14:48:19   : Log Export Date {yyyy-MM-dd HH:mm:ss}
PROV.           : PROVINCE
UWI.   25/4-1   : UNIQUE WELL ID
API.            : API NUMBER
#==================================================================
~Curve
DEPT .m                   : DEPTH
Lithology_geolink ._      : Lithology_geolink
DCAL .in                  : DCAL
CALI .in                  : CALI
BS .in                    : BS
DRHO .g/cm3               : DRHO
NPHI .m3/m3               : NPHI
RHOB .g/cm3               : RHOB
GR .gAPI                  : GR
DTC .us/ft                : DTC
DTE .us/ft                : DTE
RDEP .ohm.m               : RDEP
SP .mV                    : SP
RSHA .ohm.m               : RSHA
RMED .ohm.m               : RMED
~Parameter
#==================================================================
~Ascii
# ...
 3047.5305176 13.000000000 1.5000128746 10.000009537 8.5000000000 0.0053378446 0.2242753953 2.5720889568 55.044090271 88.106666565 88.185699463 2.0527958870 59.001979828 2.3419990540 2.3419990540
 3047.6828613 13.000000000 1.5232959986 10.023300171 8.5000000000 0.0061369580 0.2261335999 2.5790970325 53.872951508 88.247329712 88.400901794 2.0601980686 59.108200073 2.3369979858 2.3369979858
 3047.8352051 13.000000000 1.5241800547 10.024180412 8.5000000000 0.0074900170 0.2221875936 2.5794999599 52.109638214 89.201469421 88.900009155 2.0690000057 59.109199524 2.3319959641 2.3319959641
 3047.9875488 13.000000000 1.5064729452 10.006469727 8.5000000000 0.0088905338 0.2184303999 2.5804018974 50.841728210 89.201766968 89.489997864 2.0869579315 59.021530151 2.3273980618 2.3273980618
 3048.1401367 13.000000000 1.5102922916 10.010290146 8.5000000000 0.0091844359 0.2180088013 2.5856950283 50.086978912 90.010490417 89.738800049 2.0997939110 58.713710785 2.3229999542 2.3229999542
 3048.2924805 13.000000000 1.5392359495 10.039239883 8.5000000000 0.0063446751 0.2128870934 2.5945949554 49.653190613 90.632171631 90.518302917 2.0847790241 58.299961090 2.3179979324 2.3179979324
 3048.4448242 13.000000000 1.5960839987 10.096079826 8.5000000000 0.0010327650 0.2036107033 2.6025989056 49.811431885 91.109428406 91.137901306 2.0522029400 58.091011047 2.3129959106 2.3129959106
 3048.5971680 13.000000000 1.7132430077 10.213239670 8.5000000000 -0.003547581 0.1927036941 2.6050980091 50.572849274 90.155082703 90.243598938 1.9949549437 58.160831451 2.3083980083 2.3083980083
 3048.7497559 13.000000000 1.8281348944 10.328129768 8.5000000000 -0.004268822 0.1817921996 2.5985069275 51.971149445 88.108283997 88.413597107 1.9329839945 58.376068115 2.3044009209 2.3044009209
 3048.9020996 13.000000000 1.8697409630 10.369739532 8.5000000000 -0.001997632 0.1723421067 2.5861079693 53.931968689 88.247314453 87.912002563 1.8782769442 58.631999969 2.2999989986 2.2999989986
 3049.0544434 13.000000000 1.9142030478 10.414200783 8.5000000000 -0.001247286 0.1684744060 2.5734040737 56.473411560 88.247398376 88.520698547 1.8375020027 58.752429962 2.2953979969 2.2953979969
 3049.2067871 13.000000000 1.9911109209 10.491109848 8.5000000000 -0.002858806 0.1734589040 2.5580990314 59.375251770 89.678581238 89.524497986 1.8019150496 58.851810455 2.2853789330 2.2853789330
 3049.3591309 13.000000000 2.0305280685 10.530529976 8.5000000000 -0.004198507 0.1874683946 2.5476000309 61.806789398 90.633079529 90.855903625 1.7677429914 58.967338562 2.2651860714 2.2651860714
 3049.5117188 13.000000000 2.0517470837 10.551750183 8.5000000000 -0.003562162 0.2067613006 2.5476000309 62.709819794 91.915199280 91.828903198 1.7371530533 59.169158936 2.2431769371 2.2431769371
 3049.6640625 13.000000000 2.0732800961 10.573281288 8.5000000000 -0.001749738 0.2258841991 2.5513980389 62.483310699 92.063537598 91.823303223 1.7206000090 59.545909882 2.2211689949 2.2211689949
 3049.8164063 13.000000000 2.0750188828 10.575019836 8.5000000000 0.0017171600 0.2407118976 2.5603001118 61.594398499 90.632560730 90.633697510 1.7228009701 59.910129547 2.1987569332 2.1987569332
 3049.9687500 13.000000000 2.0620670319 10.562069893 8.5000000000 0.0073464550 0.2457813025 2.5751039982 60.094791412 89.678596497 89.837402344 1.7361710072 60.063011169 2.1761660576 2.1761660576
 3050.1213379 13.000000000 1.9884370565 10.488439560 8.5000000000 0.0197882298 0.2444081008 2.5889871120 59.059379578 90.010902405 89.808700562 1.7599509954 60.064819336 2.1637990475 2.1637990475
 3050.2736816 13.000000000 1.8725539446 10.372550011 8.5000000000 0.0383923389 0.2448341995 2.6063909531 58.537769318 89.678672791 89.844009399 1.7825779915 59.962589264 2.1693940163 2.1693940163
 3050.4260254 13.000000000 1.7917718887 10.291769981 8.5000000000 0.0459806286 0.2459661961 2.6221969128 58.055809021 90.155433655 89.855697632 1.8011870384 59.740249634 2.1803989410 2.1803989410
 3050.5783691 13.000000000 1.7422951460 10.242300034 8.5000000000 0.0341495313 0.2443750948 2.6238989830 57.259040833 89.678649902 90.014602661 1.8211699724 59.447940826 2.1905980110 2.1905980110
 3050.7309570 13.000000000 1.6716209650 10.171620369 8.5000000000 0.0173330102 0.2406388968 2.6187050343 57.085121155 90.486671448 90.158203125 1.8453459740 59.263629913 2.1883881092 2.1883881092
 3050.8833008 13.000000000 1.5757689476 10.075771332 8.5000000000 0.0117636798 0.2401620001 2.6158020496 59.054920197 92.062561035 91.987098694 1.8614000082 59.076210022 2.1705861092 2.1705861092
 3051.0356445 13.000000000 1.5313450098 10.031350136 8.5000000000 0.0160980299 0.2437299043 2.6147999763 62.168899536 94.447906494 94.664901733 1.8591940403 58.731288910 2.1541779041 2.1541779041
 3051.1879883 13.000000000 1.5430099964 10.043009758 8.5000000000 0.0229508597 0.2517068982 2.6168000698 63.527828217 96.833702087 96.612899780 1.8493859768 58.412780762 2.1371819973 2.1371819973
 3051.3403320 13.000000000 1.5535099506 10.053509712 8.5000000000 0.0298612528 0.2625469863 2.6199979782 63.861068726 96.833740234 96.960601807 1.8381999731 58.180450439 2.1181840897 2.1181840897
 3051.4929199 13.000000000 1.5543791056 10.054380417 8.5000000000 0.0343658403 0.2706691921 2.6147038937 64.153747559 96.916831970 96.595901489 1.8307969570 58.251148224 2.0941619873 2.0941619873
 3051.6452637 13.000000000 1.5544400215 10.054439545 8.5000000000 0.0331339911 0.2723009884 2.6001060009 63.958770752 95.403236389 95.149902344 1.8276000023 58.557060242 2.0675549507 2.0675549507
 3051.7976074 13.000000000 1.5500400066 10.050040245 8.5000000000 0.0252600200 0.2676410973 2.5811009407 61.790889740 93.017730713 93.285697937 1.8339999914 58.759670258 2.0459780693 2.0459780693
 3051.9499512 13.000000000 1.5359989405 10.036000252 8.5000000000 0.0156585891 0.2627024055 2.5616960526 57.881538391 91.108688354 90.865699768 1.8578840494 58.857830048 2.0341949463 2.0341949463
 3052.1025391 13.000000000 1.5140049458 10.013999939 8.5000000000 0.0095514487 0.2571497858 2.5492119789 54.339199066 88.584800720 88.536605835 1.9134570360 58.940979004 2.0271990299 2.0271990299
 3052.2548828 13.000000000 1.4845349789 9.9845352173 8.5000000000 0.0067052511 0.2490109950 2.5508990288 51.449729919 85.863876343 86.037193298 1.9913549423 59.021610260 2.0225999355 2.0225999355
 3052.4072266 13.000000000 1.4470871687 9.9470872879 8.5000000000 0.0071449098 0.2383870035 2.5706970692 49.011108398 85.385482788 85.128189087 2.0709650517 59.099639893 2.0228009224 2.0228009224
 3052.5595703 13.000000000 1.3727229834 9.8727216721 8.5000000000 0.0117161795 0.2277698964 2.6021049023 47.463008881 86.339279175 86.258102417 2.1389551163 59.178409576 2.0414950848 2.0414950848
 3052.7121582 13.000000000 1.2804349661 9.7804346085 8.5000000000 0.0205827504 0.2177916020 2.6281731129 46.586471558 85.725631714 85.954902649 2.2100579739 59.248970032 2.0964760780 2.0964760780
 3052.8645020 13.000000000 1.2483450174 9.7483453751 8.5000000000 0.0300488509 0.2121620029 2.6394920349 46.072208405 84.908950806 84.888702393 2.2919659615 59.312599182 2.1700799465 2.1700799465
 3053.0168457 13.000000000 1.2645099163 9.7645101547 8.5000000000 0.0343004689 0.2116418034 2.6400001049 46.037109375 83.954589844 83.937301636 2.3896551132 59.363010406 2.2492539883 2.2492539883
 3053.1691895 13.000000000 1.2825969458 9.7825965881 8.5000000000 0.0312824398 0.2089855969 2.6364998817 46.730091095 83.477264404 83.259696960 2.5089180470 59.341590881 2.3316779137 2.3316779137
 3053.3215332 13.000000000 1.3078989983 9.8078994751 8.5000000000 0.0255607106 0.2027575970 2.6321980953 48.079429626 83.000450134 83.045700073 2.6314940453 59.221858978 2.4037899971 2.4037899971
 3053.4741211 13.000000000 1.3531619310 9.8531618118 8.5000000000 0.0213186406 0.1993636936 2.6284029484 49.714111328 83.343528748 83.557800293 2.7015709877 59.130210876 2.4638159275 2.4638159275
 3053.6264648 13.000000000 1.3640550375 9.8640546799 8.5000000000 0.0201709401 0.2064092010 2.6264009476 51.637420654 85.384536743 85.426200867 2.7071740627 58.922100067 2.5159320831 2.5159320831
