# LAS format log file from PETREL
# Project units are specified as depth units
#==================================================================
~Version information
VERS.   2.0:
WRAP.   NO:
#==================================================================
~Well
STRT .m      1910.3216553 :
STOP .m      4062.5144043 :
STEP .m     0.00000000 :
NULL .        -999.250000 :
COMP.           : COMPANY
WELL.  25/4-1  Heimdal   : WELL
FLD.            : FIELD
LOC.            : LOCATION
SRVC.           : SERVICE COMPANY
DATE.  2018-09-11 14:48:19   : Log Export Date {yyyy-MM-dd HH:mm:ss}
PROV.           : PROVINCE
UWI.   25/4-1   : UNIQUE WELL ID
API.            : API NUMBER
#==================================================================
~Curve
DEPT .m                   : DEPTH
Lithology_geolink ._      : Lithology_geolink
DCAL .in                  : DCAL
CALI .in                  : CALI
BS .in                    : BS
DRHO .g/cm3               : DRHO
NPHI .m3/m3               : NPHI
RHOB .g/cm3               : RHOB
GR .gAPI                  : GR
DTC .us/ft                : DTC
DTE .us/ft                : DTE
RDEP .ohm.m               : RDEP
SP .mV                    : SP
RSHA .ohm.m               : RSHA
RMED .ohm.m               : RMED
~Parameter
#==================================================================
~Ascii
# ...
 2766.3525391 13.000000000 0.0239314996 12.273929596 12.250000954  -999.250000  -999.250000  -999.250000 72.189468384 77.151313782 77.108703613 3.8088340759 56.243389130 4.0921959877 4.0921959877
 2766.5048828 13.000000000 0.0208587609 12.270859718 12.250000954  -999.250000  -999.250000  -999.250000 73.863410950 78.229606628 78.013496399 3.7004449368 56.252998352 4.0623240471 4.0623240471
 2766.6572266 13.000000000 0.0177812595 12.267780304 12.250000954  -999.250000  -999.250000  -999.250000 72.886383057 78.707130432 78.693901062 3.6281630993 56.211158752 4.0197520256 4.0197520256
 2766.8095703 13.000000000 0.0147046996 12.264699936 12.250000954  -999.250000  -999.250000  -999.250000 69.904716492 79.184188843 79.084709167 3.6067910194 56.190010071 3.9991989136 3.9991989136
 2766.9621582 13.000000000 0.0116529502 12.261650085 12.250000954  -999.250000  -999.250000  -999.250000 66.007583618 79.184188843 79.131797791 3.6449129581 56.230800629 3.9976000786 3.9976000786
 2767.1145020 13.000000000 0.0221996326 12.272199631 12.250000954  -999.250000  -999.250000  -999.250000 61.226951599 77.629737854 77.739501953 3.8172709942 56.196601868 4.0374889374 4.0374889374
 2767.2668457 13.000000000 0.0389986001 12.288999557 12.250000954  -999.250000  -999.250000  -999.250000 55.819881439 75.368782043 75.624496460 4.0788869858 56.113170624 4.1359820366 4.1359820366
 2767.4191895 13.000000000 0.0562458001 12.306249619 12.250000954  -999.250000  -999.250000  -999.250000 50.640491486 72.505729675 72.496803284 4.3986339569 56.027389526 4.2321190834 4.2321190834
 2767.5717773 13.000000000 0.0734701231 12.323470116 12.250000954  -999.250000  -999.250000  -999.250000 47.311820984 68.694343567 68.721199036 4.8178501129 55.943450928 4.3334589005 4.3334589005
 2767.7241211 13.000000000 0.0838622972 12.333860397 12.250000954  -999.250000  -999.250000  -999.250000 47.274250031 65.724861145 65.670196533 5.3032917976 55.890598297 4.4473109245 4.4473109245
 2767.8764648 13.000000000 0.0835580751 12.333559990 12.250000954  -999.250000  -999.250000  -999.250000 50.843788147 65.827751160 65.534202576 5.8474731445 55.885398865 4.5781931877 4.5781931877
 2768.0288086 13.000000000 0.0823574066 12.332360268 12.250000954  -999.250000  -999.250000  -999.250000 56.517070770 67.258819580 67.418403625 6.3475360870 55.881000519 4.7067770958 4.7067770958
 2768.1813965 13.000000000 0.0811576769 12.331158638 12.250000954  -999.250000  -999.250000  -999.250000 61.195350647 71.070083618 71.147399902 6.8662261963 55.875999451 4.8173699379 4.8173699379
 2768.3337402 13.000000000 0.0799598619 12.329959869 12.250000954  -999.250000  -999.250000  -999.250000 62.308818817 73.340408325 73.174003601 7.3485698700 55.870998383 4.8950681686 4.8950681686
 2768.4860840 13.000000000 0.0787582248 12.328759193 12.250000954  -999.250000  -999.250000  -999.250000 60.648231506 71.552993774 71.694801331 7.5755019188 55.865600586 4.9380002022 4.9380002022
 2768.6384277 13.000000000 0.0775575563 12.327560425 12.250000954  -999.250000  -999.250000  -999.250000 59.863239288 70.121162415 70.012100220 7.3913531303 55.828819275 4.9485878944 4.9485878944
 2768.7907715 13.000000000 0.0763568878 12.326359749 12.250000954  -999.250000  -999.250000  -999.250000 61.536209106 70.120903015 69.854698181 7.0539832115 55.773811340 4.9783129692 4.9783129692
 2768.9433594 13.000000000 0.0751724169 12.325169563 12.250000954  -999.250000  -999.250000  -999.250000 63.797039032 70.120903015 70.041198730 6.7970681190 55.670101166 4.9815349579 4.9815349579
 2769.0957031 13.000000000 0.0785055235 12.328509331 12.250000954  -999.250000  -999.250000  -999.250000 64.827186584 71.912483215 71.990997314 6.7091989517 55.494400024 4.9341840744 4.9341840744
 2769.2480469 13.000000000 0.0946550369 12.344658852 12.250000954  -999.250000  -999.250000  -999.250000 65.487297058 74.413330078 74.358100891 6.7389359474 55.450599670 4.9079771042 4.9079771042
 2769.4003906 13.000000000 0.1119080037 12.361910820 12.250000954  -999.250000  -999.250000  -999.250000 65.835166931 76.322189331 76.607299805 6.8009591103 55.480400085 4.8660850525 4.8660850525
 2769.5529785 13.000000000 0.1291590035 12.379159927 12.250000954  -999.250000  -999.250000  -999.250000 64.503562927 77.751426697 77.577697754 6.8242039680 55.514999390 4.8075718880 4.8075718880
 2769.7053223 13.000000000 0.1463633031 12.396360397 12.250000954  -999.250000  -999.250000  -999.250000 62.071960449 77.628791809 77.733802795 6.7438879013 55.478008270 4.7551131248 4.7551131248
 2769.8576660 13.000000000 0.1411581039 12.391160011 12.250000954  -999.250000  -999.250000  -999.250000 60.435249329 76.799461365 76.880096436 6.5779337883 55.414188385 4.6934919357 4.6934919357
 2770.0100098 13.000000000 0.1325712055 12.382570267 12.250000954  -999.250000  -999.250000  -999.250000 59.609260559 75.845161438 75.858100891 6.4719800949 55.379398346 4.6405591965 4.6405591965
 2770.1625977 13.000000000 0.1244020015 12.374401093 12.250000954  -999.250000  -999.250000  -999.250000 58.685359955 75.845100403 76.147300720 6.4816398621 55.377960205 4.5991821289 4.5991821289
 2770.3149414 13.000000000 0.1176194996 12.367621422 12.250000954  -999.250000  -999.250000  -999.250000 57.312820435 77.151283264 77.257896423 6.5977878571 55.436580658 4.5623860359 4.5623860359
 2770.4672852 13.000000000 0.1109666973 12.360969543 12.250000954  -999.250000  -999.250000  -999.250000 55.255638123 78.229598999 78.273399353 6.7821321487 55.505001068 4.5317678452 4.5317678452
 2770.6196289 13.000000000 0.1043033972 12.354298592 12.250000954  -999.250000  -999.250000  -999.250000 53.571849823 77.991737366 77.661300659 6.9558458328 55.618370056 4.4923448563 4.4923448563
 2770.7719727 13.000000000 0.0976409838 12.347639084 12.250000954  -999.250000  -999.250000  -999.250000 52.559810638 76.798927307 76.617599487 7.0565328598 55.783679962 4.4546041489 4.4546041489
 2770.9245605 13.000000000 0.0909776688 12.340979576 12.250000954  -999.250000  -999.250000  -999.250000 52.512531281 75.846107483 75.958808899 7.0750021935 55.904769897 4.4331960678 4.4331960678
 2771.0769043 13.000000000 0.0843048170 12.334300041 12.250000954  -999.250000  -999.250000  -999.250000 54.253059387 75.723876953 76.016403198 7.0841507912 55.943000793 4.4115900993 4.4115900993
 2771.2292480 13.000000000 0.0776405334 12.327639580 12.250000954  -999.250000  -999.250000  -999.250000 57.478179932 76.798767090 76.485298157 7.1291918755 55.966018677 4.3853578568 4.3853578568
 2771.3815918 13.000000000 0.0709781572 12.320979118 12.250000954  -999.250000  -999.250000  -999.250000 60.377540588 77.276100159 77.300003052 7.1482000351 56.044200897 4.3617978096 4.3617978096
 2771.5341797 13.000000000 0.0643148422 12.314310074 12.250000954  -999.250000  -999.250000  -999.250000 62.787151337 77.276100159 77.420196533 7.1313948631 56.176898956 4.3429851532 4.3429851532
 2771.6865234 13.000000000 0.0576629601 12.307660103 12.250000954  -999.250000  -999.250000  -999.250000 64.336639404 77.152603149 77.213798523 7.0755019188 56.229228973 4.3131899834 4.3131899834
 2771.8388672 13.000000000 0.0537643358 12.303759575 12.250000954  -999.250000  -999.250000  -999.250000 65.067680359 77.752830505 77.477409363 6.9742779732 56.085369110 4.2835450172 4.2835450172
 2771.9912109 13.000000000 0.0557422601 12.305740356 12.250000954  -999.250000  -999.250000  -999.250000 65.214416504 77.753097534 77.921096802 6.8380451202 55.924411774 4.2485818863 4.2485818863
 2772.1437988 13.000000000 0.0582170486 12.308219910 12.250000954  -999.250000  -999.250000  -999.250000 64.960563660 79.658699036 79.338211060 6.6941227913 55.741310120 4.2181859016 4.2181859016
 2772.2961426 13.000000000 0.0606937371 12.310688972 12.250000954  -999.250000  -999.250000  -999.250000 65.371192932 80.009666443 80.229301453 6.5504660606 55.572650909 4.1795639992 4.1795639992
 2772.4484863 13.000000000 0.0631732866 12.313169479 12.250000954  -999.250000  -999.250000  -999.250000 66.364631653 81.091590881 81.011100769 6.4074048996 55.403991699 4.1300830841 4.1300830841
