# LAS format log file from PETREL
# Project units are specified as depth units
#==================================================================
~Version information
VERS.   2.0:
WRAP.   NO:
#==================================================================
~Well
STRT .m      1910.3216553 :
STOP .m      4062.5144043 :
STEP .m     0.00000000 :
NULL .        -999.250000 :
COMP.           : COMPANY
WELL.  25/4-1  Heimdal   : WELL
FLD.            : FIELD
LOC.            : LOCATION
SRVC.           : SERVICE COMPANY
DATE.  2018-09-11 14:48:19   : Log Export Date {yyyy-MM-dd HH:mm:ss}
PROV.           : PROVINCE
UWI.   25/4-1   : UNIQUE WELL ID
API.            : API NUMBER
#==================================================================
~Curve
DEPT .m                   : DEPTH
Lithology_geolink ._      : Lithology_geolink
DCAL .in                  : DCAL
CALI .in                  : CALI
BS .in                    : BS
DRHO .g/cm3               : DRHO
NPHI .m3/m3               : NPHI
RHOB .g/cm3               : RHOB
GR .gAPI                  : GR
DTC .us/ft                : DTC
DTE .us/ft                : DTE
RDEP .ohm.m               : RDEP
SP .mV                    : SP
RSHA .ohm.m               : RSHA
RMED .ohm.m               : RMED
~Parameter
#==================================================================
~Ascii
# ...
 2910.0656738 13.000000000 -0.116298698 12.133700371 12.250000954  -999.250000  -999.250000  -999.250000 61.647708893 91.109657288 91.382400513 1.7391799688 57.805210114 1.9664000273 1.9664000273
 2910.2180176 13.000000000 -0.125000998 12.125000000 12.250000954  -999.250000  -999.250000  -999.250000 62.304508209 89.678672791 89.656791687 1.7571870089 57.809970856 1.9673999548 1.9673999548
 2910.3703613 13.000000000 -0.133703202 12.116298676 12.250000954  -999.250000  -999.250000  -999.250000 62.742450714 87.770133972 87.809600830 1.7755800486 57.756580353 1.9684000015 1.9684000015
 2910.5229492 13.000000000 -0.142404601 12.107600212 12.250000954  -999.250000  -999.250000  -999.250000 62.889179230 86.678565979 86.616401672 1.7945690155 57.691818237 1.9665999413 1.9665999413
 2910.6752930 13.000000000 -0.151093498 12.098909378 12.250000954  -999.250000  -999.250000  -999.250000 62.774391174 86.816307068 86.764099121 1.8179420233 57.652000427 1.9597959518 1.9597959518
 2910.8276367 13.000000000 -0.159959778 12.090041161 12.250000954  -999.250000  -999.250000  -999.250000 62.461509705 87.770164490 87.559196472 1.8487459421 57.646999359 1.9521939754 1.9521939754
 2910.9799805 13.000000000 -0.168914795 12.081089020 12.250000954  -999.250000  -999.250000  -999.250000 62.365409851 87.293342590 87.497802734 1.8715959787 57.641601563 1.9467990398 1.9467990398
 2911.1325684 13.000000000 -0.177877411 12.072119713 12.250000954  -999.250000  -999.250000  -999.250000 62.594200134 86.816932678 86.827003479 1.8758009672 57.636001587 1.9445999861 1.9445999861
 2911.2849121 13.000000000 -0.186851487 12.063150406 12.250000954  -999.250000  -999.250000  -999.250000 63.269100189 87.153450012 86.862197876 1.8501789570 57.608200073 1.9431999922 1.9431999922
 2911.4372559 13.000000000 -0.195747420 12.054249763 12.250000954  -999.250000  -999.250000  -999.250000 64.512229919 87.293350220 87.554496765 1.7923740149 57.504150391 1.9415999651 1.9415999651
 2911.5895996 13.000000000 -0.178057700 12.071939468 12.250000954  -999.250000  -999.250000  -999.250000 65.946403503 89.201507568 89.086303711 1.7416720390 57.332401276 1.9265190363 1.9265190363
 2911.7421875 13.000000000 -0.148158997 12.101840973 12.250000954  -999.250000  -999.250000  -999.250000 66.849983215 90.630737305 90.356697083 1.6921869516 57.139530182 1.8885170221 1.8885170221
 2911.8945313 13.000000000 -0.117423989 12.132580757 12.250000954  -999.250000  -999.250000  -999.250000 67.052406311 91.439315796 91.462799072 1.6327470541 56.991809845 1.8575869799 1.8575869799
 2912.0468750 13.000000000 -0.097015381 12.152979851 12.250000954  -999.250000  -999.250000  -999.250000 66.748497009 92.063293457 92.339500427 1.5865449905 56.964199066 1.8331049681 1.8331049681
 2912.1992188 13.000000000 -0.085206032 12.164789200 12.250000954  -999.250000  -999.250000  -999.250000 66.571693420 93.017486572 92.927398682 1.5665849447 56.964000702 1.8009450436 1.8009450436
 2912.3515625 13.000000000 -0.088426597 12.161569595 12.250000954  -999.250000  -999.250000  -999.250000 67.216201782 93.017677307 93.081199646 1.5555880070 57.039051056 1.7855999470 1.7855999470
 2912.5041504 13.000000000 -0.094252594 12.155749321 12.250000954  -999.250000  -999.250000  -999.250000 67.546531677 93.344680786 93.056999207 1.5441930294 57.227939606 1.7765769958 1.7765769958
 2912.6564941 13.000000000 -0.100202598 12.149800301 12.250000954  -999.250000  -999.250000  -999.250000 67.181190491 93.017807007 93.083099365 1.5349980593 57.354801178 1.7595920563 1.7595920563
 2912.8088379 13.000000000 -0.106176399 12.143819809 12.250000954  -999.250000  -999.250000  -999.250000 66.882713318 93.017593384 93.102500916 1.5299960375 57.383399963 1.7481850386 1.7481850386
 2912.9611816 13.000000000 -0.123390198 12.126609802 12.250000954  -999.250000  -999.250000  -999.250000 66.736793518 93.494598389 93.380599976 1.5253980160 57.334789276 1.7405999899 1.7405999899
 2913.1137695 13.000000000 -0.142349198 12.107649803 12.250000954  -999.250000  -999.250000  -999.250000 66.371597290 93.494598389 93.593200684 1.5214010477 57.255809784 1.7395999432 1.7395999432
 2913.2661133 13.000000000 -0.161313996 12.088689804 12.250000954  -999.250000  -999.250000  -999.250000 65.623458862 93.345123291 93.658798218 1.5173989534 57.308780670 1.7305719852 1.7305719852
 2913.4184570 13.000000000 -0.173259720 12.076740265 12.250000954  -999.250000  -999.250000  -999.250000 65.268600464 93.494537354 93.531097412 1.5133980513 57.398799896 1.7095630169 1.7095630169
 2913.5708008 13.000000000 -0.180302605 12.069699287 12.250000954  -999.250000  -999.250000  -999.250000 65.832786560 93.494598389 93.432098389 1.5093990564 57.395000458 1.6962000132 1.6962000132
 2913.7233887 13.000000000 -0.186963096 12.063040733 12.250000954  -999.250000  -999.250000  -999.250000 67.020896912 93.494598389 93.470901489 1.5073989630 57.389999390 1.7025630474 1.7025630474
 2913.8757324 13.000000000 -0.193624496 12.056380272 12.250000954  -999.250000  -999.250000  -999.250000 67.736671448 93.820922852 93.619400024 1.5087989569 57.416580200 1.7136000395 1.7136000395
 2914.0280762 13.000000000 -0.200296387 12.049699783 12.250000954  -999.250000  -999.250000  -999.250000 68.137222290 93.494758606 93.738792419 1.5108000040 57.442188263 1.7121989727 1.7121989727
 2914.1804199 13.000000000 -0.206959695 12.043040276 12.250000954  -999.250000  -999.250000  -999.250000 68.427940369 93.971534729 93.923492432 1.5127990246 57.378410339 1.7025719881 1.7025719881
 2914.3327637 13.000000000 -0.213621095 12.036381721 12.250000954  -999.250000  -999.250000  -999.250000 68.978492737 93.971572876 93.806198120 1.5143990517 57.272689819 1.6896009445 1.6896009445
 2914.4853516 13.000000000 -0.220281616 12.029720306 12.250000954  -999.250000  -999.250000  -999.250000 69.689537048 93.821350098 93.752693176 1.5157990456 57.149639130 1.6897989511 1.6897989511
 2914.6376953 13.000000000 -0.226933509 12.023070335 12.250000954  -999.250000  -999.250000  -999.250000 70.579406738 93.494796753 93.734596252 1.5189980268 57.089401245 1.6973819733 1.6973819733
 2914.7900391 13.000000000 -0.233592004 12.016408920 12.250000954  -999.250000  -999.250000  -999.250000 71.901603699 93.494598389 93.563598633 1.5243990421 57.244338989 1.7061990499 1.7061990499
 2914.9423828 13.000000000 -0.238748595 12.011248589 12.250000954  -999.250000  -999.250000  -999.250000 73.543998718 93.494537354 93.379501343 1.5315949917 57.337169647 1.7141660452 1.7141660452
 2915.0949707 13.000000000 -0.237155899 12.012839317 12.250000954  -999.250000  -999.250000  -999.250000 74.602592468 93.018142700 92.984001160 1.5409870148 57.159591675 1.7260010242 1.7260010242
 2915.2473145 13.000000000 -0.234972998 12.015029907 12.250000954  -999.250000  -999.250000  -999.250000 74.484832764 92.392967224 92.287002563 1.5505930185 57.153610229 1.7245980501 1.7245980501
 2915.3996582 13.000000000 -0.232795686 12.017199516 12.250000954  -999.250000  -999.250000  -999.250000 74.267387390 91.586807251 91.395301819 1.5603940487 57.142208099 1.7321920395 1.7321920395
 2915.5520020 13.000000000 -0.230616614 12.019379616 12.250000954  -999.250000  -999.250000  -999.250000 74.134407043 91.109497070 91.122398376 1.5741750002 57.203800201 1.7499569654 1.7499569654
 2915.7045898 13.000000000 -0.228438437 12.021559715 12.250000954  -999.250000  -999.250000  -999.250000 74.043518066 91.585906982 91.556503296 1.5933539867 57.317298889 1.7697830200 1.7697830200
 2915.8569336 13.000000000 -0.226259187 12.023739815 12.250000954  -999.250000  -999.250000  -999.250000 74.411628723 91.915908813 92.082901001 1.6115820408 57.441181183 1.7766000032 1.7766000032
 2916.0092773 13.000000000 -0.224084899 12.025919914 12.250000954  -999.250000  -999.250000  -999.250000 75.201919556 92.778656006 92.575599670 1.6251889467 57.476398468 1.7755999565 1.7755999565
 2916.1616211 13.000000000 -0.221905693 12.028090477 12.250000954  -999.250000  -999.250000  -999.250000 76.255828857 93.017570496 93.094497681 1.6397769451 57.465999603 1.7746000290 1.7746000290
