# LAS format log file from PETREL
# Project units are specified as depth units
#==================================================================
~Version information
VERS.   2.0:
WRAP.   NO:
#==================================================================
~Well
STRT .m      1910.3216553 :
STOP .m      4062.5144043 :
STEP .m     0.00000000 :
NULL .        -999.250000 :
COMP.           : COMPANY
WELL.  25/4-1  Heimdal   : WELL
FLD.            : FIELD
LOC.            : LOCATION
SRVC.           : SERVICE COMPANY
DATE.  2018-09-11 14:48:19   : Log Export Date {yyyy-MM-dd HH:mm:ss}
PROV.           : PROVINCE
UWI.   25/4-1   : UNIQUE WELL ID
API.            : API NUMBER
#==================================================================
~Curve
DEPT .m                   : DEPTH
Lithology_geolink ._      : Lithology_geolink
DCAL .in                  : DCAL
CALI .in                  : CALI
BS .in                    : BS
DRHO .g/cm3               : DRHO
NPHI .m3/m3               : NPHI
RHOB .g/cm3               : RHOB
GR .gAPI                  : GR
DTC .us/ft                : DTC
DTE .us/ft                : DTE
RDEP .ohm.m               : RDEP
SP .mV                    : SP
RSHA .ohm.m               : RSHA
RMED .ohm.m               : RMED
~Parameter
#==================================================================
~Ascii
# ...
 4047.2744141  -999.250000 -0.060793400 5.9392070770 5.9999995232  -999.250000  -999.250000  -999.250000 117.38829803 78.945663452 69.898101807 6.4806389809 57.186592102 8.0061178207 8.0061178207
 4047.4267578  -999.250000 -0.057389736 5.9426102638 5.9999995232  -999.250000  -999.250000  -999.250000 123.17299652 81.808288574 72.323799133 5.9603347778 57.047096252 7.6790399551 7.6790399551
 4047.5791016  -999.250000 -0.053791050 5.9462094307 5.9999995232  -999.250000  -999.250000  -999.250000 118.86550140 83.581207275 74.433403015 5.5357480049 56.209262848 7.4091348648 7.4091348648
 4047.7314453  -999.250000 -0.052402500 5.9475979805 5.9999995232  -999.250000  -999.250000  -999.250000 116.49530029 82.521606445 73.040100098 5.2949500084 55.314777374 7.2977781296 7.2977781296
 4047.8840332  -999.250000 -0.054608345 5.9453921318 5.9999995232  -999.250000  -999.250000  -999.250000 116.06379700 80.854057312 71.282798767 5.2414450645 54.870018005 7.3134608269 7.3134608269
 4048.0363770  -999.250000 -0.058609489 5.9413909912 5.9999995232  -999.250000  -999.250000  -999.250000 115.51180267 80.376747131 71.321800232 5.3209309578 54.957088470 7.3652811050 7.3652811050
 4048.1887207  -999.250000 -0.062208176 5.9377918243 5.9999995232  -999.250000  -999.250000  -999.250000 114.68789673 80.724464417 71.429100037 5.4470148087 55.298641205 7.4179000854 7.4179000854
 4048.3410645  -999.250000 -0.065612324 5.9343881607 5.9999995232  -999.250000  -999.250000  -999.250000 114.71910095 80.853691101 71.538101196 5.5539088249 55.271877289 7.4687151909 7.4687151909
 4048.4936523  -999.250000 -0.069208622 5.9307904243 5.9999995232  -999.250000  -999.250000  -999.250000 116.08959961 80.853691101 71.590499878 5.6264910698 55.048809052 7.5160970688 7.5160970688
 4048.6459961  -999.250000 -0.072608948 5.9273915291 5.9999995232  -999.250000  -999.250000  -999.250000 117.75209808 80.853691101 71.595901489 5.6790609360 55.296154022 7.5598669052 7.5598669052
 4048.7983398  -999.250000 -0.076610573 5.9233894348 5.9999995232  -999.250000  -999.250000  -999.250000 118.86949921 80.853843689 71.597702026 5.7408809662 55.808418274 7.6083002090 7.6083002090
 4048.9506836  -999.250000 -0.080208778 5.9197912216 5.9999995232  -999.250000  -999.250000  -999.250000 119.35140228 81.200698853 71.690902710 5.8629941940 56.008300781 7.6779432297 7.6779432297
 4049.1032715  -999.250000 -0.083611012 5.9163885117 5.9999995232  -999.250000  -999.250000  -999.250000 119.92919922 81.330642700 72.019699097 6.1178407669 55.884307861 7.7709169388 7.7709169388
 4049.2556152  -999.250000 -0.087206364 5.9127941132 5.9999995232  -999.250000  -999.250000  -999.250000 120.82189941 81.330703735 72.186599731 6.4716582298 55.719154358 7.8788418770 7.8788418770
 4049.4079590  -999.250000 -0.090610020 5.9093899727 5.9999995232  -999.250000  -999.250000  -999.250000 121.76580048 82.284767151 72.660797119 6.8549981117 55.552158356 8.0114269257 8.0114269257
 4049.5603027  -999.250000 -0.093805790 5.9061942101 5.9999995232  -999.250000  -999.250000  -999.250000 121.81639862 82.152877808 73.058601379 7.2903251648 55.350955963 8.1834011078 8.1834011078
 4049.7126465  -999.250000 -0.093791969 5.9062080383 5.9999995232  -999.250000  -999.250000  -999.250000 121.14849854 81.807319641 72.575599670 7.7956328392 55.265880585 8.3813457489 8.3813457489
 4049.8652344  -999.250000 -0.090794086 5.9092054367 5.9999995232  -999.250000  -999.250000  -999.250000 121.12539673 81.330810547 71.757896423 8.3280496597 55.434329987 8.5913524628 8.5913524628
 4050.0175781  -999.250000 -0.087390423 5.9126100540 5.9999995232  -999.250000  -999.250000  -999.250000 121.77700043 80.376213074 70.956100464 8.9337320328 55.689243317 8.8431320190 8.8431320190
 4050.1699219  -999.250000 -0.083791733 5.9162082672 5.9999995232  -999.250000  -999.250000  -999.250000 122.05100250 76.912628174 67.927497864 10.127940178 55.713752747 9.1356973648 9.1356973648
 4050.3222656  -999.250000 -0.080790520 5.9192094803 5.9999995232  -999.250000  -999.250000  -999.250000 121.32640076 73.459373474 63.806999207 12.240559578 55.308559418 9.3932971954 9.3932971954
 4050.4748535  -999.250000 -0.077791691 5.9222073555 5.9999995232  -999.250000  -999.250000  -999.250000 120.22910309 72.744750977 63.092098236 14.263480186 54.471302032 9.5805387497 9.5805387497
 4050.6271973  -999.250000 -0.074390888 5.9256091118 5.9999995232  -999.250000  -999.250000  -999.250000 119.28009796 70.836486816 61.883304596 15.593379974 53.390830994 9.7264852524 9.7264852524
 4050.7795410  -999.250000 -0.070792198 5.9292078018 5.9999995232  -999.250000  -999.250000  -999.250000 118.58660126 70.359268188 60.778999329 16.276830673 52.514804840 9.8403377533 9.8403377533
 4050.9318848  -999.250000 -0.067790993 5.9322099686 5.9999995232  -999.250000  -999.250000  -999.250000 118.39240265 69.770317078 60.394798279 16.101999283 52.500511169 9.9062852859 9.9062852859
 4051.0844727  -999.250000 -0.064791679 5.9352073669 5.9999995232  -999.250000  -999.250000  -999.250000 118.60679626 69.405578613 60.143505096 15.257760048 53.503120422 9.9183435440 9.9183435440
 4051.2368164  -999.250000 -0.062195778 5.9378037453 5.9999995232  -999.250000  -999.250000  -999.250000 118.83190155 70.836349487 61.611999512 14.033470154 54.674602509 9.8787899017 9.8787899017
 4051.3891602  -999.250000 -0.062207695 5.9377918243 5.9999995232  -999.250000  -999.250000  -999.250000 118.82890320 75.608062744 66.574798584 12.707960129 55.498939514 9.7893333435 9.7893333435
 4051.5415039  -999.250000 -0.065611362 5.9343895912 5.9999995232  -999.250000  -999.250000  -999.250000 117.63159943 81.198577881 71.613899231 11.477379799 56.164722443 9.6509647369 9.6509647369
 4051.6938477  -999.250000 -0.069207668 5.9307923317 5.9999995232  -999.250000  -999.250000  -999.250000 116.49169922 77.990272522 68.801101685 10.353610039 56.524238586 9.4744548798 9.4744548798
 4051.8464355  -999.250000 -0.072206020 5.9277939796 5.9999995232  -999.250000  -999.250000  -999.250000 116.93370056 76.560943604 67.336196899 9.2951660156 56.598632813 9.3030309677 9.3030309677
 4051.9987793  -999.250000 -0.075207233 5.9247927666 5.9999995232  -999.250000  -999.250000  -999.250000 115.85230255 77.037582397 67.643096924 8.3519840240 56.793178558 9.1857471466 9.1857471466
 4052.1511230  -999.250000 -0.078610897 5.9213895798 5.9999995232  -999.250000  -999.250000  -999.250000 114.06939697 76.914222717 67.568000793 7.6698751450 57.165821075 9.1341485977 9.1341485977
 4052.3034668  -999.250000 -0.082209110 5.9177908897 5.9999995232  -999.250000  -999.250000  -999.250000 113.83560181 76.561019897 67.559700012 7.3450851440 57.458812714 9.1328611374 9.1328611374
 4052.4560547  -999.250000 -0.085208423 5.9147920609 5.9999995232  -999.250000  -999.250000  -999.250000 114.65209961 77.037429810 67.470100403 7.3169231415 57.599216461 9.1697216034 9.1697216034
 4052.6083984  -999.250000 -0.088206761 5.9117932320 5.9999995232  -999.250000  -999.250000  -999.250000 115.22419739 76.560600281 67.429702759 7.3802499771 57.636867523 9.2434968948 9.2434968948
 4052.7607422  -999.250000 -0.091610432 5.9083900452 5.9999995232  -999.250000  -999.250000  -999.250000 114.95980072 77.037010193 67.390296936 7.3982071877 57.422462463 9.3455324173 9.3455324173
 4052.9130859  -999.250000 -0.095209114 5.9047908783 5.9999995232  -999.250000  -999.250000  -999.250000 116.19689941 75.486228943 66.227699280 7.4229178429 56.944953918 9.4493675232 9.4493675232
 4053.0656738  -999.250000 -0.098207958 5.9017920494 5.9999995232  -999.250000  -999.250000  -999.250000 118.08589935 76.321693420 66.673599243 7.4871129990 56.674251556 9.5243015289 9.5243015289
 4053.2180176  -999.250000 -0.101206303 5.8987941742 5.9999995232  -999.250000  -999.250000  -999.250000 119.17230225 76.560569763 67.200897217 7.5424451828 56.694648743 9.5461597443 9.5461597443
 4053.3703613  -999.250000 -0.104207501 5.8957924843 5.9999995232  -999.250000  -999.250000  -999.250000 119.08799744 76.560806274 67.407699585 7.5551819801 56.710609436 9.4992685318 9.4992685318
