# LAS format log file from PETREL
# Project units are specified as depth units
#==================================================================
~Version information
VERS.   2.0:
WRAP.   NO:
#==================================================================
~Well
STRT .m      1910.3216553 :
STOP .m      4062.5144043 :
STEP .m     0.00000000 :
NULL .        -999.250000 :
COMP.           : COMPANY
WELL.  25/4-1  Heimdal   : WELL
FLD.            : FIELD
LOC.            : LOCATION
SRVC.           : SERVICE COMPANY
DATE.  2018-09-11 14:48:19   : Log Export Date {yyyy-MM-dd HH:mm:ss}
PROV.           : PROVINCE
UWI.   25/4-1   : UNIQUE WELL ID
API.            : API NUMBER
#==================================================================
~Curve
DEPT .m                   : DEPTH
Lithology_geolink ._      : Lithology_geolink
DCAL .in                  : DCAL
CALI .in                  : CALI
BS .in                    : BS
DRHO .g/cm3               : DRHO
NPHI .m3/m3               : NPHI
RHOB .g/cm3               : RHOB
GR .gAPI                  : GR
DTC .us/ft                : DTC
DTE .us/ft                : DTE
RDEP .ohm.m               : RDEP
SP .mV                    : SP
RSHA .ohm.m               : RSHA
RMED .ohm.m               : RMED
~Parameter
#==================================================================
~Ascii
# ...
 3334.9567871 6.0000000000 0.0782508925 8.5782508850 8.5000000000 0.0225138105 0.5385559201 2.3201060295 94.792556763 97.788108826 93.671806335 5.8082461357 60.554759979 6.8136758804 6.8136758804
 3335.1091309 6.0000000000 0.0743846893 8.5743846893 8.5000000000 0.0168215893 0.4953720868 2.3876340389 99.046432495 102.55729675 98.320503235 5.7319521904 60.810691833 6.9108538628 6.9108538628
 3335.2617188 6.0000000000 0.0705118179 8.5705118179 8.5000000000 0.0126185799 0.4706301987 2.4631409645 103.50430298 101.44208527 97.137702942 5.6873459816 61.200489044 7.0507750511 7.0507750511
 3335.4140625 6.0000000000 0.0666399002 8.5666399002 8.5000000000 0.0058516669 0.4445306957 2.5062820911 106.91490173 93.974670410 89.739501953 5.7123928070 61.555210114 7.2145838737 7.2145838737
 3335.5664063 6.0000000000 0.0627736971 8.5627737045 8.5000000000 0.0029964170 0.4017724991 2.5106000900 109.16590118 88.486122131 84.506599426 5.8434681892 61.852741241 7.3934931755 7.3934931755
 3335.7187500 6.0000000000 0.0589094199 8.5589094162 8.5000000000 0.0060263090 0.3510799110 2.4986920357 108.35109711 84.430793762 80.159301758 6.0603718758 62.047519684 7.5560398102 7.5560398102
 3335.8713379 6.0000000000 0.0551996157 8.5551996231 8.5000000000 0.0097120358 0.3137542009 2.4756209850 101.97879791 82.868911743 78.512001038 6.3730878830 62.147148132 7.6830739975 7.6830739975
 3336.0236816 6.0000000000 0.0520210303 8.5520210266 8.5000000000 0.0111973798 0.2927241027 2.4363210201 91.298896790 83.000228882 78.525810242 6.7806811333 62.155471802 7.7650480270 7.7650480270
 3336.1760254 6.0000000000 0.0494575500 8.5494575500 8.5000000000 0.0145245800 0.2795138061 2.3846089840 79.941703796 84.431060791 80.347999573 7.1125330925 62.003849030 7.8192658424 7.8192658424
 3336.3283691 5.0000000000 0.0471496582 8.5471496582 8.5000000000 0.0157216806 0.2740375102 2.3350958824 71.910957336 87.771621704 83.573501587 7.2364139557 61.752231598 7.8654689789 7.8654689789
 3336.4807129 5.0000000000 0.0448598936 8.5448598862 8.5000000000 0.0047354461 0.2719298005 2.3163080215 71.280563354 93.823730469 89.614303589 7.1646142006 61.660449982 7.8890109062 7.8890109062
 3336.6333008 5.0000000000 0.0425672494 8.5425672531 8.5000000000 -0.012711240 0.2699424028 2.3305900097 73.930633545 98.261756897 93.720802307 6.9175090790 61.979579926 7.8823537827 7.8823537827
 3336.7856445 5.0000000000 0.0402717628 8.5402717590 8.5000000000 -0.026537661 0.2627489865 2.3448960781 75.711952209 99.695381165 95.643600464 6.5640110970 62.528469086 7.8494777679 7.8494777679
 3336.9379883 5.0000000000 0.0379800797 8.5379800797 8.5000000000 -0.031562671 0.2562234104 2.3489999771 74.598922729 100.17259979 95.924697876 6.2096772194 62.786758423 7.8127379417 7.8127379417
 3337.0903320 5.0000000000 0.0356893502 8.5356893539 8.5000000000 -0.025262170 0.2570987940 2.3561079502 71.648391724 97.547973633 93.390701294 5.9169850349 62.718814850 7.7727589607 7.7727589607
 3337.2429199 5.0000000000 0.0313177109 8.5313177109 8.5000000000 -0.016122710 0.2613263130 2.3738863468 68.308898926 94.775878906 90.264602661 5.6648879051 62.505229950 7.6712479591 7.6712479591
 3337.3952637 5.0000000000 0.0044441218 8.5044441223 8.5000000000 -0.013741871 0.2684580982 2.3949909210 64.726356506 92.541526794 88.355201721 5.4202780724 62.172561646 7.5175518990 7.5175518990
 3337.5476074 5.0000000000 -0.059123039 8.4408769608 8.5000000000 -0.013600000 0.2787851989 2.4210989475 62.117160797 91.109573364 86.767700195 5.1953959465 61.848178864 7.3650808334 7.3650808334
 3337.6999512 5.0000000000 -0.140191093 8.3598089218 8.5000000000 -0.007608334 0.2923120856 2.4600119591 61.261108398 89.678451538 85.731101990 5.0410170555 61.574329376 7.1981339455 7.1981339455
 3337.8525391 5.0000000000 -0.209381118 8.2906188965 8.5000000000 0.0016605590 0.3033643961 2.4989650249 61.472930908 89.535133362 85.192703247 4.9934129715 61.369918823 7.0417289734 7.0417289734
 3338.0048828 5.0000000000 -0.235064492 8.2649345398 8.5000000000 0.0081105558 0.3091841042 2.5178899765 61.050228119 89.201683044 84.929000854 4.9728112221 61.355251312 6.9842300415 6.9842300415
 3338.1572266 5.0000000000 -0.196889922 8.3031101227 8.5000000000 0.0072180498 0.3015047014 2.5181000233 59.486049652 88.724586487 84.461097717 4.8724441528 61.497089386 7.0228619576 7.0228619576
 3338.3095703 5.0000000000 -0.119758599 8.3802413940 8.5000000000 0.0007404823 0.2783333957 2.5098969936 58.168590546 88.247001648 83.622703552 4.7104887962 61.569339752 7.0688447952 7.0688447952
 3338.4619141 5.0000000000 -0.053147323 8.4468526840 8.5000000000 -0.006346473 0.2557978928 2.4944889545 57.825618744 86.200065613 82.181999207 4.5539488792 61.583148956 7.0767679214 7.0767679214
 3338.6145020 5.0000000000 -0.009993553 8.4900064468 8.5000000000 -0.010312910 0.2423986048 2.4754130840 57.833011627 84.194152832 80.168403625 4.4419732094 61.606529236 7.0391898155 7.0391898155
 3338.7668457 5.0000000000 0.0144109689 8.5144109726 8.5000000000 -0.010600000 0.2382405996 2.4561059475 57.542579651 83.477531433 78.977790833 4.4015979767 61.444751740 6.9578747749 6.9578747749
 3338.9191895 5.0000000000 0.0147228204 8.5147228241 8.5000000000 -0.009954919 0.2427538931 2.4374990463 56.745121002 83.477531433 79.070098877 4.3921360970 61.107810974 6.8398108482 6.8398108482
 3339.0715332 5.0000000000 0.0011596680 8.5011596680 8.5000000000 -0.008978087 0.2532671988 2.4228971004 55.857059479 86.818206787 82.813400269 4.3355951309 60.752590179 6.6755681038 6.6755681038
 3339.2241211 5.0000000000 -0.013469700 8.4865303040 8.5000000000 -0.006870979 0.2707886100 2.4170050621 54.933799744 90.960411072 86.356697083 4.2044081688 60.440681458 6.5475988388 6.5475988388
 3339.3764648 5.0000000000 -0.045914654 8.4540853500 8.5000000000 -0.004489180 0.2861585021 2.4181001186 54.006099701 92.539939880 88.149398804 4.0838108063 60.309391022 6.5182199478 6.5182199478
 3339.5288086 5.0000000000 -0.104667708 8.3953323364 8.5000000000 -0.005866411 0.2897548079 2.4189999104 53.252590179 92.540603638 88.259399414 4.1177477837 60.206451416 6.5448617935 6.5448617935
 3339.6811523 5.0000000000 -0.150258094 8.3497419357 8.5000000000 -0.013558660 0.2861095071 2.4134960175 52.869419098 93.495010376 89.228103638 4.3480930328 60.073101044 6.6002888680 6.6002888680
 3339.8337402 5.0000000000 -0.167949706 8.3320503235 8.5000000000 -0.024067070 0.2773709893 2.4008119106 53.070919037 94.772521973 90.452301025 4.7076921463 60.198780060 6.6810479164 6.6810479164
 3339.9860840 5.0000000000 -0.178963691 8.3210363388 8.5000000000 -0.031807870 0.2707830966 2.3843090534 53.467029572 97.786033630 93.782096863 5.1463980675 60.347988129 6.7949080467 6.7949080467
 3340.1384277 5.0000000000 -0.188151389 8.3118486404 8.5000000000 -0.035348140 0.2672238946 2.3636040688 53.725948334 103.27230072 99.013801575 5.5688538551 60.345401764 6.9454360008 6.9454360008
 3340.2907715 5.0000000000 -0.194077507 8.3059234619 8.5000000000 -0.036429491 0.2680647075 2.3377938271 54.414600372 110.19110107 106.07891083 5.7862710953 60.346401215 7.1629428864 7.1629428864
 3340.4431152 5.0000000000 -0.198036194 8.3019638062 8.5000000000 -0.035854582 0.2867063880 2.3065800667 56.140838623 116.20749664 111.65059662 5.7927470207 60.345790863 7.4622249603 7.4622249603
 3340.5957031 5.0000000000 -0.201838478 8.2981624603 8.5000000000 -0.033862960 0.3277544975 2.2699251175 58.306999207 120.68129730 116.67620087 5.6853890419 60.294208527 7.7414369583 7.7414369583
 3340.7480469 5.0000000000 -0.205641687 8.2943582535 8.5000000000 -0.028632890 0.3678947091 2.2295119762 58.959018707 124.49919891 119.98829651 5.5102000237 60.113891602 7.8838510513 7.8838510513
 3340.9003906 5.0000000000 -0.200306922 8.2996931076 8.5000000000 -0.018523870 0.4033629894 2.1926989555 57.187660217 124.50009918 120.43509674 5.3361911774 59.856628418 7.8546600342 7.8546600342
 3341.0527344 5.0000000000 -0.166437104 8.3335628510 8.5000000000 -0.004701138 0.4305140972 2.1821229458 55.376998901 120.20349884 115.83499146 5.2221050262 59.659469604 7.6855530739 7.6855530739
