# LAS format log file from PETREL
# Project units are specified as depth units
#==================================================================
~Version information
VERS.   2.0:
WRAP.   NO:
#==================================================================
~Well
STRT .m      1910.3216553 :
STOP .m      4062.5144043 :
STEP .m     0.00000000 :
NULL .        -999.250000 :
COMP.           : COMPANY
WELL.  25/4-1  Heimdal   : WELL
FLD.            : FIELD
LOC.            : LOCATION
SRVC.           : SERVICE COMPANY
DATE.  2018-09-11 14:48:19   : Log Export Date {yyyy-MM-dd HH:mm:ss}
PROV.           : PROVINCE
UWI.   25/4-1   : UNIQUE WELL ID
API.            : API NUMBER
#==================================================================
~Curve
DEPT .m                   : DEPTH
Lithology_geolink ._      : Lithology_geolink
DCAL .in                  : DCAL
CALI .in                  : CALI
BS .in                    : BS
DRHO .g/cm3               : DRHO
NPHI .m3/m3               : NPHI
RHOB .g/cm3               : RHOB
GR .gAPI                  : GR
DTC .us/ft                : DTC
DTE .us/ft                : DTE
RDEP .ohm.m               : RDEP
SP .mV                    : SP
RSHA .ohm.m               : RSHA
RMED .ohm.m               : RMED
~Parameter
#==================================================================
~Ascii
# ...
 3478.6699219 5.0000000000 -1.423671842 7.0763278008 8.5000000000 0.0072014360 0.1918521971 2.6071999073 58.384349823 84.192489624 74.567199707 4.0272178650 62.802909851 4.2828688622 4.2828688622
 3478.8225098 5.0000000000 -0.976498127 7.5235023499 8.5000000000 0.0061708158 0.1877854019 2.6082990170 55.983009338 83.582344055 74.560997009 3.9520490170 62.417610168 4.2507081032 4.2507081032
 3478.9748535 5.0000000000 -0.629203320 7.8707976341 8.5000000000 0.0014858780 0.1855670959 2.6089999676 52.287021637 84.192596436 74.554908752 3.8793089390 62.010631561 4.2271599770 4.2271599770
 3479.1271973 5.0000000000 -0.346436501 8.1535625458 8.5000000000 -0.002033074 0.1830389947 2.6092998981 45.723739624 83.715812683 74.577301025 3.8281350136 61.805461884 4.2182068825 4.2182068825
 3479.2795410 5.0000000000 -0.100465797 8.3995342255 8.5000000000 -0.002484372 0.1787797064 2.6057970524 35.982830048 84.192932129 74.802001953 3.8330550194 61.868850708 4.2304491997 4.2304491997
 3479.4321289 3.0000000000 0.0740852430 8.5740852356 8.5000000000 -0.001946662 0.1748030931 2.5971069336 28.630590439 84.534111023 75.089797974 3.8820359707 62.140121460 4.2596468925 4.2596468925
 3479.5844727 3.0000000000 0.1482533962 8.6482534409 8.5000000000 -0.004387035 0.1737952977 2.5896039009 28.318529129 84.669731140 75.382003784 3.9250249863 62.466430664 4.2904272079 4.2904272079
 3479.7368164 3.0000000000 0.1622714996 8.6622705460 8.5000000000 -0.009022560 0.1780887991 2.5833010674 27.835479736 84.669799805 75.525993347 3.9327518940 62.858150482 4.3096170425 4.3096170425
 3479.8891602 3.0000000000 0.1641760170 8.6641759872 8.5000000000 -0.009953042 0.1863300055 2.5814020634 27.037839890 84.907920837 75.192100525 3.9022030830 63.226036072 4.3097620010 4.3097620010
 3480.0415039 3.0000000000 0.1654128879 8.6654129028 8.5000000000 -0.006403790 0.1930502057 2.5879030228 26.907470703 83.105369568 73.921699524 3.8499710560 63.361713409 4.2923297882 4.2923297882
 3480.1940918 3.0000000000 0.1666020900 8.6666021347 8.5000000000 -0.003793814 0.1960372031 2.5925970078 27.745170593 82.762008667 73.437202454 3.7921919823 63.325958252 4.2631011009 4.2631011009
 3480.3464355 3.0000000000 0.1677361131 8.6677360535 8.5000000000 -0.005074187 0.1981427073 2.5908010006 28.033340454 83.715591431 74.685997009 3.7282938957 63.325069427 4.2179927826 4.2179927826
 3480.4987793 3.0000000000 0.1689147949 8.6689147949 8.5000000000 -0.007964831 0.2005560994 2.5857989788 27.625659943 86.577903748 76.922500610 3.6470670700 63.327491760 4.1593470573 4.1593470573
 3480.6511230 3.0000000000 0.1701468974 8.6701469421 8.5000000000 -0.010136160 0.2031673938 2.5830039978 27.834749222 86.578071594 77.404098511 3.5391230583 63.311679840 4.0987300873 4.0987300873
 3480.8037109 3.0000000000 0.1713857949 8.6713857651 8.5000000000 -0.010945640 0.2057660967 2.5898950100 28.707019806 86.915351868 77.339103699 3.4211208820 63.444511414 4.0383381844 4.0383381844
 3480.9560547 3.0000000000 0.1726246029 8.6726245880 8.5000000000 -0.010447260 0.2070090026 2.6027948856 29.635240555 86.578033447 77.567893982 3.3457190990 63.761478424 3.9846630096 3.9846630096
 3481.1083984 3.0000000000 0.1738633811 8.6738634109 8.5000000000 -0.009570664 0.2035706043 2.6117999554 30.527130127 87.054901123 77.646202087 3.3370308876 64.024673462 3.9489240646 3.9489240646
 3481.2607422 3.0000000000 0.1751022041 8.6751022339 8.5000000000 -0.008578147 0.1960027963 2.6084952354 31.280530930 87.054656982 77.447097778 3.3518159389 63.898330688 3.9263389111 3.9263389111
 3481.4133301 3.0000000000 0.1763401031 8.6763401031 8.5000000000 -0.007854444 0.1903665960 2.5954110622 31.843730927 86.439933777 77.314102173 3.3555979729 63.224964142 3.9141950607 3.9141950607
 3481.5656738 3.0000000000 0.1775770038 8.6775770187 8.5000000000 -0.008536893 0.1896993071 2.5860040188 32.130241394 86.577842712 77.002502441 3.3501739502 62.395259857 3.9170150757 3.9170150757
 3481.7180176 3.0000000000 0.1778841019 8.6778841019 8.5000000000 -0.010074170 0.1961203963 2.5820000172 32.139850616 85.624008179 76.415397644 3.3353459835 62.180320740 3.9274199009 3.9274199009
 3481.8703613 3.0000000000 0.1725378036 8.6725378036 8.5000000000 -0.009370444 0.2067130953 2.5830030441 31.758539200 85.146980286 76.125999451 3.3207769394 62.805480957 3.9360120296 3.9360120296
 3482.0227051 3.0000000000 0.1586523056 8.6586523056 8.5000000000 -0.005519400 0.2128836066 2.5931060314 31.757400513 85.486976624 76.189292908 3.3159999847 63.541248322 3.9369881153 3.9369881153
 3482.1752930 3.0000000000 0.1446705014 8.6446695328 8.5000000000 -0.000126433 0.2117795944 2.6024940014 32.350078583 85.623817444 76.214302063 3.3135890961 63.962974548 3.9303829670 3.9303829670
 3482.3276367 3.0000000000 0.1383246928 8.6383247375 8.5000000000 0.0042618448 0.2065593004 2.6073989868 32.729888916 85.623901367 76.392898560 3.3043649197 64.227081299 3.9181571007 3.9181571007
 3482.4799805 3.0000000000 0.1362123042 8.6362123489 8.5000000000 0.0062588840 0.2015331984 2.6145000458 32.594699860 86.100921631 76.563400269 3.2875339985 64.341766357 3.9003429413 3.9003429413
 3482.6323242 3.0000000000 0.1344185024 8.6344175339 8.5000000000 0.0048326482 0.1980910003 2.6163959503 32.041271210 86.339447021 76.868499756 3.2640988827 64.524139404 3.8861789703 3.8861789703
 3482.7849121 3.0000000000 0.1326265037 8.6326265335 8.5000000000 -0.001756387 0.1981448978 2.6080060005 31.559890747 86.439315796 77.161201477 3.2362968922 64.960823059 3.8828051090 3.8828051090
 3482.9372559 3.0000000000 0.1308383942 8.6308383942 8.5000000000 -0.009117131 0.2004127055 2.6000030041 31.200950623 86.101020813 76.738700867 3.2061018944 65.313438416 3.8864099979 3.8864099979
 3483.0895996 3.0000000000 0.1290483028 8.6290483475 8.5000000000 -0.010437180 0.2008094043 2.5973999500 30.999229431 84.669799805 75.654701233 3.1753029823 64.928977966 3.8944211006 3.8944211006
 3483.2419434 3.0000000000 0.1272563934 8.6272563934 8.5000000000 -0.008011015 0.1999368966 2.5952990055 31.012229919 84.669929504 75.465202332 3.1507411003 64.177551270 3.9054250717 3.9054250717
 3483.3945313 3.0000000000 0.1254643947 8.6254644394 8.5000000000 -0.006693341 0.2026131004 2.5925021172 31.025230408 85.010307312 75.469398499 3.1371819973 63.863159180 3.9128050804 3.9128050804
 3483.5468750 3.0000000000 0.1236725077 8.6236715317 8.5000000000 -0.005218337 0.2098665982 2.5905010700 31.038219452 84.669967651 75.526596069 3.1289789677 63.559562683 3.9107840061 3.9107840061
 3483.6992188 3.0000000000 0.1218786016 8.6218786240 8.5000000000 -0.003165162 0.2153864056 2.5915999413 31.043989182 85.146835327 75.723503113 3.1092829704 63.194580078 3.9039878845 3.9039878845
 3483.8515625 3.0000000000 0.1261377037 8.6261377335 8.5000000000 -0.003276516 0.2174576968 2.5973019600 31.027719498 85.146980286 75.812202454 3.0801260471 62.950408936 3.9026091099 3.9026091099
 3484.0039063 3.0000000000 0.1449680030 8.6449680328 8.5000000000 -0.006803941 0.2202069014 2.6071090698 30.994729996 85.487266541 76.224098206 3.0802309513 62.645568848 3.9150359631 3.9150359631
 3484.1564941 3.0000000000 0.1657580882 8.6657581329 8.5000000000 -0.009037164 0.2253587991 2.6216909885 30.961750031 86.100524902 76.768600464 3.1267371178 62.400501251 3.9531919956 3.9531919956
 3484.3088379 3.0000000000 0.1698016971 8.6698017120 8.5000000000 -0.007725838 0.2255606055 2.6289980412 30.928730011 86.577774048 77.532699585 3.2036669254 62.401950836 4.0211610794 4.0211610794
 3484.4611816 3.0000000000 0.1622046977 8.6622047424 8.5000000000 -0.006309767 0.2161930948 2.6220989227 30.919460297 87.054786682 77.630798340 3.3036100864 63.067943573 4.1077699661 4.1077699661
 3484.6135254 3.0000000000 0.1531171948 8.6531171799 8.5000000000 -0.007859536 0.1998692006 2.6109960079 30.995010376 86.100593567 76.792701721 3.4204010963 64.239303589 4.2006049156 4.2006049156
 3484.7661133 3.0000000000 0.1439705044 8.6439695358 8.5000000000 -0.011135930 0.1792297959 2.6023058891 30.802679062 85.487358093 76.113601685 3.5498969555 64.877029419 4.2973642349 4.2973642349
