# LAS format log file from PETREL
# Project units are specified as depth units
#==================================================================
~Version information
VERS.   2.0:
WRAP.   NO:
#==================================================================
~Well
STRT .m      1910.3216553 :
STOP .m      4062.5144043 :
STEP .m     0.00000000 :
NULL .        -999.250000 :
COMP.           : COMPANY
WELL.  25/4-1  Heimdal   : WELL
FLD.            : FIELD
LOC.            : LOCATION
SRVC.           : SERVICE COMPANY
DATE.  2018-09-11 14:48:19   : Log Export Date {yyyy-MM-dd HH:mm:ss}
PROV.           : PROVINCE
UWI.   25/4-1   : UNIQUE WELL ID
API.            : API NUMBER
#==================================================================
~Curve
DEPT .m                   : DEPTH
Lithology_geolink ._      : Lithology_geolink
DCAL .in                  : DCAL
CALI .in                  : CALI
BS .in                    : BS
DRHO .g/cm3               : DRHO
NPHI .m3/m3               : NPHI
RHOB .g/cm3               : RHOB
GR .gAPI                  : GR
DTC .us/ft                : DTC
DTE .us/ft                : DTE
RDEP .ohm.m               : RDEP
SP .mV                    : SP
RSHA .ohm.m               : RSHA
RMED .ohm.m               : RMED
~Parameter
#==================================================================
~Ascii
 1910.3216553  -999.250000 -4.889356136 12.610639572 17.500000000 0.0034000000 0.5937338471  -999.250000 33.572460175 124.40089417 124.37650299 0.8254734278 57.859401703 1.3949899673 1.3949899673
 1910.4739990  -999.250000 -4.889051914 12.610950470 17.500000000 0.0032158510 0.5937938690  -999.250000 33.395969391 124.50040436 124.51339722 0.8270596862 57.900218964 1.4007840157 1.4007840157
 1910.6263428  -999.250000 -4.888748169 12.611250877 17.500000000 0.0028315799 0.5938537717  -999.250000 34.067619324 125.47319794 125.44490051 0.8173509836 57.802349091 1.4049999714 1.4049999714
 1910.7788086  -999.250000 -4.888442993 12.611559868 17.500000000 0.0023396600 0.5939138532  -999.250000 34.929679871 125.45449829 125.41220093 0.8075180054 57.563400269 1.4049999714 1.4049999714
 1910.9311523  -999.250000 -4.888136864 12.611860275 17.500000000 0.0017474090 0.5993695259  -999.250000 34.940639496 125.23490143 125.28859711 0.7976883054 57.504619598 1.4049999714 1.4049999714
 1911.0836182  -999.250000 -4.887832165 12.612170219 17.500000000 -0.116323203 0.6287797689  -999.250000 34.152641296 125.33518982 125.21279907 0.7918375731 57.176639557 1.4030050039 1.4030050039
 1911.2359619  -999.250000 -4.887526989 12.612469673 17.500000000 -0.259941787 0.6819981337  -999.250000 33.276821136 125.23490143 125.20030212 0.7919673920 57.342609406 1.3988039494 1.3988039494
 1911.3884277  -999.250000 -4.887224197 12.612779617 17.500000000 -0.287325591 0.7353374362  -999.250000 32.850601196 125.21600342 125.19319916 0.7871453762 58.024009705 1.3954039812 1.3954039812
 1911.5407715  -999.250000 -4.886919022 12.613080025 17.500000000 -0.288423687 0.7684055567  -999.250000 32.621261597 125.21600342 125.18599701 0.7724776864 57.802009583 1.3930000067 1.3930000067
 1911.6932373  -999.250000 -4.886612892 12.613389015 17.500000000 -0.288031489 0.7692501545  -999.250000 32.714241028 125.23490143 125.17890167 0.7569804192 57.701679230 1.3930000067 1.3930000067
 1911.8455811  -999.250000 -4.886309147 12.613689423 17.500000000 -0.287631691 0.7675917149  -999.250000 33.288101196 125.21600342 125.17170715 0.7482048869 57.650680542 1.3926010132 1.3926010132
 1911.9980469  -999.250000 -4.886004925 12.613991737 17.500000000 -0.287784189 0.7649371624  -999.250000 33.984630585 125.11569977 125.16459656 0.7433555126 57.592510223 1.3908040524 1.3908040524
 1912.1503906  -999.250000 -4.885700226 12.614300728 17.500000000 -0.288352489 0.7561313510  -999.250000 34.275970459 125.21600342 125.15740204 0.7385066748 57.464569092 1.3890000582 1.3890000582
 1912.3028564  -999.250000 -4.885394096 12.614608765 17.500000000 -0.288123697 0.7319292426  -999.250000 34.480258942 125.11569977 125.15029907 0.7358866930 57.082641602 1.3805960417 1.3805960417
 1912.4552002  -999.250000 -4.885088921 12.614911079 17.500000000 -0.287271410 0.7013322115  -999.250000 34.642890930 125.09670258 125.14309692 0.7386456132 56.184890747 1.3539530039 1.3539530039
 1912.6075439  -999.250000 -4.884785175 12.615219116 17.500000000 -0.287107915 0.6947425604  -999.250000 34.686389923 125.11569977 125.13600159 0.7444785237 55.901851654 1.3270050287 1.3270050287
 1912.7600098  -999.250000 -4.884480953 12.615518570 17.500000000 -0.287836611 0.7143409848  -999.250000 34.867580414 125.09670258 125.12879181 0.7501211166 56.937709808 1.3176020384 1.3176020384
 1912.9123535  -999.250000 -4.884174824 12.615818977 17.500000000 -0.288544714 0.7459771633  -999.250000 35.170818329 125.11569977 125.12160492 0.7499818206 57.832679749 1.3077850342 1.3077850342
 1913.0648193  -999.250000 -4.883870125 12.616129875 17.500000000 -0.288231790 0.7683758736  -999.250000 35.374950409 125.09670258 125.11450195 0.7415710092 58.265178680 1.2908049822 1.2908049822
 1913.2171631  -999.250000 -4.883565903 12.616430283 17.500000000 -0.287463307 0.7685574889  -999.250000 35.346599579 125.09670258 125.10729980 0.7340437174 57.662300110 1.2808040380 1.2808040380
 1913.3696289  -999.250000 -4.883263111 12.616740227 17.500000000 -0.287584096 0.7687236071  -999.250000 35.155391693 125.11569977 125.10019684 0.7281941175 57.278190613 1.2694059610 1.2694059610
 1913.5219727  -999.250000 -4.882956982 12.617039680 17.500000000 -0.288704991 0.7688716650  -999.250000 34.992771149 125.09670258 125.09300232 0.7228943110 57.503459930 1.2612069845 1.2612069845
 1913.6744385  -999.250000 -4.882650852 12.617349625 17.500000000 -0.289997607 0.7689539194  -999.250000 34.815738678 125.11569977 125.08589935 0.7177014947 58.108119965 1.2542059422 1.2542059422
 1913.8267822  -999.250000 -4.882346153 12.617650032 17.500000000 -0.290376186 0.7689679861  -999.250000 34.945091248 125.09670258 125.07868958 0.7147337794 57.769531250 1.2500000000 1.2500000000
 1913.9792480  -999.250000 -4.882043839 12.617959976 17.500000000 -0.289202511 0.7689880133  -999.250000 35.998851776 125.11569977 125.07160187 0.7148684263 57.391670227 1.2500000000 1.2500000000
 1914.1315918  -999.250000 -4.882091999 12.617910385 17.500000000 -0.287718803 0.7689561844  -999.250000 37.158481598 125.09670258 125.06439972 0.7124636173 57.777118683 1.2500000000 1.2500000000
 1914.2840576  -999.250000 -4.884404182 12.615598679 17.500000000 -0.286863089 0.7687466145  -999.250000 37.358409882 125.11569977 125.05729675 0.7042176127 57.885650635 1.2500000000 1.2500000000
 1914.4364014  -999.250000 -4.887164116 12.612838745 17.500000000 -0.287168294 0.7683866024  -999.250000 37.067901611 125.09670258 125.05010223 0.6929612160 57.736660004 1.2468080521 1.2468080521
 1914.5888672  -999.250000 -4.889936924 12.610060692 17.500000000 -0.288028896 0.7679470181  -999.250000 36.207920074 124.99658966 125.04299927 0.6828352213 57.563758850 1.2404049635 1.2404049635
 1914.7412109  -999.250000 -4.892718792 12.607279778 17.500000000 -0.288468301 0.7669808865  -999.250000 34.680881500 124.97749329 125.03579712 0.6895794272 57.342441559 1.2324069738 1.2324069738
 1914.8935547  -999.250000 -4.895496845 12.604500771 17.500000000 -0.288315803 0.7660896778  -999.250000 33.232261658 124.99658966 125.02870178 0.7130360007 57.324218750 1.2235460281 1.2235460281
 1915.0460205  -999.250000 -4.898190975 12.601811409 17.500000000 -0.288023800 0.7665786147  -999.250000 31.789350510 124.97749329 125.02149963 0.7294256091 57.641319275 1.2224049568 1.2224049568
 1915.1983643  -999.250000 -4.896887779 12.603108406 17.500000000 -0.287355393 0.7673792243  -999.250000 30.357759476 124.97749329 125.01439667 0.7508515120 57.958930969 1.2212619781 1.2212619781
 1915.3508301  -999.250000 -4.891771793 12.608229637 17.500000000 -0.286379486 0.7671898007  -999.250000 29.826959610 124.99658966 125.00720215 0.7723062038 58.276588440 1.2201189995 1.2201189995
 1915.5031738  -999.250000 -4.886342049 12.613658905 17.500000000 -0.286115795 0.7647886276  -999.250000 29.913679123 124.97749329 125.00000000 0.7937573791 58.594200134 1.2189760208 1.2189760208
 1915.6556396  -999.250000 -4.880918026 12.619079590 17.500000000 -0.287572801 0.7619931102  -999.250000 30.567960739 124.99658966 124.99289703 0.8152118921 58.911849976 1.2178339958 1.2178339958
 1915.8079834  -999.250000 -4.875491142 12.624508858 17.500000000 -0.289173186 0.7636392713  -999.250000 31.981479645 124.97749329 124.98570251 0.8366628289 59.229461670 1.2166910172 1.2166910172
 1915.9604492  -999.250000 -4.870078087 12.629920006 17.500000000 -0.276035398 0.7661982775  -999.250000 33.860519409 125.11569977 124.97859955 0.8581172228 59.547119141 1.2155480385 1.2155480385
 1916.1127930  -999.250000 -4.864653111 12.635350227 17.500000000 -0.195804805 0.7627989054  -999.250000 36.438800812 124.97749329 124.97139740 0.8795679808 59.864719391 1.2144049406 1.2144049406
 1916.2652588  -999.250000 -4.859520912 12.640480995 17.500000000 -0.063824080 0.7562615275  -999.250000 37.964611053 124.99658966 124.96430206 0.9010221958 60.182380676 1.2132619619 1.2132619619
 1916.4176025  -999.250000 -4.862872124 12.637128830 17.500000000 0.0308696609 0.7539957166 2.2497000694 38.395698547 124.97749329 124.95709991 0.9224728942 60.499988556 1.2121200562 1.2121200562
