# LAS format log file from PETREL
# Project units are specified as depth units
#==================================================================
~Version information
VERS.   2.0:
WRAP.   NO:
#==================================================================
~Well
STRT .m      1910.3216553 :
STOP .m      4062.5144043 :
STEP .m     0.00000000 :
NULL .        -999.250000 :
COMP.           : COMPANY
WELL.  25/4-1  Heimdal   : WELL
FLD.            : FIELD
LOC.            : LOCATION
SRVC.           : SERVICE COMPANY
DATE.  2018-09-11 14:48:19   : Log Export Date {yyyy-MM-dd HH:mm:ss}
PROV.           : PROVINCE
UWI.   25/4-1   : UNIQUE WELL ID
API.            : API NUMBER
#==================================================================
~Curve
DEPT .m                   : DEPTH
Lithology_geolink ._      : Lithology_geolink
DCAL .in                  : DCAL
CALI .in                  : CALI
BS .in                    : BS
DRHO .g/cm3               : DRHO
NPHI .m3/m3               : NPHI
RHOB .g/cm3               : RHOB
GR .gAPI                  : GR
DTC .us/ft                : DTC
DTE .us/ft                : DTE
RDEP .ohm.m               : RDEP
SP .mV                    : SP
RSHA .ohm.m               : RSHA
RMED .ohm.m               : RMED
~Parameter
#==================================================================
~Ascii
# ...
 3191.2436523 5.0000000000 0.0548973083 8.5548973083 8.5000000000 0.0048251762 0.3064984977 2.5379068851 71.299797058 92.540390015 87.987899780 1.6378459930 57.584671021 5.4744701385 5.4744701385
 3191.3959961 5.0000000000 0.0900087431 8.5900087357 8.5000000000 0.0177481007 0.2825644016 2.5161991119 63.518779755 92.063598633 87.887603760 1.3378850222 57.515838623 4.7853422165 4.7853422165
 3191.5483398 5.0000000000 0.0913467333 8.5913467407 8.5000000000 0.0296780597 0.2492401004 2.4828801155 53.660949707 92.063728333 87.896804810 1.1823999882 57.324218750 4.0586209297 4.0586209297
 3191.7009277 3.0000000000 0.0429678001 8.5429677963 8.5000000000 0.0307844505 0.2160480022 2.4324419498 41.528251648 92.392227173 87.915000916 1.1170959473 56.856159210 3.3641090393 3.3641090393
 3191.8532715 3.0000000000 -0.017534260 8.4824657440 8.5000000000 0.0213123504 0.1892488003 2.3722281456 30.550550461 91.825263977 87.932991028 1.1277259588 56.293331146 2.7985661030 2.7985661030
 3192.0056152 3.0000000000 -0.081590638 8.4184093475 8.5000000000 0.0107334303 0.1748514026 2.3264050484 25.801870346 92.540527344 87.895103455 1.2131190300 56.107578278 2.4211719036 2.4211719036
 3192.1579590 3.0000000000 -0.153526306 8.3464736938 8.5000000000 0.0029869231 0.1679649055 2.3105030060 24.676610947 92.063430786 87.672294617 1.3408310413 56.422760010 2.1946020126 2.1946020126
 3192.3105469 3.0000000000 -0.219220221 8.2807798386 8.5000000000 0.0010168310 0.1679050028 2.3210899830 26.160659790 91.440612793 87.432601929 1.4590209723 56.610370636 2.0831899643 2.0831899643
 3192.4628906 3.0000000000 -0.275899887 8.2241001129 8.5000000000 0.0034788169 0.1727861017 2.3501830101 29.780559540 91.586418152 87.192596436 1.5467369556 56.521480560 2.0907270908 2.0907270908
 3192.6152344 3.0000000000 -0.315019608 8.1849803925 8.5000000000 0.0035157499 0.1790048033 2.3913910389 34.572280884 91.109588623 86.886802673 1.6025819778 56.500308990 2.1991529465 2.1991529465
 3192.7675781 5.0000000000 -0.292880088 8.2071199417 8.5000000000 0.0034078381 0.1868823022 2.4360029697 40.498481750 91.109291077 86.489402771 1.6266160011 56.562580109 2.3485369682 2.3485369682
 3192.9199219 5.0000000000 -0.223318100 8.2766819000 8.5000000000 0.0070879492 0.1972786933 2.4560909271 45.808830261 89.678161621 85.550201416 1.6283750534 56.652641296 2.4748589993 2.4748589993
 3193.0725098 5.0000000000 -0.171109200 8.3288908005 8.5000000000 0.0116428398 0.2043143064 2.4388120174 46.589931488 89.059143066 84.537002563 1.6125099659 56.745899200 2.4909770489 2.4909770489
 3193.2248535 5.0000000000 -0.133671805 8.3663282394 8.5000000000 0.0118157500 0.2034536004 2.3992140293 44.120681763 89.201446533 85.235397339 1.5763039589 56.784790039 2.3645219803 2.3645219803
 3193.3771973 3.0000000000 -0.090628617 8.4093713760 8.5000000000 0.0084826276 0.1984528005 2.3564000130 39.932289124 90.394027710 86.441497803 1.5133069754 56.748001099 2.1529130936 2.1529130936
 3193.5295410 3.0000000000 -0.049067501 8.4509334564 8.5000000000 0.0061719050 0.1925141066 2.3247931004 34.859519958 92.063552856 87.514999390 1.4168720245 56.609840393 1.9289480448 1.9289480448
 3193.6821289 3.0000000000 -0.020536421 8.4794635773 8.5000000000 0.0043399851 0.1878699958 2.3072149754 31.283449173 91.916320801 87.944503784 1.2875269651 56.519420624 1.7473510504 1.7473510504
 3193.8344727 3.0000000000 -0.027862551 8.4721374512 8.5000000000 0.0016208530 0.1876215935 2.2999041080 29.705810547 92.540321350 87.929405212 1.1555509567 56.698749542 1.6154789925 1.6154789925
 3193.9868164 3.0000000000 -0.070647240 8.4293527603 8.5000000000 0.0005707700 0.1911344975 2.2997000217 29.096109390 92.540603638 88.269699097 1.0422780514 56.951358795 1.5214610100 1.5214610100
 3194.1391602 3.0000000000 -0.115944900 8.3840551376 8.5000000000 0.0013295620 0.1942726970 2.2997989655 28.779130936 93.494796753 89.092399597 0.9439510703 56.895618439 1.4629490376 1.4629490376
 3194.2917480 3.0000000000 -0.143106505 8.3568935394 8.5000000000 0.0014922110 0.1944929957 2.2948050499 28.594469070 94.296722412 89.957603455 0.8730692267 56.570289612 1.4230010509 1.4230010509
 3194.4440918 3.0000000000 -0.154452294 8.3455476761 8.5000000000 0.0003027021 0.1921036988 2.2877039909 28.039960861 94.448501587 90.209602356 0.8242670894 56.219520569 1.3868360519 1.3868360519
 3194.5964355 3.0000000000 -0.159610704 8.3403892517 8.5000000000 -0.000905489 0.1906466037 2.2842009068 27.132329941 94.448593140 90.346603394 0.7826759219 55.602111816 1.3583300114 1.3583300114
 3194.7487793 3.0000000000 -0.164361000 8.3356389999 8.5000000000 0.0006588984 0.1920955032 2.2850999832 25.991249084 94.925537109 90.289199829 0.7438110113 55.245910645 1.3461949825 1.3461949825
 3194.9011230 3.0000000000 -0.169307694 8.3306922913 8.5000000000 0.0041191261 0.1943680048 2.2853000164 24.835769653 94.448402405 90.214599609 0.7062159777 55.553539276 1.3466069698 1.3466069698
 3195.0537109 3.0000000000 -0.174549088 8.3254508972 8.5000000000 0.0078126900 0.1950183064 2.2850999832 23.773399353 94.059669495 90.106697083 0.6850932240 56.008110046 1.3510049582 1.3510049582
 3195.2060547 3.0000000000 -0.179923102 8.3200769424 8.5000000000 0.0097582350 0.1953389049 2.2860989571 23.114099503 93.971618652 89.919700623 0.6764522791 56.478488922 1.3560069799 1.3560069799
 3195.3583984 3.0000000000 -0.182233796 8.3177661896 8.5000000000 0.0120194098 0.1971164048 2.2901000977 23.286460876 93.971603394 89.726501465 0.6702302098 56.851119995 1.3622119427 1.3622119427
 3195.5107422 3.0000000000 -0.176194206 8.3238058090 8.5000000000 0.0166248996 0.2026657015 2.3030080795 24.302009583 93.971549988 89.567703247 0.6790993214 57.030681610 1.3714179993 1.3714179993
 3195.6633301 3.0000000000 -0.162424102 8.3375759125 8.5000000000 0.0203200001 0.2099698037 2.3229830265 25.730199814 93.821327209 89.603691101 0.7174574733 57.142681122 1.3824150562 1.3824150562
 3195.8156738 3.0000000000 -0.146639794 8.3533601761 8.5000000000 0.0183893200 0.2146631032 2.3427898884 28.376340866 93.971534729 89.656791687 0.7939592004 57.231868744 1.3962039948 1.3962039948
 3195.9680176 5.0000000000 -0.134162903 8.3658370972 8.5000000000 0.0108291302 0.2189152986 2.3669970036 33.407409668 93.971603394 89.709800720 0.9239919186 57.225639343 1.4205750227 1.4205750227
 3196.1203613 5.0000000000 -0.128436103 8.3715639114 8.5000000000 0.0010748910 0.2269105017 2.4084169865 38.686988831 93.971687317 89.754096985 1.1286770105 57.115409851 1.4652489424 1.4652489424
 3196.2729492 5.0000000000 -0.127414703 8.3725852966 8.5000000000 -0.008736555 0.2382777929 2.4739360809 42.814189911 94.297180176 89.793296814 1.4119670391 56.972328186 1.5587209463 1.5587209463
 3196.4252930 5.0000000000 -0.131164595 8.3688354492 8.5000000000 -0.013920760 0.2483846992 2.5433580875 47.660339355 93.495086670 89.476196289 1.7291909456 56.805618286 1.7556660175 1.7556660175
 3196.5776367 5.0000000000 -0.143770203 8.3562297821 8.5000000000 -0.009233216 0.2484748960 2.5713930130 51.049869537 92.779266357 88.439392090 2.0319130421 56.661380768 2.0946149826 2.0946149826
 3196.7299805 5.0000000000 -0.147252098 8.3527479172 8.5000000000 0.0013376280 0.2359216064 2.5350899696 50.911048889 91.109260559 86.735198975 2.3159120083 56.684970856 2.5338850021 2.5338850021
 3196.8823242 5.0000000000 -0.117890403 8.3821096420 8.5000000000 0.0092991823 0.2200120986 2.4608759880 48.049011230 89.201667786 84.973297119 2.5383589268 56.759769440 2.9530429840 2.9530429840
 3197.0349121 5.0000000000 -0.068195343 8.4318046570 8.5000000000 0.0085164886 0.2102473974 2.4119360447 44.127979279 89.534759521 85.575897217 2.6811490059 56.831489563 3.2886819839 3.2886819839
 3197.1872559 5.0000000000 -0.016909599 8.4830904007 8.5000000000 0.0012143750 0.2091856003 2.4249949455 42.739780426 92.062667847 87.458396912 2.8324639797 56.812538147 3.4950549603 3.4950549603
 3197.3395996 5.0000000000 0.0262489300 8.5262489319 8.5000000000 -0.001887988 0.2155451030 2.4883999825 43.805809021 92.540603638 88.297401428 3.1250519753 56.669258118 3.5515849590 3.5515849590
