# LAS format log file from PETREL
# Project units are specified as depth units
#==================================================================
~Version information
VERS.   2.0:
WRAP.   NO:
#==================================================================
~Well
STRT .m      1910.3216553 :
STOP .m      4062.5144043 :
STEP .m     0.00000000 :
NULL .        -999.250000 :
COMP.           : COMPANY
WELL.  25/4-1  Heimdal   : WELL
FLD.            : FIELD
LOC.            : LOCATION
SRVC.           : SERVICE COMPANY
DATE.  2018-09-11 14:48:19   : Log Export Date {yyyy-MM-dd HH:mm:ss}
PROV.           : PROVINCE
UWI.   25/4-1   : UNIQUE WELL ID
API.            : API NUMBER
#==================================================================
~Curve
DEPT .m                   : DEPTH
Lithology_geolink ._      : Lithology_geolink
DCAL .in                  : DCAL
CALI .in                  : CALI
BS .in                    : BS
DRHO .g/cm3               : DRHO
NPHI .m3/m3               : NPHI
RHOB .g/cm3               : RHOB
GR .gAPI                  : GR
DTC .us/ft                : DTC
DTE .us/ft                : DTE
RDEP .ohm.m               : RDEP
SP .mV                    : SP
RSHA .ohm.m               : RSHA
RMED .ohm.m               : RMED
~Parameter
#==================================================================
~Ascii
# ...
 2335.2128906 16.000000000 0.2559967041 12.505998611 12.250000954 0.0536624081 0.1795179993 2.4584743977 33.006568909 55.810501099 55.746509552 1.2506760359 43.102909088 1.5991159678 1.5991159678
 2335.3652344 16.000000000 0.2365560979 12.486559868 12.250000954 0.0540897511 0.1386491060 2.4867939949 27.824970245 55.810501099 55.626598358 1.1525080204 42.697620392 1.5047299862 1.5047299862
 2335.5178223 16.000000000 0.0471010208 12.297100067 12.250000954 0.0446151718 0.1089282036 2.5234601498 26.331199646 61.071861267 61.180747986 1.0799399614 42.274021149 1.4371780157 1.4371780157
 2335.6701660 2.0000000000 0.1383982003 12.388401031 12.250000954 0.0339505188 0.0987173095 2.5576965809 25.910160065 69.183792114 69.197120667 1.0389549732 42.114181519 1.4163899422 1.4163899422
 2335.8225098 2.0000000000 0.2089291066 12.458930016 12.250000954 0.0272992495 0.1133067012 2.5560927391 25.615810394 77.156349182 77.183036804 1.0200049877 42.206260681 1.4254859686 1.4254859686
 2335.9748535 2.0000000000 0.0710458830 12.321049690 12.250000954 0.0172203202 0.1391097009 2.5128149986 25.750469208 78.706657410 78.890197754 1.0151950121 42.173110962 1.5033270121 1.5033270121
 2336.1271973 2.0000000000 0.2035531998 12.453550339 12.250000954 0.0228504501 0.1643057019 2.4599990845 26.984289169 76.799026489 76.597503662 1.0312160254 41.921638489 1.6503560543 1.6503560543
 2336.2797852 2.0000000000 0.2438679039 12.493868828 12.250000954 0.0368591808 0.1796126962 2.4022247791 29.104259491 72.501022339 72.558799744 1.0842020512 42.038570404 1.8640170097 1.8640170097
 2336.4321289 2.0000000000 0.1502303928 12.400230408 12.250000954 0.0423275493 0.1836660057 2.3647403717 31.153070450 70.001106262 69.935668945 1.1748299599 42.231689453 2.1115779877 2.1115779877
 2336.5844727 2.0000000000 0.4258326888 12.675828934 12.250000954 0.0448183008 0.1840211004 2.3817920685 32.190418243 66.783332825 66.733299255 1.2603019476 42.295860291 2.3235490322 2.3235490322
 2336.7368164 2.0000000000 0.5966033936 12.846599579 12.250000954 0.0499753803 0.1790080965 2.4483931065 31.074970245 63.443161011 63.507301331 1.2927880287 42.540328979 2.4219839573 2.4219839573
 2336.8894043 2.0000000000 0.5423870087 12.792389870 12.250000954 0.0472660996 0.1591358036 2.5229041576 28.196659088 61.047752380 61.065696716 1.2788699865 42.869609833 2.3445210457 2.3445210457
 2337.0417480 2.0000000000 0.4396190941 12.689620018 12.250000954 0.0379778296 0.1236606985 2.5785679817 26.292980194 55.721408844 55.830314636 1.2057340145 43.167049408 2.1204710007 2.1204710007
 2337.1940918 16.000000000 0.3795214295 12.629520416 12.250000954 0.0276229307 0.0990767330 2.6090784073 27.218900681 55.821647644 55.785995483 1.0524899960 43.190891266 1.8809310198 1.8809310198
 2337.3464355 16.000000000 0.3508338630 12.600831032 12.250000954 0.0128892604 0.1107717976 2.6006019115 30.388629913 60.102699280 60.400398254 0.8931012750 43.011230469 1.6469689608 1.6469689608
 2337.4990234 16.000000000 0.2818431854 12.531840324 12.250000954 0.0085665248 0.1470286995 2.5495853424 34.521419525 67.748344421 67.496093750 0.8101093173 42.903568268 1.4240649939 1.4240649939
 2337.6513672 2.0000000000 0.6330699921 12.883069992 12.250000954 0.0283669904 0.1972904056 2.4836778641 38.195060730 74.907913208 74.981498718 0.7580671906 43.075580597 1.2620559931 1.2620559931
 2337.8037109 2.0000000000 0.6233797669 12.873379707 12.250000954 0.0507247113 0.2546141148 2.4256043434 39.499698639 82.886680603 83.030601501 0.7212026715 42.886440277 1.1630829573 1.1630829573
 2337.9560547 2.0000000000 0.1265421063 12.376541138 12.250000954 0.0491839796 0.2924261093 2.3870139122 36.875759125 90.629707336 90.519996643 0.7023108006 42.372711182 1.1023310423 1.1023310423
 2338.1083984 2.0000000000 -0.031229969 12.218770027 12.250000954 0.0375657417 0.3028671145 2.3538990021 32.341041565 93.017593384 92.792098999 0.7016600966 42.084308624 1.0645970106 1.0645970106
 2338.2609863 2.0000000000 -0.016276360 12.233719826 12.250000954 0.0308845099 0.2966719866 2.3054051399 30.406219482 93.017318726 92.995964050 0.7058803439 42.201709747 1.0579999685 1.0580371618
 2338.4133301 2.0000000000 -0.014428139 12.235569954 12.250000954 0.0293871798 0.2822512090 2.2575435638 31.581760406 92.869049072 92.970642090 0.7358102798 42.298000336 1.0812040567 1.0812860727
 2338.5656738 2.0000000000 -0.068099983 12.181900024 12.250000954 0.0249713492 0.2680099905 2.2336120605 35.033451080 93.017532349 92.933700562 0.7963067293 42.517078400 1.1324460506 1.1324460506
 2338.7180176 5.0000000000 -0.121891007 12.128109932 12.250000954 0.0166763104 0.2619335949 2.2385001183 39.753749847 93.494537354 93.503799438 0.8541193008 43.021350861 1.1761300564 1.1761300564
 2338.8706055 5.0000000000 -0.096973412 12.153030396 12.250000954 0.0137878498 0.2706646025 2.2568597794 44.960739136 93.971328735 93.921150208 0.9026972055 43.369861603 1.2255519629 1.2256222963
 2339.0229492 5.0000000000 -0.079750054 12.170249939 12.250000954 0.0170983598 0.2888368070 2.2891173363 47.707820892 93.820465088 93.765167236 0.9356548786 43.496189117 1.2694439888 1.2694810629
 2339.1752930 5.0000000000 -0.113144897 12.136859894 12.250000954 0.0191496406 0.3031260967 2.3418097496 46.352699280 93.492126465 93.430068970 0.9314290881 43.585609436 1.2926000357 1.2925771475
 2339.3276367 5.0000000000 -0.166021287 12.083979607 12.250000954 0.0202212296 0.3028455973 2.3839900494 43.407581329 92.540832520 92.723800659 0.9066950083 43.736579895 1.2782989740 1.2782989740
 2339.4802246 5.0000000000 -0.215016380 12.034980774 12.250000954 0.0175351892 0.2919105887 2.3807806969 41.075431824 91.107856750 91.061836243 0.8845137358 43.728340149 1.2475570440 1.2475314140
 2339.6325684 5.0000000000 -0.161036506 12.088959694 12.250000954 0.0158272106 0.2717750967 2.3693263531 38.958930969 90.156211853 90.274063110 0.8677237630 43.547901154 1.2316000462 1.2315984964
 2339.7849121 2.0000000000 -0.039086342 12.210909843 12.250000954 0.0249073803 0.2574500144 2.3819994926 36.749641418 90.490211487 90.499359131 0.8731224537 43.496181488 1.2305999994 1.2305990458
 2339.9372559 2.0000000000 0.0870656967 12.337071419 12.250000954 0.0301213209 0.2575379908 2.3817000389 34.837558746 91.586090088 91.469100952 0.9128609896 43.835788727 1.2300000191 1.2300000191
 2340.0895996 2.0000000000 0.1644335091 12.414429665 12.250000954 0.0321586616 0.2544932067 2.3526000977 35.696308136 93.971618652 94.006103516 0.9731084108 44.590019226 1.2601670027 1.2601670027
 2340.2421875 2.0000000000 0.1714152843 12.421420097 12.250000954 0.0362639390 0.2469564974 2.3210945129 40.443820953 99.226013184 99.053169250 1.0358427763 45.712059021 1.3446861506 1.3446861506
 2340.3945313 2.0000000000 0.1519155949 12.401921272 12.250000954 0.0453470312 0.2437691987 2.3183705807 46.781429291 102.87374878 102.96167755 1.1206582785 46.846389771 1.4426851273 1.4426851273
 2340.5468750 5.0000000000 0.0273218192 12.277319908 12.250000954 0.0582569689 0.2555575967 2.3486850262 51.828689575 104.46510315 104.44480133 1.2481650114 47.512241364 1.5351270437 1.5351270437
 2340.6992188 5.0000000000 -0.025253301 12.224749565 12.250000954 0.0625247285 0.2842057049 2.3911950588 53.537479401 102.08110046 102.00720978 1.4435249567 47.674800873 1.5992690325 1.5992690325
 2340.8518066 5.0000000000 -0.058280945 12.191719055 12.250000954 0.0570853315 0.3115387857 2.4178907871 52.466411591 97.305130005 97.524429321 1.7157875299 47.640468597 1.6614234447 1.6614234447
 2341.0041504 5.0000000000 -0.143189400 12.106809616 12.250000954 0.0515366197 0.3233000040 2.4128484726 51.745738983 94.292541504 94.296897888 1.9501460791 47.809398651 1.7471435070 1.7471435070
 2341.1564941 5.0000000000 -0.099943161 12.150059700 12.250000954 0.0485216007 0.3282400966 2.3894791603 53.683204651 92.070983887 92.057479858 2.2174201012 48.279010773 1.8174180984 1.8174180984
 2341.3088379 5.0000000000 -0.046347626 12.203650475 12.250000954 0.0466418006 0.3353609145 2.3815019131 56.625350952 94.924888611 94.914596558 2.5612580776 48.464801788 1.8979599476 1.8979599476
