# LAS format log file from PETREL
# Project units are specified as depth units
#==================================================================
~Version information
VERS.   2.0:
WRAP.   NO:
#==================================================================
~Well
STRT .m      1910.3216553 :
STOP .m      4062.5144043 :
STEP .m     0.00000000 :
NULL .        -999.250000 :
COMP.           : COMPANY
WELL.  25/4-1  Heimdal   : WELL
FLD.            : FIELD
LOC.            : LOCATION
SRVC.           : SERVICE COMPANY
DATE.  2018-09-11 14:48:19   : Log Export Date {yyyy-MM-dd HH:mm:ss}
PROV.           : PROVINCE
UWI.   25/4-1   : UNIQUE WELL ID
API.            : API NUMBER
#==================================================================
~Curve
DEPT .m                   : DEPTH
Lithology_geolink ._      : Lithology_geolink
DCAL .in                  : DCAL
CALI .in                  : CALI
BS .in                    : BS
DRHO .g/cm3               : DRHO
NPHI .m3/m3               : NPHI
RHOB .g/cm3               : RHOB
GR .gAPI                  : GR
DTC .us/ft                : DTC
DTE .us/ft                : DTE
RDEP .ohm.m               : RDEP
SP .mV                    : SP
RSHA .ohm.m               : RSHA
RMED .ohm.m               : RMED
~Parameter
#==================================================================
~Ascii
# ...
 2478.9260254 5.0000000000 0.4038563073 12.653859138 12.250000954 0.0472430885 0.3493129015 2.5063979626 45.422260284 87.293556213 86.944000244 2.5198099613 50.240428925 2.5817680359 2.5817680359
 2479.0786133 5.0000000000 0.8705348372 13.120530128 12.250000954 0.0366500802 0.3385528028 2.5412011147 45.057098389 87.295692444 87.509292603 2.4200699329 50.273761749 2.5416851044 2.5416851044
 2479.2309570 5.0000000000 0.9064674377 13.156470299 12.250000954 0.0638012365 0.3471789956 2.5723497868 47.372589111 88.725090027 88.745903015 2.3048799038 50.524539948 2.4953711033 2.4953711033
 2479.3833008 5.0000000000 0.7998743057 13.049869537 12.250000954 0.0816696435 0.3700515032 2.5609464645 50.962730408 90.015167236 90.123298645 2.1932740211 50.584598541 2.4679698944 2.4679698944
 2479.5356445 5.0000000000 0.5915451050 12.841548920 12.250000954 0.0767359808 0.3874770999 2.5225110054 53.270870209 93.016723633 93.117210388 2.0993809700 50.602348328 2.4465920925 2.4465920925
 2479.6879883 5.0000000000 0.5576934814 12.807689667 12.250000954 0.0882723182 0.3943957984 2.5057010651 52.948890686 95.402641296 95.137802124 2.0329589844 50.723148346 2.4281959534 2.4281959534
 2479.8405762 5.0000000000 0.2143459022 12.464349747 12.250000954 0.1037741005 0.3947154880 2.5107879639 51.786170959 95.881195068 95.797096252 2.0123989582 50.621570587 2.4114010334 2.4114010334
 2479.9929199 5.0000000000 0.2742528915 12.524249077 12.250000954 0.0981859714 0.3910647035 2.5070970058 51.391990662 97.155387878 97.205703735 2.0285050869 50.342231750 2.4083969593 2.4083969593
 2480.1452637 5.0000000000 0.0582542345 12.308250427 12.250000954 0.0950210467 0.3900370002 2.5034019947 50.944320679 98.025833130 97.947799683 2.0742321014 50.324859619 2.4119999409 2.4119999409
 2480.2976074 5.0000000000 -0.020454410 12.229550362 12.250000954 0.0864150226 0.3951697052 2.4993999004 50.441768646 97.310737610 97.266105652 2.1384649277 50.485599518 2.4235570431 2.4235570431
 2480.4501953 5.0000000000 0.1601887047 12.410189629 12.250000954 0.0551885888 0.4065037966 2.4776055813 51.795810699 96.354614258 96.016105652 2.2263429165 50.446880341 2.4374020100 2.4374020100
 2480.6025391 5.0000000000 0.1154050902 12.365409851 12.250000954 0.0322527811 0.4193251133 2.4637229443 53.569400787 94.297325134 94.480697632 2.3364579678 50.481719971 2.4498889446 2.4498889446
 2480.7548828 5.0000000000 0.2607106864 12.510709763 12.250000954 0.0289344192 0.4208939075 2.4699244499 53.212608337 93.016014099 92.685607910 2.4463500977 50.685611725 2.4953029156 2.4953029156
 2480.9072266 5.0000000000 0.3438558877 12.593859673 12.250000954 0.0327615887 0.4165135920 2.4870970249 51.173168182 91.586746216 91.524497986 2.5248730183 50.649040222 2.5345549583 2.5345549583
 2481.0598145 5.0000000000 0.2084780186 12.458480835 12.250000954 0.0400125198 0.4068822861 2.5131094456 49.398349762 90.634605408 90.673202515 2.5581910610 50.601650238 2.5619521141 2.5619521141
 2481.2121582 5.0000000000 0.1934261173 12.443428993 12.250000954 0.0591033213 0.3977026939 2.5420775414 47.897949219 91.111053467 91.280097961 2.5645980835 50.839881897 2.5833818913 2.5833818913
 2481.3645020 5.0000000000 0.2385187000 12.488519669 12.250000954 0.0634624064 0.3919180930 2.5467846394 45.513290405 92.391120911 92.292800903 2.5641980171 51.123989105 2.5961968899 2.5961968899
 2481.5168457 5.0000000000 0.2556877136 12.505690575 12.250000954 0.0545803793 0.3865700960 2.5390019417 42.942920685 92.063697815 91.773200989 2.5567989349 51.244029999 2.6041951180 2.6041951180
 2481.6691895 5.0000000000 0.3902102113 12.640210152 12.250000954 0.0457825698 0.3774471879 2.5474009514 41.945491791 89.201431274 89.486801147 2.5508019924 50.986061096 2.6129860878 2.6129860878
 2481.8217773 5.0000000000 0.5869836807 12.836979866 12.250000954 0.0344979987 0.3683161139 2.5578050613 42.573280334 88.252838135 88.247001648 2.5405900478 50.603099823 2.6233890057 2.6233890057
 2481.9741211 5.0000000000 0.2437753826 12.493780136 12.250000954 0.0552389510 0.3663497865 2.5685083866 44.221889496 90.965576172 90.657997131 2.5066730976 50.435020447 2.6455249786 2.6455249786
 2482.1264648 5.0000000000 -0.014434810 12.235569954 12.250000954 0.1054551005 0.3685688078 2.5792949200 45.891841888 93.493522644 93.849700928 2.5074970722 50.483268738 2.6857299805 2.6857299805
 2482.2788086 5.0000000000 0.0417890474 12.291789055 12.250000954 0.1234212965 0.3729717135 2.5471019745 46.916950226 94.925498962 94.849502563 2.6696350574 50.941360474 2.7411439419 2.7411439419
 2482.4313965 5.0000000000 0.1880959868 12.438099861 12.250000954 0.1049659029 0.3767150939 2.4819371700 47.736148834 94.924385071 94.988098145 3.0014660358 51.291679382 2.8233819008 2.8233819008
 2482.5837402 5.0000000000 0.2959175110 12.545920372 12.250000954 0.0899501219 0.3755454123 2.4490139484 48.099239349 94.290214539 94.003402710 3.4349100590 50.855461121 2.9349410534 2.9349410534
 2482.7360840 5.0000000000 0.3523511887 12.602349281 12.250000954 0.0840111971 0.3689132035 2.4553406239 47.658718109 91.101913452 91.086997986 3.9973919392 50.173770905 3.0816969872 3.0816969872
 2482.8884277 5.0000000000 0.5066853166 12.756690025 12.250000954 0.0889434963 0.3593198955 2.4705970287 46.541469574 88.247917175 88.327499390 4.6761879921 49.918628693 3.2430689335 3.2430689335
 2483.0410156 5.0000000000 0.6505451202 12.900550842 12.250000954 0.1060820967 0.3500196934 2.4711656570 45.111869812 85.862396240 86.002296448 5.2292809486 49.937599182 3.4032049179 3.4032049179
 2483.1933594 5.0000000000 0.5337790847 12.783780098 12.250000954 0.1270157993 0.3441973925 2.4522814751 43.566120148 85.856948853 85.877700806 5.5981788635 50.085208893 3.5405499935 3.5405499935
 2483.3457031 5.0000000000 0.4521493614 12.702150345 12.250000954 0.1505229026 0.3339087963 2.4438416958 41.365699768 83.328506470 83.365997314 5.9534678459 50.033199310 3.6618499756 3.6618499756
 2483.4980469 16.000000000 0.4735422134 12.723540306 12.250000954 0.1431882977 0.3020290136 2.4604952335 38.368198395 77.277961731 77.350006104 6.0931591988 49.919250488 3.7446980476 3.7446980476
 2483.6503906 16.000000000 0.4466847777 12.696680069 12.250000954 0.0750357285 0.2507075071 2.4858040810 35.708770752 72.505882263 72.553596497 5.7351851463 49.902221680 3.7760000229 3.7760000229
 2483.8029785 2.0000000000 0.5433731079 12.793371201 12.250000954 0.0243110303 0.2018311024 2.5447082520 33.983299255 70.610252380 70.643203735 5.1047658920 50.189979553 3.7381649017 3.7381649017
 2483.9553223 2.0000000000 0.4288111031 12.678810120 12.250000954 0.0209603999 0.1707229018 2.5979027748 32.566360474 76.677642822 76.542602539 4.4457159042 50.438598633 3.6388390064 3.6388390064
 2484.1076660 2.0000000000 0.3062571883 12.556260109 12.250000954 0.0387760885 0.1623073071 2.5989000797 32.200321198 77.275840759 77.356399536 3.8625409603 50.508640289 3.5366730690 3.5366730690
 2484.2600098 2.0000000000 0.3421973884 12.592200279 12.250000954 0.0752214491 0.1829072982 2.5839009285 34.148941040 73.937210083 74.139701843 3.3529829979 50.532218933 3.4396560192 3.4396560192
 2484.4125977 2.0000000000 0.3897599578 12.639760017 12.250000954 0.1092640013 0.2321265042 2.5669524670 38.729030609 76.802513123 76.529899597 2.9717578888 50.374450684 3.3470120430 3.3470120430
 2484.5649414 2.0000000000 0.3702268898 12.620229721 12.250000954 0.1160430014 0.2920328975 2.5421926975 44.728439331 78.618392944 78.685150146 2.7965400219 50.364181519 3.2899909019 3.2899909019
 2484.7172852 5.0000000000 0.3504610062 12.600461006 12.250000954 0.0911669210 0.3480621874 2.4951398373 51.080059052 94.933151245 95.169738770 2.7161929607 50.493820190 3.2780001163 3.2780001163
 2484.8696289 5.0000000000 0.2694283128 12.519430161 12.250000954 0.0585054792 0.3878796101 2.4345109463 55.071109772 97.787170410 97.562301636 2.7430620193 50.578018188 3.2855830193 3.2855830193
 2485.0222168 5.0000000000 0.2384634167 12.488458633 12.250000954 0.0451166518 0.3998979926 2.4062209129 55.714958191 96.354141235 96.583351135 2.8438580036 50.283660889 3.3049700260 3.3049700260
