# LAS format log file from PETREL
# Project units are specified as depth units
#==================================================================
~Version information
VERS.   2.0:
WRAP.   NO:
#==================================================================
~Well
STRT .m      1199.6253662 :
STOP .m      3185.7504883 :
STEP .m     0.00000000 :
NULL .        -999.250000 :
COMP.           : COMPANY
WELL.  25/5-4  Byggve   : WELL
FLD.            : FIELD
LOC.            : LOCATION
SRVC.           : SERVICE COMPANY
DATE.  2018-09-11 14:48:21   : Log Export Date {yyyy-MM-dd HH:mm:ss}
PROV.           : PROVINCE
UWI.   25/5-4   : UNIQUE WELL ID
API.            : API NUMBER
#==================================================================
~Curve
DEPT .m                   : DEPTH
Lithology_geolink ._      : Lithology_geolink
DCAL .in                  : DCAL
CALI .in                  : CALI
BS .in                    : BS
DRHO .g/cm3               : DRHO
THOR .ppm                 : THOR
NPHI .m3/m3               : NPHI
RHOB .g/cm3               : RHOB
PEF .b/e                  : PEF
GR .gAPI                  : GR
URAN .ppm                 : URAN
DTC .us/ft                : DTC
RDEP .ohm.m               : RDEP
SP .mV                    : SP
RSHA .ohm.m               : RSHA
RHOM .g/cm3               : RHOM
RMED .ohm.m               : RMED
~Parameter
#==================================================================
~Ascii
# ...
 2914.6252441 2.0000000000 -0.159953088 8.3400468826 8.5000000000 0.0352213793 3.0983014107 0.1782440990 2.3039629459 3.2313170433 52.642910004 2.3258256912 26.169620514 5.0735330582 4.9548668861 3.3299620152 2.6582653522 7.1826529503
 2914.7502441 2.0000000000 -0.154415101 8.3455848694 8.5000000000 0.0361175016 3.1243004799 0.1840489060 2.3035700321 3.2443470955 51.688961029 1.9484282732 25.757455826 5.7404789925 3.0923969746 3.3724460602 2.6561427116 7.4788269997
 2914.8752441 2.0000000000 -0.149085000 8.3509149551 8.5000000000 0.0355108306 3.1757431030 0.1885260046 2.3031759262 3.3548619747 50.747871399 1.6045331955 25.645786285 6.5225629807 1.5199970007 3.3384430408 2.6556537151 7.6918230057
 2915.0002441 2.0000000000 -0.146864906 8.3531351089 8.5000000000 0.0332535096 3.2489111423 0.1908822060 2.3197009563 3.5366311073 49.689800262 1.3145623207 25.878843307 7.3839201927 0.1704403013 3.3154230118 2.6591978073 7.7979149818
 2915.1252441 2.0000000000 -0.149101302 8.3508987427 8.5000000000 0.0285435598 3.3057355881 0.1901738048 2.3432888985 3.7025179863 48.457481384 1.1421138048 26.407304764 8.2742061615 -1.062494993 3.3950109482 2.6610822678 7.8076119423
 2915.2502441 2.0000000000 -0.154311210 8.3456888199 8.5000000000 0.0212740600 3.3239283562 0.1860267967 2.3665950298 3.7993600368 47.349960327 1.2006888390 27.015539169 9.0884618759 -2.185204983 3.6515409946 2.6667385101 7.8391752243
 2915.3752441 2.0000000000 -0.159828216 8.3401718140 8.5000000000 0.0129104396 3.3386197090 0.1808115989 2.3891339302 3.7937109470 46.802200317 1.3996710777 27.419456482 9.7114505768 -3.186889887 4.1625189781 2.6759488583 8.0109100342
 2915.5002441 2.0000000000 -0.163154602 8.3368453979 8.5000000000 0.0059824879 3.4514484406 0.1791650951 2.4116721153 3.7185130119 46.800559998 1.5379666090 27.579689026 10.055459976 -4.057043076 4.8345689774 2.6875998974 8.3300695419
 2915.6252441 2.0000000000 -0.164196000 8.3358039856 8.5000000000 0.0019309469 3.7325215340 0.1817595959 2.3979721069 3.5974159241 46.877418518 1.4179964066 27.513803482 10.130260468 -4.699631214 5.3145999908 2.6999104023 8.6650819778
 2915.7502441 2.0000000000 -0.164262801 8.3357372284 8.5000000000 0.0017986820 4.1532683372 0.1845304966 2.3767752647 3.4480369091 46.382770538 1.0576379299 27.265573502 10.071530342 -5.170215130 5.1738948822 2.7098479271 8.8173017502
 2915.8752441 2.0000000000 -0.164261803 8.3357381821 8.5000000000 0.0062025799 4.5977520943 0.1884873956 2.3509070873 3.3013780117 45.213569641 0.6165382862 26.887479782 9.9474287033 -5.468060017 4.5702018738 2.7023811340 8.7056417465
 2916.0002441 2.0000000000 -0.164040595 8.3359594345 8.5000000000 0.0150797404 4.9315285683 0.1945265979 2.3177669048 3.2103118896 43.825508118 0.3294388652 26.409111023 9.8020610809 -5.659884930 3.9013340473 2.6872477531 8.4354343414
 2916.1252441 2.0000000000 -0.162686303 8.3373136520 8.5000000000 0.0243639201 5.1507654190 0.1996953934 2.2846269608 3.2127330303 43.002410889 0.2983134985 25.975648880 9.6341562271 -5.820477009 3.4528260231 2.6734850407 8.1602783203
 2916.2504883 2.0000000000 -0.158975586 8.3410243988 8.5000000000 0.0290657394 5.2868490219 0.2013181001 2.2941410542 3.3086709976 43.065551758 0.3570023477 25.734657288 9.4196882248 -5.977571011 3.2052469254 2.6643364429 7.9414639473
 2916.3754883 2.0000000000 -0.153240204 8.3467597961 8.5000000000 0.0274311192 5.3501682281 0.2007223964 2.3058240414 3.4657850266 43.789878845 0.5368288755 25.799514771 9.1557102203 -6.132256985 3.0820999146 2.6611917019 7.7583961487
 2916.5004883 2.0000000000 -0.148287803 8.3517122269 8.5000000000 0.0224427693 5.3160567284 0.2011523992 2.3288919926 3.6670041084 44.450279236 0.7231588960 26.223972321 8.8341236115 -6.281054974 2.9847390652 2.6654584408 7.6035509109
 2916.6254883 2.0000000000 -0.146920204 8.3530797958 8.5000000000 0.0158763807 5.1767950058 0.2045605034 2.3627181053 3.9318308830 44.479778290 0.8404087424 26.943550110 8.4638137817 -6.428872108 2.9030709267 2.6841623783 7.5125517845
 2916.7504883 2.0000000000 -0.149985299 8.3500146866 8.5000000000 0.0078414949 4.9178924561 0.2109037936 2.3956999779 4.2512969971 43.604408264 0.8448288441 27.599367142 8.0744657516 -6.589181900 2.8630499840 2.7099299431 7.4633531570
 2916.8752441 2.0000000000 -0.155548096 8.3444519043 8.5000000000 -0.000625570 4.5045242310 0.2175921053 2.4182209969 4.5764160156 42.077960968 0.8087105751 27.985074997 7.7079210281 -6.773890972 2.9061770439 2.7381577492 7.4034981728
 2917.0002441 2.0000000000 -0.160744697 8.3392553329 8.5000000000 -0.006184774 3.9470195770 0.2219185978 2.4407410622 4.7929430008 40.485580444 0.8376430869 28.071809769 7.4048070908 -6.978398800 3.0535960197 2.7639167309 7.2792181969
 2917.1252441 2.0000000000 -0.163520768 8.3364791870 8.5000000000 -0.005758804 3.2609612942 0.2224389017 2.4456059933 4.8370280266 39.707828522 1.0281414986 27.927797318 7.1813421249 -7.199615955 3.2711510658 2.7821397781 7.0846657753
 2917.2502441 2.0000000000 -0.164222687 8.3357772827 8.5000000000 0.0011299551 2.6272459030 0.2198635042 2.4404160976 4.6588411331 40.374149323 1.3566180468 27.707010269 7.0637731552 -7.459180832 3.4978899956 2.7871451378 6.9111590385
 2917.3752441 2.0000000000 -0.164262801 8.3357372284 8.5000000000 0.0113092698 2.2935581207 0.2156251073 2.4314610958 4.3807039261 42.454639435 1.7238638401 27.658298492 7.0179719925 -7.784838200 3.6684670448 2.7802407742 6.8280739784
 2917.5002441 2.0000000000 -0.164262801 8.3357372284 8.5000000000 0.0198276397 2.5286927223 0.2115893960 2.4072279930 4.0907521248 45.074291229 1.9097294807 27.807435989 7.0439372063 -8.217429161 3.7344870567 2.7654061317 6.8836569786
 2917.6252441 2.0000000000 -0.164262801 8.3357372284 8.5000000000 0.0247150902 3.0880105495 0.2083936930 2.3829948902 3.8911900520 47.330211639 1.8732849360 28.075023651 7.1380867958 -8.771504402 3.6752979755 2.7456941605 7.0104169846
 2917.7502441 2.0000000000 -0.164262801 8.3357372284 8.5000000000 0.0276889708 3.6047317982 0.2057791948 2.3668999672 3.7987780571 48.690631866 1.6608325243 28.369298935 7.2933769226 -9.440080643 3.5177800655 2.7241730690 7.1077260971
 2917.8752441 2.0000000000 -0.164262801 8.3357372284 8.5000000000 0.0295724794 3.7226057053 0.2025074065 2.3533720970 3.8225688934 49.115978241 1.4727644920 28.598981857 7.5301051140 -10.18192005 3.3342349529 2.7036602497 7.1334881783
 2918.0002441 2.0000000000 -0.164262801 8.3357372284 8.5000000000 0.0299427398 3.4689340591 0.1973547935 2.3467140198 3.8730199337 48.723411560 1.3522582054 28.686271667 7.8559098244 -10.93945980 3.1728899479 2.6924281120 7.1283559799
 2918.1252441 2.0000000000 -0.164262801 8.3357372284 8.5000000000 0.0293579400 2.9231896400 0.1900139004 2.3546020985 3.8846039772 47.701400757 1.2796965837 28.642892838 8.2696475983 -11.67216015 2.9745550156 2.6874885559 7.1735148430
 2918.2502441 2.0000000000 -0.164262801 8.3357372284 8.5000000000 0.0296232793 2.4063203335 0.1812739074 2.3624899387 3.7791519165 46.423408508 1.2267329693 28.546674728 8.7633323669 -12.36172962 2.6990799904 2.6847367287 7.3332171440
 2918.3752441 2.0000000000 -0.164262801 8.3357372284 8.5000000000 0.0318962783 2.1103153229 0.1725513041 2.3636260033 3.6033499241 45.599311829 1.1925234795 28.428579330 9.3046331406 -13.00002956 2.4456501007 2.6803047657 7.6513638496
 2918.5002441 2.0000000000 -0.164262801 8.3357372284 8.5000000000 0.0355719104 2.1698744297 0.1652725935 2.3638689518 3.3837258816 45.804088593 1.2045669556 28.297752380 9.8872165680 -13.59420967 2.3482780457 2.6717274189 8.2801427841
 2918.6254883 2.0000000000 -0.164262801 8.3357372284 8.5000000000 0.0384031013 2.4651401043 0.1602085978 2.3594539165 3.1714079380 46.852020264 1.2387324572 28.139656067 10.522979736 -14.18089008 2.4907879829 2.6615333557 9.2915964127
 2918.7504883 2.0000000000 -0.164262801 8.3357372284 8.5000000000 0.0388291702 2.9106855392 0.1577996016 2.3492009640 2.9969038963 47.758930206 1.2211071253 27.888002396 11.285840034 -14.79992962 2.8992159367 2.6590256691 10.584429741
 2918.8754883 2.0000000000 -0.164262801 8.3357372284 8.5000000000 0.0370011292 3.3678393364 0.1583667994 2.3390209675 2.9010519981 47.538631439 1.1204017401 27.519912720 12.260849953 -15.47935009 3.4966769218 2.6582212448 11.792229652
