# LAS format log file from PETREL
# Project units are specified as depth units
#==================================================================
~Version information
VERS.   2.0:
WRAP.   NO:
#==================================================================
~Well
STRT .m      1153.6579590 :
STOP .m      2874.8635254 :
STEP .m     0.00000000 :
NULL .        -999.250000 :
COMP.           : COMPANY
WELL.  25/5-3  Skirne   : WELL
FLD.            : FIELD
LOC.            : LOCATION
SRVC.           : SERVICE COMPANY
DATE.  2018-09-11 14:48:21   : Log Export Date {yyyy-MM-dd HH:mm:ss}
PROV.           : PROVINCE
UWI.   25/5-3   : UNIQUE WELL ID
API.            : API NUMBER
#==================================================================
~Curve
DEPT .m                   : DEPTH
Lithology_geolink ._      : Lithology_geolink
CALI .in                  : CALI
BS .in                    : BS
DRHO .g/cm3               : DRHO
THOR .ppm                 : THOR
NPHI .m3/m3               : NPHI
RHOB .g/cm3               : RHOB
PEF .b/e                  : PEF
GR .gAPI                  : GR
URAN .ppm                 : URAN
DTC .us/ft                : DTC
RDEP .ohm.m               : RDEP
SP .mV                    : SP
RSHA .ohm.m               : RSHA
RMED .ohm.m               : RMED
~Parameter
#==================================================================
~Ascii
# ...
 2282.9418945 2.0000000000 11.781000137 12.250000954 -0.026990401  -999.250000 0.0000000000 2.2429664135 15.889099121 30.212604523  -999.250000 86.525314331 0.5970000029 -11.42745209 0.6049743891 0.6789888144
 2283.0944824 2.0000000000 11.781000137 12.250000954 -0.028996794  -999.250000 0.0000000000 2.2509741783 15.492638588 30.916728973  -999.250000 83.586990356 0.5930064321 -11.62138081 0.6250000000 0.6790000200
 2283.2468262 2.0000000000 11.734000206 12.250000954 -0.026004808  -999.250000 0.0000000000 2.2569806576 13.456267357 32.801944733  -999.250000 80.187919617 0.5949968100 -11.65389729 0.6449999809 0.6740000248
 2283.3991699 2.0000000000 11.703000069 12.250000954 -0.009027244  -999.250000 0.0000000000 2.2619841099 11.151693344 35.144489288  -999.250000 77.572807312 0.5979951620 -11.58920765 0.6549839973 0.6700063944
 2283.5515137 2.0000000000 11.843999863 12.250000954 -0.003009615  -999.250000 0.0000000000 2.2629952431 11.296761513 36.741336823  -999.250000 76.677108765 0.6009951830 -11.54222584 0.6410223842 0.6700000167
 2283.7041016 2.0000000000 11.930000305 12.250000954 0.0019920000  -999.250000 0.0000000000 2.2620031834 11.733301163 36.847682953  -999.250000 77.779876709 0.6069903970 -11.61376953 0.6159999967 0.6750000119
 2283.8564453 2.0000000000 11.781000137 12.250000954 0.0029983975  -999.250000 0.0000000000 2.2580127716 14.581429482 35.898056030  -999.250000 81.985153198 0.6079983711 -11.82432365 0.6140000224 0.6800000072
 2284.0087891 2.0000000000 11.734000206 12.250000954 0.0030000000  -999.250000 0.0000000000 2.2530159950 15.436634064 35.029781342  -999.250000 86.762619019 0.6050048470 -12.10809040 0.6219871640 0.6770048141
 2284.1611328 2.0000000000 11.647999763 12.250000954 -0.002990385  -999.250000 0.0000000000 2.2500143051 14.228940964 34.965297699  -999.250000 88.785552979 0.6030032039 -12.33690071 0.6289888024 0.6720079780
 2284.3134766 2.0000000000 11.781000137 12.250000954 -0.006987200  -999.250000 0.0000000000 2.2470142841 12.995951653 35.448661804  -999.250000 89.012519836 0.6049936414 -12.39373112 0.6329935789 0.6719999909
 2284.4660645 2.0000000000 11.796998978 12.250000954 -0.006001602  -999.250000 0.0000000000 2.2450063229 12.828263283 35.907531738  -999.250000 88.970520020 0.6119887829 -12.24248695 0.6299999952 0.6769999862
 2284.6184082 2.0000000000 11.788999557 12.250000954 -0.010991987  -999.250000 0.0000000000 2.2440030575 13.787459373 36.088424683  -999.250000 88.901481628 0.6199871898 -11.93997097 0.6280032396 0.6829904318
 2284.7707520 2.0000000000 11.843999863 12.250000954 -0.016990386  -999.250000 0.0000000000 2.2420096397 13.750062943 36.180557251  -999.250000 88.834182739 0.6279872060 -11.61954117 0.6389823556 0.6969776154
 2284.9230957 2.0000000000 11.859000206 12.250000954 -0.021984000  -999.250000 0.0000000000 2.2400095463 12.138175011 36.310375214  -999.250000 89.039321899 0.6359744072 -11.40602398 0.6609647274 0.7049871683
 2285.0756836 2.0000000000 11.819999695 12.250000954 -0.029987179  -999.250000 0.0000000000 2.2390031815 12.437510490 36.538269043  -999.250000 89.444358826 0.6439871788 -11.37808704 0.6800000072 0.7099999785
 2285.2280273 2.0000000000 11.875000954 12.250000954 -0.030998398  -999.250000 0.0000000000 2.2409934998 12.796424866 36.821090698  -999.250000 89.371315002 0.6529855728 -11.53250313 0.6850000024 0.7160000205
 2285.3803711 2.0000000000 11.905999184 12.250000954 -0.024011219  -999.250000 0.0000000000 2.2449870110 12.633263588 36.988464355  -999.250000 88.992073059 0.6629839540 -11.78917599 0.6889936328 0.7269824147
 2285.5327148 2.0000000000 11.883000374 12.250000954 -0.022006400  -999.250000 0.0000000000 2.2509710789 11.254426003 36.767070770  -999.250000 89.139038086 0.6789488196 -12.03183365 0.6979855895 0.7389807701
 2285.6853027 2.0000000000 11.913999557 12.250000954 -0.022000000  -999.250000 0.0000000000 2.2579774857 10.898564339 36.045314789  -999.250000 89.018714905 0.6939759851 -12.18251896 0.7120000124 0.7500000000
 2285.8376465 2.0000000000 11.905999184 12.250000954 -0.019004807  -999.250000 0.0000000000 2.2629840374 11.889408112 35.075111389  -999.250000 88.352195740 0.7049823403 -12.22486591 0.7210000157 0.7540000081
 2285.9899902 2.0000000000 11.913999557 12.250000954 -0.023991987  -999.250000 0.0000000000 2.2649936676 11.813124657 34.248645782  -999.250000 87.894218445 0.7149839401 -12.21004772 0.7210000157 0.7569952011
 2286.1423340 2.0000000000 11.930000305 12.250000954 -0.032985575  -999.250000 0.0000000000 2.2669904232 10.720752716 33.968338013  -999.250000 87.747688293 0.7239855528 -12.21398067 0.7180048227 0.7629904151
 2286.2946777 2.0000000000 11.930000305 12.250000954 -0.030009599  -999.250000 0.0000000000 2.2689905167 9.5198497772 34.350151062  -999.250000 87.709785461 0.7329711914 -12.30058098 0.7239903808 0.7709872127
 2286.4472656 2.0000000000 11.930000305 12.250000954 -0.030998398  -999.250000 0.0000000000 2.2719905376 8.9229516983 35.227184296  -999.250000 87.736076355 0.7419855595 -12.48441029 0.7500000000 0.7810000181
 2286.5996094 2.0000000000 11.930000305 12.250000954 -0.028004808  -999.250000 0.0000000000 2.2769839764 9.5150480270 35.989559174  -999.250000 87.541763306 0.7489888072 -12.72522736 0.7729632258 0.7979727983
 2286.7519531 2.0000000000 11.930000305 12.250000954 -0.027001603  -999.250000 0.0000000000 2.2829711437 8.8760271072 36.001949310  -999.250000 86.855537415 0.7539920211 -12.95987225 0.7749967575 0.8089823723
 2286.9042969 2.0000000000 11.883000374 12.250000954 -0.026001602  -999.250000 0.0000000000 2.2889711857 8.5395383835 35.236698151  -999.250000 86.695083618 0.7579872012 -13.13814449 0.7690095901 0.8099983931
 2287.0568848 2.0000000000 11.859000206 12.250000954 -0.026000001  -999.250000 0.0000000000 2.2929871082 7.6680002213 34.451515198  -999.250000 86.896965027 0.7599967718 -13.24266624 0.7699999809 0.8090000153
 2287.2092285 2.0000000000 11.930000305 12.250000954 -0.020000000  -999.250000 0.0000000000 2.2949936390 8.1639995575 34.597522736  -999.250000 86.600807190 0.7609983683 -13.26791954 0.7749999762 0.8080000281
 2287.3615723 2.0000000000 11.930000305 12.250000954 -0.018003199  -999.250000 0.0000000000 2.2950000763 8.2808132172 35.765369415  -999.250000 86.438453674 0.7649935484 -13.21923542 0.7730032206 0.8099967837
 2287.5139160 2.0000000000 11.875000954 12.250000954 -0.015004807  -999.250000 0.0000000000 2.2950000763 9.2174968719 37.332458496  -999.250000 87.044044495 0.7689871788 -13.10952950 0.7670096159 0.8139935732
 2287.6665039 2.0000000000 11.843999863 12.250000954 -0.011000000  -999.250000 0.0000000000 2.2959969044 9.1800003052 38.625865936  -999.250000 87.372909546 0.7709968090 -12.95549393 0.7480000257 0.8180000186
 2287.8188477 5.0000000000 11.875000954 12.250000954 -0.009000000  -999.250000 0.0000000000 2.2989904881 10.734000206 39.363643646  -999.250000 87.237625122 0.7769904137 -12.77856731 0.7540000081 0.8270000219
 2287.9711914 5.0000000000 11.812999725 12.250000954 -0.004008000  -999.250000 0.0000000000 2.3039839268 11.889148712 39.456710815  -999.250000 87.221740723 0.7779983878 -12.61253262 0.8358688354 0.8409776092
 2288.1235352 5.0000000000 11.819999695 12.250000954 0.0029887820  -999.250000 0.0000000000 2.3089759350 14.215269089 39.006175995  -999.250000 86.354454041 0.7789983749 -12.49058533 0.9318461418 0.8439951539
 2288.2758789 5.0000000000 11.781000137 12.250000954 0.0059951926  -999.250000 0.0000000000 2.3129806519 14.280900955 38.502422333  -999.250000 85.026817322 0.7869744301 -12.43227863 0.9300032258 0.8439999819
 2288.4284668 5.0000000000 11.734000206 12.250000954 0.0060000001  -999.250000 0.0000000000 2.3139967918 14.375000000 38.309608459  -999.250000 84.731246948 0.7989807725 -12.43798065 0.8650000095 0.8529999852
 2288.5808105 5.0000000000 11.734000206 12.250000954 0.0000096000  -999.250000 0.0000000000 2.3120064735 14.632587433 38.197357178  -999.250000 84.998962402 0.8049904108 -12.48684311 0.8280591965 0.8639824390
 2288.7331543 5.0000000000 11.711001396 12.250000954 -0.011980769  -999.250000 0.0000000000 2.3070240021 15.842059135 37.608837128  -999.250000 84.882568359 0.8059983850 -12.55965042 0.8339903951 0.8620032072
