# LAS format log file from PETREL
# Project units are specified as depth units
#==================================================================
~Version information
VERS.   2.0:
WRAP.   NO:
#==================================================================
~Well
STRT .m      1199.6253662 :
STOP .m      3185.7504883 :
STEP .m     0.00000000 :
NULL .        -999.250000 :
COMP.           : COMPANY
WELL.  25/5-4  Byggve   : WELL
FLD.            : FIELD
LOC.            : LOCATION
SRVC.           : SERVICE COMPANY
DATE.  2018-09-11 14:48:21   : Log Export Date {yyyy-MM-dd HH:mm:ss}
PROV.           : PROVINCE
UWI.   25/5-4   : UNIQUE WELL ID
API.            : API NUMBER
#==================================================================
~Curve
DEPT .m                   : DEPTH
Lithology_geolink ._      : Lithology_geolink
DCAL .in                  : DCAL
CALI .in                  : CALI
BS .in                    : BS
DRHO .g/cm3               : DRHO
THOR .ppm                 : THOR
NPHI .m3/m3               : NPHI
RHOB .g/cm3               : RHOB
PEF .b/e                  : PEF
GR .gAPI                  : GR
URAN .ppm                 : URAN
DTC .us/ft                : DTC
RDEP .ohm.m               : RDEP
SP .mV                    : SP
RSHA .ohm.m               : RSHA
RHOM .g/cm3               : RHOM
RMED .ohm.m               : RMED
~Parameter
#==================================================================
~Ascii
# ...
 2516.5002441 2.0000000000 -0.697597504 11.552399635 12.250000954 -0.005036204 0.2478853464  -999.250000 2.1960539818 7.6835322380 39.089981079 0.6426976323 25.206462860 0.8721612096 100.71880341  -999.250000 2.6500000954 0.9737620950
 2516.6252441 2.0000000000 -0.698528290 11.551469803 12.250000954 -0.006064464 0.0870587900  -999.250000 2.2133030891 7.3421092033 38.229530334 0.5392365456 25.096393585 0.7640098929 101.55500031  -999.250000 2.6500000954 0.9041414857
 2516.7502441 2.0000000000 -0.698572218 11.551429749 12.250000954 -0.007835413 0.0662519559  -999.250000 2.2225790024 7.0656161308 37.950378418 0.5067755580 24.573369980 0.6903936863 102.16280365  -999.250000 2.6500000954 0.8387328982
 2516.8752441 2.0000000000 -0.698572218 11.551429749 12.250000954 -0.011518980 0.1953788996  -999.250000 2.2275400162 6.8484601974 37.822280884 0.4941902757 23.625486374 0.6351289153 102.47440338  -999.250000 2.6500000954 0.7884727120
 2517.0002441 2.0000000000 -0.698572218 11.551429749 12.250000954 -0.016405942 0.3893033266  -999.250000 2.2201058865 6.6791992188 37.840419769 0.4379513860 22.755823135 0.5907618999 102.51319885  -999.250000 2.6500000954 0.7622206807
 2517.1252441 2.0000000000 -0.698572218 11.551429749 12.250000954 -0.020276999 0.5443211198  -999.250000 2.2126710415 6.5425510406 38.026199341 0.3619622886 22.275417328 0.5534269810 102.45050049  -999.250000 2.6500000954 0.7536444068
 2517.2502441 2.0000000000 -0.698572218 11.551429749 12.250000954 -0.021538431 0.5548861623  -999.250000 2.2093460560 6.4275579453 38.205379486 0.3428775370 22.255678177 0.5223054290 102.40059662  -999.250000 2.6500000954 0.7541223168
 2517.3752441 2.0000000000 -0.698572218 11.551429749 12.250000954 -0.019905571 0.4454154372  -999.250000 2.2069299221 6.3190360069 38.170490265 0.4339267612 22.633371353 0.4987494051 102.41089630  -999.250000 2.6500000954 0.7579036951
 2517.5002441 2.0000000000 -0.698572218 11.551429749 12.250000954 -0.016342470 0.3513601422  -999.250000 2.2062640190 6.2123570442 38.028770447 0.6011617184 23.227439880 0.4840329885 102.44409943  -999.250000 2.6500000954 0.7611302137
 2517.6252441 2.0000000000 -0.698572218 11.551429749 12.250000954 -0.012653820 0.4848843217  -999.250000 2.2084350586 6.1157088280 38.149578094 0.7349798679 23.748611450 0.4786458910 102.40889740  -999.250000 2.6500000954 0.7631325722
 2517.7504883 2.0000000000 -0.698572218 11.551429749 12.250000954 -0.011018070 0.7845996022  -999.250000 2.2106060982 6.0345549583 38.707710266 0.7755925655 24.112670898 0.4811561108 102.24549866  -999.250000 2.6500000954 0.7656754255
 2517.8754883 2.0000000000 -0.698572218 11.551429749 12.250000954 -0.012094280 1.0651915073  -999.250000 2.2149751186 5.9692039490 39.432239532 0.7223625183 24.351539612 0.4895837009 101.93370056  -999.250000 2.6500000954 0.7705097198
 2518.0004883 2.0000000000 -0.698572218 11.551429749 12.250000954 -0.014744550 1.1136070490  -999.250000 2.2194790840 5.9128260612 39.927558899 0.6359289289 24.506580353 0.5011307001 101.53279877  -999.250000 2.6500000954 0.7794415951
 2518.1254883 2.0000000000 -0.698572218 11.551429749 12.250000954 -0.017206971 1.0131379366  -999.250000 2.2244539261 5.8578438759 40.084720612 0.5408255458 24.618211746 0.5136923194 101.13529968  -999.250000 2.6500000954 0.7923554778
 2518.2504883 2.0000000000 -0.698572218 11.551429749 12.250000954 -0.018492529 0.9463341236  -999.250000 2.2298929691 5.7832980156 40.214618683 0.4194009900 24.703199387 0.5260614753 100.81050110  -999.250000 2.6500000954 0.8066142201
 2518.3754883 2.0000000000 -0.698572218 11.551429749 12.250000954 -0.018677440 1.0153710842  -999.250000 2.2353470325 5.6872520447 40.507881165 0.3179763854 24.750007629 0.5378487110 100.55870056  -999.250000 2.6500000954 0.8183068037
 2518.5002441 2.0000000000 -0.698572218 11.551429749 12.250000954 -0.018382439 1.1465215683  -999.250000 2.2410171032 5.6012010574 40.672691345 0.2969949245 24.730737686 0.5489335060 100.34619904  -999.250000 2.6500000954 0.8244376183
 2518.6252441 2.0000000000 -0.698572218 11.551429749 12.250000954 -0.017787971 1.2287355661  -999.250000 2.2466869354 5.5553579330 40.315940857 0.2956996262 24.630817413 0.5591502190 100.13279724  -999.250000 2.6500000954 0.8198884130
 2518.7502441 2.0000000000 -0.698572218 11.551429749 12.250000954 -0.015814301 1.2469333410  -999.250000 2.2510449886 5.5446720123 39.307830811 0.2954996228 24.464170456 0.5684826970 99.911277771  -999.250000 2.6500000954 0.8105471730
 2518.8752441 2.0000000000 -0.698572218 11.551429749 12.250000954 -0.011329850 1.2641545534  -999.250000 2.2546250820 5.5492029190 37.986648560 0.2952986360 24.281352997 0.5764021873 99.695320129  -999.250000 2.6500000954 0.7996745706
 2519.0002441 2.0000000000 -0.698572218 11.551429749 12.250000954 -0.004920626 1.3433734179  -999.250000 2.2576398849 5.5565171242 36.928359985 0.2945972681 24.187067032 0.5828797221 99.496566772  -999.250000 2.6500000954 0.7913277745
 2519.1252441 2.0000000000 -0.698572218 11.551429749 12.250000954 0.0016487991 1.4833350182  -999.250000 2.2582170963 5.5618329048 36.765529633 0.2932009697 24.182022095 0.5880931020 99.314651489  -999.250000 2.6500000954 0.7881734967
 2519.2502441 2.0000000000 -0.698572218 11.551429749 12.250000954 0.0061845151 1.6035099030  -999.250000 2.2587931156 5.5601201057 37.748840332 0.2937084138 24.234291077 0.5922603011 99.169456482  -999.250000 2.6500000954 0.7903956175
 2519.3752441 2.0000000000 -0.698624611 11.551380157 12.250000954 0.0074770129 1.6595886946  -999.250000 2.2580089569 5.5531539917 39.604560852 0.2984265685 24.323738098 0.5962197781 99.071983337  -999.250000 2.6500000954 0.7954381108
 2519.5002441 2.0000000000 -0.699180603 11.550820351 12.250000954 0.0060564359 1.6023163795  -999.250000 2.2567720413 5.5462889671 41.639209747 0.5169736147 24.442333221 0.6004853845 99.021743774  -999.250000 2.6500000954 0.8015254140
 2519.6252441 2.0000000000 -0.701482773 11.548519135 12.250000954 0.0046850960 1.4055651426  -999.250000 2.2559299469 5.5430760384 43.335811615 0.8105375171 24.608570099 0.6055126786 98.998207092  -999.250000 2.6500000954 0.8070272207
 2519.7502441 2.0000000000 -0.706288278 11.543709755 12.250000954 0.0054487661 1.0292623043  -999.250000 2.2559609413 5.5584459305 44.380340576 1.0343800783 24.803148270 0.6112092137 98.959617615  -999.250000 2.6500000954 0.8118491769
 2519.8752441 2.0000000000 -0.712079048 11.537919998 12.250000954 0.0085052289 0.6005622745  -999.250000 2.2559919357 5.5917868614 44.732040405 1.1776683331 24.935544968 0.6173977852 98.884376526  -999.250000 2.6500000954 0.8160315156
 2520.0002441 2.0000000000 -0.715785980 11.534210205 12.250000954 0.0116872201 0.2745781243  -999.250000 2.2577459812 5.6060800552 44.213020325 1.2637224197 24.934862137 0.6234359741 98.795661926  -999.250000 2.6500000954 0.8196278811
 2520.1254883 2.0000000000 -0.714997292 11.534999847 12.250000954 0.0126211699 0.2127234340  -999.250000 2.2597489357 5.5428199768 42.644550323 1.2749027014 24.770427704 0.6286792159 98.737777710  -999.250000 2.6500000954 0.8221716881
 2520.2504883 2.0000000000 -0.710514128 11.539488792 12.250000954 0.0105261300 0.3213878870  -999.250000 2.2625401020 5.4594621658 40.127140045 1.1983910799 24.464712143 0.6323555112 98.769058228  -999.250000 2.6500000954 0.8232750893
 2520.3754883 2.0000000000 -0.704767168 11.545229912 12.250000954 0.0068680402 0.4970612228  -999.250000 2.2663500309 5.3860301971 37.396320343 1.0168273449 24.141252518 0.6345561147 98.919883728  -999.250000 2.6500000954 0.8233174086
 2520.5004883 2.0000000000 -0.700621605 11.549381256 12.250000954 0.0044680592 0.5636681318  -999.250000 2.2701599598 5.3295989037 35.438468933 0.8192330003 23.922739029 0.6351050735 99.163101196  -999.250000 2.6500000954 0.8222814202
 2520.6254883 2.0000000000 -0.698818207 11.551179886 12.250000954 0.0049156132 0.4959368706  -999.250000 2.2732629776 5.2909312248 34.867851257 0.7341747284 23.830453873 0.6342440844 99.388526917  -999.250000 2.6500000954 0.8204969764
 2520.7502441 2.0000000000 -0.698575974 11.551420212 12.250000954 0.0076284800 0.3104000092  -999.250000 2.2763640881 5.2714738846 35.753719330 0.8748890758 23.847484589 0.6326171756 99.455726624  -999.250000 2.6500000954 0.8180664182
