# LAS format log file from PETREL
# Project units are specified as depth units
#==================================================================
~Version information
VERS.   2.0:
WRAP.   NO:
#==================================================================
~Well
STRT .m      1199.6253662 :
STOP .m      3185.7504883 :
STEP .m     0.00000000 :
NULL .        -999.250000 :
COMP.           : COMPANY
WELL.  25/5-4  Byggve   : WELL
FLD.            : FIELD
LOC.            : LOCATION
SRVC.           : SERVICE COMPANY
DATE.  2018-09-11 14:48:21   : Log Export Date {yyyy-MM-dd HH:mm:ss}
PROV.           : PROVINCE
UWI.   25/5-4   : UNIQUE WELL ID
API.            : API NUMBER
#==================================================================
~Curve
DEPT .m                   : DEPTH
Lithology_geolink ._      : Lithology_geolink
DCAL .in                  : DCAL
CALI .in                  : CALI
BS .in                    : BS
DRHO .g/cm3               : DRHO
THOR .ppm                 : THOR
NPHI .m3/m3               : NPHI
RHOB .g/cm3               : RHOB
PEF .b/e                  : PEF
GR .gAPI                  : GR
URAN .ppm                 : URAN
DTC .us/ft                : DTC
RDEP .ohm.m               : RDEP
SP .mV                    : SP
RSHA .ohm.m               : RSHA
RHOM .g/cm3               : RHOM
RMED .ohm.m               : RMED
~Parameter
#==================================================================
~Ascii
# ...
 2254.0002441 5.0000000000 1.4008059502 13.650810242 12.250000954 0.0723254606 5.1581687927  -999.250000 2.3709290028 5.1923518181 59.112018585 2.2043695450 33.469051361 1.3815129995 77.791740417  -999.250000 2.6500000954 1.6580890417
 2254.1252441 5.0000000000 1.3492799997 13.599280357 12.250000954 0.0613643713 5.3470025063  -999.250000 2.3876960278 5.3208532333 59.142459869 2.0863375664 32.818698883 1.4231840372 77.974853516  -999.250000 2.6500000954 1.7151839733
 2254.2502441 5.0000000000 1.3026298285 13.552630424 12.250000954 0.0606770888 5.6553473473  -999.250000 2.3920259476 5.3427910805 60.005119324 1.9518747330 31.976324081 1.4447129965 78.117141724  -999.250000 2.6500000954 1.7428480387
 2254.3752441 5.0000000000 1.2472079992 13.497208595 12.250000954 0.0673396215 5.8840355873  -999.250000 2.3963570595 5.2334561348 61.683391571 1.7852911949 31.070396423 1.4414340258 78.217536926  -999.250000 2.6500000954 1.7503659725
 2254.5002441 5.0000000000 1.1755969524 13.425601006 12.250000954 0.0775021687 5.9023437500  -999.250000 2.3897159100 5.0868258476 64.134170532 1.6273223162 30.238042831 1.4200149775 78.318603516  -999.250000 2.6500000954 1.7356539965
 2254.6252441 6.0000000000 1.0916229486 13.341620445 12.250000954 0.0885495171 5.9768762589  -999.250000 2.3787920475 5.1229348183 67.107620239 1.5364861488 29.614641190 1.3895469904 78.443717957  -999.250000 2.6500000954 1.6814219952
 2254.7502441 6.0000000000 1.0025700331 13.252571106 12.250000954 0.0988019481 6.5286769867  -999.250000 2.3639349937 5.4467349052 70.253723145 1.5293939114 29.373497009 1.3551119566 78.577507019  -999.250000 2.6500000954 1.5777750015
 2254.8752441 6.0000000000 0.9140482545 13.164049149 12.250000954 0.1042200029 7.4894518852  -999.250000 2.3390500546 6.1029272079 72.909599304 1.5261640549 29.546985626 1.3187619448 78.663238525  -999.250000 2.6500000954 1.4503699541
 2255.0002441 6.0000000000 0.8317242265 13.081720352 12.250000954 0.1022619978 8.3853731155  -999.250000 2.3141660690 6.8760871887 74.328140259 1.4564372301 30.044525146 1.2796109915 78.679771423  -999.250000 2.6500000954 1.3365910053
 2255.1252441 6.0000000000 0.7673482895 13.017350197 12.250000954 0.0936712772 8.7289953232  -999.250000 2.3006229401 7.4697751999 74.267768860 1.3220548630 30.784986496 1.2341680527 78.625213623  -999.250000 2.6500000954 1.2809109688
 2255.2504883 6.0000000000 0.7320441604 12.982040405 12.250000954 0.0826725066 8.4172134399  -999.250000 2.2892050743 7.6814298630 73.471046448 1.2482523918 31.666522980 1.1812239885 78.588172913  -999.250000 2.6500000954 1.2643920183
 2255.3752441 6.0000000000 0.7256135941 12.975608826 12.250000954 0.0738141686 7.6538648605  -999.250000 2.2803540230 7.5869441032 72.914993286 1.3384701014 32.574066162 1.1233969927 78.658218384  -999.250000 2.6500000954 1.2823040485
 2255.5002441 6.0000000000 0.7428454757 12.992850304 12.250000954 0.0677793100 6.8173284531  -999.250000 2.2752799988 7.4748787880 72.993896484 1.5279445648 33.288089752 1.0649089813 78.958480835  -999.250000 2.6500000954 1.3061350584
 2255.6252441 6.0000000000 0.7691565156 13.019159317 12.250000954 0.0623762496 6.2693576813  -999.250000 2.2702059746 7.5911607742 73.296600342 1.7043095827 33.695121765 1.0071419477 79.492408752  -999.250000 2.6500000954 1.2975389957
 2255.7502441 6.0000000000 0.7932520509 13.043250084 12.250000954 0.0598156415 6.0430111885  -999.250000 2.2489130497 7.9751930237 73.269546509 1.8629120588 33.815395355 0.9494773746 80.288711548  -999.250000 2.6500000954 1.2371599674
 2255.8752441 6.0000000000 0.8076772690 13.057680130 12.250000954 0.0659444928 5.9460892677  -999.250000 2.2270359993 8.4004478455 72.703979492 2.0740423203 33.738159180 0.8954020739 81.209320068  -999.250000 2.6500000954 1.1519320011
 2256.0002441 6.0000000000 0.8107098937 13.060709000 12.250000954 0.0799530968 5.7867364883  -999.250000 2.2068941593 8.6135482788 72.094688416 2.3516438007 33.599628448 0.8478549123 82.093589783  -999.250000 2.6500000954 1.0718760490
 2256.1252441 6.0000000000 0.8119555712 13.061961174 12.250000954 0.0913925171 5.5494651794  -999.250000 2.1883039474 8.5339822769 71.866653442 2.5783963203 33.582923889 0.8090345263 82.754539490  -999.250000 2.6500000954 1.0287309885
 2256.2502441 6.0000000000 0.8430843353 13.093080521 12.250000954 0.0903644711 5.3271908760  -999.250000 2.1707799435 8.3747577667 71.857353210 2.5760776997 33.829780579 0.7793912292 83.143989563  -999.250000 2.6500000954 1.0161859989
 2256.3752441 5.0000000000 0.9451342225 13.195130348 12.250000954 0.0800764710 5.2715935707  -999.250000 2.1642599106 8.3198900223 71.240577698 2.3083539009 34.306217194 0.7631469965 83.263191223  -999.250000 2.6500000954 1.0248810053
 2256.5002441 5.0000000000 1.1291940212 13.379191399 12.250000954 0.0722007304 5.4220705032  -999.250000 2.1577401161 8.3272495270 69.274963379 1.9266579151 34.952758789 0.7590516806 83.217300415  -999.250000 2.6500000954 1.0339930058
 2256.6252441 5.0000000000 1.3389971256 13.588999748 12.250000954 0.0758311599 5.6113495827  -999.250000 2.1610419750 8.1845607758 65.963653564 1.7008779049 35.655715942 0.7655962110 83.094673157  -999.250000 2.6500000954 1.0354839563
 2256.7502441 5.0000000000 1.4849539995 13.734951019 12.250000954 0.0869678035 5.5850749016  -999.250000 2.1696140766 7.5934920311 61.918861389 1.7413009405 36.249099731 0.7823858857 82.915252686  -999.250000 2.6500000954 1.0500960350
 2256.8752441 5.0000000000 1.4930340052 13.743028641 12.250000954 0.0926434696 5.3159914017  -999.250000 2.1868410110 6.7462501526 58.345748901 2.0492670536 36.417655945 0.8032513261 82.682113647  -999.250000 2.6500000954 1.0984549522
 2257.0002441 5.0000000000 1.3480818272 13.598079681 12.250000954 0.0852013901 4.9019165039  -999.250000 2.2363629341 5.9170780182 56.526138306 2.4931664467 36.191829681 0.8255857825 82.433349609  -999.250000 2.6500000954 1.2118799686
 2257.1252441 5.0000000000 1.1143200397 13.364320755 12.250000954 0.0702761188 4.4492931366  -999.250000 2.2858839035 5.4779648781 57.153839111 2.8852367401 35.696376801 0.8487110138 82.246627808  -999.250000 2.6500000954 1.3622709513
 2257.2502441 5.0000000000 0.8822755814 13.132279396 12.250000954 0.0619232804 3.9336621761  -999.250000 2.3233220577 5.4250168800 59.744998932 3.0571320057 34.983116150 0.8741856217 82.174827576  -999.250000 2.6500000954 1.4631880522
 2257.3752441 5.0000000000 0.7063227296 12.956320763 12.250000954 0.0682295412 3.4024846554  -999.250000 2.3572289944 5.7437939644 63.051261902 2.9707725048 34.056125641 0.9016594887 82.229919434  -999.250000 2.6500000954 1.4376029968
 2257.5002441 6.0000000000 0.5899868011 12.839988708 12.250000954 0.0835516229 2.9857006073  -999.250000 2.3777520657 6.1672611237 65.823928833 2.7007517815 32.831562042 0.9239466190 82.445602417  -999.250000 2.6500000954 1.3290779591
 2257.6254883 6.0000000000 0.5175647736 12.767560005 12.250000954 0.0977890864 2.9361557961  -999.250000 2.3716359138 6.5365681648 67.499923706 2.4199819565 31.441034317 0.9320284724 82.902442932  -999.250000 2.6500000954 1.2250410318
 2257.7502441 6.0000000000 0.4780578911 12.728060722 12.250000954 0.1047623977 3.2577898502  -999.250000 2.3655200005 6.6888642311 68.366813660 2.2623162270 30.396177292 0.9212499261 83.461196899  -999.250000 2.6500000954 1.1711319685
 2257.8752441 6.0000000000 0.4733706713 12.723369598 12.250000954 0.1064715981 3.9698317051  -999.250000 2.3493080139 6.7244291306 68.993057251 2.2194285393 30.044178009 0.8997969031 83.875839233  -999.250000 2.6500000954 1.1514029503
 2258.0002441 6.0000000000 0.5253409743 12.775341988 12.250000954 0.1070884019 4.9590106010  -999.250000 2.3319358826 6.6841130257 69.654869080 2.1313683987 30.507188797 0.8790522218 83.809883118  -999.250000 2.6500000954 1.1408740282
 2258.1252441 6.0000000000 0.6483259201 12.898329735 12.250000954 0.1102603003 5.9878873825  -999.250000 2.3175606728 6.6484441757 70.324096680 1.9101874828 31.650585175 0.8667727113 83.323883057  -999.250000 2.6500000954 1.1197650433
 2258.2502441 6.0000000000 0.8424435258 13.092439651 12.250000954 0.1148698032 6.6974205971  -999.250000 2.3067131042 6.6686820984 70.844566345 1.5453851223 32.953544617 0.8634052873 82.607192993  -999.250000 2.6500000954 1.0944319963
