# LAS format log file from PETREL
# Project units are specified as depth units
#==================================================================
~Version information
VERS.   2.0:
WRAP.   NO:
#==================================================================
~Well
STRT .m      1199.6253662 :
STOP .m      3185.7504883 :
STEP .m     0.00000000 :
NULL .        -999.250000 :
COMP.           : COMPANY
WELL.  25/5-4  Byggve   : WELL
FLD.            : FIELD
LOC.            : LOCATION
SRVC.           : SERVICE COMPANY
DATE.  2018-09-11 14:48:21   : Log Export Date {yyyy-MM-dd HH:mm:ss}
PROV.           : PROVINCE
UWI.   25/5-4   : UNIQUE WELL ID
API.            : API NUMBER
#==================================================================
~Curve
DEPT .m                   : DEPTH
Lithology_geolink ._      : Lithology_geolink
DCAL .in                  : DCAL
CALI .in                  : CALI
BS .in                    : BS
DRHO .g/cm3               : DRHO
THOR .ppm                 : THOR
NPHI .m3/m3               : NPHI
RHOB .g/cm3               : RHOB
PEF .b/e                  : PEF
GR .gAPI                  : GR
URAN .ppm                 : URAN
DTC .us/ft                : DTC
RDEP .ohm.m               : RDEP
SP .mV                    : SP
RSHA .ohm.m               : RSHA
RHOM .g/cm3               : RHOM
RMED .ohm.m               : RMED
~Parameter
#==================================================================
~Ascii
# ...
 3177.1252441  -999.250000 -0.449245512 8.0507545471 8.5000000000 0.0558168292 0.0000000000  -999.250000 2.3355879784 2.7072200775  -999.250000 0.0000000000  -999.250000 0.9441851974 110.07440186  -999.250000 -999.9000244 1.0254449844
 3177.2502441  -999.250000 -0.449245512 8.0507545471 8.5000000000 0.0607266612 0.0000000000  -999.250000 2.3465020657 2.7067139149  -999.250000 0.0000000000  -999.250000 1.0117479563 109.99720001  -999.250000 -999.9000244 1.0358890295
 3177.3752441  -999.250000 -0.449245512 8.0507545471 8.5000000000 0.0657089427 0.0000000000  -999.250000 2.3555140495 2.7018399239  -999.250000 0.0000000000  -999.250000 1.0590460300 110.04810333  -999.250000 -999.9000244 1.0865629911
 3177.5002441  -999.250000 -0.449454308 8.0505456924 8.5000000000 0.0678197369 0.0000000000  -999.250000 2.3586490154 2.6971189976  -999.250000 0.0000000000  -999.250000 1.0754510164 110.35540009  -999.250000 -999.9000244 1.2006800175
 3177.6252441  -999.250000 -0.450687408 8.0493125916 8.5000000000 0.0654936135 0.0000000000  -999.250000 2.3617839813 2.6942729950  -999.250000 0.0000000000  -999.250000 1.0550669432 110.94499969  -999.250000 -999.9000244 1.3331229687
 3177.7502441  -999.250000 -0.454044312 8.0459556580 8.5000000000 0.0600572899 0.0000000000  -999.250000 2.3477830887 2.6913681030  -999.250000 0.0000000000  -999.250000 1.0007300377 111.84049988  -999.250000 -999.9000244 1.3937040567
 3177.8752441  -999.250000 -0.459247559 8.0407524109 8.5000000000 0.0540503487 0.0000000000  -999.250000 2.3296329975 2.6863629818  -999.250000 0.0000000000  -999.250000 0.9167894125 112.87870026  -999.250000 -999.9000244 1.3166459799
 3178.0002441  -999.250000 -0.463797629 8.0362024307 8.5000000000 0.0497276112 0.0000000000  -999.250000 2.3138990402 2.6780080795  -999.250000 0.0000000000  -999.250000 0.8268707991 113.88089752  -999.250000 -999.9000244 1.1618429422
 3178.1252441  -999.250000 -0.465172797 8.0348272324 8.5000000000 0.0475718305 0.0000000000  -999.250000 2.3023209572 2.6673929691  -999.250000 0.0000000000  -999.250000 0.7510213852 114.66490173  -999.250000 -999.9000244 1.0204260349
 3178.2502441  -999.250000 -0.462711275 8.0372886658 8.5000000000 0.0473197401 0.0000000000  -999.250000 2.2907431126 2.6559879780  -999.250000 0.0000000000  -999.250000 0.6969469786 115.24839783  -999.250000 -999.9000244 0.9324920177
 3178.3752441  -999.250000 -0.459675789 8.0403242111 8.5000000000 0.0484721512 0.0000000000  -999.250000 2.2923738956 2.6453700066  -999.250000 0.0000000000  -999.250000 0.6643322110 115.71579742  -999.250000 -999.9000244 0.8943160176
 3178.5002441  -999.250000 -0.459286690 8.0407133102 8.5000000000 0.0504063517 0.0000000000  -999.250000 2.2950270176 2.6362679005  -999.250000 0.0000000000  -999.250000 0.6467242837 116.25579834  -999.250000 -999.9000244 0.8958039880
 3178.6252441  -999.250000 -0.462100983 8.0378990173 8.5000000000 0.0517670400 0.0000000000  -999.250000 2.2965350151 2.6289629936  -999.250000 0.0000000000  -999.250000 0.6367815733 116.96420288  -999.250000 -999.9000244 0.9143677950
 3178.7504883  -999.250000 -0.465373993 8.0346260071 8.5000000000 0.0513603091 0.0000000000  -999.250000 2.2968559265 2.6247830391  -999.250000 0.0000000000  -999.250000 0.6301028728 117.94120026  -999.250000 -999.9000244 0.9298710823
 3178.8754883  -999.250000 -0.466868401 8.0331315994 8.5000000000 0.0488363914 0.0000000000  -999.250000 2.2969028950 2.6226611137  -999.250000 0.0000000000  -999.250000 0.6246538162 119.12870026  -999.250000 -999.9000244 0.9313318133
 3179.0004883  -999.250000 -0.467191666 8.0328083038 8.5000000000 0.0456678793 0.0000000000  -999.250000 2.2918710709 2.6176459789  -999.250000 0.0000000000  -999.250000 0.6199508905 120.41210175  -999.250000 -999.9000244 0.9205521941
 3179.1254883  -999.250000 -0.467143983 8.0328559875 8.5000000000 0.0429758988 0.0000000000  -999.250000 2.2868390083 2.6119530201  -999.250000 0.0000000000  -999.250000 0.6160488725 121.58239746  -999.250000 -999.9000244 0.9048805237
 3179.2504883  -999.250000 -0.466727287 8.0332727432 8.5000000000 0.0410729200 0.0000000000  -999.250000 2.2816259861 2.6187429428  -999.250000 0.0000000000  -999.250000 0.6129171252 122.54679871  -999.250000 -999.9000244 0.8952708244
 3179.3752441  -999.250000 -0.465386391 8.0346136093 8.5000000000 0.0392160490 0.0000000000  -999.250000 2.2763009071 2.6391229630  -999.250000 0.0000000000  -999.250000 0.6110745072 123.27369690  -999.250000 -999.9000244 0.8958544731
 3179.5002441  -999.250000 -0.463588715 8.0364112854 8.5000000000 0.0369197987 0.0000000000  -999.250000 2.2712290287 2.6495380402  -999.250000 0.0000000000  -999.250000 0.6106662750 123.93479919  -999.250000 -999.9000244 0.9026697874
 3179.6252441  -999.250000 -0.462983072 8.0370168686 8.5000000000 0.0342265107 0.0000000000  -999.250000 2.2673580647 2.6218979359  -999.250000 0.0000000000  -999.250000 0.6116483808 124.74050140  -999.250000 -999.9000244 0.9060642719
 3179.7502441  -999.250000 -0.464167565 8.0358324051 8.5000000000 0.0313609987 0.0000000000  -999.250000 2.2634871006 2.5533909798  -999.250000 0.0000000000  -999.250000  -999.250000 125.86669922  -999.250000 -999.9000244 0.8960468769
 3179.8752441  -999.250000 -0.466122597 8.0338773727 8.5000000000 0.0285660308 0.0000000000  -999.250000 2.2594659328 2.4689118862  -999.250000 0.0000000000  -999.250000  -999.250000 127.15730286  -999.250000 -999.9000244 0.8715528250
 3180.0002441  -999.250000 -0.468229324 8.0317707062 8.5000000000 0.0261477698 0.0000000000  -999.250000 2.2553920746 2.3951940536  -999.250000 0.0000000000  -999.250000  -999.250000 128.29170227  -999.250000 -999.9000244 0.8339173794
 3180.1252441  -999.250000 -0.472968102 8.0270318985 8.5000000000 0.0242377594 0.0000000000  -999.250000 2.2513918877 2.3529069424  -999.250000 0.0000000000  -999.250000  -999.250000 128.77859497  -999.250000 -999.9000244 0.7897865772
 3180.2502441  -999.250000 -0.483516723 8.0164833069 8.5000000000 0.0227013808 0.0000000000  -999.250000 2.2475690842 2.3383080959  -999.250000 0.0000000000  -999.250000  -999.250000 128.49929810  -999.250000 -999.9000244 0.7497733235
 3180.3752441  -999.250000 -0.500430107 7.9995698929 8.5000000000 0.0214884598 0.0000000000  -999.250000  -999.250000 2.3510379791  -999.250000 0.0000000000  -999.250000  -999.250000 127.43389893  -999.250000 -999.9000244 0.7213807106
 3180.5002441  -999.250000 -0.523759425 7.9762415886 8.5000000000 0.0210050195 0.0000000000  -999.250000  -999.250000 2.3914639950  -999.250000 0.0000000000  -999.250000  -999.250000 125.94058990  -999.250000 -999.9000244 0.7051150799
 3180.6252441  -999.250000 -0.557146072 7.9428539276 8.5000000000 0.0222440008 0.0000000000  -999.250000  -999.250000 2.4576098919  -999.250000 0.0000000000  -999.250000  -999.250000 124.42449951  -999.250000 -999.9000244 0.7004652023
 3180.7502441  -999.250000 -0.608499527 7.8915004730 8.5000000000 0.0263139103 0.0000000000  -999.250000  -999.250000 2.5499720573  -999.250000 0.0000000000  -999.250000  -999.250000 123.20899963  -999.250000 -999.9000244 0.7033451200
 3180.8752441  -999.250000 -0.682761133 7.8172388077 8.5000000000 0.0332197398 0.0000000000  -999.250000  -999.250000 2.6576039791  -999.250000 0.0000000000  -999.250000  -999.250000 122.41529846  -999.250000 -999.9000244 0.7079514861
 3181.0002441  -999.250000 -0.775391579 7.7246074677 8.5000000000 0.0411204696 0.0000000000  -999.250000  -999.250000 2.7777879238  -999.250000 0.0000000000  -999.250000  -999.250000 122.02829742  -999.250000 -999.9000244 0.7101317048
 3181.1254883  -999.250000 -0.871582508 7.6284170151 8.5000000000 0.0470762514 0.0000000000  -999.250000  -999.250000 2.9014279842  -999.250000 0.0000000000  -999.250000  -999.250000 121.91159821  -999.250000  -999.250000 0.7060332894
 3181.2504883  -999.250000 -0.954394281 7.5456061363 8.5000000000 0.0489455611 0.0000000000  -999.250000  -999.250000 3.0140979290  -999.250000 0.0000000000  -999.250000  -999.250000 121.93299866  -999.250000  -999.250000 0.6972824931
 3181.3754883  -999.250000 -1.013074994 7.4869251251 8.5000000000 -0.053614851 0.0000000000  -999.250000  -999.250000 3.0902590752  -999.250000 0.0000000000  -999.250000  -999.250000 121.97029877  -999.250000  -999.250000 0.6880385280
