# LAS format log file from PETREL
# Project units are specified as depth units
#==================================================================
~Version information
VERS.   2.0:
WRAP.   NO:
#==================================================================
~Well
STRT .m      1153.6579590 :
STOP .m      2874.8635254 :
STEP .m     0.00000000 :
NULL .        -999.250000 :
COMP.           : COMPANY
WELL.  25/5-3  Skirne   : WELL
FLD.            : FIELD
LOC.            : LOCATION
SRVC.           : SERVICE COMPANY
DATE.  2018-09-11 14:48:21   : Log Export Date {yyyy-MM-dd HH:mm:ss}
PROV.           : PROVINCE
UWI.   25/5-3   : UNIQUE WELL ID
API.            : API NUMBER
#==================================================================
~Curve
DEPT .m                   : DEPTH
Lithology_geolink ._      : Lithology_geolink
CALI .in                  : CALI
BS .in                    : BS
DRHO .g/cm3               : DRHO
THOR .ppm                 : THOR
NPHI .m3/m3               : NPHI
RHOB .g/cm3               : RHOB
PEF .b/e                  : PEF
GR .gAPI                  : GR
URAN .ppm                 : URAN
DTC .us/ft                : DTC
RDEP .ohm.m               : RDEP
SP .mV                    : SP
RSHA .ohm.m               : RSHA
RMED .ohm.m               : RMED
~Parameter
#==================================================================
~Ascii
# ...
 2532.5729980 5.0000000000 8.6020002365 8.5000000000 0.0099999998 11.052619934 0.3086606264 2.4730000496 3.7582559586 72.288932800 2.4379169941 93.280197144 2.4726009369 -2.058043242 3.4079647064 2.5534574986
 2532.7255859 5.0000000000 8.6020002365 8.5000000000 0.0099999998 11.001336098 0.3130160570 2.4769871235 3.8728156090 74.196907043 2.3972678185 93.142883301 2.3643462658 -1.963304520 3.4399487972 2.4771218300
 2532.8779297 5.0000000000 8.6020002365 8.5000000000 0.0070048077 10.960432053 0.3179342449 2.4829807281 3.9748363495 74.507026672 2.3936448097 93.016319275 2.3081796169 -1.775602579 3.4919166565 2.4560337067
 2533.0302734 5.0000000000 8.6020002365 8.5000000000 0.0050032050 10.816391945 0.3234224319 2.4919712543 4.1327466965 74.593727112 2.2678155899 93.107734680 2.2980320454 -1.509852529 3.4800193310 2.4440193176
 2533.1826172 5.0000000000 8.6020002365 8.5000000000 0.0059968000 10.703168869 0.3294310868 2.5009567738 4.2107505798 76.397300720 2.1731417179 93.190666199 2.3029758930 -1.190536022 3.3833103180 2.4370224476
 2533.3352051 5.0000000000 8.6020002365 8.5000000000 0.0060000001 10.626269341 0.3357597291 2.5109679699 4.3547692299 79.952590942 2.0227847099 93.534942627 2.3059904575 -0.842115402 3.2861554623 2.4409935474
 2533.4875488 5.0000000000 8.6020002365 8.5000000000 0.0050016022 14.639307976 0.3419003487 2.5179774761 4.5347113609 83.434837341 1.6584756374 94.648216248 2.3079936504 -0.488134593 3.1602020264 2.4449934959
 2533.6398926 5.0000000000 8.6020002365 8.5000000000 0.0059983977 15.180200577 0.3472030163 2.5239806175 4.3013749123 85.365829468 1.7168396711 96.036888123 2.3109905720 -0.151080132 3.0591619015 2.4529871941
 2533.7922363 5.0000000000 8.6020002365 8.5000000000 0.0069983979 15.187170029 0.3511908352 2.5259904861 4.3049936295 85.978080750 1.7138897181 96.904220581 2.3169710636 0.1485600024 3.0599982738 2.4639823437
 2533.9445801 5.0000000000 8.6020002365 8.5000000000 0.0079968004 15.025403023 0.3537477553 2.5250048637 4.2192749977 86.170082092 1.6699439287 97.138580322 2.3249616623 0.4027788639 3.1038591862 2.4909136295
 2534.0971680 5.0000000000 8.6020002365 8.5000000000 0.0060032052 15.077273369 0.3550757766 2.5230064392 4.3198385239 86.473030090 1.7155666351 97.036277771 2.3359646797 0.6183109283 3.1678974628 2.5129647255
 2534.2495117 5.0000000000 8.6020002365 8.5000000000 0.0089951921 15.123902321 0.3555684090 2.5210063457 4.2501120567 86.814903259 1.7787038088 96.867156982 2.3489582539 0.8044038415 3.2239103317 2.5249807835
 2534.4018555 5.0000000000 8.6020002365 8.5000000000 0.0080016032 14.921651840 0.3556894362 2.5190095901 4.2619810104 87.280754089 1.7014704943 96.988609314 2.3629326820 0.9682127833 3.2509567738 2.5299918652
 2534.5541992 5.0000000000 8.6020002365 8.5000000000 0.0080000004 14.831539154 0.3558492064 2.5170094967 4.2699742317 87.759696960 1.6280624866 97.353584290 2.3759374619 1.1142981052 3.2340543270 2.5329904556
 2534.7067871 5.0000000000 8.6020002365 8.5000000000 0.0050048074 15.107062340 0.3562886119 2.5169999599 4.2769885063 88.027145386 1.7287756205 97.746932983 2.3849711418 1.2415928841 3.2160289288 2.5379920006
 2534.8591309 5.0000000000 8.6020002365 8.5000000000 0.0089935893 15.256201744 0.3571671546 2.5169999599 4.2730059624 87.950248718 1.7875679731 97.963630676 2.3859968185 1.3366955519 3.2309758663 2.5449888706
 2535.0114746 5.0000000000 8.6020002365 8.5000000000 0.0060048075 15.153540611 0.3586253226 2.5189936161 4.1801490784 87.800483704 1.7273653746 97.791938782 2.3790223598 1.3848460913 3.2569582462 2.5440015793
 2535.1638184 6.0000000000 8.6020002365 8.5000000000 0.0099871997 15.322129250 0.3606601954 2.5209903717 4.1520895958 88.323471069 1.7658890486 97.700920105 2.3670578003 1.3790287971 3.2599904537 2.5290479660
 2535.3164063 6.0000000000 8.6020002365 8.5000000000 0.0129951928 15.202163696 0.3628230989 2.5229935646 4.2298750877 89.772346497 1.7060077190 98.070541382 2.3550384045 1.3341442347 3.2300481796 2.5080335140
 2535.4687500 6.0000000000 8.6020002365 8.5000000000 0.0189903844 15.108307838 0.3643152118 2.5249936581 4.3088731766 91.970939636 1.5907961130 98.537704468 2.3440353870 1.2751890421 3.1940577030 2.4930241108
 2535.6210938 6.0000000000 8.6020002365 8.5000000000 0.0170032065 15.221264839 0.3645392656 2.5259969234 4.1372756958 94.011459351 1.5905935764 98.883705139 2.3350288868 1.2311409712 3.1530659199 2.4770257473
 2535.7734375 6.0000000000 8.6020002365 8.5000000000 0.0299791656 15.072917938 0.3634950221 2.5260000229 4.0042133331 94.700706482 1.4839397669 99.611656189 2.3270382881 1.2150768042 3.0910995007 2.4620239735
 2535.9257813 6.0000000000 8.6020002365 8.5000000000 0.0280064009 15.347938538 0.3618279994 2.5240094662 3.9750926495 93.632179260 1.8436323404 100.06243134 2.3170480728 1.2110191584 3.0301952362 2.4560194016
 2536.0783691 6.0000000000 8.6020002365 8.5000000000 0.0230080131 14.974829674 0.3603248000 2.5180191994 4.0898160934 91.445022583 1.6137127876 100.02307892 2.3050384521 1.1771090031 3.0230112076 2.4579968452
 2536.2307129 5.0000000000 8.6020002365 8.5000000000 0.0309871789 15.365122795 0.3593730330 2.5110223293 4.1129631996 89.325790405 1.7250729799 100.06764984 2.2960288525 1.0693461895 3.0849006176 2.4579999447
 2536.3830566 5.0000000000 8.6020002365 8.5000000000 0.0309999995 15.110872269 0.3585738242 2.5050289631 4.6012167931 87.403236389 1.5193922520 99.855773926 2.2979905605 0.8769263625 3.1139535904 2.4450206757
 2536.5354004 5.0000000000 8.6020002365 8.5000000000 0.0170448013 15.250160217 0.3568184674 2.5020143986 4.9369249344 85.312057495 1.5802929401 98.815315247 2.3139228821 0.6212307811 3.0711376667 2.4400160313
 2536.6879883 5.0000000000 8.6020002365 8.5000000000 0.0209935904 15.421151161 0.3528427780 2.5020000935 4.7772579193 83.018341064 1.6172333956 97.671737671 2.3429069519 0.3418942094 3.0170865059 2.4749438763
 2536.8403320 5.0000000000 8.6020002365 8.5000000000 0.0249935910 14.580059052 0.3461813927 2.5049905777 4.1460127831 81.162940979 1.4958616495 96.577209473 2.3758940697 0.0788429528 3.0429582596 2.5289134979
 2536.9926758 5.0000000000 8.6020002365 8.5000000000 0.0170128215 13.926937103 0.3377207220 2.5089807510 3.8894102573 80.110054016 1.3152885437 94.879684448 2.3989629745 -0.144924805 3.1767852306 2.5599503517
 2537.1450195 5.0000000000 8.6020002365 8.5000000000 0.0140096005 14.036078453 0.3292407393 2.5109903812 4.2139568329 79.403388977 1.5585912466 93.523262024 2.4079711437 -0.330110580 3.3534336090 2.5909008980
 2537.2976074 5.0000000000 8.6330003738 8.5000000000 0.0120032048 14.262417793 0.3223620057 2.5109999180 4.1880435944 78.745101929 1.7682653666 93.059379578 2.4139904976 -0.493477553 3.4538397789 2.5939953327
 2537.4499512 5.0000000000 8.6020002365 8.5000000000 0.0080064107 14.180147171 0.3176650107 2.5090065002 4.1211071014 77.941581726 1.8355884552 92.640289307 2.4299743176 -0.650496840 3.4979293346 2.5800223351
 2537.6022949 5.0000000000 8.6020002365 8.5000000000 0.0089983968 13.947854996 0.3141711652 2.5080029964 3.7016730309 77.051856995 1.7757525444 92.163902283 2.4609503746 -0.806499958 3.4291105270 2.5750081539
 2537.7546387 5.0000000000 8.6020002365 8.5000000000 0.0080016032 13.658650398 0.3098905981 2.5070047379 3.5552339554 76.143371582 1.7055127621 92.228858948 2.5089230537 -0.961256027 3.3271634579 2.5809905529
 2537.9069824 5.0000000000 8.6020002365 8.5000000000 0.0050096000 13.486564636 0.3029733300 2.5069999695 3.4323935509 76.053413391 1.7702389956 92.741134644 2.5698046684 -1.121230721 3.2651984692 2.6128976345
 2538.0595703 5.0000000000 8.6020002365 8.5000000000 0.0049999999 13.301910400 0.2930518091 2.5060031414 3.5078780651 77.376739502 1.7874538898 92.663970947 2.6378910542 -1.302419901 3.2510223389 2.6719052792
 2538.2119141 5.0000000000 8.6020002365 8.5000000000 0.0079951929 13.609233856 0.2817362845 2.5050032139 3.5429439545 78.881179810 2.2684154510 91.724075317 2.7148764133 -1.514320493 3.2649776936 2.7828221321
 2538.3642578 5.0000000000 8.6020002365 8.5000000000 0.0070016026 12.333291054 0.2719072402 2.5020143986 3.6927597523 77.777351379 2.0195012093 90.631271362 2.7878830433 -1.762804866 3.4147596359 2.9756908417
