# LAS format log file from PETREL
# Project units are specified as depth units
#==================================================================
~Version information
VERS.   2.0:
WRAP.   NO:
#==================================================================
~Well
STRT .m      1199.6253662 :
STOP .m      3185.7504883 :
STEP .m     0.00000000 :
NULL .        -999.250000 :
COMP.           : COMPANY
WELL.  25/5-4  Byggve   : WELL
FLD.            : FIELD
LOC.            : LOCATION
SRVC.           : SERVICE COMPANY
DATE.  2018-09-11 14:48:21   : Log Export Date {yyyy-MM-dd HH:mm:ss}
PROV.           : PROVINCE
UWI.   25/5-4   : UNIQUE WELL ID
API.            : API NUMBER
#==================================================================
~Curve
DEPT .m                   : DEPTH
Lithology_geolink ._      : Lithology_geolink
DCAL .in                  : DCAL
CALI .in                  : CALI
BS .in                    : BS
DRHO .g/cm3               : DRHO
THOR .ppm                 : THOR
NPHI .m3/m3               : NPHI
RHOB .g/cm3               : RHOB
PEF .b/e                  : PEF
GR .gAPI                  : GR
URAN .ppm                 : URAN
DTC .us/ft                : DTC
RDEP .ohm.m               : RDEP
SP .mV                    : SP
RSHA .ohm.m               : RSHA
RHOM .g/cm3               : RHOM
RMED .ohm.m               : RMED
~Parameter
#==================================================================
~Ascii
# ...
 1330.8752441  -999.250000 0.4593372047 12.709340096 12.250000954 0.0329776183 5.1024527550  -999.250000 2.1192939281 4.8701858521 62.370250702 0.3289802670 39.321548462 1.2403160334 73.590721130  -999.250000 2.6500000954 1.3787280321
 1331.0002441  -999.250000 0.6147593856 12.864760399 12.250000954 0.0330832601 4.7702183723  -999.250000 2.1186809540 4.6514878273 63.106330872 0.6263578534 39.637714386 1.2400660515 73.267669678  -999.250000 2.6500000954 1.4148240089
 1331.1252441  -999.250000 0.7712811828 13.021280289 12.250000954 0.0312105808 3.9603104591  -999.250000 2.1180679798 4.5675930977 63.814830780 1.0656129122 39.986103058 1.2528369427 73.129661560  -999.250000 2.6500000954 1.4202059507
 1331.2502441  -999.250000 0.9276227951 13.177619934 12.250000954 0.0309282895 3.0446939468  -999.250000 2.1158750057 4.5466527939 64.117523193 1.5329691172 40.337478638 1.2729510069 73.031509399  -999.250000 2.6500000954 1.4078170061
 1331.3753662  -999.250000 1.0790079832 13.329010010 12.250000954 0.0338546894 2.4285416603  -999.250000 2.1127610207 4.5297551155 64.100326538 1.9782179594 40.657421112 1.2948110104 72.953147888  -999.250000 2.6500000954 1.3889679909
 1331.5003662  -999.250000 1.2077499628 13.457749367 12.250000954 0.0389915705 2.4797616005  -999.250000 2.1100339890 4.5151519775 64.164199829 2.3594117165 40.869075775 1.3099529743 72.930191040  -999.250000 2.6500000954 1.3786629438
 1331.6253662  -999.250000 1.2917809486 13.541781425 12.250000954 0.0438767187 3.5264921188  -999.250000 2.1089150906 4.5053339005 64.775283813 2.6017606258 40.939941406 1.3149600029 72.967590332  -999.250000 2.6500000954 1.3861629963
 1331.7503662  -999.250000 1.3223178387 13.572319984 12.250000954 0.0467876308 5.1616644859  -999.250000 2.1077950001 4.4916877747 66.055000305 2.6562926769 40.867980957 1.3086400032 73.048072815  -999.250000 2.6500000954 1.4074909687
 1331.8752441  -999.250000 1.3190929890 13.569089890 12.250000954 0.0475558303 6.5208835602  -999.250000 2.1051011086 4.4876151085 67.645263672 2.5500862598 40.682716370 1.2985960245 73.097282410  -999.250000 2.6500000954 1.4276440144
 1332.0002441  -999.250000 1.3375420570 13.587539673 12.250000954 0.0481062196 6.5813241005  -999.250000 2.1018970013 4.5376210213 68.797126770 2.4089770317 40.447204590 1.2894330025 73.063529968  -999.250000 2.6500000954 1.4315470457
 1332.1252441  -999.250000 1.4244989157 13.674499512 12.250000954 0.0500416718 5.4658923149  -999.250000 2.0973029137 4.6576499939 69.044433594 2.2949492931 40.288890839 1.2848830223 72.953056335  -999.250000 2.6500000954 1.4100530148
 1332.2502441  -999.250000 1.5790879726 13.829091072 12.250000954 0.0529145710 3.6196660995  -999.250000 2.0897119045 4.7877469063 68.381317139 2.2176666260 40.373073578 1.2838029861 72.852172852  -999.250000 2.6500000954 1.3781989813
 1332.3752441  -999.250000 1.7483329773 13.998330116 12.250000954 0.0548314303 2.2216424942  -999.250000 2.0821208954 4.8991651535 67.014480591 2.0979804993 40.689735413 1.2837270498 72.838577271  -999.250000 2.6500000954 1.3496619463
 1332.5003662  -999.250000 1.8618239164 14.111821175 12.250000954 0.0545308702 1.7342286110  -999.250000 2.0778720379 5.0152430534 65.214157104 1.8827304840 41.162300110 1.2806700468 72.912612915  -999.250000 2.6500000954 1.3355940580
 1332.6253662  -999.250000 1.8776917458 14.127690315 12.250000954 0.0521090105 2.3591370583  -999.250000 2.0740840435 5.1676740646 63.477870941 1.5861545801 41.670822144 1.2729179859 72.999443054  -999.250000 2.6500000954 1.3425459862
 1332.7503662  -999.250000 1.8082029819 14.058199883 12.250000954 0.0482406802 3.2241284847  -999.250000 2.0701029301 5.4307088852 62.025371552 1.3663945198 42.068008423 1.2597739697 73.015533447  -999.250000 2.6500000954 1.3612569571
 1332.8753662  -999.250000 1.7112281322 13.961228371 12.250000954 0.0440153889 3.7437851429  -999.250000 2.0658769608 5.8265128136 60.837459564 1.3308980465 42.157802582 1.2444980145 72.944969177  -999.250000 2.6500000954 1.3774809837
 1333.0003662  -999.250000 1.6393760443 13.889380455 12.250000954 0.0412043482 3.5674698353  -999.250000 2.0616419315 6.3612217903 59.951549530 1.4669227600 41.990619659 1.2305920124 72.848449707  -999.250000 2.6500000954 1.3780000210
 1333.1252441  -999.250000 1.6137310266 13.863730431 12.250000954 0.0419744290 3.0921964645  -999.250000 2.0515229702 6.9089589119 59.580318451 1.6832280159 41.711208344 1.2226599455 72.803260803  -999.250000 2.6500000954 1.3634779453
 1333.2502441  -999.250000 1.6161919832 13.866189957 12.250000954 0.0470116884 2.8354167938  -999.250000 2.0414049625 7.3034119606 59.999809265 1.9535086155 41.444110870 1.2209199667 72.829689026  -999.250000 2.6500000954 1.3451609612
 1333.3752441  -999.250000 1.6175609827 13.867560387 12.250000954 0.0544176996 3.1005277634  -999.250000 2.0348439217 7.3616828918 61.295688629 2.2138485909 41.291347504 1.2247389555 72.908737183  -999.250000 2.6500000954 1.3335839510
 1333.5002441  -999.250000 1.5982949734 13.848299980 12.250000954 0.0601311810 3.6261551380  -999.250000 2.0310471058 7.1833438873 62.999858856 2.4433908463 41.313354492 1.2307339907 73.048408508  -999.250000 2.6500000954 1.3321460485
 1333.6252441  -999.250000 1.5640228987 13.814019203 12.250000954 0.0621221699 3.8584079742  -999.250000 2.0281751156 6.9462080002 64.176361084 2.5922050476 41.471817017 1.2358399630 73.302162170  -999.250000 2.6500000954 1.3399360180
 1333.7503662  -999.250000 1.5359581709 13.785960197 12.250000954 0.0610210299 3.7082037926  -999.250000 2.0317549706 6.8335070610 64.217948914 2.6973068714 41.640769958 1.2373410463 73.661659241  -999.250000 2.6500000954 1.3473030329
 1333.8753662  -999.250000 1.5307919979 13.780789375 12.250000954 0.0587051697 3.3688290119  -999.250000 2.0353350639 6.8188099861 63.515621185 2.8020992279 41.772956848 1.2339080572 74.060752869  -999.250000 2.6500000954 1.3507989645
 1334.0003662  -999.250000 1.5435090065 13.793511391 12.250000954 0.0554908812 3.2433784008  -999.250000 2.0406839848 6.8310050964 62.801898956 2.9380033016 41.848243713 1.2255270481 74.329673767  -999.250000 2.6500000954 1.3510210514
 1334.1253662  -999.250000 1.5560590029 13.806059837 12.250000954 0.0517943986 3.5101175308  -999.250000 2.0468389988 6.7736420631 62.376758575 2.9725441933 41.871593475 1.2133400440 74.401168823  -999.250000 2.6500000954 1.3508119583
 1334.2502441  -999.250000 1.5709689856 13.820968628 12.250000954 0.0486254916 4.2868518829  -999.250000 2.0516700745 6.6692910194 61.873638153 2.6360785961 41.871719360 1.1979470253 74.242317200  -999.250000 2.6500000954 1.3481500149
 1334.3752441  -999.250000 1.6085389853 13.858539581 12.250000954 0.0466210097 5.2258057594  -999.250000 2.0524981022 6.6147680283 60.993278503 1.9458491802 41.880462646 1.1797440052 74.010513306  -999.250000 2.6500000954 1.3377280235
 1334.5002441  -999.250000 1.6763881445 13.926387787 12.250000954 0.0450680591 5.9958653450  -999.250000 2.0533249378 6.6697201729 60.138339996 1.1009703875 41.890918732 1.1590499878 73.806686401  -999.250000 2.6500000954 1.3181120157
 1334.6252441  -999.250000 1.7532290220 14.003230095 12.250000954 0.0429793485 6.2329368591  -999.250000 2.0464489460 6.7431859970 60.013179779 0.4722556770 41.904483795 1.1367160082 73.844963074  -999.250000 2.6500000954 1.2890579700
 1334.7502441  -999.250000 1.8009619713 14.050959587 12.250000954 0.0394746400 5.8412308693  -999.250000 2.0377659798 6.7739601135 60.908168793 0.2964541018 41.936641693 1.1140929461 74.244331360  -999.250000 2.6500000954 1.2594920397
 1334.8753662  -999.250000 1.7986600399 14.048660278 12.250000954 0.0345187895 4.8826212883  -999.250000 2.0316359997 6.7744359970 62.249599457 0.3761263788 42.028442383 1.0927640200 75.089340210  -999.250000 2.6500000954 1.2326359749
 1335.0003662  -999.250000 1.7638390064 14.013839722 12.250000954 0.0289247297 3.7297956944  -999.250000 2.0298240185 6.7771887779 63.166419983 0.6922838688 42.274448395 1.0735559464 76.147636414  -999.250000 2.6500000954 1.2103580236
 1335.1253662  -999.250000 1.7508919239 14.000889778 12.250000954 0.0243366994 2.7394139767  -999.250000 2.0280129910 6.8099150658 63.174098969 0.9935741425 42.633747101 1.0563080311 77.040649414  -999.250000 2.6500000954 1.1933209896
