# LAS format log file from PETREL
# Project units are specified as depth units
#==================================================================
~Version information
VERS.   2.0:
WRAP.   NO:
#==================================================================
~Well
STRT .m      1153.6579590 :
STOP .m      2874.8635254 :
STEP .m     0.00000000 :
NULL .        -999.250000 :
COMP.           : COMPANY
WELL.  25/5-3  Skirne   : WELL
FLD.            : FIELD
LOC.            : LOCATION
SRVC.           : SERVICE COMPANY
DATE.  2018-09-11 14:48:21   : Log Export Date {yyyy-MM-dd HH:mm:ss}
PROV.           : PROVINCE
UWI.   25/5-3   : UNIQUE WELL ID
API.            : API NUMBER
#==================================================================
~Curve
DEPT .m                   : DEPTH
Lithology_geolink ._      : Lithology_geolink
CALI .in                  : CALI
BS .in                    : BS
DRHO .g/cm3               : DRHO
THOR .ppm                 : THOR
NPHI .m3/m3               : NPHI
RHOB .g/cm3               : RHOB
PEF .b/e                  : PEF
GR .gAPI                  : GR
URAN .ppm                 : URAN
DTC .us/ft                : DTC
RDEP .ohm.m               : RDEP
SP .mV                    : SP
RSHA .ohm.m               : RSHA
RMED .ohm.m               : RMED
~Parameter
#==================================================================
~Ascii
# ...
 2419.6447754 2.0000000000 8.3199996948 8.5000000000 0.0000000000 3.1355884075 0.1955792159 2.3070127964 6.4545898438 34.714096069 1.5060936213 90.149223328 16.611618042 -11.69076920 15.065788269 11.637128830
 2419.7971191 2.0000000000 8.3199996948 8.5000000000 0.0019967949 2.7169077396 0.1935397983 2.2910766602 5.1880302429 34.914028168 1.3622936010 90.839233398 18.719253540 -11.75867367 15.106941223 12.328894615
 2419.9494629 2.0000000000 8.3199996948 8.5000000000 0.0029968000 2.6057941914 0.1936295331 2.2671153545 4.6676640511 35.858440399 1.3218107224 93.335235596 18.788797379 -11.81373596 12.595064163 11.347154617
 2420.1020508 2.0000000000 8.3199996948 8.5000000000 0.0039983978 2.5092921257 0.1966104209 2.2410833836 4.5671586990 37.716041565 1.2107551098 97.106079102 17.128664017 -11.85088158 10.436451912 9.7505578995
 2420.2543945 2.0000000000 8.3199996948 8.5000000000 0.0030016026 2.6488192081 0.2020525485 2.2180736065 4.9773416519 40.002666473 1.2218307257 100.27037048 14.982879639 -11.87592030 9.1011381149 8.6148185730
 2420.4067383 2.0000000000 8.3199996948 8.5000000000 0.0000048077 2.7415332794 0.2084392756 2.2020766735 5.1876635551 41.835197449 1.2599743605 101.83770752 13.040225029 -11.89888954 8.0666570663 8.0179557800
 2420.5590820 2.0000000000 8.3199996948 8.5000000000 -0.003987200 2.9337062836 0.2139037400 2.1920480728 5.2288689613 42.776493073 1.2966990471 102.67741394 11.514884949 -11.93283653 7.5277247429 7.3860254288
 2420.7116699 2.0000000000 8.3199996948 8.5000000000 -0.011987180 2.9916293621 0.2170599550 2.1870160103 4.9823956490 43.343193054 1.2530537844 102.93436432 10.253018379 -11.99380493 7.3662567139 6.7000975609
 2420.8640137 2.0000000000 8.3149995804 8.5000000000 -0.015993591 2.8337256908 0.2176282108 2.1860032082 4.7783269882 44.222179413 1.1123230457 102.78694153 9.1465454102 -12.08769894 7.3210721016 6.0720067024
 2421.0163574 2.0000000000 8.2849998474 8.5000000000 -0.016000001 2.7665462494 0.2162544280 2.1889903545 4.8099484444 45.348388672 1.0734193325 102.65308380 8.3186502457 -12.20861149 7.0733971596 5.6456828117
 2421.1687012 2.0000000000 8.2419996262 8.5000000000 -0.012006410 3.4007012844 0.2139610499 2.1979568005 4.7011747360 46.002861023 0.8936730623 102.51927185 7.8664450645 -12.33041477 6.5668125153 5.4203605652
 2421.3210449 2.0000000000 8.2469997406 8.5000000000 -0.006019200 2.8748831749 0.2114421129 2.2139229774 4.9581747055 45.670619965 0.4930699170 101.90976715 7.7244520187 -12.41360092 6.2201104164 5.5426068306
 2421.4736328 2.0000000000 8.2659997940 8.5000000000 0.0029855769 2.9228744507 0.2089180797 2.2369263172 5.4621920586 44.515708923 0.4931282103 100.09887695 7.7100448608 -12.42596149 6.1860527992 5.8045797348
 2421.6259766 2.0000000000 8.2690000534 8.5000000000 0.0059951926 3.0157511234 0.2061887532 2.2629165649 6.5153112411 43.089572906 0.4891974032 96.762359619 7.7389068604 -12.36718845 6.4665498734 6.0246477127
 2421.7783203 2.0000000000 8.2930002213 8.5000000000 0.0079967957 3.0261921883 0.2032541037 2.2888753414 7.1589694023 41.998241425 0.4742935896 92.634422302 7.8247241974 -12.26648426 7.0680351257 6.1398158073
 2421.9306641 2.0000000000 8.3199996948 8.5000000000 0.0070032002 3.3085951805 0.2006923109 2.3118894100 7.2636671066 41.765102386 0.5548731089 89.979675293 8.0323333740 -12.15652943 7.5873360634 6.3403568268
 2422.0832520 2.0000000000 8.3199996948 8.5000000000 0.0050032050 3.3297102451 0.1997629553 2.3329327106 6.9515018463 42.501628876 0.5117461681 90.163497925 8.4653053284 -12.06429482 7.6189517975 6.5816135406
 2422.2355957 2.0000000000 8.3199996948 8.5000000000 -0.000990385 3.5106153488 0.2018432915 2.3579199314 6.7902579308 43.673236847 0.5065281987 91.006721497 9.0630826950 -11.99821186 7.4442801476 7.1371088028
 2422.3879395 2.0000000000 8.3199996948 8.5000000000 0.0019951924 3.4374589920 0.2075425386 2.3898465633 7.1164760590 44.326866150 0.3796794713 90.771194458 9.6461315155 -11.94724464 7.7365303040 8.0405511856
 2422.5402832 2.0000000000 8.3199996948 8.5000000000 0.0059872000 3.3584365845 0.2162182182 2.4308028221 8.2114868164 43.521903992 0.2755043209 90.298545837 10.071638107 -11.88828278 8.9949607849 9.0128831863
 2422.6928711 16.000000000 8.3199996948 8.5000000000 0.0119903851 3.3560140133 0.2261382341 2.4748587608 10.147897720 41.078842163 0.2623423040 88.484802246 10.254708290 -11.81124687 10.944876671 9.4433145523
 2422.8452148 16.000000000 8.3199996948 8.5000000000 0.0169919878 3.4497895241 0.2351411581 2.5128781796 10.419569016 37.703826904 0.2647076845 84.459823608 10.053647041 -11.72228527 12.222953796 9.2393283844
 2422.9975586 16.000000000 8.3199996948 8.5000000000 0.0140048079 2.8506743908 0.2415893525 2.5319392681 10.726508141 34.684673309 0.4119294882 81.277153015 9.4040870667 -11.63926601 12.134145737 8.5880451202
 2423.1499023 16.000000000 8.3199996948 8.5000000000 0.0070112180 2.6630129814 0.2447249889 2.5270240307 10.484389305 33.080692291 0.4038435817 81.812942505 8.3743047714 -11.58127880 10.236045837 7.5117263794
 2423.3022461 16.000000000 8.3199996948 8.5000000000 0.0020160000 2.8728642464 0.2447499633 2.4961490631 8.6538753510 33.351654053 0.5245392323 85.152824402 7.1130452156 -11.56806278 8.0360527039 6.3537120819
 2423.4548340 2.0000000000 8.3199996948 8.5000000000 -0.000995192 3.0229756832 0.2424374372 2.4471571445 6.6791605949 35.542957306 0.6061935425 89.610565186 5.9337725639 -11.60587788 6.0911102295 5.4374647141
 2423.6071777 2.0000000000 8.3199996948 8.5000000000 -0.001000000 3.3129692078 0.2388216108 2.3891859055 5.2442979813 39.261066437 0.1202282012 94.394424438 5.0488333702 -11.69072723 4.7142047882 4.7710671425
 2423.7595215 2.0000000000 8.3199996948 8.5000000000 -0.001998398 3.3795564175 0.2349088192 2.3332686424 4.6379694939 43.468761444 0.1048500016 98.855438232 4.4459290504 -11.80544758 3.8753430843 4.1949229240
 2423.9118652 2.0000000000 8.3199996948 8.5000000000 -0.000006400 3.5670635700 0.2315361947 2.2852308750 4.6479644775 46.677597046 0.0693780780 102.47966003 4.0472755432 -11.91845608 3.4493632317 3.7414526939
 2424.0644531 2.0000000000 8.3199996948 8.5000000000 0.0009983975 3.9811258316 0.2295363694 2.2491154671 4.7418494225 47.868221283 -0.101942308 104.87939453 3.7255144119 -12.00472450 3.1794309616 3.4035401344
 2424.2167969 2.0000000000 8.3199996948 8.5000000000 -0.002993590 4.0359282494 0.2296994478 2.2230834961 4.9296984673 47.189197540 -0.147379488 106.19496155 3.3870847225 -12.04487228 3.1011250019 3.1563956738
 2424.3691406 2.0000000000 8.3199996948 8.5000000000 -0.004996795 3.9554409981 0.2325860858 2.2040913105 4.8281636238 45.763862610 -0.241979510 106.69100952 3.0052242279 -12.03305721 3.1119823456 2.9093956947
 2424.5214844 2.0000000000 8.3199996948 8.5000000000 -0.005996800 4.2012472153 0.2383123934 2.1910624504 4.6296367645 44.454296112 -0.180555999 106.87742615 2.6341888905 -11.97527885 3.0402302742 2.6588032246
 2424.6740723 2.0000000000 8.3199996948 8.5000000000 -0.006998398 4.1432795525 0.2462844700 2.1820287704 4.3794007301 43.489082336 -0.174302563 107.09272766 2.3354775906 -11.89425945 2.8562948704 2.4792869091
 2424.8264160 2.0000000000 8.3199996948 8.5000000000 -0.006001602 4.0570511818 0.2551814914 2.1770160198 4.2192564011 42.857021332 -0.188238457 107.04226685 2.0917809010 -11.82422447 2.7202179432 2.3502066135
 2424.9787598 2.0000000000 8.3199996948 8.5000000000 -0.003004808 3.9251539707 0.2632341981 2.1770000458 4.3437995911 42.842041016 -0.192569226 106.58734894 1.8557564020 -11.78911209 2.6051843166 2.2541537285
 2425.1311035 2.0000000000 8.3199996948 8.5000000000 -0.000004808 3.7004947662 0.2688629627 2.1809806824 4.3439998627 43.671001434 -0.200848714 105.86468506 1.6367019415 -11.79099083 2.5151443481 2.1611490250
 2425.2834473 2.0000000000 8.3199996948 8.5000000000 0.0009968000 3.9581708908 0.2713779807 2.1859760284 4.4058017731 44.952827454 0.1433936059 104.76015472 1.4655481577 -11.81488419 2.4970576763 2.0393903255
 2425.4360352 2.0000000000 8.3199996948 8.5000000000 0.0010000000 3.9109447002 0.2711906433 2.1889903545 4.3870306015 45.693637848 0.2152371854 103.90011597 1.3144831657 -11.83792686 2.5589005947 1.8313332796
