# LAS format log file from PETREL
# Project units are specified as depth units
#==================================================================
~Version information
VERS.   2.0:
WRAP.   NO:
#==================================================================
~Well
STRT .m      1153.6579590 :
STOP .m      2874.8635254 :
STEP .m     0.00000000 :
NULL .        -999.250000 :
COMP.           : COMPANY
WELL.  25/5-3  Skirne   : WELL
FLD.            : FIELD
LOC.            : LOCATION
SRVC.           : SERVICE COMPANY
DATE.  2018-09-11 14:48:21   : Log Export Date {yyyy-MM-dd HH:mm:ss}
PROV.           : PROVINCE
UWI.   25/5-3   : UNIQUE WELL ID
API.            : API NUMBER
#==================================================================
~Curve
DEPT .m                   : DEPTH
Lithology_geolink ._      : Lithology_geolink
CALI .in                  : CALI
BS .in                    : BS
DRHO .g/cm3               : DRHO
THOR .ppm                 : THOR
NPHI .m3/m3               : NPHI
RHOB .g/cm3               : RHOB
PEF .b/e                  : PEF
GR .gAPI                  : GR
URAN .ppm                 : URAN
DTC .us/ft                : DTC
RDEP .ohm.m               : RDEP
SP .mV                    : SP
RSHA .ohm.m               : RSHA
RMED .ohm.m               : RMED
~Parameter
#==================================================================
~Ascii
# ...
 1718.2999268  -999.250000 12.194999695 12.250000954 0.0370072052  -999.250000 0.0000000000 2.1080000401 8.9067201614 61.388858795  -999.250000 140.54708862 0.7549999952 -0.079979181 0.7979967594 0.7809967995
 1718.4522705  -999.250000 12.430000305 12.250000954 0.0240104161  -999.250000 0.0000000000 2.1109881401 9.5854558945 61.478645325  -999.250000 139.52349854 0.7549999952 -0.192551285 0.7950024009 0.7849968076
 1718.6047363  -999.250000 12.296999931 12.250000954 0.0150072053  -999.250000 0.0000000000 2.1159799099 9.3132181168 61.252906799  -999.250000 138.24859619 0.7559975982 -0.170092076 0.7979975939 0.7919943929
 1718.7570801  -999.250000 12.319999695 12.250000954 0.0269903857  -999.250000 0.0000000000 2.1209800243 10.093374252 60.195251465  -999.250000 137.17736816 0.7579936385 -0.053468749 0.7970007658 0.7929992080
 1718.9095459  -999.250000 12.430000305 12.250000954 0.0439863876  -999.250000 0.0000000000 2.1259839535 11.662742615 58.322010040  -999.250000 136.38084412 0.7629879713 0.1034967974 0.8229792118 0.7850064039
 1719.0618896  -999.250000 12.375000000 12.250000954 0.0459983982  -999.250000 0.0000000000 2.1289880276 12.194574356 56.821006775  -999.250000 136.29335022 0.7649936080 0.2504115105 0.8339911699 0.7869983912
 1719.2143555  -999.250000 12.203000069 12.250000954 0.0539935976  -999.250000 0.0000000000 2.1319904327 10.243563652 56.752201080  -999.250000 136.89965820 0.7649999857 0.3526730537 0.8270056248 0.8059847951
 1719.3666992  -999.250000 12.163999557 12.250000954 0.0589959957  -999.250000 0.0000000000 2.1319999695 8.0877275467 57.688240051  -999.250000 137.79173279 0.7640032172 0.4008078277 0.8060168028 0.8059999943
 1719.5190430  -999.250000 12.046999931 12.250000954 0.0380336270  -999.250000 0.0000000000 2.1300082207 7.7814884186 58.442977905  -999.250000 138.52624512 0.7580192685 0.4089679718 0.7970144153 0.7940192223
 1719.6715088  -999.250000 12.147998810 12.250000954 0.0150184296  -999.250000 0.0000000000 2.1250200272 7.7660117149 58.524684906  -999.250000 138.99467468 0.7510223985 0.4020280242 0.8009967804 0.7760144472
 1719.8238525  -999.250000 12.218999863 12.250000954 0.0219887905  -999.250000 0.0000000000 2.1190240383 8.6705493927 58.200305939  -999.250000 139.44902039 0.7529935837 0.4119599462 0.7870224118 0.7660160065
 1719.9763184  -999.250000 12.437999725 12.250000954 0.0200016014  -999.250000 0.0000000000 2.1120281219 9.1326313019 57.540645599  -999.250000 139.86775208 0.7549951673 0.4647878408 0.7929951549 0.7659999728
 1720.1286621  -999.250000 12.453000069 12.250000954 0.0160064064  -999.250000 0.0000000000 2.1080160141 10.053524017 56.606746674  -999.250000 140.36640930 0.7500160336 0.5675873756 0.8039823771 0.7699936032
 1720.2811279  -999.250000 12.406000137 12.250000954 0.0120032048  -999.250000 0.0000000000 2.1080000401 9.2116765976 56.041259766  -999.250000 140.80302429 0.7480048537 0.6994715929 0.8219856024 0.7779935598
 1720.4334717  -999.250000 12.624999046 12.250000954 0.0139983976  -999.250000 0.0000000000 2.1119840145 9.8744678497 56.636596680  -999.250000 141.18518066 0.7460063696 0.8215112686 0.8020160198 0.7779999971
 1720.5859375  -999.250000 12.203000069 12.250000954 0.0149991987  -999.250000 0.0000000000 2.1209640503 10.140787125 58.022438049  -999.250000 141.55397034 0.7410120368 0.8927157521 0.7960048318 0.7779999971
 1720.7382813  -999.250000 12.227000237 12.250000954 0.0199959930  -999.250000 0.0000000000 2.1299641132 10.569656372 59.117618561  -999.250000 141.16831970 0.7400032282 0.8969839811 0.7940016389 0.7760016322
 1720.8907471  -999.250000 12.265999794 12.250000954 0.0319903940  -999.250000 0.0000000000 2.1369776726 10.523036957 59.468887329  -999.250000 140.52763367 0.7449879646 0.8471602798 0.8049911857 0.7680063844
 1721.0430908  -999.250000 12.397999763 12.250000954 0.0379951894  -999.250000 0.0000000000 2.1389918327 9.9224815369 59.955051422  -999.250000 140.79864502 0.7450000048 0.7603482604 0.7940088511 0.7739951611
 1721.1955566  -999.250000 12.000000000 12.250000954 0.0350024030  -999.250000 0.0000000000 2.1360094547 10.015924454 61.489074707  -999.250000 141.26118469 0.7450000048 0.6473621726 0.7900032401 0.7809944153
 1721.3479004  -999.250000 12.187999725 12.250000954 0.0160152260  -999.250000 0.0000000000 2.1290280819 8.7899827957 63.893356323  -999.250000 141.10078430 0.7430063486 0.5244923830 0.7939968109 0.7740055919
 1721.5002441  -999.250000 12.250000954 12.250000954 0.0160000008  -999.250000 0.0000000000 2.1210319996 8.8518991470 66.063308716  -999.250000 140.78463745 0.7360224128 0.4084647298 0.7969951630 0.7670112252
 1721.6527100  -999.250000 12.156000137 12.250000954 0.0249927882  -999.250000 0.0000000000 2.1130318642 9.4834938049 66.642700195  -999.250000 140.41081238 0.7280256152 0.3113883138 0.7960007787 0.7620040178
 1721.8050537  -999.250000 12.281000137 12.250000954 0.0389775820  -999.250000 0.0000000000 2.1070241928 9.9831991196 65.263557434  -999.250000 140.01873779 0.7240127921 0.2442684323 0.7930048108 0.7560095787
 1721.9575195  -999.250000 12.305000305 12.250000954 0.0350032039  -999.250000 0.0000000000 2.1030158997 10.538555145 62.805858612  -999.250000 139.71873474 0.7190160155 0.2210920751 0.7780120373 0.7450088263
 1722.1098633  -999.250000 12.375000000 12.250000954 0.0449839905  -999.250000 0.0000000000 2.1000118256 10.757649422 61.267150879  -999.250000 139.75387573 0.7170064449 0.2498838156 0.7740063667 0.7420048118
 1722.2623291  -999.250000 12.444999695 12.250000954 0.0410032049  -999.250000 0.0000000000 2.0980081558 10.648087502 61.908397675  -999.250000 140.69685364 0.7179976106 0.3177277744 0.7660064101 0.7439984083
 1722.4146729  -999.250000 12.913999557 12.250000954 0.0220152251  -999.250000 0.0000000000 2.0970039368 9.0243015289 63.890037537  -999.250000 141.70159912 0.7179999948 0.3996714950 0.7659999728 0.7559903860
 1722.5671387  -999.250000 12.241999626 12.250000954 0.0130072059  -999.250000 0.0000000000 2.0969998837 7.4502601624 64.970687866  -999.250000 141.52294922 0.7170023918 0.4647397995 0.7749927640 0.7599967718
 1722.7194824  -999.250000 12.227000237 12.250000954 0.0120008010  -999.250000 0.0000000000 2.0969998837 7.1912069321 63.806697845  -999.250000 140.41836548 0.7179967761 0.5038437843 0.7819944024 0.7590007782
 1722.8719482  -999.250000 12.312999725 12.250000954 0.0110008009  -999.250000 0.0000000000 2.0999879837 8.0852842331 61.132728577  -999.250000 139.54811096 0.7309687734 0.5308919549 0.7770040035 0.7550032139
 1723.0242920  -999.250000 12.406000137 12.250000954 0.0080024041  -999.250000 0.0000000000 2.1049799919 10.264252663 58.322261810  -999.250000 139.67831421 0.7539263368 0.5598838329 0.7809967995 0.7689887881
 1723.1767578  -999.250000 12.640999794 12.250000954 0.0129959974  -999.250000 0.0000000000 2.1139712334 13.020792007 55.937633514  -999.250000 140.03341675 0.7709591389 0.5968813896 0.7969871759 0.7929807901
 1723.3291016  -999.250000 12.921999931 12.250000954 0.0149983969  -999.250000 0.0000000000 2.1269481182 13.624517441 53.830436707  -999.250000 139.53039551 0.7809680104 0.6318598986 0.8319719434 0.8099863529
 1723.4814453  -999.250000 12.492000580 12.250000954 0.0249839872  -999.250000 0.0000000000 2.1409440041 11.768976212 52.184589386  -999.250000 138.15792847 0.7879775763 0.6439518929 0.8669439554 0.8159903884
 1723.6339111  -999.250000 12.453000069 12.250000954 0.0200040061  -999.250000 0.0000000000 2.1539480686 9.2749977112 51.278617859  -999.250000 135.85484314 0.7939808369 0.5991801023 0.8520120382 0.8159999847
 1723.7862549  -999.250000 12.680000305 12.250000954 0.0259903930  -999.250000 0.0000000000 2.1639599800 9.0633363724 50.984172821  -999.250000 132.77435303 0.7979871631 0.4735048115 0.8280384541 0.8179967999
 1723.9387207  -999.250000 12.430000305 12.250000954 0.0120112179  -999.250000 0.0000000000 2.1689798832 9.3827438354 50.858501434  -999.250000 131.02552795 0.7950096130 0.2817685902 0.8220048547 0.8160015941
 1724.0910645  -999.250000 12.258000374 12.250000954 0.0110016009  -999.250000 0.0000000000 2.1689999104 11.979835510 50.884891510  -999.250000 131.84906006 0.7820416689 0.0688533708 0.8259935975 0.8060160279
