# LAS format log file from PETREL
# Project units are specified as depth units
#==================================================================
~Version information
VERS.   2.0:
WRAP.   NO:
#==================================================================
~Well
STRT .m      1199.6253662 :
STOP .m      3185.7504883 :
STEP .m     0.00000000 :
NULL .        -999.250000 :
COMP.           : COMPANY
WELL.  25/5-4  Byggve   : WELL
FLD.            : FIELD
LOC.            : LOCATION
SRVC.           : SERVICE COMPANY
DATE.  2018-09-11 14:48:21   : Log Export Date {yyyy-MM-dd HH:mm:ss}
PROV.           : PROVINCE
UWI.   25/5-4   : UNIQUE WELL ID
API.            : API NUMBER
#==================================================================
~Curve
DEPT .m                   : DEPTH
Lithology_geolink ._      : Lithology_geolink
DCAL .in                  : DCAL
CALI .in                  : CALI
BS .in                    : BS
DRHO .g/cm3               : DRHO
THOR .ppm                 : THOR
NPHI .m3/m3               : NPHI
RHOB .g/cm3               : RHOB
PEF .b/e                  : PEF
GR .gAPI                  : GR
URAN .ppm                 : URAN
DTC .us/ft                : DTC
RDEP .ohm.m               : RDEP
SP .mV                    : SP
RSHA .ohm.m               : RSHA
RHOM .g/cm3               : RHOM
RMED .ohm.m               : RMED
~Parameter
#==================================================================
~Ascii
# ...
 1462.1252441  -999.250000 0.5683116913 12.818310738 12.250000954 0.0418308899 4.2147407532  -999.250000 1.9252589941 12.815919876 68.452606201 1.9236807823 43.653060913 0.9797793031 76.600311279  -999.250000 2.6500000954 0.9556002021
 1462.2502441  -999.250000 0.7199335694 12.969929695 12.250000954 0.0381180607 3.9792432785  -999.250000 1.9303959608 12.658479691 68.109458923 1.7605115175 43.437477112 0.9821603894 76.647216797  -999.250000 2.6500000954 0.9507969022
 1462.3752441  -999.250000 0.9482011199 13.198200226 12.250000954 0.0357057787 3.5916843414  -999.250000 1.9275879860 12.416709900 67.053230286 1.7666735649 43.316131592 0.9803556800 76.656883240  -999.250000 2.6500000954 0.9507626891
 1462.5002441  -999.250000 1.1910090446 13.441010475 12.250000954 0.0376978591 3.2260730267  -999.250000 1.9247800112 12.190400124 65.677406311 1.9065228701 43.283271790 0.9765176773 76.521507263  -999.250000 2.6500000954 0.9524821043
 1462.6253662  -999.250000 1.3800679445 13.630069733 12.250000954 0.0419203602 3.2645990849  -999.250000 1.9219019413 12.042160034 64.383819580 1.9176129103 43.357219696 0.9708337784 76.232238770  -999.250000 2.6500000954 0.9595509171
 1462.7503662  -999.250000 1.4818241596 13.731820107 12.250000954 0.0432889797 3.6741788387  -999.250000 1.9189929962 11.943639755 63.354320526 1.7171092033 43.577438354 0.9617102742 75.916061401  -999.250000 2.6500000954 0.9757022858
 1462.8753662  -999.250000 1.5139880180 13.763990402 12.250000954 0.0395647287 4.1775908470  -999.250000 1.9181569815 11.764289856 62.632179260 1.4823371172 44.025981903 0.9486336708 75.736061096  -999.250000 2.6500000954 0.9968361855
 1463.0003662  -999.250000 1.5032629967 13.753260612 12.250000954 0.0339098796 4.2076544762  -999.250000 1.9237589836 11.431180000 62.205009460 1.5980286598 44.605499268 0.9324014783 75.803916931  -999.250000 2.6500000954 1.0121539831
 1463.1252441  -999.250000 1.4595140219 13.709509850 12.250000954 0.0325614102 3.7229888439  -999.250000 1.9293609858 11.061880112 62.063140869 2.0221083164 45.141613007 0.9172430038 76.032188416  -999.250000 2.6500000954 1.0122359991
 1463.2502441  -999.250000 1.3651900291 13.615189552 12.250000954 0.0374449790 2.8659594059  -999.250000 1.9325599670 10.801360130 62.145858765 2.5363681316 45.501735687 0.9080814719 76.306007385  -999.250000 2.6500000954 1.0005480051
 1463.3752441  -999.250000 1.2506660223 13.500670433 12.250000954 0.0456003398 2.0777254105  -999.250000 1.9351769686 10.690469742 62.293838501 2.7752654552 45.601524353 0.9091681242 76.472908020  -999.250000 2.6500000954 0.9846466780
 1463.5002441  -999.250000 1.2240129709 13.474010468 12.250000954 0.0521848500 1.5799043179  -999.250000 1.9385730028 10.606389999 62.339248657 2.6546614170 45.431266785 0.9215422869 76.474678040  -999.250000 2.6500000954 0.9701622725
 1463.6252441  -999.250000 1.3550240993 13.605019569 12.250000954 0.0561263487 1.6853291988  -999.250000 1.9433150291 10.494509697 62.186851501 2.2766091824 45.128688812 0.9436113834 76.258132935  -999.250000 2.6500000954 0.9560893178
 1463.7503662  -999.250000 1.5919990540 13.842000008 12.250000954 0.0578050800 2.2137260437  -999.250000 1.9480570555 10.348759651 61.837970734 1.9743099213 44.885761261 0.9709464908 75.935333252  -999.250000 2.6500000954 0.9433882833
 1463.8753662  -999.250000 1.7433619499 13.993358612 12.250000954 0.0570630617 3.0417931080  -999.250000 1.9803080559 10.245590210 61.321701050 1.8413016796 44.710384369 0.9963654280 75.617691040  -999.250000 2.6500000954 0.9413849115
 1464.0003662  -999.250000 1.6433000565 13.893301010 12.250000954 0.0540140495 3.8576736450  -999.250000 2.0146870613 10.249219894 60.527370453 1.7393485308 44.512535095 1.0122809410 75.492408752  -999.250000 2.6500000954 0.9663581848
 1464.1253662  -999.250000 1.2795269489 13.529529572 12.250000954 0.0514518283 4.3592123985  -999.250000 2.0471310616 10.323260307 59.241310120 1.5851700306 44.133396149 1.0173289776 75.621101379  -999.250000 2.6500000954 1.0233520269
 1464.2503662  -999.250000 0.8288764954 13.078880310 12.250000954 0.0513582304 4.3287153244  -999.250000 2.0775589943 10.375840187 57.478988647 1.4043259621 43.344635010 1.0143580437 76.065650940  -999.250000 2.6500000954 1.0934079885
 1464.3752441  -999.250000 0.5033503175 12.753350258 12.250000954 0.0525745004 4.0296239853  -999.250000 2.1051290035 10.335740089 55.794391632 1.2642886639 42.300357819 1.0108269453 76.643493652  -999.250000 2.6500000954 1.1390190125
 1464.5002441  -999.250000 0.3985194564 12.648521423 12.250000954 0.0525913611 3.7350749969  -999.250000 2.0797739029 10.226010323 54.990478516 1.2075345516 41.348709106 1.0139600039 77.179466248  -999.250000 2.6500000954 1.1347780228
 1464.6252441  -999.250000 0.4817238152 12.731719971 12.250000954 0.0516917109 3.5689039230  -999.250000 2.0544190407 10.104680061 55.375061035 1.2765966654 40.782394409 1.0268269777 77.374702454  -999.250000 2.6500000954 1.0692950487
 1464.7502441  -999.250000 0.6360282898 12.886030197 12.250000954 0.0507377200 3.5199658871  -999.250000 2.0308320522 10.001959801 56.487239838 1.4285291433 40.821071625 1.0438710451 77.251319885  -999.250000 2.6500000954 1.0049240589
 1464.8752441  -999.250000 0.7372570038 12.987259865 12.250000954 0.0508875512 3.6054995060  -999.250000 2.0083580017 9.8955354691 57.537410736 1.5969403982 41.562587738 1.0556550026 76.842979431  -999.250000 2.6500000954 0.9675713181
 1465.0003662  -999.250000 0.7218245864 12.971819878 12.250000954 0.0523097590 3.9650518894  -999.250000 1.9878239632 9.7895555496 58.134441376 1.7199131250 42.780170441 1.0545029640 76.376701355  -999.250000 2.6500000954 0.9639419913
 1465.1253662  -999.250000 0.6009988785 12.850999832 12.250000954 0.0527103208 4.6998357773  -999.250000 1.9764219522 9.7099533081 58.589839935 1.7584558725 43.858314514 1.0399810076 76.045227051  -999.250000 2.6500000954 0.9851710200
 1465.2503662  -999.250000 0.4313640893 12.681360245 12.250000954 0.0497737415 5.5300149918  -999.250000 1.9650199413 9.7667837143 59.488250732 1.7778143883 44.551452637 1.0156890154 76.058616638  -999.250000 2.6500000954 1.0135359764
 1465.3753662  -999.250000 0.2765721977 12.526571274 12.250000954 0.0443714187 5.9776864052  -999.250000 1.9489909410 10.310830116 61.144878387 1.8853400946 44.774974823 0.9915226102 76.441467285  -999.250000 2.6500000954 1.0344090462
 1465.5002441  -999.250000 0.1995525062 12.449549675 12.250000954 0.0401762798 5.7651047707  -999.250000 1.9313089848 11.525230408 63.081691742 2.1104893684 44.589321136 0.9756494761 77.059303284  -999.250000 2.6500000954 1.0416380167
 1465.6252441  -999.250000 0.2424153984 12.492420197 12.250000954 0.0398329794 5.1863389015  -999.250000 1.9130339622 13.086179733 64.661407471 2.3455109596 44.219776154 0.9763765931 77.620826721  -999.250000 2.6500000954 1.0347360373
 1465.7502441  -999.250000 0.3810863197 12.631090164 12.250000954 0.0433066003 4.5410447121  -999.250000 1.8933629990 14.296449661 65.387283325 2.4532473087 43.915645599 0.9908565283 77.879112244  -999.250000 2.6500000954 1.0233910084
 1465.8752441  -999.250000 0.5339726806 12.783969879 12.250000954 0.0480949394 4.1035766602  -999.250000 1.8736920357 14.605870247 65.152496338 2.4261493683 43.684883118 1.0152549744 77.717681885  -999.250000 2.6500000954 1.0127320290
 1466.0002441  -999.250000 0.6178770065 12.867879868 12.250000954 0.0513373241 3.9385628700  -999.250000 1.8956780434 13.946419716 64.169036865 2.3491349220 43.487979889 1.0405930281 77.293693542  -999.250000 2.6500000954 1.0074750185
 1466.1253662  -999.250000 0.5969504714 12.846949577 12.250000954 0.0507802293 4.0219902992  -999.250000 1.9244550467 12.675390244 63.102710724 2.3160204887 43.278553009 1.0620410442 76.871681213  -999.250000 2.6500000954 1.0137159824
 1466.2503662  -999.250000 0.4985484779 12.748550415 12.250000954 0.0454611816 4.0863957405  -999.250000 1.9666621685 11.378780365 62.348899841 2.3571641445 43.017002106 1.0731040239 76.656143188  -999.250000 2.6500000954 1.0374070406
 1466.3753662  -999.250000 0.3802872002 12.630290031 12.250000954 0.0372171290 3.9817104340  -999.250000 2.0273110867 10.650589943 61.823711395 2.4128932953 42.664806366 1.0753810406 76.631233215  -999.250000 2.6500000954 1.0750900507
