# LAS format log file from PETREL
# Project units are specified as depth units
#==================================================================
~Version information
VERS.   2.0:
WRAP.   NO:
#==================================================================
~Well
STRT .m      1199.6253662 :
STOP .m      3185.7504883 :
STEP .m     0.00000000 :
NULL .        -999.250000 :
COMP.           : COMPANY
WELL.  25/5-4  Byggve   : WELL
FLD.            : FIELD
LOC.            : LOCATION
SRVC.           : SERVICE COMPANY
DATE.  2018-09-11 14:48:21   : Log Export Date {yyyy-MM-dd HH:mm:ss}
PROV.           : PROVINCE
UWI.   25/5-4   : UNIQUE WELL ID
API.            : API NUMBER
#==================================================================
~Curve
DEPT .m                   : DEPTH
Lithology_geolink ._      : Lithology_geolink
DCAL .in                  : DCAL
CALI .in                  : CALI
BS .in                    : BS
DRHO .g/cm3               : DRHO
THOR .ppm                 : THOR
NPHI .m3/m3               : NPHI
RHOB .g/cm3               : RHOB
PEF .b/e                  : PEF
GR .gAPI                  : GR
URAN .ppm                 : URAN
DTC .us/ft                : DTC
RDEP .ohm.m               : RDEP
SP .mV                    : SP
RSHA .ohm.m               : RSHA
RHOM .g/cm3               : RHOM
RMED .ohm.m               : RMED
~Parameter
#==================================================================
~Ascii
# ...
 2647.7502441 13.000000000 -0.180417985 12.069579124 12.250000954 0.0375667214 2.6789999008  -999.250000 2.6358630657 5.4530100822 47.799221039 1.0520991087 25.410100937 3.8827319145 25.961809158  -999.250000 2.7100000381 5.9141187668
 2647.8752441 13.000000000 -0.168581992 12.081419945 12.250000954 0.0293740891 2.3714683056  -999.250000 2.6383569241 5.5858521461 48.208511353 1.1538513899 24.961742401 3.9620890617 26.547370911  -999.250000 2.7100000381 5.7053618431
 2648.0002441 13.000000000 -0.148476601 12.101519585 12.250000954 0.0282451808 1.9457708597  -999.250000 2.6352486610 5.6297578812 49.213329315 1.1801366806 24.384225845 4.0459442139 27.158679962  -999.250000 2.7100000381 5.5326538086
 2648.1252441 13.000000000 -0.129137993 12.120860100 12.250000954 0.0350276493 1.5732312202  -999.250000 2.6301999092 5.5358438492 50.139469147 1.1988956928 23.815057755 4.1486968994 27.691730499  -999.250000 2.7100000381 5.4309439659
 2648.2502441 13.000000000 -0.115277290 12.134719849 12.250000954 0.0448476188 1.5387259722  -999.250000 2.6260559559 5.3205289841 50.417430878 1.1965516806 23.470767975 4.2903728485 27.995500565  -999.250000 2.7100000381 5.3088769913
 2648.3752441 13.000000000 -0.106088601 12.143910408 12.250000954 0.0520212203 1.8593796492  -999.250000 2.6239750385 5.0590419769 49.779750824 1.1204931736 23.458148956 4.4643602371 27.993000031  -999.250000 2.7100000381 5.1257510185
 2648.5002441 13.000000000 -0.093347549 12.156650543 12.250000954 0.0554528497 2.2580499649  -999.250000 2.6218929291 4.8867788315 48.180271149 0.9634302855 23.615285873 4.6537342072 27.698839188  -999.250000 2.7100000381 4.9427289963
 2648.6252441 13.000000000 -0.066900253 12.183099747 12.250000954 0.0587398000 2.3852608204  -999.250000 2.6200909615 4.8894448280 45.288421631 0.8254565001 23.844114304 4.8184618950 27.131429672  -999.250000 2.7100000381 4.9825530052
 2648.7502441 13.000000000 -0.021634100 12.228369713 12.250000954 0.0655172616 2.1608440876  -999.250000 2.6183321476 5.0439620018 41.296520233 0.7518937588 24.070863724 4.9366760254 26.476409912  -999.250000 2.7100000381 5.3015470505
 2648.8752441 13.000000000 0.0289106425 12.278909683 12.250000954 0.0740527809 2.1336266994  -999.250000 2.6176888943 5.2743301392 37.446708679 0.6461083889 24.253364563 5.0009479523 25.815629959  -999.250000 2.7100000381 6.0204248428
 2649.0004883 13.000000000 0.0560493544 12.306050301 12.250000954 0.0782860667 2.8689777851  -999.250000 2.6185350418 5.4728751183 35.585220337 0.4454585910 24.332115173 5.0556011200 25.244239807  -999.250000 2.7100000381 6.9412717819
 2649.1254883 13.000000000 0.0329551697 12.282959938 12.250000954 0.0717664808 4.4765601158  -999.250000 2.6193809509 5.5733699799 36.845188141 0.3075660169 24.204666138 5.1309289932 24.802059174  -999.250000 2.7100000381 7.4980897903
 2649.2504883 13.000000000 -0.040966026 12.209030151 12.250000954 0.0544170216 6.2044982910  -999.250000 2.6246089935 5.5604329109 40.809890747 0.3508715034 23.796541214 5.2412171364 24.536689758  -999.250000 2.7100000381 7.1802120209
 2649.3754883 13.000000000 -0.140393302 12.109609604 12.250000954 0.0333252512 7.2486009598  -999.250000 2.6298770905 5.5166831017 45.685539246 0.5999730825 23.128711700 5.3382120132 24.407239914  -999.250000 2.7100000381 6.4789471626
 2649.5004883 13.000000000 -0.224067703 12.025929451 12.250000954 0.0188389905 6.9914326668  -999.250000 2.6309509277 5.5093050003 49.491859436 0.9512395859 22.305580139 5.3514108658 24.383810043  -999.250000 2.7100000381 5.8806037903
 2649.6254883 13.000000000 -0.266735107 11.983260155 12.250000954 0.0154010197 5.9837641716  -999.250000 2.6286120415 5.5250110626 51.462779999 1.1748570204 21.546609879 5.2124080658 24.405199051  -999.250000 2.7100000381 5.6450948715
 2649.7502441 13.000000000 -0.271939307 11.978059769 12.250000954 0.0192362797 4.9240417480  -999.250000 2.6257529259 5.5507187843 51.878269196 1.1501660347 21.170766830 4.9683427811 24.414789200  -999.250000 2.7100000381 5.6074151993
 2649.8752441 13.000000000 -0.260552406 11.989450455 12.250000954 0.0235535093 4.4751787186  -999.250000 2.6188440323 5.5902619362 51.483268738 1.0391042233 21.156200409 4.6893258095 24.396179199  -999.250000 2.7100000381 5.6158599854
 2650.0002441 13.000000000 -0.250935614 11.999058723 12.250000954 0.0240706895 4.6186213493  -999.250000 2.6119360924 5.6098542213 50.702388763 0.9389426112 21.401191711 4.4653959274 24.363159180  -999.250000 2.7100000381 5.5475020409
 2650.1252441 13.000000000 -0.247899994 12.002099991 12.250000954 0.0216133408 5.0896868706  -999.250000 2.6103758812 5.5445280075 49.719070435 0.8584204912 21.790042877 4.3273720741 24.347879410  -999.250000 2.7100000381 5.4025259018
 2650.2502441 13.000000000 -0.248724014 12.001279831 12.250000954 0.0193456393 5.2863888741  -999.250000 2.6114010811 5.3273072243 48.720088959 0.8179523349 22.217718124 4.2881760597 24.383300781  -999.250000 2.7100000381 5.2975192070
 2650.3752441 13.000000000 -0.248736411 12.001260757 12.250000954 0.0194261800 4.8184137344  -999.250000 2.6129319668 5.0867471695 47.996601105 0.8961736560 22.628885269 4.3021831512 24.468040466  -999.250000 2.7100000381 5.2691960335
 2650.5002441 13.000000000 -0.246692702 12.003311157 12.250000954 0.0215266701 3.6473751068  -999.250000 2.6160979271 4.9242901802 47.643939972 1.0873863697 23.029657364 4.3373222351 24.568809509  -999.250000 2.7100000381 5.3360900879
 2650.6252441 13.000000000 -0.244205505 12.005789757 12.250000954 0.0240735207 2.3040149212  -999.250000 2.6192629337 4.8972191811 47.413211823 1.2336133718 23.395526886 4.3568778038 24.655979156  -999.250000 2.7100000381 5.4693818092
 2650.7502441 13.000000000 -0.239421800 12.010580063 12.250000954 0.0261699706 1.2887662649  -999.250000 2.6206369400 4.9236698151 47.022991180 1.1889486313 23.675495148 4.3473272324 24.731229782  -999.250000 2.7100000381 5.6295590401
 2650.8752441 13.000000000 -0.225778610 12.024221420 12.250000954 0.0272749495 0.8628790975  -999.250000 2.6215550900 4.9402661324 46.597389221 1.0091136694 23.811340332 4.3094530106 24.827760696  -999.250000 2.7100000381 5.7406778336
 2651.0002441 13.000000000 -0.197956100 12.052040100 12.250000954 0.0271589309 0.9553773403  -999.250000 2.6220760345 4.9285798073 46.684600830 0.8629482388 23.740751266 4.2641949654 24.978450775  -999.250000 2.7100000381 5.7218070030
 2651.1252441 13.000000000 -0.156525582 12.093469620 12.250000954 0.0258235894 1.4562379122  -999.250000 2.6218988895 4.8743839264 47.647811890 0.9389331937 23.449295044 4.2321319580 25.247039795  -999.250000 2.7100000381 5.4501190186
 2651.2502441 13.000000000 -0.108445197 12.141551018 12.250000954 0.0241998993 2.1927115917  -999.250000 2.6217219830 4.7577691078 49.056110382 1.0581547022 23.065015793 4.2214407921 25.638990402  -999.250000 2.7100000381 5.0739798546
 2651.3754883 13.000000000 -0.062937737 12.187060356 12.250000954 0.0244647898 3.0696589947  -999.250000 2.6196179390 4.6500630379 50.026878357 1.0861874819 22.666439056 4.2219758034 26.134489059  -999.250000 2.7100000381 4.7308259010
 2651.5004883 13.000000000 -0.024345400 12.225649834 12.250000954 0.0277830400 3.6714422703  -999.250000 2.6173560619 4.5851750374 50.032249451 1.1091609001 22.324087143 4.2143011093 26.628320694  -999.250000 2.7100000381 4.5370450020
 2651.6254883 13.000000000 0.0083637238 12.258360863 12.250000954 0.0322921984 3.7306964397  -999.250000 2.6140708923 4.5902252197 49.240249634 1.2792254686 22.098478317 4.1872320175 27.013399124  -999.250000 2.7100000381 4.5256562233
 2651.7504883 13.000000000 0.0368986093 12.286899567 12.250000954 0.0339418501 3.0893571377  -999.250000 2.6096980572 4.6811451912 48.125709534 1.6698180437 22.076576233 4.1482281685 27.137329102  -999.250000 2.7100000381 4.6871957779
 2651.8754883 13.000000000 0.0599556006 12.309960365 12.250000954 0.0299130902 2.2488465309  -999.250000 2.6055750847 4.8749809265 47.208919525 2.0881118774 22.272586823 4.1204791069 26.969940186  -999.250000 2.7100000381 4.9947848320
 2652.0002441 13.000000000 0.0763416290 12.326340675 12.250000954 0.0220365301 1.7650569677  -999.250000 2.6064770222 5.0896019936 46.899818420 2.2454628944 22.591434479 4.1282300949 26.602920532  -999.250000 2.7100000381 5.3780541420
