# LAS format log file from PETREL
# Project units are specified as depth units
#==================================================================
~Version information
VERS.   2.0:
WRAP.   NO:
#==================================================================
~Well
STRT .m      1153.6579590 :
STOP .m      2874.8635254 :
STEP .m     0.00000000 :
NULL .        -999.250000 :
COMP.           : COMPANY
WELL.  25/5-3  Skirne   : WELL
FLD.            : FIELD
LOC.            : LOCATION
SRVC.           : SERVICE COMPANY
DATE.  2018-09-11 14:48:21   : Log Export Date {yyyy-MM-dd HH:mm:ss}
PROV.           : PROVINCE
UWI.   25/5-3   : UNIQUE WELL ID
API.            : API NUMBER
#==================================================================
~Curve
DEPT .m                   : DEPTH
Lithology_geolink ._      : Lithology_geolink
CALI .in                  : CALI
BS .in                    : BS
DRHO .g/cm3               : DRHO
THOR .ppm                 : THOR
NPHI .m3/m3               : NPHI
RHOB .g/cm3               : RHOB
PEF .b/e                  : PEF
GR .gAPI                  : GR
URAN .ppm                 : URAN
DTC .us/ft                : DTC
RDEP .ohm.m               : RDEP
SP .mV                    : SP
RSHA .ohm.m               : RSHA
RMED .ohm.m               : RMED
~Parameter
#==================================================================
~Ascii
# ...
 2170.0134277 6.0000000000 13.758000374 12.250000954 0.0439999998  -999.250000 0.0000000000 2.0560336113 19.496101379 68.524833679  -999.250000 125.76122284 0.8958878517 -2.478288412 0.8850607872 0.8489423990
 2170.1660156 6.0000000000 13.859000206 12.250000954 0.0390080139  -999.250000 0.0000000000 2.0579905510 17.861602783 65.318405151  -999.250000 124.09373474 0.9299455285 -2.502919912 0.8949839473 0.8779535294
 2170.3183594 5.0000000000 14.319999695 12.250000954 0.0170352571  -999.250000 0.0000000000 2.0659615993 16.565076828 62.086536407  -999.250000 120.95554352 0.9180383682 -2.569785118 1.0148077011 1.0277596712
 2170.4707031 5.0000000000 13.344000816 12.250000954 0.0060176281  -999.250000 0.0000000000 2.0779423714 14.067006111 59.203849792  -999.250000 117.44960022 0.8950737119 -2.622830153 1.2106858492 1.0799167156
 2170.6230469 5.0000000000 12.358999252 12.250000954 0.0129887825  -999.250000 0.0000000000 2.0859615803 14.756886482 57.582763672  -999.250000 114.46424866 0.8890192509 -2.622004747 1.3477804661 0.9022852778
 2170.7753906 5.0000000000 12.593999863 12.250000954 0.0149935996  -999.250000 0.0000000000 2.0889806747 15.388974190 58.109554291  -999.250000 112.55022430 0.8880032301 -2.566269159 1.1227232218 0.8182688355
 2170.9279785 6.0000000000 12.781000137 12.250000954 0.0130032049  -999.250000 0.0000000000 2.0860142708 16.763797760 60.494495392  -999.250000 113.15172577 0.9029520154 -2.475291491 0.9412900209 0.8369695544
 2171.0803223 6.0000000000 13.421999931 12.250000954 0.0209871791  -999.250000 0.0000000000 2.0830142498 16.796951294 63.284576416  -999.250000 117.18994141 0.9089807272 -2.378310919 0.8231891394 0.8609615564
 2171.2326660 6.0000000000 13.522999763 12.250000954 0.0559439138  -999.250000 0.0000000000 2.0849905014 15.618890762 65.510314941  -999.250000 122.91922760 0.8790961504 -2.296393633 0.8220016360 0.8420304656
 2171.3850098 6.0000000000 13.374999046 12.250000954 0.0659679994  -999.250000 0.0000000000 2.0929615498 14.192572594 67.277519226  -999.250000 126.21932983 0.8421186209 -2.243254900 0.8499104381 0.8300383687
 2171.5375977 6.0000000000 12.859000206 12.250000954 0.0749855787  -999.250000 0.0000000000 2.1089231968 12.222155571 68.930076599  -999.250000 126.05821991 0.8240288496 -2.236022472 0.8779551387 0.8369888067
 2171.6899414 6.0000000000 13.210999489 12.250000954 0.0750000030  -999.250000 0.0000000000 2.1269135475 11.891525269 70.466613770  -999.250000 125.22676086 0.8190159798 -2.302785158 0.9199327230 0.8340048194
 2171.8422852 6.0000000000 13.022999763 12.250000954 0.0720048025  -999.250000 0.0000000000 2.1409327984 13.630208969 71.666236877  -999.250000 125.73663330 0.8110256195 -2.464222431 0.9399679303 0.8330016136
 2171.9946289 6.0000000000 13.038999557 12.250000954 0.0789776072  -999.250000 0.0000000000 2.1499569416 14.933823586 72.576629639  -999.250000 125.59351349 0.8100032210 -2.715788364 0.9788751602 0.8250255585
 2172.1472168 6.0000000000 13.812999725 12.250000954 0.0799983963  -999.250000 0.0000000000 2.1529858112 14.859127045 73.083572388  -999.250000 124.69371033 0.8259743452 -3.025009632 0.9540400505 0.8269968033
 2172.2995605 6.0000000000 13.484000206 12.250000954 0.0690176263  -999.250000 0.0000000000 2.1490192413 15.811470985 72.815307617  -999.250000 124.57463837 0.8359680176 -3.342980862 0.9410208464 0.8299951553
 2172.4519043 6.0000000000 14.265999794 12.250000954 0.0620112158  -999.250000 0.0000000000 2.1410384178 16.265274048 71.645645142  -999.250000 123.96475983 0.8360000253 -3.611140966 0.9080528617 0.8399839401
 2172.6042480 6.0000000000 13.156000137 12.250000954 0.0649951920  -999.250000 0.0000000000 2.1310482025 17.810520172 70.061622620  -999.250000 123.89178467 0.8310160041 -3.786159992 0.9109951854 0.8439935446
 2172.7565918 6.0000000000 13.328000069 12.250000954 0.0729743987  -999.250000 0.0000000000 2.1220576763 19.416852951 68.877578735  -999.250000 124.06050110 0.8230256438 -3.864624977 0.8791024089 0.8400127888
 2172.9091797 6.0000000000 13.663999557 12.250000954 0.0749967992  -999.250000 0.0000000000 2.1150336266 17.783630371 68.473915100  -999.250000 123.81578064 0.8180159926 -3.870980740 0.8720111847 0.8260223866
 2173.0615234 6.0000000000 13.843999863 12.250000954 0.0869807675  -999.250000 0.0000000000 2.1150000095 19.652996063 68.865097046  -999.250000 124.33692932 0.8189967871 -3.845083475 0.8640128374 0.8090272546
 2173.2138672 6.0000000000 14.147999763 12.250000954 0.0869999975  -999.250000 0.0000000000 2.1219663620 18.018629074 69.479042053  -999.250000 124.60004425 0.8289679289 -3.828081608 0.8719871640 0.8149904013
 2173.3662109 6.0000000000 13.602000237 12.250000954 0.0969680026  -999.250000 0.0000000000 2.1359326839 16.567649841 69.624313354  -999.250000 123.93725586 0.8419583440 -3.841932774 0.8879488111 0.8538751602
 2173.5187988 6.0000000000 14.352000237 12.250000954 0.1089807674  -999.250000 0.0000000000 2.1529185772 14.128907204 68.917411804  -999.250000 124.20536804 0.8439967632 -3.861935854 0.8979839683 0.8829535246
 2173.6711426 6.0000000000 14.727000237 12.250000954 0.1259727627  -999.250000 0.0000000000 2.1679279804 14.491411209 67.659065247  -999.250000 125.06335449 0.8439999819 -3.833092928 0.9499166608 0.8869935870
 2173.8234863 6.0000000000 13.171999931 12.250000954 0.1230048090  -999.250000 0.0000000000 2.1749663353 18.228002548 66.440856934  -999.250000 124.81174469 0.8420064449 -3.707604885 0.9609823823 0.8510577083
 2173.9758301 6.0000000000 13.633000374 12.250000954 0.1210063994  -999.250000 0.0000000000 2.1720142365 17.860198975 65.295509338  -999.250000 123.93347931 0.8360192776 -3.469148874 0.9460479617 0.8559840322
 2174.1284180 6.0000000000 12.765999794 12.250000954 0.1090192273  -999.250000 0.0000000000 2.1590623856 16.299503326 64.115661621  -999.250000 123.45695496 0.8360000253 -3.153012753 0.9230368137 0.8579967618
 2174.2807617 5.0000000000 12.765999794 12.250000954 0.0900304541  -999.250000 0.0000000000 2.1410865784 15.337540627 62.960556030  -999.250000 123.40324402 0.8439744115 -2.836016178 0.9110192657 0.8470176458
 2174.4331055 5.0000000000 13.328000069 12.250000954 0.0720288455  -999.250000 0.0000000000 2.1240818501 17.075206757 62.441478729  -999.250000 123.36497498 0.8449968100 -2.604740381 0.8850416541 0.8390128016
 2174.5854492 5.0000000000 13.859000206 12.250000954 0.0630144253  -999.250000 0.0000000000 2.1130528450 17.748922348 62.971427917  -999.250000 123.57280731 0.8420096040 -2.530355215 0.8760144114 0.8629615307
 2174.7377930 5.0000000000 13.125000000 12.250000954 0.0510383993  -999.250000 0.0000000000 2.1110129356 16.800050735 64.125587463  -999.250000 124.34741211 0.8499743938 -2.635490417 0.8959360123 0.8849295974
 2174.8903809 5.0000000000 13.633000374 12.250000954 0.0579887815  -999.250000 0.0000000000 2.1209518909 15.868490219 64.829635620  -999.250000 123.29870605 0.8529903889 -2.879218102 0.9269503355 0.8889935613
 2175.0427246 5.0000000000 13.101999283 12.250000954 0.0669855773  -999.250000 0.0000000000 2.1399087906 15.079264641 64.398101807  -999.250000 121.19470215 0.8500096202 -3.155115366 0.9789166451 0.8959888220
 2175.1950684 5.0000000000 12.937999725 12.250000954 0.0759855732  -999.250000 0.0000000000 2.1658749580 13.970777512 63.278396606  -999.250000 120.36830139 0.8500000238 -3.355039835 1.0029615164 0.9089791179
 2175.3474121 5.0000000000 13.319999695 12.250000954 0.0759999976  -999.250000 0.0000000000 2.1908798218 10.542001724 62.383300781  -999.250000 119.99611664 0.8440192342 -3.409740448 1.0179519653 0.9309296012
 2175.5000000 5.0000000000 12.633000374 12.250000954 0.0829887763  -999.250000 0.0000000000 2.2069232464 8.9165906906 62.319286346  -999.250000 120.55829620 0.8380095959 -3.306333303 1.0309791565 0.9280048013
 2175.6523438 5.0000000000 13.140999794 12.250000954 0.0790064111  -999.250000 0.0000000000 2.2129712105 9.9203844070 62.998714447  -999.250000 121.96909332 0.8389967680 -3.097669840 1.0270063877 0.8830721378
 2175.8046875 5.0000000000 12.647999763 12.250000954 0.0580336526  -999.250000 0.0000000000 2.2100143433 11.372671127 64.042968750  -999.250000 123.27818298 0.8449807763 -2.878056049 0.9461297989 0.8390704989
