# LAS format log file from PETREL
# Project units are specified as depth units
#==================================================================
~Version information
VERS.   2.0:
WRAP.   NO:
#==================================================================
~Well
STRT .m      1199.6253662 :
STOP .m      3185.7504883 :
STEP .m     0.00000000 :
NULL .        -999.250000 :
COMP.           : COMPANY
WELL.  25/5-4  Byggve   : WELL
FLD.            : FIELD
LOC.            : LOCATION
SRVC.           : SERVICE COMPANY
DATE.  2018-09-11 14:48:21   : Log Export Date {yyyy-MM-dd HH:mm:ss}
PROV.           : PROVINCE
UWI.   25/5-4   : UNIQUE WELL ID
API.            : API NUMBER
#==================================================================
~Curve
DEPT .m                   : DEPTH
Lithology_geolink ._      : Lithology_geolink
DCAL .in                  : DCAL
CALI .in                  : CALI
BS .in                    : BS
DRHO .g/cm3               : DRHO
THOR .ppm                 : THOR
NPHI .m3/m3               : NPHI
RHOB .g/cm3               : RHOB
PEF .b/e                  : PEF
GR .gAPI                  : GR
URAN .ppm                 : URAN
DTC .us/ft                : DTC
RDEP .ohm.m               : RDEP
SP .mV                    : SP
RSHA .ohm.m               : RSHA
RHOM .g/cm3               : RHOM
RMED .ohm.m               : RMED
~Parameter
#==================================================================
~Ascii
# ...
 1991.5003662  -999.250000 3.0731980801 15.323201180 12.250000954 0.0438794382 3.0144209862  -999.250000 2.1599459648 6.5533871651 52.307800293 1.3160135746 40.763801575 0.6545445919 86.586448669  -999.250000 2.6500000954 0.7249875069
 1991.6252441  -999.250000 3.0837502480 15.333749771 12.250000954 0.0436680503 2.4118323326  -999.250000 2.1499009132 6.8566617966 52.862319946 1.5789077282 40.490180969 0.6599193215 86.689132690  -999.250000 2.6500000954 0.7274811268
 1991.7502441  -999.250000 3.1199653149 15.369959831 12.250000954 0.0412490591 1.9797103405  -999.250000 2.1429100037 7.1512260437 53.499118805 1.9225674868 40.287429810 0.6653584838 86.726562500  -999.250000 2.6500000954 0.7278199196
 1991.8752441  -999.250000 3.1801667213 15.430170059 12.250000954 0.0386842489 1.8317310810  -999.250000 2.1377959251 7.3756208420 53.866710663 2.1103475094 40.183917999 0.6714810729 86.668151855  -999.250000 2.6500000954 0.7242134809
 1992.0002441  -999.250000 3.2480609417 15.498060226 12.250000954 0.0375250094 1.8476195335  -999.250000 2.1339089870 7.5480699539 53.596981049 2.0833685398 40.220157623 0.6781756878 86.521026611  -999.250000 2.6500000954 0.7171130180
 1992.1252441  -999.250000 3.3144497871 15.564450264 12.250000954 0.0372985713 1.8574587107  -999.250000 2.1355710030 7.5053820610 52.744739532 1.9650194645 40.359882355 0.6847534180 86.325622559  -999.250000 2.6500000954 0.7091025710
 1992.2503662  -999.250000 3.3958559036 15.645860672 12.250000954 0.0361704119 1.7851406336  -999.250000 2.1372330189 7.1884651184 51.669319153 1.9240852594 40.570495605 0.6897857785 86.082901001  -999.250000 2.6500000954 0.7042924762
 1992.3753662  -999.250000 3.5279538631 15.777950287 12.250000954 0.0330956206 1.7317036390  -999.250000 2.1445879936 6.8437647820 50.875419617 1.9870929718 40.802059174 0.6924737096 85.790000916  -999.250000 2.6500000954 0.7044450045
 1992.5003662  -999.250000 3.7168309689 15.966830254 12.250000954 0.0295900591 2.0071861744  -999.250000 2.1539170742 6.6174740791 50.625839233 1.9841134548 40.990905762 0.6919081807 85.455131531  -999.250000 2.6500000954 0.7101730108
 1992.6253662  -999.250000 3.9042510986 16.154249191 12.250000954 0.0281287394 2.6860971451  -999.250000 2.1623120308 6.5022768974 50.791069031 1.7832994461 41.039428711 0.6882612705 85.133270264  -999.250000 2.6500000954 0.7192484140
 1992.7503662  -999.250000 4.0202660561 16.270269394 12.250000954 0.0295283794 3.6746282578  -999.250000 2.1685719490 6.3867912292 50.951728821 1.3736097813 40.904373169 0.6835930943 84.912742615  -999.250000 2.6500000954 0.7264493108
 1992.8752441  -999.250000 4.0645642281 16.314559937 12.250000954 0.0323267505 4.4547190666  -999.250000 2.1748309135 6.2032418251 50.901760101 1.0212748051 40.663181305 0.6803845167 84.872497559  -999.250000 2.6500000954 0.7274811268
 1993.0002441  -999.250000 4.0997390747 16.349739075 12.250000954 0.0341157392 4.6643762589  -999.250000 2.1782829762 5.9622039795 50.739921570 0.9109857082 40.378314972 0.6803008914 85.011779785  -999.250000 2.6500000954 0.7223201990
 1993.1252441  -999.250000 4.1858267784 16.435829163 12.250000954 0.0333305225 4.0373997688  -999.250000 2.1812989712 5.7125630379 50.796909332 1.1599720716 40.101955414 0.6829283237 85.279098511  -999.250000 2.6500000954 0.7136757970
 1993.2502441  -999.250000 4.3056049347 16.555599213 12.250000954 0.0301932395 3.1161108017  -999.250000 2.1840848923 5.5332341194 51.374458313 1.5552078485 39.866073608 0.6864107251 85.625701904  -999.250000 2.6500000954 0.7070481777
 1993.3752441  -999.250000 4.3866620064 16.636659622 12.250000954 0.0259031896 2.3544902802  -999.250000 2.1865620613 5.4670548439 52.480411530 1.9172042608 39.661827087 0.6880794764 85.957649231  -999.250000 2.6500000954 0.7043561935
 1993.5003662  -999.250000 4.3736500740 16.623649597 12.250000954 0.0219390709 2.0430200100  -999.250000 2.1890399456 5.5002617836 53.620220184 2.0726253986 39.462303162 0.6866744757 86.145088196  -999.250000 2.6500000954 0.7069417238
 1993.6253662  -999.250000 4.2822551727 16.532260895 12.250000954 0.0195788592 2.0509383678  -999.250000 2.1896090508 5.5427851677 54.159889221 2.0809903145 39.284667969 0.6828948259 86.096420288  -999.250000 2.6500000954 0.7130116224
 1993.7503662  -999.250000 4.1859741211 16.435970306 12.250000954 0.0189883709 2.4407637119  -999.250000 2.1901559830 5.5564560890 53.829261780 1.9751373529 39.156558990 0.6786922812 85.773193359  -999.250000 2.6500000954 0.7204310894
 1993.8753662  -999.250000 4.1370468140 16.387050629 12.250000954 0.0193066709 3.2482733727  -999.250000 2.1869249344 5.5623841286 52.993930817 1.8171534538 39.102764130 0.6753866076 85.272048950  -999.250000 2.6500000954 0.7274695039
 1994.0002441  -999.250000 4.1232171059 16.373220444 12.250000954 0.0196785908 4.4112100601  -999.250000 2.1806159019 5.5929889679 52.350578308 1.6398735046 39.132148743 0.6735221148 84.784141541  -999.250000 2.6500000954 0.7321202755
 1994.1252441  -999.250000 4.1005058289 16.350509644 12.250000954 0.0204402506 5.6083722115  -999.250000 2.1743159294 5.6379909515 52.478679657 1.4601800442 39.190788269 0.6730731130 84.498970032  -999.250000 2.6500000954 0.7312033772
 1994.2502441  -999.250000 4.0413589478 16.291360855 12.250000954 0.0217847694 6.3605222702  -999.250000 2.1680788994 5.6877360344 53.327381134 1.2965672016 39.242084503 0.6736128926 84.445220947  -999.250000 2.6500000954 0.7262238264
 1994.3752441  -999.250000 3.9527740479 16.202770233 12.250000954 0.0231050700 6.3193368912  -999.250000 2.1618409157 5.7359371185 54.247879028 1.2288959026 39.309024811 0.6740471125 84.579162598  -999.250000 2.6500000954 0.7200093269
 1994.5002441  -999.250000 3.8611509800 16.111150742 12.250000954 0.0238643102 5.6211571693  -999.250000 2.1613008976 5.7880039215 54.609539032 1.3294292688 39.435543060 0.6731399894 84.813751221  -999.250000 2.6500000954 0.7154265046
 1994.6253662  -999.250000 3.8173220158 16.067319870 12.250000954 0.0241325907 4.7796764374  -999.250000 2.1635119915 5.8561840057 54.212360382 1.5496481657 39.676578522 0.6701148748 85.042198181  -999.250000 2.6500000954 0.7134870291
 1994.7503662  -999.250000 3.8712010384 16.121200562 12.250000954 0.0250970908 4.0552058220  -999.250000 2.1664280891 5.9300851822 53.348438263 1.8390661478 40.085498810 0.6651151776 85.165328979  -999.250000 2.6500000954 0.7126548290
 1994.8753662  -999.250000 4.0346431732 16.284639359 12.250000954 0.0279137399 3.4086625576  -999.250000 2.1716260910 5.9893698692 52.684181213 2.1002941132 40.559799194 0.6590222120 85.137840271  -999.250000 2.6500000954 0.7110282779
 1995.0003662  -999.250000 4.2276210785 16.477619171 12.250000954 0.0319319293 2.7479293346  -999.250000 2.1768240929 6.0266981125 52.937641144 2.2682855129 41.004165649 0.6531043053 84.987472534  -999.250000 2.6500000954 0.7080920935
 1995.1253662  -999.250000 4.3633651733 16.613370895 12.250000954 0.0352488905 2.2818386555  -999.250000 2.1794390678 6.0468659401 54.320610046 2.2284243107 41.349018097 0.6486396790 84.726707458  -999.250000 2.6500000954 0.7049592733
 1995.2502441  -999.250000 4.3762001991 16.626199722 12.250000954 0.0357744284 2.2671480179  -999.250000 2.1813979149 6.0582151413 56.277359009 1.9786299467 41.546161652 0.6462848186 84.454681396  -999.250000 2.6500000954 0.7032418251
 1995.3752441  -999.250000 4.2757987976 16.525800705 12.250000954 0.0329876207 2.7530791759  -999.250000 2.1829030514 6.0672121048 57.870689392 1.5844044685 41.572807312 0.6471204162 84.231742859  -999.250000 2.6500000954 0.7038573027
 1995.5002441  -999.250000 4.0931868553 16.343189240 12.250000954 0.0273293592 3.5104470253  -999.250000 2.1835970879 6.0724058151 58.353050232 1.1772693396 41.433811188 0.6513354182 84.120368958  -999.250000 2.6500000954 0.7068927884
 1995.6252441  -999.250000 3.8876211643 16.137620926 12.250000954 0.0210387092 4.3022990227  -999.250000 2.1842908859 6.0561828613 57.672149658 0.8545828462 41.202926636 0.6582751870 84.170288086  -999.250000 2.6500000954 0.7114964724
 1995.7502441  -999.250000 3.6927433014 15.942740440 12.250000954 0.0165052004 4.9667968750  -999.250000 2.1810619831 5.9940400124 56.290870667 0.6410849690 40.927993774 0.6662909985 84.538307190  -999.250000 2.6500000954 0.7175496817
