# LAS format log file from PETREL
# Project units are specified as depth units
#==================================================================
~Version information
VERS.   2.0:
WRAP.   NO:
#==================================================================
~Well
STRT .m      1153.6579590 :
STOP .m      2874.8635254 :
STEP .m     0.00000000 :
NULL .        -999.250000 :
COMP.           : COMPANY
WELL.  25/5-3  Skirne   : WELL
FLD.            : FIELD
LOC.            : LOCATION
SRVC.           : SERVICE COMPANY
DATE.  2018-09-11 14:48:21   : Log Export Date {yyyy-MM-dd HH:mm:ss}
PROV.           : PROVINCE
UWI.   25/5-3   : UNIQUE WELL ID
API.            : API NUMBER
#==================================================================
~Curve
DEPT .m                   : DEPTH
Lithology_geolink ._      : Lithology_geolink
CALI .in                  : CALI
BS .in                    : BS
DRHO .g/cm3               : DRHO
THOR .ppm                 : THOR
NPHI .m3/m3               : NPHI
RHOB .g/cm3               : RHOB
PEF .b/e                  : PEF
GR .gAPI                  : GR
URAN .ppm                 : URAN
DTC .us/ft                : DTC
RDEP .ohm.m               : RDEP
SP .mV                    : SP
RSHA .ohm.m               : RSHA
RMED .ohm.m               : RMED
~Parameter
#==================================================================
~Ascii
# ...
 2645.5014648 6.0000000000 8.3199996948 8.5000000000 0.0259583332 12.445548058 0.3175450563 2.4419856071 5.2067499161 82.614051819 2.1647627354 86.858863831 1.8405481577 -10.75456238 4.5429201126 2.1965577602
 2645.6538086 6.0000000000 8.2729997635 8.5000000000 0.0220128205 12.615973473 0.3101475537 2.4390192032 5.7442722321 83.017547607 2.2162878513 86.642768860 1.6894840002 -11.21008205 4.0844779015 2.0345191956
 2645.8061523 6.0000000000 8.1949996948 8.5000000000 0.0160288010 12.273844719 0.2991108894 2.4300577641 6.0803871155 78.650192261 2.0741758347 86.400924683 1.5068784952 -11.64223099 3.5774383545 1.8906911612
 2645.9584961 5.0000000000 8.2419996262 8.5000000000 0.0130144237 11.936448097 0.2865704298 2.4141025543 5.6898941994 72.057350159 1.9304250479 86.229888916 1.2910383940 -12.06528854 3.2455914021 1.7019085884
 2646.1110840 5.0000000000 8.1800003052 8.5000000000 0.0149935894 11.885310173 0.2749358416 2.3950912952 5.2244906425 66.292640686 1.9372434616 86.964065552 1.1055929661 -12.47901440 2.9609103203 1.4617692232
 2646.2634277 5.0000000000 8.1800003052 8.5000000000 0.0130064106 11.720545769 0.2657985091 2.3751280308 4.9070162773 62.438648224 1.8407661915 87.681442261 0.9953525662 -12.87148476 2.4695768356 1.2616410255
 2646.4157715 5.0000000000 8.1800003052 8.5000000000 0.0100143999 8.9301948547 0.2587153316 2.3551282883 5.0503039360 59.646854401 1.6878235340 88.592910767 0.9392688274 -13.23467350 2.0997760296 1.1276432276
 2646.5681152 5.0000000000 8.1800003052 8.5000000000 0.0099999998 8.0308542252 0.2514565587 2.3381090164 5.0470190048 56.885700226 1.1107827425 90.094589233 0.9051634073 -13.56091022 1.8492019176 1.0493750572
 2646.7207031 3.0000000000 8.1879997253 8.5000000000 0.0070096157 7.4796175957 0.2414282262 2.3290431499 5.0898623466 54.354145050 0.9008860588 90.459915161 0.8840672970 -13.83811378 1.7224038839 1.0021506548
 2646.8730469 3.0000000000 8.1879997253 8.5000000000 0.0040096156 7.3275198936 0.2278670371 2.3299934864 5.3082981110 52.993686676 0.8257482648 89.451850891 0.8750288486 -14.04334259 1.7678525448 1.0119678974
 2647.0253906 3.0000000000 8.2340002060 8.5000000000 0.0059904000 7.2867450714 0.2127867192 2.3399357796 5.5687475204 52.878684998 0.8314675093 87.255203247 0.8750000000 -14.16541481 2.1521472931 1.1055487394
 2647.1777344 3.0000000000 8.2659997940 8.5000000000 0.0069951927 7.5473260880 0.2005284578 2.3549039364 5.7371921539 53.049888611 0.8407807946 82.781074524 0.8750000000 -14.21675491 2.7003605366 1.1846201420
 2647.3303223 16.000000000 8.3199996948 8.5000000000 0.0099903848 7.5315442085 0.1956233084 2.3669424057 5.4967756271 52.338439941 0.8214995265 76.912147522 0.8690192699 -14.23892975 3.0439038277 1.1760288477
 2647.4826660 16.000000000 8.2659997940 8.5000000000 0.0169775654 6.7960524559 0.2002873570 2.3699855804 5.2627501488 50.404327393 0.5434553027 73.372138977 0.8600288630 -14.28983688 2.9184069633 1.1361281872
 2647.6350098 16.000000000 8.1800003052 8.5000000000 0.0130128209 6.2303576469 0.2130479515 2.3610577583 5.1643142700 47.989494324 0.3118216395 73.631675720 0.8460448980 -14.40762138 2.4325609207 1.0901474953
 2647.7873535 16.000000000 8.1800003052 8.5000000000 0.0060335998 5.7691230774 0.2293851227 2.3421218395 5.3968763351 45.945087433 0.1112728044 77.523887634 0.8201248050 -14.58912659 1.8886160851 1.0452159643
 2647.9396973 3.0000000000 8.1800003052 8.5000000000 0.0079903854 5.5436606407 0.2439964116 2.3181538582 5.4527354240 44.598602295 0.0151701923 84.607254028 0.7712355852 -14.80595684 1.6571058035 0.9832980633
 2648.0922852 3.0000000000 8.1800003052 8.5000000000 0.0199615378 6.0999870300 0.2533751428 2.2951107025 5.2895255089 43.450504303 0.1983947158 90.757537842 0.6982339621 -15.02031422 1.6679614782 0.8773397207
 2648.2446289 3.0000000000 8.1800003052 8.5000000000 0.0229903851 5.4336795807 0.2569870353 2.2741343975 5.0168747902 41.876106262 0.1064049676 93.632942200 0.6242371798 -15.19942570 1.4197981358 0.7543942332
 2648.3969727 3.0000000000 8.1800003052 8.5000000000 0.0150384000 5.0936193466 0.2567715645 2.2610833645 4.8796577454 39.679111481 0.0240961593 95.272514343 0.5772256255 -15.32439995 1.1632335186 0.6883168221
 2648.5493164 3.0000000000 8.1800003052 8.5000000000 0.0100240381 4.0503759384 0.2553094327 2.2540447712 5.0621156693 37.489036560 0.0436961539 96.382766724 0.5580914021 -15.38869190 1.0774086714 0.6770528555
 2648.7019043 3.0000000000 8.1800003052 8.5000000000 0.0129903853 4.1382331848 0.2546929121 2.2530047894 5.2922630310 36.462890625 0.1487395912 96.077545166 0.5480320454 -15.38102531 1.1049102545 0.6829807758
 2648.8542480 3.0000000000 8.1800003052 8.5000000000 0.0209743585 4.0092687607 0.2560114563 2.2569744587 5.4644489288 37.018390656 0.2210269272 94.765869141 0.5400256515 -15.30424690 1.2186346054 0.6909743547
 2649.0065918 3.0000000000 8.1800003052 8.5000000000 0.0180143993 4.0460400581 0.2592789531 2.2609741688 5.5306835175 38.165622711 0.3884668946 93.448310852 0.5350240469 -15.18457603 1.4777519703 0.6949808002
 2649.1589355 3.0000000000 8.1800003052 8.5000000000 0.0179999992 4.0990195274 0.2636022568 2.2609999180 5.2553319931 38.284282684 0.5116567016 92.958030701 0.5359951854 -15.07552338 1.5576201677 0.6880337000
 2649.3115234 3.0000000000 8.1800003052 8.5000000000 0.0189967938 4.1850981712 0.2677500844 2.2550289631 5.2031636238 36.907653809 0.8837013245 94.147056580 0.5350032449 -15.04011250 1.3097981215 0.6800256371
 2649.4638672 3.0000000000 8.1800003052 8.5000000000 0.0239839740 3.9332215786 0.2707356811 2.2440528870 5.2149615288 34.906635284 0.8821120262 96.178405762 0.5280224085 -15.10778141 1.1544967890 0.6680384278
 2649.6162109 3.0000000000 8.1800003052 8.5000000000 0.0150288455 3.7233827114 0.2722304761 2.2310831547 5.2419137955 33.236694336 0.8498353958 97.768089294 0.5080640912 -15.24755096 1.1221024990 0.6351057887
 2649.7685547 3.0000000000 8.1800003052 8.5000000000 0.0140048005 3.6859271526 0.2725082636 2.2200706005 4.9971804619 32.021770477 0.9047873616 98.807701111 0.4781439900 -15.39031315 1.0413887501 0.6031535864
 2649.9211426 3.0000000000 8.1800003052 8.5000000000 0.0140000004 2.8165204525 0.2721616626 2.2140288353 4.8444871902 31.043687820 1.0522208214 100.12770844 0.4520833194 -15.47772121 0.9562724233 0.5800737143
 2650.0734863 3.0000000000 8.1800003052 8.5000000000 0.0120064104 2.5690147877 0.2717221379 2.2120094299 4.7273750305 30.487663269 1.0251151323 101.68640900 0.4350544810 -15.49095821 0.8991826773 0.5640512705
 2650.2258301 3.0000000000 8.1800003052 8.5000000000 0.0139935901 2.6739950180 0.2714914680 2.2129936218 4.8904743195 30.500896454 1.0408121347 101.74753571 0.4240352511 -15.46408653 0.8850448728 0.5560256243
 2650.3781738 3.0000000000 8.1800003052 8.5000000000 0.0299231987 2.7166271210 0.2715098858 2.2149870396 4.8243212700 30.636127472 0.9949002862 100.29122925 0.4170335829 -15.46101475 0.9188368320 0.5510240197
 2650.5305176 3.0000000000 8.1800003052 8.5000000000 0.0349759609 2.8972442150 0.2716888487 2.2149999142 4.8160386086 30.361776352 1.0493270159 99.230117798 0.4110288620 -15.54061604 0.9916490316 0.5480144024
 2650.6831055 3.0000000000 8.1800003052 8.5000000000 0.0260288473 2.7979846001 0.2719089687 2.2120141983 4.8090224266 29.861408234 0.9909956455 99.206474304 0.4060160220 -15.71045589 1.0667597055 0.5440128446
 2650.8354492 3.0000000000 8.1800003052 8.5000000000 0.0210160259 2.7240452766 0.2720490992 2.2070319653 4.8438878059 29.759641647 0.9666060805 99.548797607 0.4030096233 -15.92232227 1.0131731033 0.5350288749
 2650.9877930 3.0000000000 8.1800003052 8.5000000000 0.0160240009 2.5044829845 0.2718909979 2.2020318508 4.7235808372 30.018327713 0.8770503998 100.46446228 0.4039952159 -16.09417343 0.8975568414 0.5300239921
 2651.1401367 3.0000000000 8.1800003052 8.5000000000 0.0090336539 2.6921403408 0.2713335752 2.1990191936 4.5279421806 29.849102020 0.9558548927 101.66036987 0.4109663665 -16.16167831 0.8542066813 0.5349760056
 2651.2927246 3.0000000000 8.1800003052 8.5000000000 0.0070064105 2.5197541714 0.2706632316 2.1989998817 4.3635253906 28.720447540 0.9433140755 102.00048828 0.4249551296 -16.10817337 0.8569903970 0.5459647179
