# LAS format log file from PETREL
# Project units are specified as depth units
#==================================================================
~Version information
VERS.   2.0:
WRAP.   NO:
#==================================================================
~Well
STRT .m      1153.6579590 :
STOP .m      2874.8635254 :
STEP .m     0.00000000 :
NULL .        -999.250000 :
COMP.           : COMPANY
WELL.  25/5-3  Skirne   : WELL
FLD.            : FIELD
LOC.            : LOCATION
SRVC.           : SERVICE COMPANY
DATE.  2018-09-11 14:48:21   : Log Export Date {yyyy-MM-dd HH:mm:ss}
PROV.           : PROVINCE
UWI.   25/5-3   : UNIQUE WELL ID
API.            : API NUMBER
#==================================================================
~Curve
DEPT .m                   : DEPTH
Lithology_geolink ._      : Lithology_geolink
CALI .in                  : CALI
BS .in                    : BS
DRHO .g/cm3               : DRHO
THOR .ppm                 : THOR
NPHI .m3/m3               : NPHI
RHOB .g/cm3               : RHOB
PEF .b/e                  : PEF
GR .gAPI                  : GR
URAN .ppm                 : URAN
DTC .us/ft                : DTC
RDEP .ohm.m               : RDEP
SP .mV                    : SP
RSHA .ohm.m               : RSHA
RMED .ohm.m               : RMED
~Parameter
#==================================================================
~Ascii
# ...
 2871.3583984  -999.250000 8.4610004425 8.5000000000 0.0149983969 11.881990433 0.3294219375 2.5469839573 4.4183063507 90.516059875 3.8249154091  -999.250000 1.9219632149 0.1690192372 2.3531122208 1.9969999790
 2871.5107422  -999.250000 8.4610004425 8.5000000000 0.0159983989 11.942742348 0.3298080862 2.5499856472 4.2462754250 90.817527771 3.8377573490  -999.250000 1.9369759560 0.1779568046 2.2881042957 2.0019919872
 2871.6630859  -999.250000 8.4610004425 8.5000000000 0.0130096003 12.640844345 0.3336713314 2.5509953499 4.2190861702 91.888832092 4.1978278160  -999.250000 1.9350063801 0.1839711517 2.2511184216 2.0079805851
 2871.8156738  -999.250000 8.4610004425 8.5000000000 0.0110032046 12.855528831 0.3391225636 2.5490064621 4.2729134560 93.801864624 4.2837333679  -999.250000 1.9170289040 0.1740320474 2.2320306301 2.0109951496
 2871.9680176  -999.250000 8.4610004425 8.5000000000 0.0090032043 13.017298698 0.3441239893 2.5440158844 4.6164488792 96.487388611 4.3761548996  -999.250000 1.8920400143 0.1500769258 2.2439806461 2.0219824314
 2872.1203613  -999.250000 8.4610004425 8.5000000000 0.0070032054 13.359375954 0.3477184772 2.5390160084 4.7697548866 99.054779053 4.6005449295  -999.250000 1.8620480299 0.1270737201 2.3937597275 2.0160095692
 2872.2727051  -999.250000 8.4610004425 8.5000000000 0.0070000002 13.330532074 0.3501981199 2.5350193977 4.7460384369 100.69811249 4.8803591728  -999.250000 1.8200674057 0.1180431992 2.4009888172 1.9231489897
 2872.4250488  -999.250000 8.4610004425 8.5000000000 0.0099903997 13.404742241 0.3524591327 2.5330095291 4.6722369194 101.57978058 5.0189442635  -999.250000 1.7731504440 0.1219807714 2.2305471897 1.8233199120
 2872.5776367  -999.250000 8.4610004425 8.5000000000 0.0119967954 13.158256531 0.3549320698 2.5320031643 4.4653320313 102.76719666 4.9202399254  -999.250000 1.7240785360 0.1210032031 2.0922212601 1.7710833549
 2872.7299805  -999.250000 8.4610004425 8.5000000000 0.0120000001 12.915917397 0.3573223650 2.5320000648 4.6986250877 104.77455902 4.8495397568  -999.250000 1.6670913696 0.0940865353 2.0291008949 1.7380529642
 2872.8823242  -999.250000 8.4610004425 8.5000000000 0.0120000001 12.996709824 0.3591412902 2.5300095081 4.8477611542 106.81220245 4.9291496277  -999.250000 1.6100913286 0.0372736007 1.9930577278 1.7150368690
 2873.0346680  -999.250000 8.4610004425 8.5000000000 0.0120000001 12.950038910 0.3606527448 2.5270142555 5.2098383904 107.61118317 4.9411602020  -999.250000 1.5870735645 -0.038634617 1.9840288162 1.6950640678
 2873.1872559  -999.250000 8.4610004425 8.5000000000 0.0100032045 13.113919258 0.3629227281 2.5220160484 4.9144759178 106.99100494 5.0250821114  -999.250000 1.6009775400 -0.116750002 1.9830015898 1.6740336418
 2873.3395996  -999.250000 8.4610004425 8.5000000000 0.0070048077 13.346834183 0.3666779399 2.5170159340 4.7382822037 106.28326416 5.1053910255  -999.250000 1.6419342756 -0.178801283 1.9530479908 1.6540321112
 2873.4919434  -999.250000 8.4610004425 8.5000000000 0.0109935896 13.210384369 0.3702726960 2.5140142441 4.4454698563 106.70495605 4.8827023506  -999.250000 1.7348510027 -0.220798403 1.9050768614 1.6969311237
 2873.6442871  -999.250000 8.4610004425 8.5000000000 0.0109999999 14.006200790 0.3693047762 2.5159904957 4.5975103378 108.24556732 5.2032036781  -999.250000 1.9044560194 -0.239908651 2.0186352730 1.9252672195
 2873.7968750  -999.250000 8.4610004425 8.5000000000 0.0100016026 14.456531525 0.3584947586 2.5239741802 4.4532322884 109.99041748 5.3083167076  -999.250000 2.1136651039 -0.230032057 2.7478301525 2.4421715736
 2873.9492188  -999.250000 8.4610004425 8.5000000000 0.0109983971 14.567730904 0.3355436921 2.5379552841 4.2702932358 111.48321533 5.3312139511  -999.250000 2.2867226601 -0.187137827 4.5820579529 2.9791393280
 2874.1015625  -999.250000 8.4610004425 8.5000000000 0.0129967956 14.523148537 0.3037818968 2.5559422970 4.0783076286 112.57351685 5.2486371994  -999.250000 2.3968238831 -0.121211536 6.6596698761 2.9790017605
 2874.2539063  -999.250000 8.4610004425 8.5000000000 0.0120016029 14.718259811 0.2719032764 2.5729184151 3.9102692604 112.88849640 5.2923297882  -999.250000 2.4569039345 -0.057307199 7.7871956825 2.8102707863
 2874.4064941  -999.250000 8.4610004425 8.5000000000 0.0169920009 14.830469131 0.2501693964 2.5859582424 4.1366367340 112.16133881 5.2045497894  -999.250000 2.4829585552 -0.025102565 6.4900813103 2.6462624073
 2874.5588379  -999.250000 8.4689998627 8.5000000000 0.0249871798 15.128357887 0.2459633052 2.5909841061 4.1989006996 110.59502411 5.2811269760  -999.250000 2.4460594654 -0.038955130 3.6186058521 2.4622948170
 2874.7111816  -999.250000 8.5550003052 8.5000000000 0.0289935898 15.424202919 0.2596260011 2.5880095959 4.5075049400 109.22140503 5.3260140419  -999.250000 2.3391714096 -0.089836545 2.3849725723 2.3042531013
 2874.8635254  -999.250000 8.5469999313 8.5000000000 0.0280016027 15.658638000 0.2847590148 2.5780479908 4.6407866478 108.60594177 5.3728742599  -999.250000 2.1972274780 -0.143740788 2.0395512581 2.1522436142
