# LAS format log file from PETREL
# Project units are specified as depth units
#==================================================================
~Version information
VERS.   2.0:
WRAP.   NO:
#==================================================================
~Well
STRT .m      1153.6579590 :
STOP .m      2874.8635254 :
STEP .m     0.00000000 :
NULL .        -999.250000 :
COMP.           : COMPANY
WELL.  25/5-3  Skirne   : WELL
FLD.            : FIELD
LOC.            : LOCATION
SRVC.           : SERVICE COMPANY
DATE.  2018-09-11 14:48:21   : Log Export Date {yyyy-MM-dd HH:mm:ss}
PROV.           : PROVINCE
UWI.   25/5-3   : UNIQUE WELL ID
API.            : API NUMBER
#==================================================================
~Curve
DEPT .m                   : DEPTH
Lithology_geolink ._      : Lithology_geolink
CALI .in                  : CALI
BS .in                    : BS
DRHO .g/cm3               : DRHO
THOR .ppm                 : THOR
NPHI .m3/m3               : NPHI
RHOB .g/cm3               : RHOB
PEF .b/e                  : PEF
GR .gAPI                  : GR
URAN .ppm                 : URAN
DTC .us/ft                : DTC
RDEP .ohm.m               : RDEP
SP .mV                    : SP
RSHA .ohm.m               : RSHA
RMED .ohm.m               : RMED
~Parameter
#==================================================================
~Ascii
# ...
 2758.4299316 3.0000000000 8.3210000992 8.5000000000 0.0120000001 6.0499234200 0.1636086702 2.4889905453 4.5999407768 43.189403534 0.2620308697 83.487495422 3.1644048691 -3.778091192 5.5622849464 3.2726192474
 2758.5825195 3.0000000000 8.3199996948 8.5000000000 0.0070080128 6.1706562042 0.1668196470 2.4890000820 4.8056716919 40.491607666 0.2391871959 82.818504333 3.2189135551 -4.232548237 5.8824920654 3.2879760265
 2758.7348633 3.0000000000 8.3199996948 8.5000000000 0.0079983976 7.2094459534 0.1728905141 2.4899969101 4.9407835007 39.299804688 0.4769794941 82.733306885 3.2209968567 -4.507121563 5.4756536484 3.3379199505
 2758.8872070 3.0000000000 8.3280000687 8.5000000000 0.0089983968 7.5681695938 0.1795877963 2.4919905663 4.8401618004 40.193672180 0.6137499809 83.282249451 3.2180047035 -4.620457649 5.1884603500 3.3849246502
 2759.0395508 3.0000000000 8.3210000992 8.5000000000 0.0060096001 7.2604866028 0.1852527857 2.4949855804 4.6376495361 43.336837769 0.5336991549 84.104522705 3.2299616337 -4.631947041 5.0035920143 3.3879904747
 2759.1921387 3.0000000000 8.3800001144 8.5000000000 0.0099935895 7.3089089394 0.1892771423 2.4999840260 4.7148752213 47.468761444 1.2549730539 84.525314331 3.2359905243 -4.622032166 4.6885051727 3.4309310913
 2759.3444824 3.0000000000 8.3229999542 8.5000000000 0.0119967954 7.0655064583 0.1922405064 2.5039870739 4.7000236511 50.645824432 1.1990436316 84.626457214 3.2130370140 -4.666855812 4.3974661827 3.5907437801
 2759.4968262 3.0000000000 8.3199996948 8.5000000000 0.0110016027 6.8906140327 0.1952304244 2.5069904327 4.7878589630 51.670738220 1.1359269619 84.619476318 3.1570897102 -4.814525604 4.6765513420 3.7497451305
 2759.6491699 3.0000000000 8.3940000534 8.5000000000 0.0129936002 6.6508717537 0.1987729520 2.5069999695 5.2445340157 51.030105591 1.0489383936 84.928092957 3.0513393879 -5.075742722 5.1026334763 3.7310607433
 2759.8017578 3.0000000000 8.3249998093 8.5000000000 0.0120016029 6.3013396263 0.2020694464 2.5040094852 5.7821393013 49.745124817 0.9897537827 85.135025024 2.9531571865 -5.417903900 5.2377853394 3.5073590279
 2759.9541016 3.0000000000 8.3199996948 8.5000000000 0.0120000001 6.9386820793 0.2031864375 2.4970223904 5.8379116058 48.434204102 1.7210602760 85.708206177 2.8901009560 -5.778842926 4.8216681480 3.2184631824
 2760.1064453 3.0000000000 8.3199996948 8.5000000000 0.0159935914 6.7792191505 0.2003291845 2.4900224209 5.4665961266 47.075355530 1.6093025208 85.957099915 2.8370847702 -6.099970818 4.2469210625 3.0372900963
 2760.2587891 3.0000000000 8.3129997253 8.5000000000 0.0169983990 6.9094219208 0.1933137923 2.4840288162 5.0806183815 45.645874023 1.6836473942 86.815345764 2.8020560741 -6.347809792 3.9135336876 2.9581265450
 2760.4111328 3.0000000000 8.3129997253 8.5000000000 0.0150063997 6.8692159653 0.1841939092 2.4820096493 5.3551168442 44.409934998 1.5554136038 88.932624817 2.7930288315 -6.510221481 3.8651535511 2.9300897121
 2760.5637207 3.0000000000 8.3199996948 8.5000000000 0.0149999997 6.1817460060 0.1764746755 2.4859871864 5.1752901077 43.517848969 1.3229756355 89.806411743 2.7810192108 -6.584763050 4.2344069481 2.9958941936
 2760.7160645 3.0000000000 8.3199996948 8.5000000000 0.0110064102 5.8525395393 0.1733798683 2.4949710369 4.9643383026 42.879043579 1.2118641138 87.217346191 2.7620306015 -6.575031757 4.8809633255 3.1108157635
 2760.8684082 3.0000000000 8.4049997330 8.5000000000 0.0109999999 5.7096614838 0.1760271788 2.5039567947 4.5207114220 42.334617615 1.2741820812 82.680404663 2.7620000839 -6.487422466 5.7406220436 3.1719021797
 2761.0207520 3.0000000000 8.4490003586 8.5000000000 0.0080096005 5.8087491989 0.1827575415 2.5119616985 4.6455965042 42.198646545 1.7631059885 80.474739075 2.7879168987 -6.320803165 6.4995679855 3.1909391880
 2761.1733398 3.0000000000 8.3339996338 8.5000000000 0.0060032052 5.6255640984 0.1899469942 2.5149905682 4.7827806473 43.236663818 1.7788500786 80.867515564 2.8598845005 -6.059836388 6.3881826401 3.1221106052
 2761.3256836 3.0000000000 8.3199996948 8.5000000000 0.0030048077 5.9512014389 0.1936780810 2.5150001049 4.9647083282 45.940319061 2.0558421612 81.760894775 2.9957821369 -5.695169449 5.2068958282 2.9902114868
 2761.4780273 3.0000000000 8.4040002823 8.5000000000 0.0059951926 6.7616767883 0.1915204525 2.5140047073 4.5945944786 49.801418304 2.6443934441 82.115249634 3.1657273769 -5.246160030 4.0119152069 2.9969887733
 2761.6303711 3.0000000000 8.4560003281 8.5000000000 0.0109839998 7.0871367455 0.1830807328 2.5139999390 4.4335150719 53.247444153 2.8689718246 81.575057983 3.3145232201 -4.751379967 3.4179008007 3.2113118172
 2761.7829590 3.0000000000 8.4610004425 8.5000000000 0.0129967956 6.7642230988 0.1695732921 2.5169904232 4.1324825287 54.600700378 2.4624371529 80.907806396 3.4218285084 -4.260570526 4.0070509911 3.6692659855
 2761.9353027 3.0000000000 8.4610004425 8.5000000000 0.0120016029 6.6532001495 0.1530529708 2.5229806900 3.9642691612 53.320133209 2.3613550663 80.784622192 3.5368156433 -3.813432693 4.9904232025 4.0314197540
 2762.0876465 3.0000000000 8.4610004425 8.5000000000 0.0129983975 5.1109242439 0.1358052790 2.5329680443 3.6604871750 50.341564178 1.9915871620 80.433891296 3.8445065022 -3.425243616 5.7258224487 4.1228542328
 2762.2399902 3.0000000000 8.4610004425 8.5000000000 0.0130000003 5.0791678429 0.1207423881 2.5439472198 3.6160705090 47.087646484 1.9605166912 79.713272095 4.4640064240 -3.088617563 6.0315113068 4.2927279472
 2762.3923340 3.0000000000 8.4610004425 8.5000000000 0.0090127997 4.9850602150 0.1116336584 2.5559422970 3.6518847942 44.314319611 1.6046541929 78.542900085 5.0780320168 -2.777495146 6.1835136414 4.7016882896
 2762.5449219 3.0000000000 8.4610004425 8.5000000000 0.0109967953 4.8453898430 0.1130652577 2.5629775524 3.7368638515 41.921653748 1.3976680040 75.845169067 5.3885049820 -2.455032110 6.6252918243 5.3649377823
 2762.6972656 3.0000000000 8.4610004425 8.5000000000 0.0139951929 4.6593217850 0.1290286779 2.5570192337 3.8598027229 39.878547668 1.2269396782 72.690399170 5.3899984360 -2.094156981 8.0557050705 5.8801746368
 2762.8496094 3.0000000000 8.4610004425 8.5000000000 0.0140000004 6.4766926765 0.1609264016 2.5321199894 4.0556859970 39.221138000 1.1638768911 72.242965698 5.1084518433 -1.697905540 8.9266061783 5.6314005852
 2763.0019531 3.0000000000 8.4809999466 8.5000000000 0.0259616002 8.7757883072 0.2063214332 2.4842307568 5.3608107567 41.775642395 1.1951531172 76.244834900 4.4461245537 -1.279014349 6.9563293457 4.4079260826
 2763.1545410 5.0000000000 8.8529996872 8.5000000000 0.0499615408 8.7947540283 0.2588019371 2.4221985340 6.8775720596 48.739646912 1.4066795111 81.372474670 3.5634133816 -0.846384645 3.3367998600 2.8554854393
 2763.3068848 5.0000000000 9.4209995270 8.5000000000 0.0659743622 9.0106830597 0.3096869290 2.3552148342 8.9327049255 58.816669464 1.5376129150 83.691146851 2.8271794319 -0.409400642 1.7265752554 2.0203366280
 2763.4592285 5.0000000000 9.9790000916 8.5000000000 0.0969503224 10.804773331 0.3514493704 2.2992687225 9.7107563019 68.545234680 1.7563641071 87.676925659 2.2958509922 0.0079935994 1.3166538477 1.7933621407
 2763.6115723 5.0000000000 10.291000366 8.5000000000 0.1259071976 10.919218063 0.3802916110 2.2621779442 9.3890361786 74.779106140 1.7651002407 95.213363647 1.9301712513 0.3742403686 1.2522047758 1.7262144089
 2763.7641602 5.0000000000 10.251999855 8.5000000000 0.1489631385 11.031943321 0.3966777623 2.2450544834 9.3241033554 76.950119019 1.7973628044 102.30032349 1.6813974380 0.6590897441 1.2240447998 1.6830688715
 2763.9165039 5.0000000000 10.458999634 8.5000000000 0.1410128176 11.056078911 0.4042558074 2.2459969521 9.3918914795 76.873268127 1.7338063717 106.24617004 1.5342355967 0.8523814082 1.2369791269 1.6370736361
 2764.0688477 5.0000000000 10.578000069 8.5000000000 0.1230288520 11.224912643 0.4076192677 2.2549712658 8.9207563400 76.533088684 1.7100204229 108.36466980 1.4411489964 0.9686281681 1.3238605261 1.5491410494
 2764.2211914 5.0000000000 10.166999817 8.5000000000 0.1080240384 11.113422394 0.4100284576 2.2659473419 8.9908866882 76.405609131 1.5720590353 110.46185303 1.3481490612 1.0406544209 1.3878974915 1.4411730766
