# LAS format log file from PETREL
# Project units are specified as depth units
#==================================================================
~Version information
VERS.   2.0:
WRAP.   NO:
#==================================================================
~Well
STRT .m      1199.6253662 :
STOP .m      3185.7504883 :
STEP .m     0.00000000 :
NULL .        -999.250000 :
COMP.           : COMPANY
WELL.  25/5-4  Byggve   : WELL
FLD.            : FIELD
LOC.            : LOCATION
SRVC.           : SERVICE COMPANY
DATE.  2018-09-11 14:48:21   : Log Export Date {yyyy-MM-dd HH:mm:ss}
PROV.           : PROVINCE
UWI.   25/5-4   : UNIQUE WELL ID
API.            : API NUMBER
#==================================================================
~Curve
DEPT .m                   : DEPTH
Lithology_geolink ._      : Lithology_geolink
DCAL .in                  : DCAL
CALI .in                  : CALI
BS .in                    : BS
DRHO .g/cm3               : DRHO
THOR .ppm                 : THOR
NPHI .m3/m3               : NPHI
RHOB .g/cm3               : RHOB
PEF .b/e                  : PEF
GR .gAPI                  : GR
URAN .ppm                 : URAN
DTC .us/ft                : DTC
RDEP .ohm.m               : RDEP
SP .mV                    : SP
RSHA .ohm.m               : RSHA
RHOM .g/cm3               : RHOM
RMED .ohm.m               : RMED
~Parameter
#==================================================================
~Ascii
 1199.6253662  -999.250000 -3.852352142 13.647649765 17.500000000 -0.011798220 0.1321972758  -999.250000 1.7356020212 9.6170988083 34.325508118 1.0443004370  -999.250000  -999.250000 85.501373291  -999.250000 2.6500000954 0.7290831208
 1199.7502441  -999.250000 -2.960606098 14.539389610 17.500000000 -0.023983130 0.3701595962  -999.250000 1.7103890181 12.437939644 37.784858704 1.1126044989  -999.250000  -999.250000 86.322563171  -999.250000 2.6500000954 0.8281521201
 1199.8752441  -999.250000 -1.765912175 15.734090805 17.500000000 -0.034800820 0.7079472542  -999.250000 1.6928280592 14.885840416 42.292018890 1.1661709547  -999.250000  -999.250000 86.555809021  -999.250000 2.6500000954 0.8445932865
 1200.0002441  -999.250000 -0.546083510 16.953920364 17.500000000 -0.038341939 1.0905615091  -999.250000 1.6807520390 16.026449203 46.486991882 1.2538197041  -999.250000  -999.250000 86.559738159  -999.250000 2.6500000954 0.8365427852
 1200.1253662  -999.250000 5.7015900612 17.951589584 12.250000954 -0.034052510 1.4808419943  -999.250000 1.6711770296 16.353889465 49.313140869 1.4177352190  -999.250000  -999.250000 86.494453430  -999.250000 2.6500000954 0.8514012098
 1200.2503662  -999.250000 6.3562679291 18.606269836 12.250000954 -0.025560729 1.8706001043  -999.250000 1.6763499975 16.249200821 50.572460175 1.6003063917  -999.250000  -999.250000 86.430259705  -999.250000 2.6500000954 0.8962901831
 1200.3752441  -999.250000 6.7940859795 19.044090271 12.250000954 -0.018781630 2.2455215454  -999.250000 1.6815220118 16.146459579 51.155750275 1.7387697697  -999.250000  -999.250000 86.374046326  -999.250000 2.6500000954 0.9582185745
 1200.5002441  -999.250000 7.1389050484 19.388900757 12.250000954 -0.017695749 2.5122694969  -999.250000 1.6822199821 16.433410645 52.100658417 1.8256146908  -999.250000  -999.250000 86.309036255  -999.250000 2.6500000954 1.0128560066
 1200.6252441  -999.250000 7.4659605026 19.715959549 12.250000954 -0.022417931 2.5985777378  -999.250000 1.6810590029 17.271289825 53.679870605 1.8841553926  -999.250000  -999.250000 86.200698853  -999.250000 2.6500000954 1.0414179564
 1200.7503662  -999.250000 7.7357335091 19.985729218 12.250000954 -0.030109890 2.4331429005  -999.250000 1.6763410568 18.345079422 54.966331482 1.8610402346  -999.250000 1.2460199594 85.991462708  -999.250000 2.6500000954 1.0481189489
 1200.8753662  -999.250000 7.8983993530 20.148399353 12.250000954 -0.038787190 2.1748018265  -999.250000 1.6619089842 19.401229858 54.695781708 1.7379194498  -999.250000 1.2503240108 85.680999756  -999.250000 2.6500000954 1.0475039482
 1201.0002441  -999.250000 7.9680838585 20.218080521 12.250000954 -0.047718581 1.9710240364  -999.250000 1.6474779844 20.337169647 52.785831451 1.5057067871  -999.250000 1.2602900267 85.305480957  -999.250000 2.6500000954 1.0499099493
 1201.1252441  -999.250000 7.9880957603 20.238100052 12.250000954 -0.056153700 1.8810015917  -999.250000 1.6342190504 21.063810349 50.433788300 1.2021017075  -999.250000 1.2817939520 84.880256653  -999.250000 2.6500000954 1.0628709793
 1201.2503662  -999.250000 8.0372085571 20.287210464 12.250000954 -0.062277779 1.8306927681  -999.250000 1.6212010384 21.325229645 49.416011810 0.9471082687  -999.250000 1.3087669611 84.404823303  -999.250000 2.6500000954 1.0820029974
 1201.3753662  -999.250000 8.1679878235 20.417987823 12.250000954 -0.065070860 1.8285388947  -999.250000 1.6134990454 21.053310394 50.223701477 0.8136564493  -999.250000 1.3418639898 83.832176208  -999.250000 2.6500000954 1.1061929464
 1201.5002441  -999.250000 8.3687896729 20.618791580 12.250000954 -0.064831957 1.9443581104  -999.250000 1.6140760183 20.570640564 51.954250336 0.7647060752  -999.250000 1.3827739954 83.157257080  -999.250000 2.6500000954 1.1314049959
 1201.6252441  -999.250000 8.5669307709 20.816930771 12.250000954 -0.063243508 2.1788086891  -999.250000 1.6146519184 20.034009933 52.825061798 0.7166775465  -999.250000 1.4333980083 82.475563049  -999.250000 2.6500000954 1.1510519981
 1201.7502441  -999.250000 8.7029781342 20.952980042 12.250000954 -0.061094388 2.3878140450  -999.250000 1.6241660118 19.269760132 52.152149200 0.7054697275  -999.250000 1.4950309992 81.915069580  -999.250000 2.6500000954 1.1588619947
 1201.8753662  -999.250000 8.7333908081 20.983390808 12.250000954 -0.057631679 2.4976596832  -999.250000 1.6341249943 18.277650833 50.528400421 0.8441525102  -999.250000 1.5565299988 81.526191711  -999.250000 2.6500000954 1.1566499472
 1202.0003662  -999.250000 8.6561088562 20.906110764 12.250000954 -0.051082119 2.6552834511  -999.250000 1.6487649679 17.232429504 49.535831451 1.1351753473  -999.250000 1.6001130342 81.272827148  -999.250000 2.6500000954 1.1493350267
 1202.1252441  -999.250000 8.4855575562 20.735559464 12.250000954 -0.040482190 3.0593731403  -999.250000 1.6678279638 16.213079453 49.818840027 1.4334224463  -999.250000 1.6032079458 81.078590393  -999.250000 2.6500000954 1.1454030275
 1202.2502441  -999.250000 8.2314701080 20.481472015 12.250000954 -0.027769640 3.7107868195  -999.250000 1.6867289543 15.239729881 50.888980865 1.5982265472  -999.250000 1.5716209412 80.864158630  -999.250000 2.6500000954 1.1476249695
 1202.3752441  -999.250000 7.8873295784 20.137329102 12.250000954 -0.016171020 4.1638264656  -999.250000 1.7036420107 14.415129662 52.030399323 1.6117161512  -999.250000 1.5166419744 80.595611572  -999.250000 2.6500000954 1.1564320326
 1202.5003662  -999.250000 7.5090074539 19.759010315 12.250000954 -0.006830694 4.0728368759  -999.250000 1.7205560207 13.823040009 52.957031250 1.5689725876  -999.250000 1.4660290480 80.269248962  -999.250000 2.6500000954 1.1679350138
 1202.6253662  -999.250000 7.2495093346 19.499509811 12.250000954 0.0004683911 3.2658481598  -999.250000 1.7272709608 13.367509842 53.572540283 1.5941060781  -999.250000 1.4321210384 79.913192749  -999.250000 2.6500000954 1.1783180237
 1202.7502441  -999.250000 7.2268748283 19.476879120 12.250000954 0.0032320139 2.3623118401  -999.250000 1.7281780243 12.869230270 53.709758759 1.7326978445  -999.250000 1.4256180525 79.577163696  -999.250000 2.6500000954 1.1855770350
 1202.8752441  -999.250000 7.4093761444 19.659379959 12.250000954 -0.002126101 1.8573447466  -999.250000 1.7274260521 12.338500023 53.145370483 1.9363653660  -999.250000 1.4383679628 79.310768127  -999.250000 2.6500000954 1.1910029650
 1203.0003662  -999.250000 7.6413226128 19.891319275 12.250000954 -0.013710480 1.8806573153  -999.250000 1.7199820280 11.859649658 51.921779633 2.1234769821  -999.250000 1.4680800438 79.131179810  -999.250000 2.6500000954 1.1978930235
 1203.1253662  -999.250000 7.7454128265 19.995410919 12.250000954 -0.023867089 2.0361659527  -999.250000 1.7125370502 11.437040329 50.588569641 2.2517156601  -999.250000 1.5048029423 78.998153687  -999.250000 2.6500000954 1.2152589560
 1203.2502441  -999.250000 7.6445097923 19.894510269 12.250000954 -0.025515240 1.9900859594  -999.250000 1.7236419916 11.042739868 49.870700836 2.2225117683  -999.250000 1.5365689993 78.853912354  -999.250000 2.6500000954 1.2484610081
 1203.3752441  -999.250000 7.3892970085 19.639299393 12.250000954 -0.016365480 1.7270908356  -999.250000 1.7405970097 10.824239731 49.860931396 1.9720965624  -999.250000 1.5540449619 78.648818970  -999.250000 2.6500000954 1.2989530563
 1203.5002441  -999.250000 7.1285247803 19.378519058 12.250000954 -0.000208715 1.5185490847  -999.250000 1.7596219778 10.736100197 50.040428162 1.5092371702  -999.250000 1.5602090359 78.366600037  -999.250000 2.6500000954 1.3543790579
 1203.6253662  -999.250000 6.9728789330 19.222879410 12.250000954 0.0159336794 1.8009622097  -999.250000 1.7830100060 10.674719810 49.862949371 0.9136031270  -999.250000 1.5660469532 77.990859985  -999.250000 2.6500000954 1.3906630278
 1203.7503662  -999.250000 6.9417171478 19.191719055 12.250000954 0.0249051303 2.4370894432  -999.250000 1.8063980341 10.591540337 49.286350250 0.4377772510  -999.250000 1.5844039917 77.556968689  -999.250000 2.6500000954 1.3944020271
 1203.8752441  -999.250000 6.9742546082 19.224250793 12.250000954 0.0248079505 3.2516489029  -999.250000 1.8099339008 10.516360283 48.764991760 0.2939000130  -999.250000 1.6182290316 77.129402161  -999.250000 2.6500000954 1.3744900227
