# LAS format log file from PETREL
# Project units are specified as depth units
#==================================================================
~Version information
VERS.   2.0:
WRAP.   NO:
#==================================================================
~Well
STRT .m      1153.6579590 :
STOP .m      2874.8635254 :
STEP .m     0.00000000 :
NULL .        -999.250000 :
COMP.           : COMPANY
WELL.  25/5-3  Skirne   : WELL
FLD.            : FIELD
LOC.            : LOCATION
SRVC.           : SERVICE COMPANY
DATE.  2018-09-11 14:48:21   : Log Export Date {yyyy-MM-dd HH:mm:ss}
PROV.           : PROVINCE
UWI.   25/5-3   : UNIQUE WELL ID
API.            : API NUMBER
#==================================================================
~Curve
DEPT .m                   : DEPTH
Lithology_geolink ._      : Lithology_geolink
CALI .in                  : CALI
BS .in                    : BS
DRHO .g/cm3               : DRHO
THOR .ppm                 : THOR
NPHI .m3/m3               : NPHI
RHOB .g/cm3               : RHOB
PEF .b/e                  : PEF
GR .gAPI                  : GR
URAN .ppm                 : URAN
DTC .us/ft                : DTC
RDEP .ohm.m               : RDEP
SP .mV                    : SP
RSHA .ohm.m               : RSHA
RMED .ohm.m               : RMED
~Parameter
#==================================================================
~Ascii
# ...
 1492.4431152  -999.250000 12.828000069 12.250000954 0.0030040063  -999.250000 0.0000000000 1.9690200090 10.892683029 61.232440948  -999.250000 153.80070496 0.8640264869 0.7127254009 0.8520151973 0.8290136456
 1492.5954590  -999.250000 12.624999046 12.250000954 0.0020008013  -999.250000 0.0000000000 1.9640200138 9.6809701920 60.840564728  -999.250000 154.33660889 0.8520384431 0.5667018890 0.8340144157 0.8120136261
 1492.7479248  -999.250000 13.086000443 12.250000954 0.0079951966  -999.250000 0.0000000000 1.9580239058 8.5868759155 61.371860504  -999.250000 154.33660889 0.8420240283 0.4117445946 0.8250072002 0.8090023994
 1492.9002686  -999.250000 13.242000580 12.250000954 0.0109975962  -999.250000 0.0000000000 1.9510279894 10.475484848 62.470588684  -999.250000 154.33660889 0.8420000076 0.2318653911 0.8040168285 0.8030048013
 1493.0527344  -999.250000 12.531000137 12.250000954 0.0100008007  -999.250000 0.0000000000 1.9470160007 12.889066696 63.303668976  -999.250000 153.52812195 0.8469879627 0.0399223380 0.8119935989 0.8039992452
 1493.2050781  -999.250000 12.718999863 12.250000954 0.0129975965  -999.250000 0.0000000000 1.9470000267 12.633207321 63.363769531  -999.250000 151.42897034 0.8519839644 -0.129322365 0.8339823484 0.8189879656
 1493.3575439  -999.250000 12.453000069 12.250000954 0.0139991995  -999.250000 0.0000000000 1.9529807568 11.110219955 62.874576569  -999.250000 149.28170776 0.8639711738 -0.244631410 0.8669735789 0.8369855881
 1493.5098877  -999.250000 12.913999557 12.250000954 0.0189959928  -999.250000 0.0000000000 1.9619640112 10.172750473 62.842124939  -999.250000 146.20411682 0.8819423914 -0.310735792 0.8979751468 0.8529871702
 1493.6622314  -999.250000 12.062998772 12.250000954 0.0229935944  -999.250000 0.0000000000 1.9709639549 11.186372757 63.752338409  -999.250000 139.70239258 0.8929647207 -0.345859766 0.9259551764 0.8709711432
 1493.8146973  -999.250000 11.961000443 12.250000954 0.0269967951  -999.250000 0.0000000000 1.9779720306 11.491756439 65.358558655  -999.250000 132.82627869 0.8979839683 -0.354963958 0.9439855814 0.8789935708
 1493.9670410  -999.250000 12.328000069 12.250000954 0.0279983990  -999.250000 0.0000000000 1.9799920321 12.693073273 66.575134277  -999.250000 129.93499756 0.8989967704 -0.324124187 0.9390079975 0.8700144291
 1494.1195068  -999.250000 12.375000000 12.250000954 0.0240032058  -999.250000 0.0000000000 1.9800000191 12.672018051 66.521240234  -999.250000 131.47842407 0.8930191994 -0.233364284 0.9110224247 0.8600080013
 1494.2718506  -999.250000 12.640999794 12.250000954 0.0210048035  -999.250000 0.0000000000 1.9800000191 10.722126961 65.523010254  -999.250000 138.30265808 0.8850256205 -0.069657050 0.8580848575 0.8550080061
 1494.4243164  -999.250000 12.711000443 12.250000954 0.0130064106  -999.250000 0.0000000000 1.9809958935 9.0093717575 64.980163574  -999.250000 147.61732483 0.8720312119 0.1600792557 0.8230280876 0.8500040174
 1494.5766602  -999.250000 12.156000137 12.250000954 0.0090032043  -999.250000 0.0000000000 1.9839879274 8.6173133850 65.849494934  -999.250000 153.09501648 0.8450865149 0.4189623296 0.8220008016 0.8340128064
 1494.7291260  -999.250000 12.430000305 12.250000954 0.0070016016  -999.250000 0.0000000000 1.9879840612 9.8969745636 67.355957031  -999.250000 154.23237610 0.8180649281 0.6460912824 0.8229992390 0.8160144091
 1494.8814697  -999.250000 12.358999252 12.250000954 0.0079991994  -999.250000 0.0000000000 1.9909880161 10.351636887 67.914779663  -999.250000 154.25625610 0.8100256324 0.7764791846 0.8289951682 0.8100048304
 1495.0339355  -999.250000 12.352001190 12.250000954 0.0070008007  -999.250000 0.0000000000 1.9929920435 10.968505859 67.002677917  -999.250000 154.31602478 0.8229687810 0.7779960036 0.8349951506 0.8199920058
 1495.1862793  -999.250000 12.444999695 12.250000954 0.0050016022  -999.250000 0.0000000000 1.9989758730 10.688224792 65.596641541  -999.250000 153.52691650 0.8578878641 0.6604728103 0.8359992504 0.8379855752
 1495.3387451  -999.250000 12.046999931 12.250000954 -0.001994396  -999.250000 0.0000000000 2.0149488449 10.609063148 64.483566284  -999.250000 147.87632751 0.9118701816 0.4716057479 0.8340016007 0.8599823713
 1495.4910889  -999.250000 11.859000206 12.250000954 -0.003998398  -999.250000 0.0000000000 2.0438838005 10.663955688 63.004928589  -999.250000 135.39048767 0.9508751035 0.2817606032 0.8399951458 0.8999679089
 1495.6435547  -999.250000 12.015999794 12.250000954 -0.004999199  -999.250000 0.0000000000 2.0838718414 11.812079430 60.143180847  -999.250000 122.05861664 0.9549903870 0.1663685888 0.9349239469 0.9929255247
 1495.7958984  -999.250000 12.069999695 12.250000954 -0.006998398  -999.250000 0.0000000000 2.1218478680 16.262432098 56.665939331  -999.250000 112.98606110 0.9480224252 0.1600240171 1.1438325644 1.0339671373
 1495.9482422  -999.250000 12.390999794 12.250000954 0.0149647715  -999.250000 0.0000000000 2.1459038258 14.565726280 54.820365906  -999.250000 110.00194550 0.9460064173 0.2247395813 1.3676413298 0.9790880680
 1496.1007080  -999.250000 12.171998978 12.250000954 0.0389807709  -999.250000 0.0000000000 2.1459999084 13.633745193 56.406593323  -999.250000 114.36674500 0.9479936361 0.2757958174 1.1831482649 0.8990640640
 1496.2530518  -999.250000 12.319999695 12.250000954 0.0160368308  -999.250000 0.0000000000 2.1220960617 11.628215790 60.967678070  -999.250000 123.59368896 0.9519872069 0.2281923145 0.8744947910 0.8740400672
 1496.4055176  -999.250000 12.125000000 12.250000954 0.0080064107  -999.250000 0.0000000000 2.0841522217 10.906576157 66.576530457  -999.250000 134.50436401 0.9470120668 0.0497165732 0.7980608940 0.8730008006
 1496.5578613  -999.250000 12.272999763 12.250000954 0.0279679745  -999.250000 0.0000000000 2.0471482277 10.672374725 70.930572510  -999.250000 143.21188354 0.9061313272 -0.215934291 0.8179680109 0.8600208163
 1496.7103271  -999.250000 12.593999863 12.250000954 0.0319967978  -999.250000 0.0000000000 2.0221002102 10.289306641 72.331436157  -999.250000 146.83598328 0.8521298170 -0.465999216 0.8299903870 0.8470104337
 1496.8626709  -999.250000 12.758000374 12.250000954 0.0270040073  -999.250000 0.0000000000 2.0140318871 10.444874763 70.625885010  -999.250000 147.49548340 0.8141217232 -0.586519241 0.8190088272 0.8320120573
 1497.0151367  -999.250000 12.453000069 12.250000954 0.0319959968  -999.250000 0.0000000000 2.0169880390 9.8524751663 67.322250366  -999.250000 147.86917114 0.8100095987 -0.507320285 0.8150032163 0.8230072260
 1497.1674805  -999.250000 12.484000206 12.250000954 0.0310008004  -999.250000 0.0000000000 2.0259640217 10.476499557 64.874786377  -999.250000 148.95736694 0.8339231014 -0.250033647 0.8219944239 0.8259975910
 1497.3199463  -999.250000 12.227000237 12.250000954 0.0240056049  -999.250000 0.0000000000 2.0429453850 10.788749695 64.089492798  -999.250000 149.41506958 0.8768966198 0.0789455101 0.8369880319 0.8349927664
 1497.4722900  -999.250000 12.093999863 12.250000954 0.0110104168  -999.250000 0.0000000000 2.0748720169 9.7038698196 63.395778656  -999.250000 147.59907532 0.9378046393 0.3598751128 0.8409968019 0.8769662976
 1497.6247559  -999.250000 11.805000305 12.250000954 0.0080024023  -999.250000 0.0000000000 2.1218492985 9.5001621246 60.538177490  -999.250000 140.43580627 0.9958605766 0.5125128031 0.8549888134 0.9709247351
 1497.7770996  -999.250000 12.500000000 12.250000954 -0.003990385  -999.250000 0.0000000000 2.1757838726 8.6806573868 55.452404022  -999.250000 127.15961456 1.0199230909 0.5279399753 1.0948077440 1.0919030905
 1497.9294434  -999.250000 13.055000305 12.250000954 0.0059839874  -999.250000 0.0000000000 2.2198238373 11.074160576 50.679119110  -999.250000 114.65274048 1.0130224228 0.4602724314 1.5183211565 1.1129664183
 1498.0819092  -999.250000 12.647999763 12.250000954 0.0359759592  -999.250000 0.0000000000 2.2369320393 8.9157333374 48.815414429  -999.250000 109.47823334 1.0050256252 0.3922722042 1.5729566813 0.9711138010
 1498.2342529  -999.250000 12.703001022 12.250000954 0.0130368294  -999.250000 0.0000000000 2.2180759907 9.2883987427 50.656566620  -999.250000 112.05340576 1.0040031672 0.3880160451 1.2295508385 0.9081008434
