# LAS format log file from PETREL
# Project units are specified as depth units
#==================================================================
~Version information
VERS.   2.0:
WRAP.   NO:
#==================================================================
~Well
STRT .m      1153.6579590 :
STOP .m      2874.8635254 :
STEP .m     0.00000000 :
NULL .        -999.250000 :
COMP.           : COMPANY
WELL.  25/5-3  Skirne   : WELL
FLD.            : FIELD
LOC.            : LOCATION
SRVC.           : SERVICE COMPANY
DATE.  2018-09-11 14:48:21   : Log Export Date {yyyy-MM-dd HH:mm:ss}
PROV.           : PROVINCE
UWI.   25/5-3   : UNIQUE WELL ID
API.            : API NUMBER
#==================================================================
~Curve
DEPT .m                   : DEPTH
Lithology_geolink ._      : Lithology_geolink
CALI .in                  : CALI
BS .in                    : BS
DRHO .g/cm3               : DRHO
THOR .ppm                 : THOR
NPHI .m3/m3               : NPHI
RHOB .g/cm3               : RHOB
PEF .b/e                  : PEF
GR .gAPI                  : GR
URAN .ppm                 : URAN
DTC .us/ft                : DTC
RDEP .ohm.m               : RDEP
SP .mV                    : SP
RSHA .ohm.m               : RSHA
RMED .ohm.m               : RMED
~Parameter
#==================================================================
~Ascii
# ...
 2057.0852051 6.0000000000 12.328000069 12.250000954 0.0040000002  -999.250000 0.0000000000 2.3060095310 4.6599998474 87.083503723  -999.250000 126.90032959 0.7259455919 -0.245737180 0.9129999876 0.7839999795
 2057.2375488 6.0000000000 12.328000069 12.250000954 0.0030016000  -999.250000 0.0000000000 2.3050048351 4.3285312653 88.356895447  -999.250000 127.05132294 0.7459359169 -0.402246386 0.9289744496 0.8029695749
 2057.3898926 6.0000000000 12.343999863 12.250000954 0.0000048077  -999.250000 0.0000000000 2.3040046692 4.1373062134 87.912178040  -999.250000 127.65752411 0.7699230313 -0.588105738 0.9659407139 0.8239663243
 2057.5424805 6.0000000000 12.343999863 12.250000954 -0.004000000  -999.250000 0.0000000000 2.3030030727 4.0040001869 86.381912231  -999.250000 127.07574463 0.7949599624 -0.764435887 1.0169999599 0.8529999852
 2057.6948242 6.0000000000 12.343999863 12.250000954 -0.010000000  -999.250000 0.0000000000 2.3020031452 4.0859999657 84.730293274  -999.250000 125.19187927 0.8189232349 -0.921496809 1.0540000200 0.8719999790
 2057.8471680 6.0000000000 12.343999863 12.250000954 -0.009001600  -999.250000 0.0000000000 2.2990095615 4.1169505119 83.035430908  -999.250000 123.89169312 0.8419262767 -1.068528891 1.0869472027 0.8809855580
 2057.9995117 6.0000000000 12.343999863 12.250000954 -0.007003205  -999.250000 0.0000000000 2.2950193882 4.0860495567 80.523094177  -999.250000 123.15892029 0.8549583554 -1.216289639 1.1199470758 0.8889871836
 2058.1520996 6.0000000000 12.375000000 12.250000954 -0.006000000  -999.250000 0.0000000000 2.2890193462 4.2030000687 77.615310669  -999.250000 122.68682098 0.8599920273 -1.370506406 1.1250000000 0.8889999986
 2058.3044434 6.0000000000 12.343999863 12.250000954 -0.003000000  -999.250000 0.0000000000 2.2830193043 4.8590002060 76.305183411  -999.250000 122.69187164 0.8659808040 -1.521515965 1.0889999866 0.8719999790
 2058.4567871 6.0000000000 12.343999863 12.250000954 -0.003998400  -999.250000 0.0000000000 2.2770192623 5.0936236382 77.657638550  -999.250000 122.61785126 0.8650032282 -1.646599293 1.0300943851 0.8700032234
 2058.6091309 6.0000000000 12.312999725 12.250000954 -0.007993590  -999.250000 0.0000000000 2.2730193138 4.7854948044 80.162940979  -999.250000 122.56167603 0.8510448933 -1.717659235 1.0060385466 0.8839775920
 2058.7614746 6.0000000000 12.343999863 12.250000954 -0.010995192  -999.250000 0.0000000000 2.2739951611 4.1649951935 81.192085266  -999.250000 122.70896912 0.8280737400 -1.707052946 1.0698975325 0.8790079951
 2058.9140625 6.0000000000 12.343999863 12.250000954 -0.010000000  -999.250000 0.0000000000 2.2779872417 4.1909999847 80.114479065  -999.250000 122.64855194 0.8020416498 -1.611307621 1.0720000267 0.8510000110
 2059.0664063 6.0000000000 12.343999863 12.250000954 -0.008000000  -999.250000 0.0000000000 2.2839806080 4.4489998817 78.301811218  -999.250000 122.30945587 0.7850544453 -1.452509642 1.0470000505 0.8330000043
 2059.2187500 6.0000000000 12.358999252 12.250000954 -0.008998400  -999.250000 0.0000000000 2.2919616699 4.5857806206 77.176399231  -999.250000 122.27529907 0.7850000262 -1.250969648 0.9940848351 0.8230159879
 2059.3710938 6.0000000000 12.343999863 12.250000954 -0.007003205  -999.250000 0.0000000000 2.2999615669 4.7187867165 76.903297424  -999.250000 122.87790680 0.7949679494 -1.013144255 0.9600544572 0.8230000138
 2059.5236816 6.0000000000 12.343999863 12.250000954 -0.007000000  -999.250000 0.0000000000 2.3089711666 4.9380002022 76.885055542  -999.250000 123.60433960 0.8109743595 -0.752833307 0.9559999704 0.8280000091
 2059.6760254 6.0000000000 12.343999863 12.250000954 -0.002000000  -999.250000 0.0000000000 2.3209617138 5.2420001030 76.804260254  -999.250000 123.44686127 0.8279727697 -0.512769282 0.9499999881 0.8460000157
 2059.8283691 6.0000000000 12.211000443 12.250000954 -0.001001600  -999.250000 0.0000000000 2.3349552155 6.1625247002 77.178794861  -999.250000 120.94786072 0.8359872103 -0.340551287 1.0348639488 0.8919264078
 2059.9807129 6.0000000000 12.319999695 12.250000954 0.0049903844  -999.250000 0.0000000000 2.3509232998 6.6362419128 79.410240173  -999.250000 116.38304138 0.8449856043 -0.257398397 1.2057259083 0.9379262924
 2060.1333008 6.0000000000 12.343999863 12.250000954 0.0149999997  -999.250000 0.0000000000 2.3629615307 6.8280000687 84.532569885  -999.250000 112.52848053 0.8639696240 -0.257996768 1.2829999924 0.9269999862
 2060.2856445 6.0000000000 12.343999863 12.250000954 0.0240000002  -999.250000 0.0000000000 2.3679840565 6.1680002213 91.535537720  -999.250000 112.14826965 0.8899583220 -0.320798099 1.1699999571 0.9250000119
 2060.4379883 6.0000000000 12.288999557 12.250000954 0.0120192003  -999.250000 0.0000000000 2.3660063744 5.8365311623 97.694267273  -999.250000 113.69289398 0.9159583449 -0.413701922 1.0791455507 0.9459663630
 2060.5903320 6.0000000000 12.203000069 12.250000954 0.0110016027  -999.250000 0.0000000000 2.3580384254 5.5205063820 101.08374786  -999.250000 115.46636200 0.9319743514 -0.505558372 1.0839920044 0.9769503474
 2060.7426758 6.0000000000 12.203000069 12.250000954 0.0109999999  -999.250000 0.0000000000 2.3470528126 5.6717562675 102.11210632  -999.250000 117.02118683 0.9260191917 -0.578649044 1.1518909931 0.9839888215
 2060.8952637 6.0000000000 12.250000954 12.250000954 0.0060000001  -999.250000 0.0000000000 2.3390257359 5.8439998627 102.36619568  -999.250000 117.51549530 0.9190112352 -0.649772406 1.2089999914 0.9670000076
 2061.0476074 6.0000000000 12.125000000 12.250000954 0.0030048001  -999.250000 0.0000000000 2.3340160847 5.5125312805 102.26731873  -999.250000 117.29968262 0.9180015922 -0.757653832 1.1900304556 0.9570159912
 2061.1999512 6.0000000000 12.390999794 12.250000954 0.0000048077  -999.250000 0.0000000000 2.3330047131 5.4301314354 101.03096008  -999.250000 117.14482880 0.9170016050 -0.924198389 1.1600480080 0.9699791670
 2061.3522949 6.0000000000 12.375000000 12.250000954 -0.000998397  -999.250000 0.0000000000 2.3359856606 4.8329582214 98.296180725  -999.250000 116.92061615 0.9160032272 -1.142947197 1.1919487715 0.9829791188
 2061.5048828 6.0000000000 12.328000069 12.250000954 0.0030000000  -999.250000 0.0000000000 2.3409841061 4.7540001869 94.707496643  -999.250000 117.06439209 0.9169983864 -1.386221170 1.2289999723 0.9710000157
 2061.6572266 6.0000000000 12.343999863 12.250000954 0.0040000002  -999.250000 0.0000000000 2.3459839821 4.4530000687 91.333808899  -999.250000 117.89057922 0.9199951887 -1.619253159 1.1929999590 0.9580000043
 2061.8095703 6.0000000000 12.343999863 12.250000954 0.0020032001  -999.250000 0.0000000000 2.3499870300 4.6906189919 88.823043823  -999.250000 118.72697449 0.9299839735 -1.804407001 1.1420816183 0.9599967599
 2061.9619141 6.0000000000 12.343999863 12.250000954 0.0029983975  -999.250000 0.0000000000 2.3529856205 4.6131248474 87.850654602  -999.250000 119.17863464 0.9429584146 -1.904519916 1.1320159435 0.9789695144
 2062.1145020 6.0000000000 12.343999863 12.250000954 0.0000000000  -999.250000 0.0000000000 2.3529999256 4.3829998970 88.553726196  -999.250000 119.14720154 0.9509871602 -1.920948744 1.1590000391 0.9909999967
 2062.2668457 6.0000000000 12.343999863 12.250000954 -0.004000000  -999.250000 0.0000000000 2.3529999256 4.2150001526 90.203704834  -999.250000 118.77918243 0.9559919834 -1.877140999 1.1840000153 0.9950000048
 2062.4191895 6.0000000000 12.343999863 12.250000954 -0.004998400  -999.250000 0.0000000000 2.3510065079 4.3627629280 91.315444946  -999.250000 118.56440735 0.9599935412 -1.797256470 1.1999744177 1.0039855242
 2062.5715332 6.0000000000 12.343999863 12.250000954 -0.005998398  -999.250000 0.0000000000 2.3470191956 4.5157546997 90.754722595  -999.250000 118.93554688 0.9649919868 -1.693499207 1.2079870701 1.0149823427
 2062.7238770 6.0000000000 12.343999863 12.250000954 -0.004003205  -999.250000 0.0000000000 2.3420240879 4.6208314896 88.511817932  -999.250000 119.56621552 0.9709808230 -1.571586490 1.2010111809 1.0100079775
 2062.8764648 6.0000000000 12.343999863 12.250000954 -0.005000000  -999.250000 0.0000000000 2.3350224495 4.6090002060 85.354118347  -999.250000 119.64410400 0.9729967713 -1.437429547 1.1649999619 1.0039999485
