# LAS format log file from PETREL
# Project units are specified as depth units
#==================================================================
~Version information
VERS.   2.0:
WRAP.   NO:
#==================================================================
~Well
STRT .m      1153.6579590 :
STOP .m      2874.8635254 :
STEP .m     0.00000000 :
NULL .        -999.250000 :
COMP.           : COMPANY
WELL.  25/5-3  Skirne   : WELL
FLD.            : FIELD
LOC.            : LOCATION
SRVC.           : SERVICE COMPANY
DATE.  2018-09-11 14:48:21   : Log Export Date {yyyy-MM-dd HH:mm:ss}
PROV.           : PROVINCE
UWI.   25/5-3   : UNIQUE WELL ID
API.            : API NUMBER
#==================================================================
~Curve
DEPT .m                   : DEPTH
Lithology_geolink ._      : Lithology_geolink
CALI .in                  : CALI
BS .in                    : BS
DRHO .g/cm3               : DRHO
THOR .ppm                 : THOR
NPHI .m3/m3               : NPHI
RHOB .g/cm3               : RHOB
PEF .b/e                  : PEF
GR .gAPI                  : GR
URAN .ppm                 : URAN
DTC .us/ft                : DTC
RDEP .ohm.m               : RDEP
SP .mV                    : SP
RSHA .ohm.m               : RSHA
RMED .ohm.m               : RMED
~Parameter
#==================================================================
~Ascii
# ...
 1266.5864258  -999.250000 12.656000137 12.250000954 0.0030000000  -999.250000 0.0000000000 2.0970094204 4.6129999161 75.877182007  -999.250000 140.56094360 1.3940401077 -2.369391441 1.3730000257 1.3489999771
 1266.7388916  -999.250000 12.633000374 12.250000954 0.0060000001  -999.250000 0.0000000000 2.0910143852 4.9650001526 75.323333740  -999.250000 141.02153015 1.3810209036 -2.422830343 1.3439999819 1.3450000286
 1266.8912354  -999.250000 12.444999695 12.250000954 0.0080000004  -999.250000 0.0000000000 2.0830254555 5.1020002365 74.904342651  -999.250000 141.35600281 1.3740111589 -2.387144089 1.3489999771 1.3059999943
 1267.0435791  -999.250000 12.609000206 12.250000954 0.0070000002  -999.250000 0.0000000000 2.0750257969 5.4730000496 74.849174500  -999.250000 141.42095947 1.3700096607 -2.303336620 1.4079999924 1.3049999475
 1267.1960449  -999.250000 12.421999931 12.250000954 0.0089999996  -999.250000 0.0000000000 2.0690193176 5.3979997635 74.674560547  -999.250000 140.96566772 1.3759903908 -2.225312233 1.4429999590 1.3079999685
 1267.3483887  -999.250000 12.609000206 12.250000954 0.0070000002  -999.250000 0.0000000000 2.0650129318 5.0430002213 74.121780396  -999.250000 140.26220703 1.3779952526 -2.193128347 1.4859999418 1.3140000105
 1267.5007324  -999.250000 12.555000305 12.250000954 0.0050016013  -999.250000 0.0000000000 2.0650000572 5.0200185776 73.232856750  -999.250000 139.89082336 1.3700191975 -2.209918261 1.4680144787 1.3169976473
 1267.6530762  -999.250000 12.484000206 12.250000954 0.0069983979  -999.250000 0.0000000000 2.0669918060 5.3197598457 71.973052979  -999.250000 140.14405823 1.3550480604 -2.240850925 1.4869847298 1.2840265036
 1267.8055420  -999.250000 12.522998810 12.250000954 0.0089983987  -999.250000 0.0000000000 2.0709872246 5.3519744873 70.153839111  -999.250000 140.75248718 1.3410335779 -2.227067232 1.4300456047 1.2570215464
 1267.9578857  -999.250000 12.453000069 12.250000954 0.0040040067  -999.250000 0.0000000000 2.0759799480 5.0202660561 67.898040771  -999.250000 141.68771362 1.3260480165 -2.114543438 1.3600561619 1.2380152941
 1268.1102295  -999.250000 12.453000069 12.250000954 0.0079935957  -999.250000 0.0000000000 2.0809800625 4.7584195137 65.936851501  -999.250000 142.99497986 1.3120448589 -1.887277842 1.2621568441 1.2290143967
 1268.2626953  -999.250000 12.500000000 12.250000954 0.0089991987  -999.250000 0.0000000000 2.0869758129 5.3125553131 65.108299255  -999.250000 143.16955566 1.2890737057 -1.584456682 1.2470120192 1.2409904003
 1268.4150391  -999.250000 12.624999046 12.250000954 0.0089999996  -999.250000 0.0000000000 2.0919799805 5.6205067635 65.780281067  -999.250000 141.22869873 1.2590961456 -1.281456709 1.2959215641 1.2479888201
 1268.5675049  -999.250000 12.656000137 12.250000954 0.0089999996  -999.250000 0.0000000000 2.0949881077 5.6519751549 67.663436890  -999.250000 139.28466797 1.2430512905 -1.047124147 1.3789334297 1.2470008135
 1268.7198486  -999.250000 12.586000443 12.250000954 0.0099983988  -999.250000 0.0000000000 2.0959959030 5.2586307526 69.655021667  -999.250000 139.09358215 1.2459903955 -0.929562509 1.3740079403 1.2220400572
 1268.8723145  -999.250000 12.569999695 12.250000954 0.0099999998  -999.250000 0.0000000000 2.0959999561 5.2150344849 70.449836731  -999.250000 139.72496033 1.2689447403 -0.955870271 1.3270376921 1.2150056362
 1269.0246582  -999.250000 12.687999725 12.250000954 0.0070024040  -999.250000 0.0000000000 2.0950040817 4.8133225441 69.451026917  -999.250000 140.30915833 1.3028911352 -1.125182748 1.3200056553 1.2489726543
 1269.1771240  -999.250000 12.703001022 12.250000954 0.0030032026  -999.250000 0.0000000000 2.0950000286 4.6521286964 67.527709961  -999.250000 140.41090393 1.3329278231 -1.390722156 1.3709591627 1.2869695425
 1269.3294678  -999.250000 12.788998604 12.250000954 0.0030000000  -999.250000 0.0000000000 2.0959959030 4.9137902260 66.266044617  -999.250000 139.93066406 1.3549295664 -1.676625013 1.4439414740 1.3209726810
 1269.4819336  -999.250000 12.531000137 12.250000954 0.0089951959  -999.250000 0.0000000000 2.0989880562 5.8512492180 66.274948120  -999.250000 139.19334412 1.3559975624 -1.909880757 1.4719775915 1.3909440041
 1269.6342773  -999.250000 12.211000443 12.250000954 0.0070016026  -999.250000 0.0000000000 2.1029839516 7.0850110054 67.052871704  -999.250000 137.67395020 1.3520127535 -2.055302858 1.4829912186 1.4029903412
 1269.7867432  -999.250000 12.194999695 12.250000954 0.0119959973  -999.250000 0.0000000000 2.1069872379 7.1719312668 68.158454895  -999.250000 135.66038513 1.3609783649 -2.123673439 1.5009856224 1.3800183535
 1269.9390869  -999.250000 12.203000069 12.250000954 0.0199935902  -999.250000 0.0000000000 2.1089918613 6.3876290321 69.792449951  -999.250000 134.53994751 1.3789422512 -2.163839579 1.4790176153 1.3240448236
 1270.0914307  -999.250000 12.258000374 12.250000954 0.0219967980  -999.250000 0.0000000000 2.1099958420 5.6491832733 71.862701416  -999.250000 134.78941345 1.4148845673 -2.258619547 1.4200944901 1.3020353317
 1270.2438965  -999.250000 12.375000000 12.250000954 0.0170040075  -999.250000 0.0000000000 2.1129879951 5.5900464058 73.214599609  -999.250000 135.32565308 1.4917533398 -2.492063284 1.3630456924 1.3259807825
 1270.3962402  -999.250000 12.444999695 12.250000954 0.0279823877  -999.250000 0.0000000000 2.1179800034 6.0891995430 72.416236877  -999.250000 134.09945679 1.5767276287 -2.886417389 1.3530160189 1.3968862295
 1270.5487061  -999.250000 12.397999763 12.250000954 0.0130120199  -999.250000 0.0000000000 2.1259679794 7.2330837250 69.187965393  -999.250000 129.76702881 1.6238493919 -3.372054577 1.4349342585 1.5978389978
 1270.7010498  -999.250000 12.116999626 12.250000954 0.0070096077  -999.250000 0.0000000000 2.1339681149 7.4915871620 64.585464478  -999.250000 123.14335632 1.6379551888 -3.812237024 1.6955820322 1.6978398561
 1270.8535156  -999.250000 11.812999725 12.250000954 0.0000056090  -999.250000 0.0000000000 2.1389799118 7.6288905144 60.193576813  -999.250000 116.35989380 1.6300191879 -4.068975449 1.8738573790 1.6050745249
 1271.0058594  -999.250000 11.781000137 12.250000954 -0.003996795  -999.250000 0.0000000000 2.1370081902 7.2932696342 57.425067902  -999.250000 113.24114227 1.6110607386 -4.051076412 1.9399471283 1.5220664740
 1271.1583252  -999.250000 11.625000000 12.250000954 -0.002001601  -999.250000 0.0000000000 2.1280360222 7.0781722069 57.288501740  -999.250000 117.11972809 1.6020215750 -3.745229006 1.8131016493 1.4280751944
 1271.3106689  -999.250000 11.944999695 12.250000954 -0.001000801  -999.250000 0.0000000000 2.1170442104 6.1097764969 59.889537811  -999.250000 126.34229279 1.5980128050 -3.233055353 1.5552066565 1.3520609140
 1271.4631348  -999.250000 12.390999794 12.250000954 0.0039959969  -999.250000 0.0000000000 2.1060440540 5.2037253380 63.914863586  -999.250000 135.76530457 1.5610889196 -2.657305717 1.4101160765 1.3430072069
 1271.6154785  -999.250000 12.484000206 12.250000954 0.0119935898  -999.250000 0.0000000000 2.1000239849 4.3486852646 67.473747253  -999.250000 141.50648499 1.4822529554 -2.166963100 1.3740288019 1.3100264072
 1271.7679443  -999.250000 12.765999794 12.250000954 0.0199935939  -999.250000 0.0000000000 2.0980064869 4.2730598450 69.472618103  -999.250000 143.46794128 1.3912187815 -1.857987165 1.3430248499 1.2660353184
 1271.9202881  -999.250000 12.875000000 12.250000954 0.0160032064  -999.250000 0.0000000000 2.0989959240 4.5547738075 70.121421814  -999.250000 143.84494019 1.3202273846 -1.744452357 1.2970368862 1.2280304432
 1272.0727539  -999.250000 12.819999695 12.250000954 0.0249927938  -999.250000 0.0000000000 2.0989999771 5.6711053848 70.268531799  -999.250000 144.20156860 1.2741106749 -1.765929461 1.2640265226 1.2140111923
 1272.2250977  -999.250000 12.727001190 12.250000954 0.0259991996  -999.250000 0.0000000000 2.0980041027 6.2765150070 70.154457092  -999.250000 144.28581238 1.2520704269 -1.829743862 1.2709944248 1.2110023499
 1272.3774414  -999.250000 12.633000374 12.250000954 0.0220064055  -999.250000 0.0000000000 2.0960080624 6.0902996063 69.216766357  -999.250000 143.51582336 1.2470159531 -1.858883739 1.2949615717 1.2070064545
