# LAS format log file from PETREL
# Project units are specified as depth units
#==================================================================
~Version information
VERS.   2.0:
WRAP.   NO:
#==================================================================
~Well
STRT .m      1199.6253662 :
STOP .m      3185.7504883 :
STEP .m     0.00000000 :
NULL .        -999.250000 :
COMP.           : COMPANY
WELL.  25/5-4  Byggve   : WELL
FLD.            : FIELD
LOC.            : LOCATION
SRVC.           : SERVICE COMPANY
DATE.  2018-09-11 14:48:21   : Log Export Date {yyyy-MM-dd HH:mm:ss}
PROV.           : PROVINCE
UWI.   25/5-4   : UNIQUE WELL ID
API.            : API NUMBER
#==================================================================
~Curve
DEPT .m                   : DEPTH
Lithology_geolink ._      : Lithology_geolink
DCAL .in                  : DCAL
CALI .in                  : CALI
BS .in                    : BS
DRHO .g/cm3               : DRHO
THOR .ppm                 : THOR
NPHI .m3/m3               : NPHI
RHOB .g/cm3               : RHOB
PEF .b/e                  : PEF
GR .gAPI                  : GR
URAN .ppm                 : URAN
DTC .us/ft                : DTC
RDEP .ohm.m               : RDEP
SP .mV                    : SP
RSHA .ohm.m               : RSHA
RHOM .g/cm3               : RHOM
RMED .ohm.m               : RMED
~Parameter
#==================================================================
~Ascii
# ...
 1860.2503662  -999.250000 0.7656077743 13.015609741 12.250000954 0.0798493102 4.6354112625  -999.250000 2.0533258915 11.247349739 53.321548462 1.1071945429 42.794925690 0.7215232253 82.824806213  -999.250000 2.6500000954 0.8296955824
 1860.3752441  -999.250000 0.9290152192 13.179019928 12.250000954 0.0898982435 4.1805505753  -999.250000 2.0491609573 11.283670425 53.491119385 1.2577471733 42.461841583 0.7178907990 82.917602539  -999.250000 2.6500000954 0.8207483292
 1860.5002441  -999.250000 1.1024539471 13.352452278 12.250000954 0.0958576277 3.6525855064  -999.250000 2.0430650711 11.381870270 53.543010712 1.3758679628 42.207424164 0.7135807872 83.008293152  -999.250000 2.6500000954 0.8091120124
 1860.6252441  -999.250000 1.2302069664 13.480210304 12.250000954 0.0932744518 3.5431711674  -999.250000 2.0385529995 11.489489555 53.376289368 1.3080836535 42.030033112 0.7095186710 83.042320251  -999.250000 2.6500000954 0.7963600159
 1860.7502441  -999.250000 1.2853380442 13.535340309 12.250000954 0.0820429325 3.6818981171  -999.250000 2.0445270538 11.446189880 53.080909729 1.1462106705 41.905670166 0.7064620852 83.009628296  -999.250000 2.6500000954 0.7851986885
 1860.8752441  -999.250000 1.2951798439 13.545180321 12.250000954 0.0686457008 3.7827601433  -999.250000 2.0504999161 11.239819527 52.898399353 1.0497734547 41.847301483 0.7046982050 82.935089111  -999.250000 2.6500000954 0.7777659297
 1861.0003662  -999.250000 1.2688549757 13.518858910 12.250000954 0.0606189705 3.6082601547  -999.250000 2.0566859245 10.978030205 53.087139130 1.1902511120 41.877811432 0.7043517232 82.888206482  -999.250000 2.6500000954 0.7774795890
 1861.1253662  -999.250000 1.1891429424 13.439140320 12.250000954 0.0626612827 3.3222768307  -999.250000 2.0629661083 10.799440384 53.766319275 1.4463210106 42.025337219 0.7055764794 82.895538330  -999.250000 2.6500000954 0.7851663232
 1861.2503662  -999.250000 1.0230419636 13.273040771 12.250000954 0.0721452534 3.2816524506  -999.250000 2.0675160885 10.674099922 54.734710693 1.5892339945 42.332019806 0.7088351846 82.954002380  -999.250000 2.6500000954 0.7989795208
 1861.3753662  -999.250000 0.7716370821 13.021641731 12.250000954 0.0834655091 3.7444343567  -999.250000 2.0669970512 10.581939697 55.553161621 1.4637730122 42.755970001 0.7141981721 82.994766235  -999.250000 2.6500000954 0.8160737157
 1861.5003662  -999.250000 0.5149583817 12.764960289 12.250000954 0.0907549635 4.5751180649  -999.250000 2.0664770603 10.519309998 55.902439117 1.1474324465 43.196254730 0.7213736176 82.984596252  -999.250000 2.6500000954 0.8335754275
 1861.6252441  -999.250000 0.3242110908 12.574210167 12.250000954 0.0924656615 5.2989068031  -999.250000 2.0683279037 10.477669716 55.756900787 0.8576949835 43.554733276 0.7294089198 82.910972595  -999.250000 2.6500000954 0.8474481106
 1861.7502441  -999.250000 0.2455863953 12.495590210 12.250000954 0.0903448313 5.5048470497  -999.250000 2.0707139969 10.437430382 55.277919769 0.7540191412 43.738586426 0.7369688749 82.822059631  -999.250000 2.6500000954 0.8561779857
 1861.8752441  -999.250000 0.2499046028 12.499899864 12.250000954 0.0884711593 5.0673627853  -999.250000 2.0708060265 10.389840126 54.564498901 0.8664849401 43.667903900 0.7425972223 82.727157593  -999.250000 2.6500000954 0.8574960828
 1862.0002441  -999.250000 0.2808428109 12.530838966 12.250000954 0.0884308964 4.2802424431  -999.250000 2.0671160221 10.332200050 53.627998352 1.1149070263 43.298454285 0.7458124757 82.625686646  -999.250000 2.6500000954 0.8521748781
 1862.1252441  -999.250000 0.2695293128 12.519529343 12.250000954 0.0880913436 3.4832694530  -999.250000 2.0634260178 10.266139984 52.551200867 1.4256736040 42.836402893 0.7467647791 82.536056519  -999.250000 2.6500000954 0.8434122205
 1862.2503662  -999.250000 0.2025212944 12.452520370 12.250000954 0.0833875090 2.9044299126  -999.250000 2.0648229122 10.195929527 51.561790466 1.7193018198 42.407161713 0.7454624176 82.518852234  -999.250000 2.6500000954 0.8343896270
 1862.3753662  -999.250000 0.1124954000 12.362499237 12.250000954 0.0719497502 2.5056281090  -999.250000 2.0665500164 10.126620293 50.986110687 1.8897908926 42.102268219 0.7428864837 82.622802734  -999.250000 2.6500000954 0.8259924054
 1862.5003662  -999.250000 0.0682792664 12.318281174 12.250000954 0.0570307709 2.3112673759  -999.250000 2.0727820396 10.062350273 50.818759918 1.7836259604 41.975502014 0.7396429777 82.833740234  -999.250000 2.6500000954 0.8175325990
 1862.6253662  -999.250000 0.1145104989 12.364509583 12.250000954 0.0453262404 2.4031000137  -999.250000 2.0835099220 10.012490273 50.812198639 1.4510587454 42.050819397 0.7365040779 83.052833557  -999.250000 2.6500000954 0.8098964095
 1862.7502441  -999.250000 0.2372903973 12.487290382 12.250000954 0.0436366498 2.8126101494  -999.250000 2.0933849812 9.9820346832 50.613250732 1.0725305080 42.276889801 0.7338296175 83.149200439  -999.250000 2.6500000954 0.8052951097
 1862.8752441  -999.250000 0.3654221892 12.615420341 12.250000954 0.0522754006 3.2936260700  -999.250000 2.0905680656 9.9797983170 50.197448730 0.9128392339 42.585651398 0.7317867875 83.060043335  -999.250000 2.6500000954 0.8067017198
 1863.0002441  -999.250000 0.4262152016 12.676219940 12.250000954 0.0663535371 3.6137280464  -999.250000 2.0877499580 10.006290436 49.916648865 1.0357888937 42.900905609 0.7301064730 82.865699768  -999.250000 2.6500000954 0.8132740855
 1863.1252441  -999.250000 0.3948068917 12.644809723 12.250000954 0.0791861564 3.7304067612  -999.250000 2.0801041126 10.036569595 50.297889709 1.3884923458 43.123470306 0.7287666798 82.700729370  -999.250000 2.6500000954 0.8219388723
 1863.2502441  -999.250000 0.3083075881 12.558309555 12.250000954 0.0884817764 3.8362965584  -999.250000 2.0695550442 10.021889687 51.538021088 1.7427748442 43.134502411 0.7285677791 82.673919678  -999.250000 2.6500000954 0.8275625110
 1863.3753662  -999.250000 0.2224026024 12.472399712 12.250000954 0.0943235680 3.9881880283  -999.250000 2.0605089664 9.9768047333 53.278820038 1.9856415987 42.798732758 0.7300903797 82.766632080  -999.250000 2.6500000954 0.8287516236
 1863.5003662  -999.250000 0.1717167050 12.421719551 12.250000954 0.0967453569 4.1200685501  -999.250000 2.0580420494 9.9451951981 54.749439240 2.0679221153 42.351932526 0.7339689732 82.905380249  -999.250000 2.6500000954 0.8259701133
 1863.6253662  -999.250000 0.1550741047 12.405070305 12.250000954 0.0950416028 4.0743355751  -999.250000 2.0555748940 9.9759149551 55.369991302 2.0753574371 41.972576141 0.7396522164 83.022689819  -999.250000 2.6500000954 0.8236321211
 1863.7503662  -999.250000 0.1555470973 12.405550957 12.250000954 0.0889232531 3.7449023724  -999.250000 2.0574669838 10.046099663 55.075649261 2.0263197422 41.767719269 0.7453305721 83.101097107  -999.250000 2.6500000954 0.8243548870
 1863.8753662  -999.250000 0.1688756943 12.418880463 12.250000954 0.0796796307 3.3362193108  -999.250000 2.0608310699 10.051469803 54.320270538 1.8619507551 41.773754120 0.7490602136 83.141899109  -999.250000 2.6500000954 0.8283439279
 1864.0002441  -999.250000 0.1952448040 12.445240021 12.250000954 0.0702767968 2.9575622082  -999.250000 2.0637710094 9.8752498627 53.510471344 1.5678771734 41.934444427 0.7498642802 83.143852234  -999.250000 2.6500000954 0.8326786757
 1864.1252441  -999.250000 0.2211208045 12.471119881 12.250000954 0.0636990964 2.5797207355  -999.250000 2.0657639503 9.5782012939 52.786159515 1.1980503798 42.084590912 0.7480223179 83.112350464  -999.250000 2.6500000954 0.8333420753
 1864.2502441  -999.250000 0.2227402180 12.472739220 12.250000954 0.0620085895 2.1809709072  -999.250000 2.0677568913 9.5829725266 52.217651367 0.9684585929 42.172859192 0.7443364859 83.079078674  -999.250000 2.6500000954 0.8295782804
 1864.3752441  -999.250000 0.1849946827 12.434989929 12.250000954 0.0654331073 1.8591011763  -999.250000 2.0693900585 10.024999619 52.013378143 1.0502675772 42.233695984 0.7400205731 83.068038940  -999.250000 2.6500000954 0.8228759766
 1864.5002441  -999.250000 0.1106519997 12.360650063 12.250000954 0.0718347430 1.7063736916  -999.250000 2.0709700584 10.956100464 52.336891174 1.4433628321 42.325168610 0.7358947992 83.084648132  -999.250000 2.6500000954 0.8134045005
