# LAS format log file from PETREL
# Project units are specified as depth units
#==================================================================
~Version information
VERS.   2.0:
WRAP.   NO:
#==================================================================
~Well
STRT .m      1199.6253662 :
STOP .m      3185.7504883 :
STEP .m     0.00000000 :
NULL .        -999.250000 :
COMP.           : COMPANY
WELL.  25/5-4  Byggve   : WELL
FLD.            : FIELD
LOC.            : LOCATION
SRVC.           : SERVICE COMPANY
DATE.  2018-09-11 14:48:21   : Log Export Date {yyyy-MM-dd HH:mm:ss}
PROV.           : PROVINCE
UWI.   25/5-4   : UNIQUE WELL ID
API.            : API NUMBER
#==================================================================
~Curve
DEPT .m                   : DEPTH
Lithology_geolink ._      : Lithology_geolink
DCAL .in                  : DCAL
CALI .in                  : CALI
BS .in                    : BS
DRHO .g/cm3               : DRHO
THOR .ppm                 : THOR
NPHI .m3/m3               : NPHI
RHOB .g/cm3               : RHOB
PEF .b/e                  : PEF
GR .gAPI                  : GR
URAN .ppm                 : URAN
DTC .us/ft                : DTC
RDEP .ohm.m               : RDEP
SP .mV                    : SP
RSHA .ohm.m               : RSHA
RHOM .g/cm3               : RHOM
RMED .ohm.m               : RMED
~Parameter
#==================================================================
~Ascii
# ...
 2122.7502441 19.000000000 0.2691201866 12.519120216 12.250000954 0.0276572108 2.7102329731  -999.250000 2.4295189381 5.4104800224 47.303829193 1.8897778988 32.349735260 1.7955260277 82.215766907  -999.250000 2.6500000954 2.0430579185
 2122.8752441 19.000000000 0.2903651893 12.540369987 12.250000954 0.0308461003 3.2391269207  -999.250000 2.4229149818 5.6125278473 46.089050293 0.9574425220 32.423069000 1.8117070198 82.200500488  -999.250000 2.6500000954 2.0122408867
 2123.0002441 19.000000000 0.3238297403 12.573829651 12.250000954 0.0358627103 3.7639312744  -999.250000 2.4163119793 5.8699541092 43.727100372 0.3149066567 32.466594696 1.8266799450 81.783470154  -999.250000 2.6500000954 1.9866869450
 2123.1252441 19.000000000 0.3721266091 12.622130394 12.250000954 0.0393209718 3.8303377628  -999.250000 2.4097468853 6.1678352356 41.523651123 0.3188455105 32.446418762 1.8396760225 81.143783569  -999.250000 2.6500000954 1.9946759939
 2123.2502441 19.000000000 0.4194650948 12.669469833 12.250000954 0.0373803191 3.4393239021  -999.250000 2.4032020569 6.5089831352 40.177650452 0.5987802744 32.356895447 1.8536520004 80.590698242  -999.250000 2.6500000954 2.0477280617
 2123.3752441 19.000000000 0.4438762963 12.693880081 12.250000954 0.0316286795 2.6836285591  -999.250000 2.3975589275 6.8624768257 39.747180939 1.2028061152 32.225742340 1.8732349873 80.299072266  -999.250000 2.6500000954 2.1286261082
 2123.5002441 19.000000000 0.4404793084 12.690480232 12.250000954 0.0280130692 1.9308536053  -999.250000 2.3949210644 7.1954870224 39.832279205 1.6662340164 32.043289185 1.9035099745 80.204513550  -999.250000 2.6500000954 2.2163319588
 2123.6252441 19.000000000 0.4276962280 12.677700043 12.250000954 0.0322139412 1.4985437393  -999.250000 2.3922829628 7.4465680122 39.999408722 1.8880029917 31.764579773 1.9470310211 80.129173279  -999.250000 2.6500000954 2.2779550552
 2123.7502441 19.000000000 0.4230881035 12.673089981 12.250000954 0.0440549888 1.5724601746  -999.250000 2.3852970600 7.6089119911 40.141319275 1.8896585703 31.379556656 1.9984910488 79.993461609  -999.250000 2.6500000954 2.3074860573
 2123.8752441 19.000000000 0.4269438386 12.676939011 12.250000954 0.0591113009 1.8078979254  -999.250000 2.3771789074 7.6367721558 40.630779266 1.9712181091 30.922601700 2.0484039783 79.766891479  -999.250000 2.6500000954 2.3194460869
 2124.0004883 19.000000000 0.4231615067 12.673159599 12.250000954 0.0726763606 1.9601321220  -999.250000 2.3718369007 7.4916009903 42.010829926 2.2372837067 30.502889633 2.0886890888 79.429939270  -999.250000 2.6500000954 2.3418200016
 2124.1252441 19.000000000 0.4004859626 12.650489807 12.250000954 0.0831260234 1.9684765339  -999.250000 2.3715639114 7.1587219238 44.409358978 2.5648601055 30.325527191 2.1149129868 78.946662903  -999.250000 2.6500000954 2.4047141075
 2124.2502441 19.000000000 0.3621483147 12.612149239 12.250000954 0.0885359272 2.0593395233  -999.250000 2.3712909222 6.6445651054 47.205871582 2.6973912716 30.353172302 2.1290481091 78.390701294  -999.250000 2.6500000954 2.4944241047
 2124.3752441 19.000000000 0.3217087090 12.571708679 12.250000954 0.0862057284 2.3870942593  -999.250000 2.3867640495 6.1272339821 49.511081696 2.4877891541 30.484510422 2.1429460049 77.851387024  -999.250000 2.6500000954 2.5820209980
 2124.5002441 19.000000000 0.2828054130 12.532810211 12.250000954 0.0739179179 2.8958446980  -999.250000 2.4036719799 5.7331390381 50.699790955 2.0728142262 30.605241776 2.1741549969 77.470069885  -999.250000 2.6500000954 2.6230049133
 2124.6252441 19.000000000 0.2427758873 12.492780685 12.250000954 0.0555310585 3.2759933472  -999.250000 2.4191260338 5.5531711578 50.791999817 1.7222552299 30.613653183 2.2385840416 77.251716614  -999.250000 2.6500000954 2.5992538929
 2124.7502441 19.000000000 0.2031012028 12.453100204 12.250000954 0.0388352908 3.1179916859  -999.250000 2.4329860210 5.5331649780 49.932731628 1.6486978531 30.482408524 2.3475370407 77.175827026  -999.250000 2.6500000954 2.5420279503
 2124.8752441 19.000000000 0.1705265045 12.420531273 12.250000954 0.0299233105 2.4478025436  -999.250000 2.4466350079 5.6338171959 48.147590637 1.8526813984 30.364274979 2.4945850372 77.103569031  -999.250000 2.6500000954 2.5097999573
 2125.0002441 19.000000000 0.1475887001 12.397589684 12.250000954 0.0277093891 1.5790741444  -999.250000 2.4551429749 5.7982068062 45.716648102 2.2014780045 30.330965042 2.6575260162 76.965888977  -999.250000 2.6500000954 2.5475850105
 2125.1252441 19.000000000 0.1316242069 12.381620407 12.250000954 0.0269097202 0.9523296952  -999.250000 2.4636509418 6.0242657661 43.147979736 2.4969823360 30.361022949 2.7964169979 76.711021423  -999.250000 2.6500000954 2.7858450413
 2125.2502441 19.000000000 0.1213818043 12.371380806 12.250000954 0.0224477891 0.7637256384  -999.250000 2.4666750431 6.2441339493 41.230918884 2.5897951126 30.370719910 2.8868710995 76.429199219  -999.250000 2.6500000954 3.1748199463
 2125.3752441 16.000000000 0.1237144098 12.373709679 12.250000954 0.0162663497 1.0847738981  -999.250000 2.4660429955 6.3427371979 40.475379944 2.3820967674 30.209228516 2.9127678871 76.179077148  -999.250000 2.6500000954 3.6758399010
 2125.5002441 16.000000000 0.1435288936 12.393530846 12.250000954 0.0140485400 1.7883884907  -999.250000 2.4634699821 6.3296098709 41.081130981 1.9709262848 29.531747818 2.9014730453 76.007232666  -999.250000 2.6500000954 4.0754680634
 2125.6252441 16.000000000 0.1711407006 12.421139717 12.250000954 0.0203302894 2.6013400555  -999.250000 2.4508919716 6.2779488564 42.784080505 1.5753507614 28.390232086 2.8766961098 75.894607544  -999.250000 2.6500000954 4.0787630081
 2125.7502441 16.000000000 0.1885461956 12.438549995 12.250000954 0.0333390199 3.2355444431  -999.250000 2.4383139610 6.1960048676 45.522979736 1.4484273195 27.021741867 2.8458349705 75.857803345  -999.250000 2.6500000954 3.6754488945
 2125.8752441 19.000000000 0.1820106953 12.432009697 12.250000954 0.0480393209 3.5133740902  -999.250000 2.4305200577 6.0377349854 49.156311035 1.6676322222 25.747156143 2.7987530231 75.899162292  -999.250000 2.6500000954 3.1784551144
 2126.0002441 19.000000000 0.1562853009 12.406291008 12.250000954 0.0582533106 3.2947652340  -999.250000 2.4245569706 5.9569110870 52.945011139 2.0936977863 24.921869278 2.7130360603 76.007377625  -999.250000 2.6500000954 2.7808599472
 2126.1252441 19.000000000 0.1244164109 12.374420166 12.250000954 0.0600541905 2.7649123669  -999.250000 2.4224689007 6.0353322029 55.911579132 2.5017042160 24.981256485 2.5707840919 76.162643433  -999.250000 2.6500000954 2.5772440434
 2126.2502441 19.000000000 0.1013165042 12.351320267 12.250000954 0.0537325814 2.2087264061  -999.250000 2.4300730228 6.1776599884 57.380779266 2.7080502510 25.872207642 2.3926620483 76.342826843  -999.250000 2.6500000954 2.4778110981
 2126.3754883 19.000000000 0.0908832699 12.340880394 12.250000954 0.0426155701 2.0186333656  -999.250000 2.4376778603 6.2828531265 57.560569763 2.6305272579 27.157377243 2.2055089474 76.564582825  -999.250000 2.6500000954 2.4429368973
 2126.5002441 19.000000000 0.0885600895 12.338559151 12.250000954 0.0306078903 2.2317519188  -999.250000 2.4423620701 6.3182640076 56.982578278 2.3821065426 28.540885925 2.0419640541 76.846786499  -999.250000 2.6500000954 2.4038770199
 2126.6252441 19.000000000 0.0869894028 12.336990356 12.250000954 0.0231072400 2.5649850368  -999.250000 2.4465150833 6.3254699707 56.206039429 2.1810982227 29.769243240 1.9085090160 77.177497864  -999.250000 2.6500000954 2.3121759892
 2126.7502441 19.000000000 0.0826511458 12.332651138 12.250000954 0.0258988794 2.6076490879  -999.250000 2.4439361095 6.3126330376 55.214149475 2.1806464195 30.658582687 1.8205319643 77.510009766  -999.250000 2.6500000954 2.1839439869
 2126.8752441 19.000000000 0.0739269331 12.323928833 12.250000954 0.0402639583 2.1712424755  -999.250000 2.4316139221 6.2835941315 53.891040802 2.3579607010 31.119865417 1.7614159584 77.747337341  -999.250000 2.6500000954 2.0775709152
 2127.0002441 19.000000000 0.0606422387 12.310641289 12.250000954 0.0584995598 1.3738073111  -999.250000 2.4192919731 6.2385230064 52.285110474 2.4910142422 31.398027420 1.7253370285 77.805038452  -999.250000 2.6500000954 2.0407950878
