# LAS format log file from PETREL
# Project units are specified as depth units
#==================================================================
~Version information
VERS.   2.0:
WRAP.   NO:
#==================================================================
~Well
STRT .m      1199.6253662 :
STOP .m      3185.7504883 :
STEP .m     0.00000000 :
NULL .        -999.250000 :
COMP.           : COMPANY
WELL.  25/5-4  Byggve   : WELL
FLD.            : FIELD
LOC.            : LOCATION
SRVC.           : SERVICE COMPANY
DATE.  2018-09-11 14:48:21   : Log Export Date {yyyy-MM-dd HH:mm:ss}
PROV.           : PROVINCE
UWI.   25/5-4   : UNIQUE WELL ID
API.            : API NUMBER
#==================================================================
~Curve
DEPT .m                   : DEPTH
Lithology_geolink ._      : Lithology_geolink
DCAL .in                  : DCAL
CALI .in                  : CALI
BS .in                    : BS
DRHO .g/cm3               : DRHO
THOR .ppm                 : THOR
NPHI .m3/m3               : NPHI
RHOB .g/cm3               : RHOB
PEF .b/e                  : PEF
GR .gAPI                  : GR
URAN .ppm                 : URAN
DTC .us/ft                : DTC
RDEP .ohm.m               : RDEP
SP .mV                    : SP
RSHA .ohm.m               : RSHA
RHOM .g/cm3               : RHOM
RMED .ohm.m               : RMED
~Parameter
#==================================================================
~Ascii
# ...
 1729.0003662  -999.250000 3.8512077332 16.101209641 12.250000954 0.0175457206 3.8599872589  -999.250000 1.8715541363 16.504859924 54.233139038 0.9808408618 43.474964142 0.7366834879 80.904792786  -999.250000 2.6500000954 0.8467202187
 1729.1252441  -999.250000 3.8461630344 16.096160889 12.250000954 0.0147779100 3.8009638786  -999.250000 1.8481930494 16.449329376 55.347770691 1.1552563906 43.423057556 0.7383568883 80.900428772  -999.250000 2.6500000954 0.8356400132
 1729.2502441  -999.250000 3.7960410118 16.046039581 12.250000954 0.0162927192 3.3107142448  -999.250000 1.8268779516 16.389320374 56.100120544 1.3449361324 43.186134338 0.7438642979 80.968688965  -999.250000 2.6500000954 0.8315665722
 1729.3752441  -999.250000 3.6843740940 15.934370041 12.250000954 0.0204116199 2.8066377640  -999.250000 1.8283109665 16.341749191 56.379760742 1.4143691063 42.915321350 0.7532246709 81.088897705  -999.250000 2.6500000954 0.8325368762
 1729.5002441  -999.250000 3.5194933414 15.769490242 12.250000954 0.0230566300 2.6224501133  -999.250000 1.8297439814 16.315570831 56.225769043 1.3471411467 42.672241211 0.7638620138 81.213172913  -999.250000 2.6500000954 0.8329259753
 1729.6252441  -999.250000 3.3413476944 15.591350555 12.250000954 0.0188308991 3.0582995415  -999.250000 1.8561539650 16.301160812 55.735729218 1.1634032726 42.506919861 0.7735456228 81.285583496  -999.250000 2.6500000954 0.8330885768
 1729.7503662  -999.250000 3.2203023434 15.470299721 12.250000954 0.0063734371 3.7752003670  -999.250000 1.8963730335 16.268239975 54.857830048 0.9601980448 42.464431763 0.7795267105 81.235206604  -999.250000 2.6500000954 0.8415976763
 1729.8753662  -999.250000 3.2403960228 15.490400314 12.250000954 -0.008442751 4.3882050514  -999.250000 1.9312089682 16.193799973 53.569808960 0.7892189026 42.627441406 0.7819905877 81.068588257  -999.250000 2.6500000954 0.8600767851
 1730.0003662  -999.250000 3.4516270161 15.701627731 12.250000954 -0.016822660 4.4910631180  -999.250000 1.9452409744 16.061750412 52.048770905 0.7277737260 42.852989197 0.7814278007 80.896087646  -999.250000 2.6500000954 0.8845505714
 1730.1253662  -999.250000 3.8096280098 16.059629440 12.250000954 -0.013176200 4.1706743240  -999.250000 1.9592720270 15.868160248 50.723079681 0.7874446511 42.959030151 0.7804704905 80.850143433  -999.250000 2.6500000954 0.8970640898
 1730.2503662  -999.250000 4.1877779961 16.437780380 12.250000954 0.0041067200 3.6502826214  -999.250000 1.9482779503 15.650190353 50.110561371 0.9733269215 42.809619904 0.7811120749 80.990852356  -999.250000 2.6500000954 0.8881253004
 1730.3752441  -999.250000 4.4639301300 16.713930130 12.250000954 0.0308535509 3.3865020275  -999.250000 1.9296829700 15.433569908 50.422660828 1.1402981281 42.337574005 0.7836189270 81.238487244  -999.250000 2.6500000954 0.8591347933
 1730.5002441  -999.250000 4.5823459625 16.832349777 12.250000954 0.0549466684 3.4214787483  -999.250000 1.9184429646 15.219770432 51.478900909 1.2077990770 41.599468231 0.7851908207 81.447326660  -999.250000 2.6500000954 0.8273432851
 1730.6252441  -999.250000 4.5506901741 16.800689697 12.250000954 0.0685381666 3.5124630928  -999.250000 1.9222300053 15.007149696 52.831069946 1.2074618340 40.939178467 0.7825425267 81.500343323  -999.250000 2.6500000954 0.8114107251
 1730.7502441  -999.250000 4.3973660469 16.647369385 12.250000954 0.0714558735 3.3395278454  -999.250000 1.9260179996 14.826370239 53.975749969 1.2906631231 40.566043854 0.7736309171 81.432456970  -999.250000 2.6500000954 0.8121815920
 1730.8752441  -999.250000 4.1538181305 16.403820038 12.250000954 0.0683478266 2.9445030689  -999.250000 1.9268820286 14.675069809 54.461269379 1.5279014111 40.541996002 0.7601559758 81.372512817  -999.250000 2.6500000954 0.8213801980
 1731.0003662  -999.250000 3.8228206635 16.072820663 12.250000954 0.0627452731 2.7420887947  -999.250000 1.9273879528 14.534930229 54.088298798 1.8357651234 40.854598999 0.7455657721 81.500640869  -999.250000 2.6500000954 0.8304945827
 1731.1253662  -999.250000 3.4340736866 15.684069633 12.250000954 0.0593928993 2.9100136757  -999.250000 1.9295209646 14.369799614 53.210990906 2.0277678967 41.419879913 0.7344719172 81.809501648  -999.250000 2.6500000954 0.8340389132
 1731.2503662  -999.250000 3.0418260098 15.291830063 12.250000954 0.0603055507 3.4607586861  -999.250000 1.9336220026 14.183679581 52.478031158 1.9135688543 42.015491486 0.7298840880 82.224739075  -999.250000 2.6500000954 0.8350185156
 1731.3753662  -999.250000 2.7137217522 14.963720322 12.250000954 0.0646284074 3.9923453331  -999.250000 1.9378659725 14.022600174 52.370521545 1.5272020102 42.435569763 0.7319043875 82.533081055  -999.250000 2.6500000954 0.8378112912
 1731.5002441  -999.250000 2.5020730495 14.752069473 12.250000954 0.0696242899 4.2705988884  -999.250000 1.9522219896 13.959620476 52.786731720 1.0169081688 42.635700226 0.7379698753 82.645736694  -999.250000 2.6500000954 0.8439751863
 1731.6252441  -999.250000 2.4457468987 14.695750237 12.250000954 0.0744189024 4.3384609222  -999.250000 1.9665780067 14.014800072 53.238708496 0.5763214827 42.617774963 0.7452598214 82.478813171  -999.250000 2.6500000954 0.8522375226
 1731.7502441  -999.250000 2.5346050262 14.784609795 12.250000954 0.0788565874 4.4206538200  -999.250000 1.9750750065 14.147720337 53.211521149 0.3317970932 42.414657593 0.7524086833 82.193550110  -999.250000 2.6500000954 0.8567153215
 1731.8752441  -999.250000 2.6955487728 14.945549965 12.250000954 0.0832327902 4.4989795685  -999.250000 1.9792530537 14.256879807 52.643039703 0.3308654428 42.076511383 0.7589213252 81.880691528  -999.250000 2.6500000954 0.8559070230
 1732.0002441  -999.250000 2.8693890572 15.119389534 12.250000954 0.0869962573 4.3341999054  -999.250000 1.9814260006 14.312789917 51.780429840 0.6207624674 41.689323425 0.7646617293 81.668746948  -999.250000 2.6500000954 0.8547285795
 1732.1253662  -999.250000 2.9980549812 15.248050690 12.250000954 0.0882127583 3.8212172985  -999.250000 1.9709830284 14.430890083 51.007629395 1.1141175032 41.384403229 0.7695252895 81.648696899  -999.250000 2.6500000954 0.8610578179
 1732.2503662  -999.250000 3.0462203026 15.296220779 12.250000954 0.0841375589 3.1108720303  -999.250000 1.9605400562 14.740679741 50.429401398 1.6316183805 41.208839417 0.7734866142 81.939956665  -999.250000 2.6500000954 0.8763514757
 1732.3753662  -999.250000 2.9925398827 15.242541313 12.250000954 0.0737207085 2.5564503670  -999.250000 1.9362779856 15.254289627 50.030769348 1.9783803225 41.174213409 0.7770531774 82.422492981  -999.250000 2.6500000954 0.8913651109
 1732.5003662  -999.250000 2.8675739765 15.117569923 12.250000954 0.0608953908 2.4384779930  -999.250000 1.9060560465 15.751830101 49.833499908 2.0393004417 41.263694763 0.7807499170 82.916458130  -999.250000 2.6500000954 0.8941792846
 1732.6253662  -999.250000 2.7067759037 14.956780434 12.250000954 0.0493847616 2.7733328342  -999.250000 1.8804559708 16.065450668 50.105190277 1.8684049845 41.465938568 0.7850273252 83.147323608  -999.250000 2.6500000954 0.8743398786
 1732.7502441  -999.250000 2.5565388203 14.806538582 12.250000954 0.0416478105 3.3699991703  -999.250000 1.8679989576 16.276779175 51.085208893 1.5883882046 41.785396576 0.7891306281 83.092361450  -999.250000 2.6500000954 0.8499702215
 1732.8752441  -999.250000 2.4450109005 14.695010185 12.250000954 0.0374027491 3.9840159416  -999.250000 1.8555409908 16.478309631 52.641998291 1.3264405727 42.233303070 0.7906128168 82.859352112  -999.250000 2.6500000954 0.8344231844
 1733.0002441  -999.250000 2.3742220402 14.624221802 12.250000954 0.0357262306 4.6065969467  -999.250000 1.8666050434 16.506010056 54.276889801 1.0912954807 42.772338867 0.7882748842 82.759140015  -999.250000 2.6500000954 0.8316776752
 1733.1252441  -999.250000 2.3193109035 14.569310188 12.250000954 0.0350043997 5.2703933716  -999.250000 1.8827710152 16.064060211 55.286788940 0.8843495846 43.303573608 0.7830926180 82.856857300  -999.250000 2.6500000954 0.8372827768
 1733.2502441  -999.250000 2.2605550289 14.510560989 12.250000954 0.0347589515 5.8293976784  -999.250000 1.9037569761 15.105509758 55.317840576 0.7563931346 43.646656036 0.7776386142 83.045898438  -999.250000 2.6500000954 0.8436775208
