# LAS format log file from PETREL
# Project units are specified as depth units
#==================================================================
~Version information
VERS.   2.0:
WRAP.   NO:
#==================================================================
~Well
STRT .m      1153.6579590 :
STOP .m      2874.8635254 :
STEP .m     0.00000000 :
NULL .        -999.250000 :
COMP.           : COMPANY
WELL.  25/5-3  Skirne   : WELL
FLD.            : FIELD
LOC.            : LOCATION
SRVC.           : SERVICE COMPANY
DATE.  2018-09-11 14:48:21   : Log Export Date {yyyy-MM-dd HH:mm:ss}
PROV.           : PROVINCE
UWI.   25/5-3   : UNIQUE WELL ID
API.            : API NUMBER
#==================================================================
~Curve
DEPT .m                   : DEPTH
Lithology_geolink ._      : Lithology_geolink
CALI .in                  : CALI
BS .in                    : BS
DRHO .g/cm3               : DRHO
THOR .ppm                 : THOR
NPHI .m3/m3               : NPHI
RHOB .g/cm3               : RHOB
PEF .b/e                  : PEF
GR .gAPI                  : GR
URAN .ppm                 : URAN
DTC .us/ft                : DTC
RDEP .ohm.m               : RDEP
SP .mV                    : SP
RSHA .ohm.m               : RSHA
RMED .ohm.m               : RMED
~Parameter
#==================================================================
~Ascii
# ...
 1831.2283936  -999.250000 12.258000374 12.250000954 0.0160016026  -999.250000 0.0000000000 2.0300118923 10.593817711 56.463195801  -999.250000 137.25140381 0.6639807224 0.7291160822 0.6820232272 0.7059903741
 1831.3807373  -999.250000 12.147998810 12.250000954 0.0120032048  -999.250000 0.0000000000 2.0299999714 10.968699455 58.092472076  -999.250000 137.68540955 0.6659936309 0.7429438829 0.6670120358 0.7149927616
 1831.5332031  -999.250000 11.991999626 12.250000954 0.0070040035  -999.250000 0.0000000000 2.0299999714 10.078713417 58.017326355  -999.250000 139.02021790 0.6640048027 0.7898118496 0.6669999957 0.7149999738
 1831.6855469  -999.250000 12.156000137 12.250000954 0.0079991994  -999.250000 0.0000000000 2.0260159969 9.2736444473 55.836769104  -999.250000 139.34297180 0.6600128412 0.8348196745 0.6759927869 0.7110032439
 1831.8380127  -999.250000 11.991999626 12.250000954 0.0089991987  -999.250000 0.0000000000 2.0150442123 10.437067032 52.703559875  -999.250000 138.44166565 0.6590023637 0.8369920254 0.6899887919 0.7060039639
 1831.9903564  -999.250000 12.000000000 12.250000954 0.0020056090  -999.250000 0.0000000000 2.0010559559 11.803904533 50.553596497  -999.250000 137.42605591 0.6570063829 0.7682764530 0.7279695272 0.7050007582
 1832.1428223  -999.250000 11.694998741 12.250000954 -0.005993595  -999.250000 0.0000000000 1.9860479832 15.192285538 50.487186432  -999.250000 137.97964478 0.6530095935 0.6204743385 0.7519807816 0.7049999833
 1832.2951660  -999.250000 12.421999931 12.250000954 -0.006999199  -999.250000 0.0000000000 1.9780321121 12.970783234 52.238956451  -999.250000 140.85194397 0.6500095725 0.4138286412 0.7330151796 0.7020024061
 1832.4476318  -999.250000 12.039000511 12.250000954 -0.007000000  -999.250000 0.0000000000 1.9799935818 11.992781639 54.468852997  -999.250000 143.26338196 0.6470072269 0.1937051266 0.6720488071 0.6930072308
 1832.5999756  -999.250000 12.265999794 12.250000954 0.0019927886  -999.250000 0.0000000000 1.9929479361 10.314345360 55.652275085  -999.250000 143.40382385 0.6460032463 0.0157125704 0.6510168314 0.6890032291
 1832.7523193  -999.250000 12.272999763 12.250000954 0.0059935949  -999.250000 0.0000000000 2.0169038773 9.7429141998 55.320354462  -999.250000 142.52842712 0.6450031996 -0.075635411 0.6410160065 0.6880016327
 1832.9047852  -999.250000 12.375000000 12.250000954 0.0079983976  -999.250000 0.0000000000 2.0468797684 9.2274131775 54.066036224  -999.250000 140.98329163 0.6449999809 -0.064048044 0.6439976096 0.6909976006
 1833.0571289  -999.250000 12.733999252 12.250000954 0.0139903929  -999.250000 0.0000000000 2.0768797398 8.9774007797 53.030147552  -999.250000 138.76141357 0.6459968090 0.0375913456 0.6669631600 0.6959919930
 1833.2095947  -999.250000 12.430000305 12.250000954 0.0179967936  -999.250000 0.0000000000 2.1038920879 10.264966965 52.924407959  -999.250000 136.85981750 0.6499903798 0.1883955151 0.6939783692 0.6999967694
 1833.3619385  -999.250000 12.578000069 12.250000954 0.0120096076  -999.250000 0.0000000000 2.1239199638 10.702300072 53.887123108  -999.250000 135.91122437 0.6509968042 0.3304311037 0.7229535580 0.7049919963
 1833.5144043  -999.250000 12.319999695 12.250000954 0.0159967951  -999.250000 0.0000000000 2.1359519958 9.6958074570 55.667858124  -999.250000 135.82127380 0.6519976258 0.4076917470 0.7369887829 0.7089967728
 1833.6667480  -999.250000 12.319999695 12.250000954 0.0189975947  -999.250000 0.0000000000 2.1399841309 8.7347698212 57.273567200  -999.250000 136.44787598 0.6539936066 0.4030200243 0.7360007763 0.7020056248
 1833.8192139  -999.250000 12.319999695 12.250000954 0.0160024036  -999.250000 0.0000000000 2.1380081177 9.1946306229 57.578800201  -999.250000 137.59593201 0.6510072351 0.3482201695 0.7100207806 0.6950055957
 1833.9715576  -999.250000 12.492000580 12.250000954 0.0169992000  -999.250000 0.0000000000 2.1340160370 10.390041351 56.417675018  -999.250000 138.77931213 0.6450191736 0.3071642816 0.6900160313 0.6910032034
 1834.1240234  -999.250000 12.522998810 12.250000954 0.0249935947  -999.250000 0.0000000000 2.1290159225 11.054469109 55.128131866  -999.250000 139.66320801 0.6420072317 0.3408910036 0.6830056310 0.6870031953
 1834.2763672  -999.250000 12.609000206 12.250000954 0.0289967936  -999.250000 0.0000000000 2.1240200996 11.569586754 55.257461548  -999.250000 140.18690491 0.6360191703 0.4744635522 0.6879960299 0.6850016117
 1834.4288330  -999.250000 12.453000069 12.250000954 0.0359943956  -999.250000 0.0000000000 2.1210095882 10.906531334 56.965511322  -999.250000 140.34335327 0.6300144196 0.6743589640 0.7009895444 0.6889967918
 1834.5811768  -999.250000 12.015999794 12.250000954 0.0350008011  -999.250000 0.0000000000 2.1180119514 10.688174248 59.138286591  -999.250000 140.68296814 0.6309967637 0.8712113500 0.7049967647 0.6890000105
 1834.7335205  -999.250000 12.093999863 12.250000954 0.0399919935  -999.250000 0.0000000000 2.1160080433 10.032052040 60.468681335  -999.250000 141.09017944 0.6329935789 0.9805632830 0.7040016055 0.6939920187
 1834.8859863  -999.250000 12.133000374 12.250000954 0.0479935892  -999.250000 0.0000000000 2.1150040627 9.5863571167 60.672203064  -999.250000 140.43310547 0.6359903812 0.9421560764 0.7030007839 0.6969976425
 1835.0383301  -999.250000 12.109000206 12.250000954 0.0350208171  -999.250000 0.0000000000 2.1150000095 8.8142375946 60.107276917  -999.250000 138.87617493 0.6399871707 0.7627211809 0.7159792185 0.7019920349
 1835.1907959  -999.250000 12.194999695 12.250000954 0.0300040059  -999.250000 0.0000000000 2.1150000095 8.5781879425 59.450630188  -999.250000 138.38240051 0.6429904103 0.5070248246 0.7299888134 0.7049975991
 1835.3431396  -999.250000 12.241999626 12.250000954 0.0329951942  -999.250000 0.0000000000 2.1159958839 8.8585500717 59.353382111  -999.250000 138.98559570 0.6459904313 0.2679575086 0.7359904051 0.7099919915
 1835.4956055  -999.250000 12.319999695 12.250000954 0.0300024040  -999.250000 0.0000000000 2.1159999371 9.4914922714 60.178680420  -999.250000 139.32130432 0.6479951739 0.1126205027 0.7320032120 0.7129976153
 1835.6479492  -999.250000 12.477000237 12.250000954 0.0280016027  -999.250000 0.0000000000 2.1169960499 9.1952381134 61.610256195  -999.250000 139.24649048 0.6509904265 0.0522403866 0.7230072021 0.7179960012
 1835.8004150  -999.250000 12.413998604 12.250000954 0.0329959951  -999.250000 0.0000000000 2.1179959774 9.3668622971 62.778327942  -999.250000 139.22370911 0.6569855809 0.0420400314 0.7279959917 0.7199984193
 1835.9527588  -999.250000 12.296999931 12.250000954 0.0349983983  -999.250000 0.0000000000 2.1229798794 8.3598079681 63.328804016  -999.250000 139.29177856 0.6659711599 0.0280560907 0.7309976220 0.7150039673
 1836.1052246  -999.250000 12.477000237 12.250000954 0.0310032014  -999.250000 0.0000000000 2.1319639683 8.1022062302 63.487369537  -999.250000 139.15173340 0.6799663305 -0.009847878 0.7429903746 0.7159992456
 1836.2575684  -999.250000 12.569999695 12.250000954 0.0349967964  -999.250000 0.0000000000 2.1519198418 8.5626306534 63.225055695  -999.250000 138.24470520 0.7039231062 -0.052827723 0.7370048165 0.7329863310
 1836.4100342  -999.250000 12.569999695 12.250000954 0.0369983986  -999.250000 0.0000000000 2.1829006672 9.3044061661 61.722824097  -999.250000 135.32832336 0.7299374938 -0.067951925 0.7360007763 0.7749663591
 1836.5623779  -999.250000 12.453000069 12.250000954 0.0310048070  -999.250000 0.0000000000 2.2228398323 11.303398132 58.536785126  -999.250000 130.59841919 0.7389711738 -0.031148119 0.8139374852 0.8319543600
 1836.7147217  -999.250000 12.390999794 12.250000954 0.0200176127  -999.250000 0.0000000000 2.2588558197 10.251688957 54.783050537  -999.250000 125.50133514 0.7300288677 0.0566474348 0.9178334475 0.8250111938
 1836.8671875  -999.250000 12.430000305 12.250000954 0.0369863771  -999.250000 0.0000000000 2.2819080353 10.647681236 52.629592896  -999.250000 119.65046692 0.7260128260 0.1635716558 1.0289111137 0.7820344567
 1837.0195313  -999.250000 12.352001190 12.250000954 0.0479823872  -999.250000 0.0000000000 2.2820000648 10.804748535 53.206642151  -999.250000 116.16624451 0.7349711657 0.2416874915 0.9700945020 0.7440608740
