# LAS format log file from PETREL
# Project units are specified as depth units
#==================================================================
~Version information
VERS.   2.0:
WRAP.   NO:
#==================================================================
~Well
STRT .m      1199.6253662 :
STOP .m      3185.7504883 :
STEP .m     0.00000000 :
NULL .        -999.250000 :
COMP.           : COMPANY
WELL.  25/5-4  Byggve   : WELL
FLD.            : FIELD
LOC.            : LOCATION
SRVC.           : SERVICE COMPANY
DATE.  2018-09-11 14:48:21   : Log Export Date {yyyy-MM-dd HH:mm:ss}
PROV.           : PROVINCE
UWI.   25/5-4   : UNIQUE WELL ID
API.            : API NUMBER
#==================================================================
~Curve
DEPT .m                   : DEPTH
Lithology_geolink ._      : Lithology_geolink
DCAL .in                  : DCAL
CALI .in                  : CALI
BS .in                    : BS
DRHO .g/cm3               : DRHO
THOR .ppm                 : THOR
NPHI .m3/m3               : NPHI
RHOB .g/cm3               : RHOB
PEF .b/e                  : PEF
GR .gAPI                  : GR
URAN .ppm                 : URAN
DTC .us/ft                : DTC
RDEP .ohm.m               : RDEP
SP .mV                    : SP
RSHA .ohm.m               : RSHA
RHOM .g/cm3               : RHOM
RMED .ohm.m               : RMED
~Parameter
#==================================================================
~Ascii
# ...
 2385.2502441 6.0000000000 1.6550849676 13.905079842 12.250000954 0.0634088889 1.5954751968  -999.250000 2.2101221085 9.0054826736 74.216163635 3.3348376751 38.672019958 0.8271288276 87.267196655  -999.250000 2.6500000954 0.9524425268
 2385.3752441 5.0000000000 1.7491821051 13.999179840 12.250000954 0.0628396273 1.2760039568  -999.250000 2.2201189995 9.1091899872 72.603431702 2.9956037998 39.322185516 0.8317276239 87.183418274  -999.250000 2.6500000954 0.9690892100
 2385.5002441 5.0000000000 1.9151779413 14.165178299 12.250000954 0.0665625781 1.1758202314  -999.250000 2.2269930840 9.2404413223 70.731193542 2.5883171558 39.527530670 0.8402630091 87.023803711  -999.250000 2.6500000954 1.0013029575
 2385.6252441 5.0000000000 2.0987660885 14.348770142 12.250000954 0.0738864467 1.1865136623  -999.250000 2.2217950821 9.4124765396 69.039436340 2.3927185535 39.503757477 0.8503081203 86.813026428  -999.250000 2.6500000954 1.0462019444
 2385.7502441 5.0000000000 2.2703390121 14.520341873 12.250000954 0.0829755589 1.3478572369  -999.250000 2.2165970802 9.5815877914 67.918083191 2.4536652565 39.380195618 0.8594496846 86.575447083  -999.250000 2.6500000954 1.0917940140
 2385.8752441 5.0000000000 2.4422879219 14.692290306 12.250000954 0.0930875093 1.8900500536  -999.250000 2.2042179108 9.7004022598 67.616027832 2.6404635906 39.227699280 0.8671466112 86.349746704  -999.250000 2.6500000954 1.1246379614
 2386.0002441 5.0000000000 2.6356320381 14.885629654 12.250000954 0.1031318009 2.8885650635  -999.250000 2.1896719933 9.7642059326 68.023902893 2.7238953114 39.068408966 0.8739619851 86.164146423  -999.250000 2.6500000954 1.1320179701
 2386.1252441 6.0000000000 2.8310370445 15.081039429 12.250000954 0.1111626998 3.9452157021  -999.250000 2.1805989742 9.7959890366 68.774986267 2.6700627804 38.843681335 0.8815631866 86.018386841  -999.250000 2.6500000954 1.1140810251
 2386.2502441 6.0000000000 2.9609730244 15.210970879 12.250000954 0.1148986965 4.6176314354  -999.250000 2.1826159954 9.8180580139 69.299880981 2.4975790977 38.479568481 0.8905463815 85.845703125  -999.250000 2.6500000954 1.0900019407
 2386.3752441 6.0000000000 2.9508051872 15.200799942 12.250000954 0.1140263006 4.6841392517  -999.250000 2.1846320629 9.8536453247 69.339736938 2.3847033978 38.071258545 0.9003524184 85.552368164  -999.250000 2.6500000954 1.0720160007
 2386.5004883 6.0000000000 2.7706272602 15.020628929 12.250000954 0.1096073985 4.2929081917  -999.250000 2.1988608837 9.8964920044 68.957321167 2.3863780499 37.735916138 0.9088702202 85.122428894  -999.250000 2.6500000954 1.0647890568
 2386.6252441 6.0000000000 2.4810667038 14.731069565 12.250000954 0.1048813015 3.6309764385  -999.250000 2.2145829201 9.9299402237 68.525123596 2.3804407120 37.573860168 0.9149156213 84.635627747  -999.250000 2.6500000954 1.0684440136
 2386.7502441 5.0000000000 2.2021379471 14.452139854 12.250000954 0.1039085984 3.1078581810  -999.250000 2.2245190144 9.9431419373 68.221527100 2.1960179806 37.646850586 0.9186158776 84.231018066  -999.250000 2.6500000954 1.0760849714
 2386.8752441 5.0000000000 2.0391829014 14.289179802 12.250000954 0.1090283990 3.0364534855  -999.250000 2.2274839878 9.9415664673 67.932693481 1.7955276966 37.925559998 0.9225611091 83.988380432  -999.250000 2.6500000954 1.0832890272
 2387.0002441 5.0000000000 2.0337460041 14.283749580 12.250000954 0.1187390015 3.5764501095  -999.250000 2.2303550243 9.9371461868 67.630233765 1.3492472172 38.184886932 0.9287223220 83.856117249  -999.250000 2.6500000954 1.0909199715
 2387.1252441 5.0000000000 2.1505320072 14.400529861 12.250000954 0.1295658052 4.4214315414  -999.250000 2.2267479897 9.9345197678 67.491409302 1.0668089390 38.309036255 0.9372249246 83.685768127  -999.250000 2.6500000954 1.1018160582
 2387.2502441 5.0000000000 2.3033940792 14.553389549 12.250000954 0.1374772042 5.3071961403  -999.250000 2.2231400013 9.9314327240 67.763442993 1.0716903210 38.263828278 0.9455016255 83.402763367  -999.250000 2.6500000954 1.1161860228
 2387.3752441 5.0000000000 2.4096889496 14.659687996 12.250000954 0.1401863992 5.8163571358  -999.250000 2.2227900028 9.9276561737 68.447433472 1.2203445435 38.070465088 0.9504572749 83.093620300  -999.250000 2.6500000954 1.1326520443
 2387.5002441 5.0000000000 2.4225289822 14.672532082 12.250000954 0.1383274943 5.8443231583  -999.250000 2.2248339653 9.9318389893 69.034713745 1.3968884945 37.807754517 0.9501377940 82.895057678  -999.250000 2.6500000954 1.1483609676
 2387.6252441 5.0000000000 2.3373999596 14.587399483 12.250000954 0.1351283938 5.2411065102  -999.250000 2.2258510590 9.9478597641 68.788063049 1.6472474337 37.613418579 0.9447100163 82.919288635  -999.250000 2.6500000954 1.1570659876
 2387.7502441 5.0000000000 2.1815209389 14.431520462 12.250000954 0.1335147023 4.2714676857  -999.250000 2.2204120159 9.9718732834 67.492477417 2.0301196575 37.487255096 0.9359564185 83.041236877  -999.250000 2.6500000954 1.1547600031
 2387.8752441 5.0000000000 2.0135149956 14.263522148 12.250000954 0.1343110949 3.1804053783  -999.250000 2.2149720192 9.9737319946 65.955619812 2.5006346703 37.363788605 0.9265192151 83.139678955  -999.250000 2.6500000954 1.1391739845
 2388.0002441 5.0000000000 1.8896249533 14.139620781 12.250000954 0.1364804059 2.4674148560  -999.250000 2.2146170139 9.9242238998 65.306953430 2.8251993656 37.186817169 0.9184308052 83.213409424  -999.250000 2.6500000954 1.1112079620
 2388.1252441 5.0000000000 1.8415938616 14.091590881 12.250000954 0.1378704011 2.2713828087  -999.250000 2.2164430618 9.7521581650 65.938430786 2.9268164635 36.929080963 0.9121927023 83.342529297  -999.250000 2.6500000954 1.0818359852
 2388.2502441 5.0000000000 1.8604890108 14.110490799 12.250000954 0.1358280927 2.6728436947  -999.250000 2.2244489193 9.5182533264 67.124900818 2.7813477516 36.668109894 0.9066364765 83.561180115  -999.250000 2.6500000954 1.0637229681
 2388.3752441 5.0000000000 1.9284969568 14.178500175 12.250000954 0.1281650960 3.4636268616  -999.250000 2.2500278950 9.2885742188 67.517250061 2.4985232353 36.586086273 0.8997694850 83.761138916  -999.250000 2.6500000954 1.0646719933
 2388.5002441 5.0000000000 2.0086660385 14.258670807 12.250000954 0.1150273010 4.4497461319  -999.250000 2.2756071091 9.1171131134 66.207107544 2.1519935131 36.732116699 0.8902974129 83.860397339  -999.250000 2.6500000954 1.0820920467
 2388.6252441 5.0000000000 2.0787971020 14.328802109 12.250000954 0.0987077206 5.1890377998  -999.250000 2.2888638973 8.9772148132 63.376548767 1.8418204784 37.046154022 0.8797348142 83.776947021  -999.250000 2.6500000954 1.1083480120
 2388.7502441 5.0000000000 2.1411030293 14.391099930 12.250000954 0.0838614330 5.2578287125  -999.250000 2.2994658947 8.8701496124 60.300170898 1.6992220879 37.395301819 0.8713735938 83.629348755  -999.250000 2.6500000954 1.1220849752
 2388.8754883 5.0000000000 2.2259469032 14.475950241 12.250000954 0.0774118826 4.4496831894  -999.250000 2.2980239391 8.8152971268 58.257381439 1.8138027191 37.579284668 0.8699843884 83.484832764  -999.250000 2.6500000954 1.1123420000
 2389.0002441 5.0000000000 2.3598389626 14.609840393 12.250000954 0.0822225735 3.1171562672  -999.250000 2.2772018909 8.8223619461 57.685440063 2.0954351425 37.350376129 0.8776239157 83.412849426  -999.250000 2.6500000954 1.0852249861
 2389.1252441 5.0000000000 2.5310668945 14.781069756 12.250000954 0.0934185237 1.9187058210  -999.250000 2.2563800812 8.8815050125 58.003791809 2.3176550865 36.832153320 0.8949345946 83.433937073  -999.250000 2.6500000954 1.0580149889
 2389.2502441 5.0000000000 2.6583280563 14.908329964 12.250000954 0.1038122997 1.4621475935  -999.250000 2.2397279739 8.9334859848 58.737518311 2.2428438663 36.190517426 0.9241942763 83.658691406  -999.250000 2.6500000954 1.0441219807
 2389.3752441 5.0000000000 2.6350040436 14.885000229 12.250000954 0.1126253009 1.6402407885  -999.250000 2.2233068943 8.9392471313 59.533580780 1.8556085825 35.620330811 0.9625412822 84.079322815  -999.250000 2.6500000954 1.0430059433
 2389.5002441 5.0000000000 2.4120550156 14.662059784 12.250000954 0.1236213967 1.8653745651  -999.250000 2.2163009644 8.9018611908 60.021259308 1.3995718956 35.310195923 1.0092190504 84.560653687  -999.250000 2.6500000954 1.0512570143
