# LAS format log file from PETREL
# Project units are specified as depth units
#==================================================================
~Version information
VERS.   2.0:
WRAP.   NO:
#==================================================================
~Well
STRT .m      1153.6579590 :
STOP .m      2874.8635254 :
STEP .m     0.00000000 :
NULL .        -999.250000 :
COMP.           : COMPANY
WELL.  25/5-3  Skirne   : WELL
FLD.            : FIELD
LOC.            : LOCATION
SRVC.           : SERVICE COMPANY
DATE.  2018-09-11 14:48:21   : Log Export Date {yyyy-MM-dd HH:mm:ss}
PROV.           : PROVINCE
UWI.   25/5-3   : UNIQUE WELL ID
API.            : API NUMBER
#==================================================================
~Curve
DEPT .m                   : DEPTH
Lithology_geolink ._      : Lithology_geolink
CALI .in                  : CALI
BS .in                    : BS
DRHO .g/cm3               : DRHO
THOR .ppm                 : THOR
NPHI .m3/m3               : NPHI
RHOB .g/cm3               : RHOB
PEF .b/e                  : PEF
GR .gAPI                  : GR
URAN .ppm                 : URAN
DTC .us/ft                : DTC
RDEP .ohm.m               : RDEP
SP .mV                    : SP
RSHA .ohm.m               : RSHA
RMED .ohm.m               : RMED
~Parameter
#==================================================================
~Ascii
# ...
 1605.3715820  -999.250000 12.531000137 12.250000954 0.0139951929  -999.250000 0.0000000000 2.0059521198 12.069781303 54.991981506  -999.250000 141.54071045 0.8579775691 1.2920761108 0.8209967613 0.8339951634
 1605.5239258  -999.250000 12.516000748 12.250000954 0.0209887903  -999.250000 0.0000000000 2.0179517269 11.314211845 56.072669983  -999.250000 142.80111694 0.8669711351 1.3019599915 0.8239951730 0.8399903774
 1605.6763916  -999.250000 12.039000511 12.250000954 0.0150048072  -999.250000 0.0000000000 2.0279600620 10.266839027 56.896705627  -999.250000 143.39309692 0.8779735565 1.3069800138 0.8220016360 0.8519904017
 1605.8287354  -999.250000 12.163999557 12.250000954 0.0080056097  -999.250000 0.0000000000 2.0339758396 9.6724758148 57.398994446  -999.250000 144.45736694 0.8889647722 1.2671601772 0.8130072355 0.8719839454
 1605.9812012  -999.250000 12.319999695 12.250000954 0.0119967973  -999.250000 0.0000000000 2.0369880199 9.0554943085 57.447814941  -999.250000 144.91450500 0.8979783654 1.1574403048 0.8269888163 0.8859887719
 1606.1335449  -999.250000 12.319999695 12.250000954 0.0110008009  -999.250000 0.0000000000 2.0369999409 11.794802666 57.027690887  -999.250000 142.11370850 0.9039807916 0.9946530461 0.8779591322 0.8889976144
 1606.2860107  -999.250000 12.492000580 12.250000954 0.0080024023  -999.250000 0.0000000000 2.0389919281 13.982249260 56.309879303  -999.250000 137.29066467 0.9030023813 0.8326485157 0.9479439855 0.8939960003
 1606.4383545  -999.250000 12.602000237 12.250000954 0.0099983970  -999.250000 0.0000000000 2.0449759960 14.046949387 55.846851349  -999.250000 133.74919128 0.8960224390 0.7463445663 0.9719807506 0.8969976306
 1606.5908203  -999.250000 12.522998810 12.250000954 0.0259871911  -999.250000 0.0000000000 2.0569615364 10.253040314 56.226772308  -999.250000 133.20120239 0.8880192637 0.7759038806 0.9390264153 0.8850095868
 1606.7431641  -999.250000 12.492000580 12.250000954 0.0279983990  -999.250000 0.0000000000 2.0739319324 8.0018024445 57.670200348  -999.250000 135.65708923 0.8800256252 0.9154395461 0.8950352669 0.8690128326
 1606.8955078  -999.250000 12.758000374 12.250000954 0.0339903943  -999.250000 0.0000000000 2.0919280052 7.8592257500 59.770572662  -999.250000 139.72279358 0.8710288405 1.1151987314 0.8520688415 0.8590160608
 1607.0479736  -999.250000 12.680000305 12.250000954 0.0260064099  -999.250000 0.0000000000 2.1069400311 8.3126363754 61.809837341  -999.250000 142.98243713 0.8620288372 1.3102194071 0.8360128403 0.8530048132
 1607.2003174  -999.250000 12.680000305 12.250000954 0.0180128086  -999.250000 0.0000000000 2.1159639359 7.9845271111 63.133708954  -999.250000 144.52061462 0.8520320654 1.4484471083 0.8320063949 0.8510032296
 1607.3527832  -999.250000 12.413998604 12.250000954 0.0140032051  -999.250000 0.0000000000 2.1189880371 8.7803611755 63.287403107  -999.250000 145.20614624 0.8420320153 1.5157318115 0.8489863276 0.8510000110
 1607.5051270  -999.250000 12.508000374 12.250000954 0.0249823872  -999.250000 0.0000000000 2.1170082092 9.3430986404 62.088825226  -999.250000 145.11305237 0.8380128145 1.5299438238 0.8779535890 0.8519983888
 1607.6575928  -999.250000 12.484000206 12.250000954 0.0220024046  -999.250000 0.0000000000 2.1100280285 10.171336174 60.019298553  -999.250000 144.11523438 0.8340095878 1.5210360289 0.9009816051 0.8539983630
 1607.8099365  -999.250000 12.397999763 12.250000954 0.0309927873  -999.250000 0.0000000000 2.1010360718 9.8592510223 58.115627289  -999.250000 143.20059204 0.8339999914 1.5090479851 0.9159879684 0.8460064530
 1607.9624023  -999.250000 12.516000748 12.250000954 0.0459879898  -999.250000 0.0000000000 2.0920360088 9.6251869202 57.279331207  -999.250000 142.95152283 0.8330023885 1.4960521460 0.9040095806 0.8440015912
 1608.1147461  -999.250000 12.718999863 12.250000954 0.0380064100  -999.250000 0.0000000000 2.0840320587 10.851016998 57.662445068  -999.250000 143.34268188 0.8260223866 1.4651242495 0.8820176721 0.8439999819
 1608.2672119  -999.250000 12.772999763 12.250000954 0.0200144108  -999.250000 0.0000000000 2.0800158978 9.2512826920 58.666969299  -999.250000 144.41439819 0.8200144172 1.4012562037 0.8550216556 0.8430007696
 1608.4195557  -999.250000 12.578000069 12.250000954 0.0289927870  -999.250000 0.0000000000 2.0790040493 8.4226636887 59.791492462  -999.250000 145.45039368 0.8140192032 1.2924367189 0.8360152245 0.8350064158
 1608.5720215  -999.250000 12.593999863 12.250000954 0.0409903936  -999.250000 0.0000000000 2.0819904804 7.8404660225 60.691120148  -999.250000 145.93324280 0.8060192466 1.1524486542 0.8290055990 0.8270063996
 1608.7243652  -999.250000 12.758000374 12.250000954 0.0380024016  -999.250000 0.0000000000 2.0869798660 9.1319646835 61.076461792  -999.250000 146.09417725 0.8059999943 1.0145524740 0.8270016313 0.8160088062
 1608.8768311  -999.250000 12.640999794 12.250000954 0.0240112096  -999.250000 0.0000000000 2.0929806232 9.2658929825 60.592559814  -999.250000 145.82986450 0.8099904060 0.9143204689 0.8230032325 0.8150007725
 1609.0291748  -999.250000 12.921999931 12.250000954 0.0210024044  -999.250000 0.0000000000 2.0999717712 7.1536936760 59.143817902  -999.250000 145.63029480 0.8109967709 0.8602162004 0.8230000138 0.8349839449
 1609.1815186  -999.250000 12.984000206 12.250000954 0.0150096072  -999.250000 0.0000000000 2.1049799919 6.0837130547 57.120117188  -999.250000 145.91175842 0.8119967580 0.8221522570 0.8529519439 0.8439855576
 1609.3339844  -999.250000 12.555000305 12.250000954 0.0120024038  -999.250000 0.0000000000 2.1069920063 6.5626149178 55.364025116  -999.250000 145.53997803 0.8100063801 0.7662241459 0.8699863553 0.8380048275
 1609.4863281  -999.250000 12.656000137 12.250000954 0.0060096076  -999.250000 0.0000000000 2.1040120125 7.6971807480 54.785301208  -999.250000 144.79313660 0.8050160408 0.6932924986 0.8719967604 0.8300127983
 1609.6387939  -999.250000 12.477000237 12.250000954 0.0089975959  -999.250000 0.0000000000 2.0970280170 8.7651453018 55.778003693  -999.250000 145.16362000 0.8069951534 0.6541560888 0.8630071878 0.8180096149
 1609.7911377  -999.250000 12.562999725 12.250000954 0.0209807847  -999.250000 0.0000000000 2.0860440731 9.2023000717 57.683353424  -999.250000 145.85504150 0.8099904060 0.7117676139 0.8510192037 0.8130080104
 1609.9436035  -999.250000 12.500000000 12.250000954 0.0190016013  -999.250000 0.0000000000 2.0740478039 10.265148163 58.891174316  -999.250000 145.59904480 0.8050120473 0.8922754526 0.8320152164 0.8100023866
 1610.0959473  -999.250000 12.586000443 12.250000954 0.0120056095  -999.250000 0.0000000000 2.0640399456 10.000212669 58.321311951  -999.250000 145.40763855 0.8020095825 1.1569383144 0.8250055909 0.8159951568
 1610.2484131  -999.250000 12.538999557 12.250000954 0.0129991993  -999.250000 0.0000000000 2.0560319424 7.4360542297 56.328998566  -999.250000 146.33114624 0.8010023832 1.4119791985 0.8309951425 0.8159999847
 1610.4007568  -999.250000 12.546999931 12.250000954 0.0229919869  -999.250000 0.0000000000 2.0490281582 7.9375963211 54.543151855  -999.250000 147.34071350 0.7960160375 1.5643911362 0.8270032406 0.8159999847
 1610.5532227  -999.250000 12.593999863 12.250000954 0.0210016016  -999.250000 0.0000000000 2.0450129509 9.1470308304 53.930946350  -999.250000 147.81314087 0.7920095921 1.5779582262 0.8279992342 0.8100048304
 1610.7055664  -999.250000 12.538999557 12.250000954 0.0200008005  -999.250000 0.0000000000 2.0440039635 11.178372383 54.157085419  -999.250000 148.31481934 0.7910032272 1.4963283539 0.8270007968 0.8100000024
 1610.8580322  -999.250000 12.343999863 12.250000954 0.0269943960  -999.250000 0.0000000000 2.0459935665 9.2515449524 54.521827698  -999.250000 148.76016235 0.7900024056 1.4003076553 0.8250015974 0.8100000024
 1611.0103760  -999.250000 12.569999695 12.250000954 0.0439863764  -999.250000 0.0000000000 2.0499839783 8.6564760208 55.047889709  -999.250000 148.00733948 0.7850160599 1.3502001762 0.8249999881 0.8100000024
 1611.1627197  -999.250000 12.538999557 12.250000954 0.0340160131  -999.250000 0.0000000000 2.0569717884 8.5082378387 56.412517548  -999.250000 146.46110535 0.7800160050 1.3440240622 0.8259983659 0.8030111790
