# LAS format log file from PETREL
# Project units are specified as depth units
#==================================================================
~Version information
VERS.   2.0:
WRAP.   NO:
#==================================================================
~Well
STRT .m      1199.6253662 :
STOP .m      3185.7504883 :
STEP .m     0.00000000 :
NULL .        -999.250000 :
COMP.           : COMPANY
WELL.  25/5-4  Byggve   : WELL
FLD.            : FIELD
LOC.            : LOCATION
SRVC.           : SERVICE COMPANY
DATE.  2018-09-11 14:48:21   : Log Export Date {yyyy-MM-dd HH:mm:ss}
PROV.           : PROVINCE
UWI.   25/5-4   : UNIQUE WELL ID
API.            : API NUMBER
#==================================================================
~Curve
DEPT .m                   : DEPTH
Lithology_geolink ._      : Lithology_geolink
DCAL .in                  : DCAL
CALI .in                  : CALI
BS .in                    : BS
DRHO .g/cm3               : DRHO
THOR .ppm                 : THOR
NPHI .m3/m3               : NPHI
RHOB .g/cm3               : RHOB
PEF .b/e                  : PEF
GR .gAPI                  : GR
URAN .ppm                 : URAN
DTC .us/ft                : DTC
RDEP .ohm.m               : RDEP
SP .mV                    : SP
RSHA .ohm.m               : RSHA
RHOM .g/cm3               : RHOM
RMED .ohm.m               : RMED
~Parameter
#==================================================================
~Ascii
# ...
 2783.3752441 13.000000000 -0.083361633 12.166639328 12.250000954 0.0935134292 7.9617834091  -999.250000 2.7357680798 7.9273920059 74.863761902 2.8376898766  -999.250000 2.4467771053 57.952190399 0.1943213940 -999.9000244 2.4964079857
 2783.5002441 13.000000000 0.0601148605 12.310110092 12.250000954 0.1496021003 8.7516565323  -999.250000 2.7163269520 7.9760451317 80.482246399 3.0136857033  -999.250000 2.2529571056 58.599281311 0.1943213940 -999.9000244 2.3326909542
 2783.6252441 13.000000000 0.2884339988 12.538431168 12.250000954 0.1932695061 9.7535858154  -999.250000 2.6830999851 7.6399979591 83.870269775 2.8525574207  -999.250000 2.0599079132 59.234050751 0.1943213940 -999.9000244 2.3826069832
 2783.7502441 13.000000000 0.5207424164 12.770738602 12.250000954 0.2068203986 10.717995644  -999.250000 2.6426010132 7.0987977982 85.160636902 2.5750143528  -999.250000 1.8924460411 59.630809784 0.1943213940 -999.9000244 2.5848491192
 2783.8752441 13.000000000 0.6409798265 12.890979767 12.250000954 0.1835882962 11.277471542  -999.250000 2.6162929535 6.7283849716 78.187156677 2.4269757271  -999.250000 1.7740550041 59.677570343 0.1943213940 -999.9000244 2.8080520630
 2784.0002441 5.0000000000 0.5821818709 12.832180023 12.250000954 0.1296010017 11.047844887  -999.250000 2.6411149502 6.7005338669 58.360649109 1.3924752474  -999.250000 1.7211719751 59.413791656 0.1943213940 -999.9000244 2.9056448936
 2784.1252441 5.0000000000 0.3860740960 12.636069298 12.250000954 0.0677970797 5.4485902786  -999.250000 2.6659369469 7.0153617859 46.259830475 1.3287345171  -999.250000 1.7219250202 59.034721375 0.1943213940 -999.9000244 2.8394570351
 2784.2502441 5.0000000000 0.1723652035 12.422369003 12.250000954 0.0228580609 4.8293242455  -999.250000 2.6874868870 7.4690179825 45.026229858 1.3465890884  -999.250000 1.7502080202 58.710979462 0.1943213940 -999.9000244 2.7034969330
 2784.3752441 5.0000000000 0.0497493669 12.299750328 12.250000954 0.0058552329 4.2787837982 0.3118978143 2.7081120014 7.9316701889 43.258560181 1.4435585737  -999.250000 1.7914500237 58.494350433 0.1943213940 -999.9000244 2.5777499676
 2784.5002441 5.0000000000 0.0473804511 12.297380447 12.250000954 0.0094625363 3.8098580837 0.6821107268 2.7231769562 8.2682580948 41.563720703 1.6272815466  -999.250000 1.8338589668 58.265861511 0.1943213940 -999.9000244 2.5002679825
 2784.6252441 5.0000000000 0.1156796962 12.365679741 12.250000954 0.0257221404 3.4304344654 0.6875075102 2.7274649143 8.4140634537 40.212471008 1.8737087250  -999.250000 1.8740600348 57.872600555 0.1943213940 -999.9000244 2.5019099712
 2784.7502441 5.0000000000 0.1801442951 12.430139542 12.250000954 0.0493215695 3.2953121662 0.6760736704 2.7317519188 8.2185153961 39.277698517 2.0313823223  -999.250000 1.9098069668 57.289478302 0.1943213940 -999.9000244 2.5675730705
 2784.8752441 5.0000000000 0.1897383183 12.439740181 12.250000954 0.0736999810 3.6096248627 0.6537432075 2.7114889622 7.8105459213 38.834621429 1.9706771374  -999.250000 1.9437609911 56.531139374 0.1943213940 -999.9000244 2.6854801178
 2785.0004883 5.0000000000 0.1280584037 12.378060341 12.250000954 0.0939946473 4.3405270576 0.6247059107 2.6885819435 7.2990880013 38.810440063 1.7023023367  -999.250000 1.9864799976 55.633510590 0.1943213940 -999.9000244 2.8409531116
 2785.1254883 5.0000000000 0.0202245712 12.270220757 12.250000954 0.1081532016 5.0623254776 0.5920383930 2.6692929268 6.9097709656 38.792400360 1.3961981535  -999.250000 2.0505990982 54.680328369 0.1943213940 -999.9000244 2.9865310192
 2785.2504883 5.0000000000 -0.089818008 12.160179138 12.250000954 0.1137328967 5.2972245216 0.5582032800 2.6541941166 6.7193689346 38.390331268 1.2170226574  -999.250000 2.1523070335 53.777519226 0.1943213940 -999.9000244 3.0740900040
 2785.3754883 5.0000000000 -0.164913207 12.085089684 12.250000954 0.1056097001 5.0214447975 0.5244554281 2.6396958828 6.7030081749 37.533340454 1.1717498302  -999.250000 2.2984650135 53.033329010 0.1943213940 -999.9000244 3.0840570927
 2785.5004883 5.0000000000 -0.195558503 12.054439545 12.250000954 0.0835859925 4.4812307358 0.4928328097 2.6478469372 6.7394571304 36.517990112 1.1973564625  -999.250000 2.4834001064 52.427848816 0.1943213940 -999.9000244 3.0525040627
 2785.6252441 5.0000000000 -0.187476203 12.062520027 12.250000954 0.0541709512 3.9864599705 0.4660655856 2.6559970379 6.7568278313 35.614421844 1.2774901390  -999.250000 2.6827239990 51.873401642 0.1943213940 -999.9000244 3.0667929649
 2785.7502441 5.0000000000 -0.159748107 12.090250015 12.250000954 0.0317041092 3.6435117722 0.4443598092 2.6641399860 6.6503419876 34.859210968 1.4031058550  -999.250000 2.8636310101 51.204921722 0.1943213940 -999.9000244 3.1731410027
 2785.8752441 5.0000000000 -0.133270293 12.116728783 12.250000954 0.0261749793 3.3391120434 0.4269765913 2.6722779274 6.4847359657 34.032428741 1.5581270456  -999.250000 2.9776411057 50.348281860 0.1943213940 -999.9000244 3.3918330669
 2786.0002441 5.0000000000 -0.116711602 12.133290291 12.250000954 0.0362377800 2.9355361462 0.4143156111 2.6789569855 6.3720269203 33.032791138 1.6742553711  -999.250000 2.9985480309 49.413501740 0.1943213940 -999.9000244 3.6807808876
 2786.1252441 5.0000000000 -0.109852798 12.140150070 12.250000954 0.0476063602 2.4421327114 0.4071452022 2.6772980690 6.3686079979 32.105621338 1.7023992538  -999.250000  -999.250000 48.623069763 0.1943213940 -999.9000244 3.9532148838
 2786.2502441 5.0000000000 -0.108211510 12.141791344 12.250000954 0.0492209084 1.9985976219 0.4057956040 2.6756379604 6.3907618523 31.735349655 1.6506818533  -999.250000  -999.250000 48.237831116 0.1943213940 -999.9000244 4.1493358612
 2786.3752441 5.0000000000 -0.108192407 12.141809464 12.250000954 0.0404476002 1.8445615768 0.4115467072 2.6768999100 6.3353991508 32.328460693 1.5390466452  -999.250000  -999.250000 48.292228699 0.1943213940 -999.9000244 4.2724862099
 2786.5002441 5.0000000000 -0.108192407 12.141809464 12.250000954 0.0317470506 2.0813035965 0.4257650077 2.6793580055 6.2197360992 33.853618622 1.4608306885  -999.250000  -999.250000 48.724029541 0.1943213940 -999.9000244 4.3172979355
 2786.6252441 5.0000000000 -0.108192407 12.141809464 12.250000954 0.0285065603 2.5439448357 0.4508565068 2.6824319363 6.2145118713 36.512500763 1.5282744169  -999.250000  -999.250000 49.488258362 0.1943213940 -999.9000244 4.1691379547
 2786.7502441 5.0000000000 -0.108192407 12.141809464 12.250000954 0.0285979006 2.9757356644 0.4876304865 2.6871540546 6.4241781235 40.527709961 1.8743386269  -999.250000  -999.250000 50.389549255 0.1943213940 -999.9000244 3.8612699509
 2786.8752441 5.0000000000 -0.108193390 12.141809464 12.250000954 0.0269803591 3.0442929268 0.5377253294 2.6918749809 6.8142480850 46.176448822 2.6115684509  -999.250000  -999.250000 51.369609833 0.1943213940 -999.9000244 3.4599239826
 2787.0002441 5.0000000000 -0.108434699 12.141570091 12.250000954 0.0236034598 2.6816849709 0.6141471267 2.6761980057 7.2176980972 53.685520172 3.6709403992  -999.250000  -999.250000 52.455669403 0.1943213940 -999.9000244 3.0964291096
 2787.1252441 5.0000000000 -0.110711090 12.139289856 12.250000954 0.0237920899 2.0600104332 0.7126709223 2.6564159393 7.4919409752 62.486640930 4.8688139915  -999.250000  -999.250000 53.735939026 0.1943213940 -999.9000244 2.8629279137
 2787.2502441 6.0000000000 -0.122150399 12.127850533 12.250000954 0.0324370600 1.6566982269 0.7932130098 2.6206219196 7.5553450584 71.499633789 5.8478608131  -999.250000  -999.250000 55.331619263 0.1943213940 -999.9000244 2.7688200474
 2787.3754883 6.0000000000 -0.158185005 12.091810226 12.250000954 0.0490542203 1.7598567009 0.8201950788 2.5603020191 7.5404100418 79.017936707 6.3901920319  -999.250000  -999.250000 55.465068817 0.1943213940 -999.9000244 2.7442018986
 2787.5004883 6.0000000000 -0.237275094 12.012719154 12.250000954 0.0679641664 2.2348711491 0.8119637966 2.4999809265 7.5265870094 83.416427612 6.4381756783  -999.250000  -999.250000 55.598510742 0.1943213940 -999.9000244 2.7649419308
 2787.6254883 6.0000000000 -0.368150741 11.881851196 12.250000954 0.0837782621 2.6353778839 0.7855960131 2.4400339127 7.5337948799 83.373252869 6.1749405861  -999.250000  -999.250000 55.731960297 0.1943213940 -999.9000244 2.8299260139
