# LAS format log file from PETREL
# Project units are specified as depth units
#==================================================================
~Version information
VERS.   2.0:
WRAP.   NO:
#==================================================================
~Well
STRT .m      1153.6579590 :
STOP .m      2874.8635254 :
STEP .m     0.00000000 :
NULL .        -999.250000 :
COMP.           : COMPANY
WELL.  25/5-3  Skirne   : WELL
FLD.            : FIELD
LOC.            : LOCATION
SRVC.           : SERVICE COMPANY
DATE.  2018-09-11 14:48:21   : Log Export Date {yyyy-MM-dd HH:mm:ss}
PROV.           : PROVINCE
UWI.   25/5-3   : UNIQUE WELL ID
API.            : API NUMBER
#==================================================================
~Curve
DEPT .m                   : DEPTH
Lithology_geolink ._      : Lithology_geolink
CALI .in                  : CALI
BS .in                    : BS
DRHO .g/cm3               : DRHO
THOR .ppm                 : THOR
NPHI .m3/m3               : NPHI
RHOB .g/cm3               : RHOB
PEF .b/e                  : PEF
GR .gAPI                  : GR
URAN .ppm                 : URAN
DTC .us/ft                : DTC
RDEP .ohm.m               : RDEP
SP .mV                    : SP
RSHA .ohm.m               : RSHA
RMED .ohm.m               : RMED
~Parameter
#==================================================================
~Ascii
 1153.6579590  -999.250000 12.343999863 17.500000000 -1.179000020  -999.250000 0.0000000000 0.7922050953 1000.0000000 43.120311737  -999.250000 151.24990845 2.6409521103  -999.250000 3.3299999237 2000.0000000
 1153.8103027  -999.250000 12.343999863 17.500000000 -1.205000043  -999.250000 0.0000000000 1.0161032677 1000.0000000 42.502475739  -999.250000 151.24990845 2.6479775906  -999.250000 3.3610000610 2000.0000000
 1153.9627686  -999.250000 12.343999863 17.500000000 -1.154999971  -999.250000 0.0000000000 1.1844614744 1000.0000000 42.253791809  -999.250000 151.24990845 2.6619551182  -999.250000 3.2669999599 2000.0000000
 1154.1151123  -999.250000 12.343999863 17.500000000 -1.161999941  -999.250000 0.0000000000 1.2855956554 1000.0000000 42.334671021  -999.250000 151.24990845 2.6629970074  -999.250000 3.2019999027 2000.0000000
 1154.2675781  -999.250000 12.343999863 17.500000000 -1.169999957  -999.250000 0.0000000000 1.3338460922 255.12500000 42.389823914  -999.250000 151.24990845 2.6520264149  -999.250000 3.2300000191 2000.0000000
 1154.4199219  -999.250000 12.343999863 17.500000000 -1.159999967  -999.250000 0.0000000000 1.3519279957 102.81300354 42.147972107  -999.250000 151.24990845 2.6719357967  -999.250000 3.2929999828 2000.0000000
 1154.5723877  -999.250000 12.343999863 17.500000000 -1.156999946  -999.250000 0.0000000000 1.3629647493 64.750000000 41.674518585  -999.250000 151.24990845 2.7268676758  -999.250000 3.3429999352 2000.0000000
 1154.7247314  -999.250000 12.343999863 17.500000000 -1.148000002  -999.250000 0.0000000000 1.3719711304 75.125000000 41.137722015  -999.250000 151.24990845 2.7878048420  -999.250000 3.3050000668 2000.0000000
 1154.8771973  -999.250000 12.343999863 17.500000000 -1.152999997  -999.250000 0.0000000000 1.3769840002 172.62500000 40.655544281  -999.250000 151.24990845 2.8059568405  -999.250000 3.0889999866 2000.0000000
 1155.0295410  -999.250000 12.343999863 17.500000000 -1.159000039  -999.250000 0.0000000000 1.3819839954 316.00000000 40.351974487  -999.250000 151.24990845 2.7701153755  -999.250000 3.3359999657 2000.0000000
 1155.1820068  -999.250000 12.343999863 17.500000000 -1.177000046  -999.250000 0.0000000000 1.3849903345 117.50000000 40.432735443  -999.250000 151.24990845 2.7001683712  -999.250000 3.4990000725 2000.0000000
 1155.3343506  -999.250000 12.343999863 17.500000000 -1.164000034  -999.250000 0.0000000000 1.3889871836 147.12500000 40.727054596  -999.250000 151.24990845 2.6860449314  -999.250000 3.4790000916 2000.0000000
 1155.4868164  -999.250000 12.343999863 17.500000000 -1.159000039  -999.250000 0.0000000000 1.3929872513 97.188003540 40.831668854  -999.250000 151.24990845 2.7189207077  -999.250000 3.3880000114 2000.0000000
 1155.6391602  -999.250000 12.343999863 17.500000000 -1.161999941  -999.250000 0.0000000000 1.3979840279 428.25000000 40.655567169  -999.250000 151.24990845 2.7449166775  -999.250000 3.3320000172 2000.0000000
 1155.7915039  -999.250000 12.343999863 17.500000000 -1.174000025  -999.250000 0.0000000000 1.4039760828 69.125000000 40.335285187  -999.250000 151.24990845 2.7519776821  -999.250000 3.3640000820 2000.0000000
 1155.9439697  -999.250000 12.343999863 17.500000000 -1.161999941  -999.250000 0.0000000000 1.4119743109 57.530998230 40.038948059  -999.250000 151.24990845 2.7390418053  -999.250000 3.2829999924 2000.0000000
 1156.0963135  -999.250000 12.343999863 17.500000000 -1.156999946  -999.250000 0.0000000000 1.4199678898 61.750000000 39.700359344  -999.250000 151.24990845 2.7310256958  -999.250000 3.2260000706 2000.0000000
 1156.2487793  -999.250000 12.343999863 17.500000000 -1.144999981  -999.250000 0.0000000000 1.4269776344 66.000000000 39.644176483  -999.250000 151.24990845 2.7300024033  -999.250000 3.1730000973 2000.0000000
 1156.4011230  -999.250000 12.343999863 17.500000000 -1.149999976  -999.250000 0.0000000000 1.4319800138 135.75000000 40.430835724  -999.250000 151.24990845 2.7309968472  -999.250000 3.1159999371 2000.0000000
 1156.5535889  -999.250000 12.343999863 17.500000000 -1.151000023  -999.250000 0.0000000000 1.4359871149 53.030998230 41.996974945  -999.250000 151.24990845 2.7369856834  -999.250000 2.9730000496 2000.0000000
 1156.7059326  -999.250000 12.343999863 17.500000000 -1.161999941  -999.250000 0.0000000000 1.4399871826 676.50000000 43.271919250  -999.250000 151.24990845 2.7609231472  -999.250000 2.6989998817 2000.0000000
 1156.8583984  -999.250000 12.258000374 17.500000000 -1.161000013  -999.250000 0.0000000000 1.4459807873 154.50000000 43.112525940  -999.250000 151.24990845 2.7979111671  -999.250000 2.7730000019 2000.0000000
 1157.0107422  -999.250000 11.937999725 17.500000000 -1.167000055  -999.250000 0.0000000000 1.4559679031 1000.0000000 41.707515717  -999.250000 151.24990845 2.8308944702  -999.250000 2.7820000648 2000.0000000
 1157.1632080  -999.250000 11.819999695 17.500000000 -1.169000030  -999.250000 0.0000000000 1.4699552059 90.688003540 40.228736877  -999.250000 151.24990845 2.8569376469  -999.250000 2.6630001068 2000.0000000
 1157.3155518  -999.250000 12.180000305 17.500000000 -1.177000046  -999.250000 0.0000000000 1.4859486818 51.562999725 39.789394379  -999.250000 151.24990845 2.8400542736  -999.250000 2.6540000439 2000.0000000
 1157.4680176  -999.250000 12.343999863 17.500000000 -1.161000013  -999.250000 0.0000000000 1.5029455423 40.780998230 40.666175842  -999.250000 151.24990845 2.7591948509  -999.250000 2.7230000496 2000.0000000
 1157.6203613  -999.250000 12.343999863 17.500000000 -1.146999955  -999.250000 0.0000000000 1.5189487934 37.844001770 42.361557007  -999.250000 151.24990845 2.6653010845  -999.250000 2.7739999294 2000.0000000
 1157.7727051  -999.250000 12.343999863 17.500000000 -1.136000037  -999.250000 0.0000000000 1.5339399576 47.125000000 43.994457245  -999.250000 151.24990845 2.5922338963  -999.250000 2.7869999409 2000.0000000
 1157.9251709  -999.250000 12.343999863 17.500000000 -1.136000037  -999.250000 0.0000000000 1.5469583273 65.250000000 44.626987457  -999.250000 151.24990845 2.5571119785  -999.250000 2.8259999752 2000.0000000
 1158.0775146  -999.250000 12.343999863 17.500000000 -1.123000026  -999.250000 0.0000000000 1.5579559803 42.812999725 43.940765381  -999.250000 151.24990845 2.5709552765  -999.250000 2.9990000725 2000.0000000
 1158.2299805  -999.250000 12.343999863 17.500000000 -1.123000026  -999.250000 0.0000000000 1.5689647198 68.500000000 42.644161224  -999.250000 151.24990845 2.6078815460  -999.250000 3.1779999733 2000.0000000
 1158.3823242  -999.250000 12.343999863 17.500000000 -1.139000058  -999.250000 0.0000000000 1.5799560547 114.25000000 41.843204498  -999.250000 151.24990845 2.6339166164  -999.250000 3.1679999828 2000.0000000
 1158.5347900  -999.250000 12.343999863 17.500000000 -1.143000007  -999.250000 0.0000000000 1.5919615030 1000.0000000 41.972572327  -999.250000 151.24990845 2.6220288277  -999.250000 2.9389998913 2000.0000000
 1158.6871338  -999.250000 12.343999863 17.500000000 -1.169000030  -999.250000 0.0000000000 1.6029560566 1000.0000000 42.517810822  -999.250000 151.24990845 2.5970799923  -999.250000 2.9430000782 2000.0000000
 1158.8395996  -999.250000 12.343999863 17.500000000 -1.197999954  -999.250000 0.0000000000 1.6119711399 1000.0000000 42.945629120  -999.250000 151.24990845 2.5740551949  -999.250000 3.1779999733 2000.0000000
 1158.9919434  -999.250000 12.343999863 17.500000000 -1.180999994  -999.250000 0.0000000000 1.6149903536 61.062999725 43.306842804  -999.250000 151.24990845 2.5470864773  -999.250000 3.5350000858 2000.0000000
 1159.1444092  -999.250000 12.343999863 17.500000000 -1.182999969  -999.250000 0.0000000000 1.6140031815 74.688003540 43.829326630  -999.250000 151.24990845 2.5240552425  -999.250000 3.5999999046 2000.0000000
 1159.2967529  -999.250000 12.343999863 17.500000000 -1.187000036  -999.250000 0.0000000000 1.6100128889 82.688003540 44.251644135  -999.250000 151.24990845 2.5120289326  -999.250000 3.1779999733 2000.0000000
 1159.4492188  -999.250000 12.343999863 17.500000000 -1.151999950  -999.250000 0.0000000000 1.6080064774 180.87500000 44.116439819  -999.250000 151.24990845 2.5050170422  -999.250000 2.8689999580 2000.0000000
