# LAS format log file from PETREL
# Project units are specified as depth units
#==================================================================
~Version information
VERS.   2.0:
WRAP.   NO:
#==================================================================
~Well
STRT .m      1199.6253662 :
STOP .m      3185.7504883 :
STEP .m     0.00000000 :
NULL .        -999.250000 :
COMP.           : COMPANY
WELL.  25/5-4  Byggve   : WELL
FLD.            : FIELD
LOC.            : LOCATION
SRVC.           : SERVICE COMPANY
DATE.  2018-09-11 14:48:21   : Log Export Date {yyyy-MM-dd HH:mm:ss}
PROV.           : PROVINCE
UWI.   25/5-4   : UNIQUE WELL ID
API.            : API NUMBER
#==================================================================
~Curve
DEPT .m                   : DEPTH
Lithology_geolink ._      : Lithology_geolink
DCAL .in                  : DCAL
CALI .in                  : CALI
BS .in                    : BS
DRHO .g/cm3               : DRHO
THOR .ppm                 : THOR
NPHI .m3/m3               : NPHI
RHOB .g/cm3               : RHOB
PEF .b/e                  : PEF
GR .gAPI                  : GR
URAN .ppm                 : URAN
DTC .us/ft                : DTC
RDEP .ohm.m               : RDEP
SP .mV                    : SP
RSHA .ohm.m               : RSHA
RHOM .g/cm3               : RHOM
RMED .ohm.m               : RMED
~Parameter
#==================================================================
~Ascii
# ...
 1593.3752441  -999.250000 2.5634026527 14.813400269 12.250000954 0.0230928697 3.2362122536  -999.250000 2.0727500916 5.6039299965 57.729431152 1.9912953377 44.763538361 0.7964105010 80.396301270  -999.250000 2.6500000954 0.9150615931
 1593.5002441  -999.250000 2.2705469131 14.520550728 12.250000954 0.0265165605 3.2937891483  -999.250000 2.0817511082 5.3278889656 57.421169281 2.0397682190 44.783077240 0.7959657907 80.231773376  -999.250000 2.6500000954 0.9230412841
 1593.6252441  -999.250000 1.9843479395 14.234350204 12.250000954 0.0308333691 3.3904566765  -999.250000 2.0894870758 5.1820650101 57.460800171 1.9208322763 44.665302277 0.7984253764 80.179412842  -999.250000 2.6500000954 0.9226465821
 1593.7502441  -999.250000 1.8127820492 14.062780380 12.250000954 0.0340937413 3.4190709591  -999.250000 2.0910589695 5.1630220413 57.690120697 1.6813459396 44.394851685 0.8043540120 80.350723267  -999.250000 2.6500000954 0.9158359170
 1593.8753662  -999.250000 1.7931660414 14.043169022 12.250000954 0.0354369506 3.2500715256  -999.250000 2.0926320553 5.2093358040 57.845340729 1.4491199255 44.001323700 0.8135929704 80.815460205  -999.250000 2.6500000954 0.9060888290
 1594.0003662  -999.250000 1.9063889980 14.156389236 12.250000954 0.0347722396 2.9677608013  -999.250000 2.0930290222 5.2818160057 57.780719757 1.3881459236 43.560127258 0.8237559199 81.422126770  -999.250000 2.6500000954 0.8986840248
 1594.1253662  -999.250000 2.0548110008 14.304809570 12.250000954 0.0332018994 2.8534917831  -999.250000 2.0929958820 5.3295040131 57.602470398 1.5063531399 43.180252075 0.8320491910 81.892753601  -999.250000 2.6500000954 0.8977736831
 1594.2503662  -999.250000 2.1543600559 14.404359818 12.250000954 0.0316632912 3.2610774040  -999.250000 2.0939779282 5.3629012108 57.570770264 1.6607445478 43.033397675 0.8362560868 81.957176208  -999.250000 2.6500000954 0.9038671255
 1594.3752441  -999.250000 2.1648390293 14.414839745 12.250000954 0.0305737406 4.0677676201  -999.250000 2.0974020958 5.3942499161 57.917278290 1.6833580732 43.150352478 0.8373253942 81.654907227  -999.250000 2.6500000954 0.9134814739
 1594.5002441  -999.250000 2.1234889030 14.373490334 12.250000954 0.0300842300 4.8067874908  -999.250000 2.1008269787 5.4157419205 58.562160492 1.6350412369 43.369567871 0.8368725181 81.173866272  -999.250000 2.6500000954 0.9217212200
 1594.6252441  -999.250000 2.0670719147 14.317068100 12.250000954 0.0303732008 5.1068053246  -999.250000 2.1022069454 5.4218649864 59.201381683 1.6563438177 43.569847107 0.8364167213 80.744529724  -999.250000 2.6500000954 0.9207593203
 1594.7502441  -999.250000 2.0053770542 14.255379677 12.250000954 0.0312730111 4.9555315971  -999.250000 2.1032400131 5.4313960075 59.557319641 1.7811869383 43.656475067 0.8362202048 80.423439026  -999.250000 2.6500000954 0.9142282009
 1594.8752441  -999.250000 1.9021780491 14.152179718 12.250000954 0.0322448909 4.6132454872  -999.250000 2.1042320728 5.4493031502 59.768749237 1.9279243946 43.578868866 0.8361620903 80.187568665  -999.250000 2.6500000954 0.9061291814
 1595.0003662  -999.250000 1.7481919527 13.998189926 12.250000954 0.0330036506 4.3294701576  -999.250000 2.1051681042 5.4244709015 60.086208344 1.9913076162 43.383983612 0.8363782763 80.007339478  -999.250000 2.6500000954 0.9013292789
 1595.1253662  -999.250000 1.6285721064 13.878568649 12.250000954 0.0335153118 4.2171769142  -999.250000 2.1061038971 5.3338861465 60.540939331 1.9255239964 43.218540192 0.8371912241 79.898147583  -999.250000 2.6500000954 0.9028245211
 1595.2503662  -999.250000 1.6659120321 13.915909767 12.250000954 0.0339223482 4.2093544006  -999.250000 2.1088359356 5.2275919914 60.990028381 1.8315850496 43.114631653 0.8391811252 79.918693542  -999.250000 2.6500000954 0.9101380110
 1595.3753662  -999.250000 1.8834371567 14.133440018 12.250000954 0.0344837904 4.1934289932  -999.250000 2.1116089821 5.1765232086 61.386768341 1.8266543150 43.068088531 0.8421648145 80.039627075  -999.250000 2.6500000954 0.9195969105
 1595.5003662  -999.250000 2.1357359886 14.385740280 12.250000954 0.0350099802 4.1009087563  -999.250000 2.1140239239 5.2030601501 61.673980713 1.8791595697 43.051536560 0.8460348248 80.198753357  -999.250000 2.6500000954 0.9289181828
 1595.6252441  -999.250000 2.2733600140 14.523360252 12.250000954 0.0348231904 4.0032663345  -999.250000 2.1161360741 5.2880501747 61.671970367 1.8581818342 43.021179199 0.8500726223 80.333061218  -999.250000 2.6500000954 0.9370362759
 1595.7502441  -999.250000 2.2498769760 14.499879837 12.250000954 0.0338918604 3.9864892960  -999.250000 2.1179599762 5.3837480545 61.309978485 1.6950998306 42.945217133 0.8533281088 80.442016602  -999.250000 2.6500000954 0.9449936152
 1595.8752441  -999.250000 2.1243109703 14.374310493 12.250000954 0.0333006606 4.2378029823  -999.250000 2.1172499657 5.4650077820 60.667320251 1.4389107227 42.838726044 0.8545117974 80.573699951  -999.250000 2.6500000954 0.9538096189
 1596.0002441  -999.250000 1.9794089794 14.229411125 12.250000954 0.0346798599 4.9056777954  -999.250000 2.1165399551 5.5508232117 59.962478638 1.1373351812 42.714851379 0.8531935215 80.784927368  -999.250000 2.6500000954 0.9628890753
 1596.1252441  -999.250000 1.8581899405 14.108189583 12.250000954 0.0394121185 5.9181904793  -999.250000 2.1084349155 5.6735730171 59.559410095 0.8995513916 42.586898804 0.8496354818 81.090072632  -999.250000 2.6500000954 0.9677134752
 1596.2503662  -999.250000 1.7571829557 14.007181168 12.250000954 0.0467400588 6.7834796906  -999.250000 2.0965790749 5.8849439621 59.551849365 0.7724103332 42.467571259 0.8444824815 81.453796387  -999.250000 2.6500000954 0.9615523219
 1596.3753662  -999.250000 1.6746280193 13.924630165 12.250000954 0.0527250394 7.2873883247  -999.250000 2.0848000050 6.1519927979 59.683101654 0.7419202328 42.388504028 0.8393862844 81.784431458  -999.250000 2.6500000954 0.9450498223
 1596.5003662  -999.250000 1.6218520403 13.871850014 12.250000954 0.0531884097 7.3849368095  -999.250000 2.0732789040 6.4271020889 59.645790100 0.7489059567 42.384082794 0.8354514837 81.966316223  -999.250000 2.6500000954 0.9202706814
 1596.6253662  -999.250000 1.5897129774 13.839709282 12.250000954 0.0469054282 7.1920180321  -999.250000 2.0617589951 6.6193270683 59.433399200 0.7852112055 42.481655121 0.8332830071 81.975112915  -999.250000 2.6500000954 0.8979663253
 1596.7502441  -999.250000 1.5424458981 13.792448997 12.250000954 0.0365271010 6.6379213333  -999.250000 2.0624520779 6.7152428627 59.180160522 0.8933545351 42.705013275 0.8323267102 81.836563110  -999.250000 2.6500000954 0.8848431110
 1596.8752441  -999.250000 1.4738969803 13.723899841 12.250000954 0.0261677895 5.8258566856  -999.250000 2.0664579868 6.7053599358 58.891281128 1.0485408306 43.064002991 0.8320153952 81.665946960  -999.250000 2.6500000954 0.8839917779
 1597.0002441  -999.250000 1.4409739971 13.690969467 12.250000954 0.0195636991 4.8826665878  -999.250000 2.0725219250 6.6317181587 58.488468170 1.2229065895 43.548145294 0.8317648768 81.564468384  -999.250000 2.6500000954 0.8912249804
 1597.1252441  -999.250000 1.5290060043 13.779009819 12.250000954 0.0179979708 4.2525362968  -999.250000 2.0824429989 6.5026841164 57.924129486 1.3283216953 44.051681519 0.8318262100 81.592453003  -999.250000 2.6500000954 0.9037799239
 1597.2502441  -999.250000 1.7751940489 14.025190353 12.250000954 0.0203622896 4.4266562462  -999.250000 2.0923631191 6.2840390205 57.336990356 1.2365397215 44.447299957 0.8330423832 81.695266724  -999.250000 2.6500000954 0.9164072871
 1597.3753662  -999.250000 2.0912570953 14.341259956 12.250000954 0.0242329706 5.5838260651  -999.250000 2.0939490795 5.9984169006 57.144760132 0.8980033994 44.663837433 0.8357387781 81.851020813  -999.250000 2.6500000954 0.9267237782
 1597.5003662  -999.250000 2.3661229610 14.616120338 12.250000954 0.0283271801 7.0249538422  -999.250000 2.0947060585 5.6711277962 57.704238892 0.5243511796 44.677276611 0.8389058113 82.067916870  -999.250000 2.6500000954 0.9321054220
 1597.6253662  -999.250000 2.5137550831 14.763749123 12.250000954 0.0312418006 7.9959373474  -999.250000 2.0951099396 5.3945159912 58.925571442 0.3725816607 44.511436462 0.8407744169 82.324172974  -999.250000 2.6500000954 0.9320085049
