# LAS format log file from PETREL
# Project units are specified as depth units
#==================================================================
~Version information
VERS.   2.0:
WRAP.   NO:
#==================================================================
~Well
STRT .m      1153.6579590 :
STOP .m      2874.8635254 :
STEP .m     0.00000000 :
NULL .        -999.250000 :
COMP.           : COMPANY
WELL.  25/5-3  Skirne   : WELL
FLD.            : FIELD
LOC.            : LOCATION
SRVC.           : SERVICE COMPANY
DATE.  2018-09-11 14:48:21   : Log Export Date {yyyy-MM-dd HH:mm:ss}
PROV.           : PROVINCE
UWI.   25/5-3   : UNIQUE WELL ID
API.            : API NUMBER
#==================================================================
~Curve
DEPT .m                   : DEPTH
Lithology_geolink ._      : Lithology_geolink
CALI .in                  : CALI
BS .in                    : BS
DRHO .g/cm3               : DRHO
THOR .ppm                 : THOR
NPHI .m3/m3               : NPHI
RHOB .g/cm3               : RHOB
PEF .b/e                  : PEF
GR .gAPI                  : GR
URAN .ppm                 : URAN
DTC .us/ft                : DTC
RDEP .ohm.m               : RDEP
SP .mV                    : SP
RSHA .ohm.m               : RSHA
RMED .ohm.m               : RMED
~Parameter
#==================================================================
~Ascii
# ...
 1379.5147705  -999.250000 12.703001022 12.250000954 0.0080000004  -999.250000 0.0000000000 2.0640079975 4.7459998131 69.910575867  -999.250000 137.89656067 1.2340415716 -1.031332254 1.3129999638 1.1900000572
 1379.6671143  -999.250000 12.647999763 12.250000954 0.0049999999  -999.250000 0.0000000000 2.0630040169 4.3550000191 73.018547058  -999.250000 138.09599304 1.2180513144 -0.997136235 1.2569999695 1.1699999571
 1379.8195801  -999.250000 12.640999794 12.250000954 0.0040000002  -999.250000 0.0000000000 2.0620040894 4.4530000687 74.759056091  -999.250000 139.25814819 1.1950553656 -0.980068088 1.2230000496 1.1529999971
 1379.9719238  -999.250000 12.687999725 12.250000954 0.0060000001  -999.250000 0.0000000000 2.0629959106 4.6560001373 74.698272705  -999.250000 140.31739807 1.1710768938 -0.951116145 1.2289999723 1.1299999952
 1380.1243896  -999.250000 12.647999763 12.250000954 0.0080000004  -999.250000 0.0000000000 2.0639958382 4.6599998474 73.562561035  -999.250000 140.93750000 1.1500504017 -0.893232167 1.2359999418 1.1180000305
 1380.2767334  -999.250000 12.647999763 12.250000954 0.0130000003  -999.250000 0.0000000000 2.0669879913 4.7769999504 72.465393066  -999.250000 141.34710693 1.1320576668 -0.809336543 1.2280000448 1.1080000401
 1380.4291992  -999.250000 12.765999794 12.250000954 0.0149999997  -999.250000 0.0000000000 2.0699880123 4.7729997635 72.290687561  -999.250000 141.81979370 1.1200288534 -0.724340260 1.2070000172 1.0950000286
 1380.5815430  -999.250000 12.647999763 12.250000954 0.0260000005  -999.250000 0.0000000000 2.0719919205 4.8090000153 72.703338623  -999.250000 142.48812866 1.1140191555 -0.677188277 1.2039999962 1.0850000381
 1380.7340088  -999.250000 12.680000305 12.250000954 0.0230000000  -999.250000 0.0000000000 2.0729968548 4.6909999847 73.030952454  -999.250000 142.78199768 1.1110070944 -0.704910219 1.2009999752 1.0789999962
 1380.8863525  -999.250000 12.703001022 12.250000954 0.0140000004  -999.250000 0.0000000000 2.0710082054 4.5900001526 72.531013489  -999.250000 143.30737305 1.1129935980 -0.825515568 1.1849999428 1.0759999752
 1381.0388184  -999.250000 12.687999725 12.250000954 0.0120000001  -999.250000 0.0000000000 2.0690064430 4.6840000153 71.208251953  -999.250000 144.23002625 1.1149952412 -1.035326958 1.1710000038 1.0829999447
 1381.1911621  -999.250000 12.758000374 12.250000954 0.0099999998  -999.250000 0.0000000000 2.0660119057 4.7189998627 69.766777039  -999.250000 144.30297852 1.1169935465 -1.296951175 1.1809999943 1.0950000286
 1381.3435059  -999.250000 12.758000374 12.250000954 0.0020000001  -999.250000 0.0000000000 2.0640079975 4.6370000839 69.085716248  -999.250000 143.96929932 1.1229808331 -1.540026426 1.2100000381 1.1009999514
 1381.4959717  -999.250000 12.602000237 12.250000954 -0.001000000  -999.250000 0.0000000000 2.0630040169 4.7459998131 69.610877991  -999.250000 143.45851135 1.1329679489 -1.696375489 1.2089999914 1.1000000238
 1381.6483154  -999.250000 12.671999931 12.250000954 0.0000000000  -999.250000 0.0000000000 2.0639958382 5.0630002022 70.425727844  -999.250000 141.92031860 1.1409744024 -1.741819739 1.2070000172 1.1139999628
 1381.8007813  -999.250000 12.647999763 12.250000954 -0.007000000  -999.250000 0.0000000000 2.0649960041 5.2890000343 70.560470581  -999.250000 139.76385498 1.1400032043 -1.706144094 1.2339999676 1.1310000420
 1381.9531250  -999.250000 12.765999794 12.250000954 -0.005000000  -999.250000 0.0000000000 2.0659959316 5.3090000153 69.837905884  -999.250000 138.41188049 1.1330224276 -1.661180258 1.2890000343 1.1189999580
 1382.1055908  -999.250000 12.656000137 12.250000954 0.0000000000  -999.250000 0.0000000000 2.0650041103 5.0859999657 69.089988708  -999.250000 138.35873413 1.1260168552 -1.662992001 1.2970000505 1.0850000381
 1382.2579346  -999.250000 12.703001022 12.250000954 0.0060000001  -999.250000 0.0000000000 2.0620119572 5.0980000496 68.531234741  -999.250000 138.35079956 1.1190223694 -1.713795662 1.2430000305 1.0579999685
 1382.4104004  -999.250000 12.624999046 12.250000954 0.0089999996  -999.250000 0.0000000000 2.0560240746 5.1479997635 67.703315735  -999.250000 138.82426453 1.1170047522 -1.762803912 1.1640000343 1.0470000505
 1382.5627441  -999.250000 12.819999695 12.250000954 0.0140000004  -999.250000 0.0000000000 2.0490281582 5.4219999313 66.772727966  -999.250000 141.17654419 1.1100224257 -1.735112190 1.1330000162 1.0460000038
 1382.7152100  -999.250000 12.828000069 12.250000954 0.0270000007  -999.250000 0.0000000000 2.0420281887 5.8280000687 66.819793701  -999.250000 143.80395508 1.0920432806 -1.574644566 1.1430000067 1.0520000458
 1382.8675537  -999.250000 12.781000137 12.250000954 0.0299999993  -999.250000 0.0000000000 2.0360240936 5.9730000496 68.499244690  -999.250000 144.55938721 1.0720640421 -1.293129921 1.1679999828 1.0540000200
 1383.0200195  -999.250000 12.781000137 12.250000954 0.0260000005  -999.250000 0.0000000000 2.0310158730 6.2540001869 70.761741638  -999.250000 144.15997314 1.0600287914 -0.976016045 1.1879999638 1.0410000086
 1383.1723633  -999.250000 12.733999252 12.250000954 0.0230000000  -999.250000 0.0000000000 2.0290081501 6.0000000000 71.818778992  -999.250000 143.96653748 1.0480383635 -0.726996779 1.1779999733 1.0349999666
 1383.3247070  -999.250000 12.765999794 12.250000954 0.0219999999  -999.250000 0.0000000000 2.0270080566 6.0430002213 70.801109314  -999.250000 143.95683289 1.0390288830 -0.614448726 1.1560000181 1.0269999504
 1383.4771729  -999.250000 12.694999695 12.250000954 0.0149999997  -999.250000 0.0000000000 2.0279960632 5.5510001183 68.352828979  -999.250000 144.42384338 1.0340160131 -0.641887903 1.1349999905 1.0110000372
 1383.6295166  -999.250000 12.555000305 12.250000954 0.0109999999  -999.250000 0.0000000000 2.0289959908 5.4959998131 65.716567993  -999.250000 146.09477234 1.0260256529 -0.751559258 1.1219999790 1.0030000210
 1383.7819824  -999.250000 12.586000443 12.250000954 0.0070000002  -999.250000 0.0000000000 2.0319881439 5.4019999504 63.890296936  -999.250000 148.09381104 1.0150352716 -0.862555623 1.1059999466 0.9909999967
 1383.9343262  -999.250000 12.680000305 12.250000954 0.0030000000  -999.250000 0.0000000000 2.0339918137 5.3239998817 63.144966125  -999.250000 148.77066040 1.0120096207 -0.927739561 1.0839999914 0.9789999723
 1384.0867920  -999.250000 12.796999931 12.250000954 0.0030000000  -999.250000 0.0000000000 2.0359919071 4.9140000343 63.471675873  -999.250000 149.04832458 1.0119999647 -0.947919965 1.0750000477 0.9850000143
 1384.2391357  -999.250000 12.687999725 12.250000954 0.0049999999  -999.250000 0.0000000000 2.0379920006 4.8629999161 64.596481323  -999.250000 149.04327393 1.0159872770 -0.968915820 1.0829999447 0.9890000224
 1384.3916016  -999.250000 12.852000237 12.250000954 0.0060000001  -999.250000 0.0000000000 2.0399918556 4.9219999313 66.019302368  -999.250000 147.21786499 1.0239808559 -1.054655671 1.1059999466 0.9950000048
 1384.5439453  -999.250000 12.835999489 12.250000954 0.0040000002  -999.250000 0.0000000000 2.0409958363 5.2300000191 67.001068115  -999.250000 144.73751831 1.0389519930 -1.235274792 1.1200000048 1.0099999905
 1384.6964111  -999.250000 12.859000206 12.250000954 0.0030000000  -999.250000 0.0000000000 2.0419960022 4.8709998131 66.992050171  -999.250000 143.45013428 1.0569567680 -1.485995173 1.1490000486 1.0269999504
 1384.8487549  -999.250000 12.781000137 12.250000954 0.0020000001  -999.250000 0.0000000000 2.0439918041 4.8049998283 66.250984192  -999.250000 143.12574768 1.0759391785 -1.738986373 1.1970000267 1.0620000362
 1385.0012207  -999.250000 12.733999252 12.250000954 -0.002000000  -999.250000 0.0000000000 2.0459935665 4.7540001869 65.695777893  -999.250000 142.81448364 1.0879712105 -1.921416759 1.2239999771 1.0820000172
 1385.1535645  -999.250000 12.781000137 12.250000954 -0.002000000  -999.250000 0.0000000000 2.0489881039 5.1799998283 66.073471069  -999.250000 142.82304382 1.0880000591 -1.986739755 1.2439999580 1.0820000172
 1385.3060303  -999.250000 12.835999489 12.250000954 0.0060000001  -999.250000 0.0000000000 2.0529870987 5.4650001526 67.253211975  -999.250000 143.53837585 1.0840096474 -1.936163425 1.2389999628 1.0679999590
