# LAS format log file from PETREL
# Project units are specified as depth units
#==================================================================
~Version information
VERS.   2.0:
WRAP.   NO:
#==================================================================
~Well
STRT .m      1199.6253662 :
STOP .m      3185.7504883 :
STEP .m     0.00000000 :
NULL .        -999.250000 :
COMP.           : COMPANY
WELL.  25/5-4  Byggve   : WELL
FLD.            : FIELD
LOC.            : LOCATION
SRVC.           : SERVICE COMPANY
DATE.  2018-09-11 14:48:21   : Log Export Date {yyyy-MM-dd HH:mm:ss}
PROV.           : PROVINCE
UWI.   25/5-4   : UNIQUE WELL ID
API.            : API NUMBER
#==================================================================
~Curve
DEPT .m                   : DEPTH
Lithology_geolink ._      : Lithology_geolink
DCAL .in                  : DCAL
CALI .in                  : CALI
BS .in                    : BS
DRHO .g/cm3               : DRHO
THOR .ppm                 : THOR
NPHI .m3/m3               : NPHI
RHOB .g/cm3               : RHOB
PEF .b/e                  : PEF
GR .gAPI                  : GR
URAN .ppm                 : URAN
DTC .us/ft                : DTC
RDEP .ohm.m               : RDEP
SP .mV                    : SP
RSHA .ohm.m               : RSHA
RHOM .g/cm3               : RHOM
RMED .ohm.m               : RMED
~Parameter
#==================================================================
~Ascii
# ...
 3045.8752441 6.0000000000 0.9927453995 9.4927453995 8.5000000000 0.1342328042 14.940918922 0.3872792125 2.3821020126 4.2054672241 90.467102051 3.4953091145 25.264835358 2.8751630783 68.101058960  -999.250000 2.7100000381 4.1427369118
 3046.0002441 6.0000000000 1.0882530212 9.5882530212 8.5000000000 0.1528273970 14.818781853 0.3887886107 2.3604710102 4.2469801903 90.732673645 3.5228559971 25.567110062 2.7903730869 68.244041443  -999.250000 2.7100000381 4.1233410835
 3046.1252441 6.0000000000 1.1861469746 9.6861467361 8.5000000000 0.1623383015 15.168642998 0.3915058076 2.3493978977 4.3093700409 90.895317078 3.3464076519 25.942991257 2.7291400433 68.332023621  -999.250000 2.7100000381 4.0484571457
 3046.2502441 6.0000000000 1.2477071285 9.7477073669 8.5000000000 0.1606177986 15.958855629 0.3950561881 2.3383259773 4.3900928497 90.891601563 3.0432429314 26.306619644 2.6969709396 68.366958618  -999.250000 2.7100000381 3.9397349358
 3046.3752441 6.0000000000 1.2442979813 9.7442979813 8.5000000000 0.1475909054 16.909271240 0.3982270062 2.3682129383 4.4675989151 90.554992676 2.7584466934 26.604919434 2.6828660965 68.350936890  -999.250000 2.7100000381 3.8395860195
 3046.5002441 6.0000000000 1.1773769855 9.6773767471 8.5000000000 0.1267697066 17.713594437 0.3996827006 2.4112980366 4.5138330460 89.865257263 2.7319104671 26.814523697 2.6823189259 68.286422729  -999.250000 2.7100000381 3.7807819843
 3046.6252441 6.0000000000 1.0680400133 9.5680398941 8.5000000000 0.1057507023 18.221735001 0.3986012936 2.4571468830 4.4803462029 89.047050476 3.0966410637 26.948575974 2.6873450279 68.168479919  -999.250000 2.7100000381 3.7976100445
 3046.7502441 6.0000000000 0.9502286911 9.4502286911 8.5000000000 0.0951440185 18.290250778 0.3947719932 2.5089519024 4.3667550087 88.546676636 3.9369554520 27.051750183 2.6921570301 67.991897583  -999.250000 2.7100000381 3.8743579388
 3046.8752441 6.0000000000 0.8465356827 9.3465356827 8.5000000000 0.0986081064 18.008964539 0.3891006112 2.5607569218 4.1799249649 88.561996460 4.8352766037 27.127435684 2.6944940090 67.742073059  -999.250000 2.7100000381 4.0029201508
 3047.0002441 6.0000000000 0.7638540268 9.2638540268 8.5000000000 0.1089397967 17.478233337 0.3824982941 2.5868749619 3.9849948883 88.955352783 5.4363555908 27.149896622 2.6961779594 67.438926697  -999.250000 2.7100000381 4.1410031319
 3047.1252441 6.0000000000 0.6981316209 9.1981315613 8.5000000000 0.1149734035 16.932727814 0.3758904040 2.6094689369 3.8267900944 89.487792969 5.3100390434 27.091966629 2.6997179985 67.121116638  -999.250000 2.7100000381 4.2331972122
 3047.2502441 6.0000000000 0.6466484070 9.1466484070 8.5000000000 0.1134608015 16.742980957 0.3687771857 2.6330609322 3.7466559410 90.200279236 4.6638827324 26.931644440 2.7086710930 66.834083557  -999.250000 2.7100000381 4.2564101219
 3047.3752441 6.0000000000 0.6126194000 9.1126194000 8.5000000000 0.1110121980 16.988525391 0.3601632118 2.6579239368 3.7169880867 91.175498962 3.7336146832 26.652164459 2.7241270542 66.618103027  -999.250000 2.7100000381 4.2434887886
 3047.5004883 6.0000000000 0.6017075181 9.1017074585 8.5000000000 0.1174784973 17.153894424 0.3504667878 2.6826939583 3.7216939926 92.136161804 2.9214742184 26.324443817 2.7478539944 66.494056702  -999.250000 2.7100000381 4.1979308128
 3047.6254883 6.0000000000 0.6145306230 9.1145305634 8.5000000000 0.1356226057 16.868539810 0.3420492113 2.6685190201 3.7517940998 92.276062012 2.3784797192 26.007234573 2.7816650867 66.434478760  -999.250000 2.7100000381 4.1117491722
 3047.7504883 6.0000000000 0.6511154175 9.1511154175 8.5000000000 0.1584631950 16.085365295 0.3373504877 2.6543440819 3.8100008965 91.015052795 2.1435587406 25.742809296 2.8252639771 66.423713684  -999.250000 2.7100000381 3.9936809540
 3047.8754883 6.0000000000 0.7121581435 9.2121582031 8.5000000000 0.1792479008 15.360639572 0.3345721066 2.6289119720 3.8989179134 88.776298523 2.0820064545 25.557760239 2.8778390884 66.471763611  -999.250000 2.7100000381 3.8859310150
 3048.0004883 6.0000000000 0.7885817885 9.2885818481 8.5000000000 0.1948530972 15.023548126 0.3299291134 2.5947411060 3.9844911098 86.640968323 2.1367764473 25.457355499 2.9335489273 66.599822998  -999.250000 2.7100000381 3.8376309872
 3048.1252441 6.0000000000 0.8613014221 9.3613014221 8.5000000000 0.2055063993 15.251801491 0.3228243887 2.5620141029 4.0364937782 85.495002747 2.2785573006 25.399663925 2.9860839844 66.859466553  -999.250000 2.7100000381 3.9139389992
 3048.2502441 6.0000000000 0.9075583816 9.4075584412 8.5000000000 0.2143404037 15.326436996 0.3186773062 2.5393569469 4.0349559784 85.320976257 2.5501806736 25.345355988 3.0308389664 67.251632690  -999.250000 2.7100000381 4.0636610985
 3048.3752441 6.0000000000 0.9213524461 9.4213523865 8.5000000000 0.2251150012 14.746033669 0.3215137124 2.5167000294 4.0227489471 85.533386230 3.0577931404 25.309463501 3.0646529198 67.770683289  -999.250000 2.7100000381 4.2161197662
 3048.5002441 6.0000000000 0.9132441282 9.4132442474 8.5000000000 0.2382542044 13.636633873 0.3280791044 2.4854021072 4.0178232193 85.886253357 3.8224079609 25.325765610 3.0839300156 68.389999390  -999.250000 2.7100000381 4.3012280464
 3048.6252441 6.0000000000 0.9087495804 9.4087495804 8.5000000000 0.2514544129 12.528586388 0.3333286941 2.4501481056 4.0533499718 86.556793213 4.6451892853 25.438980103 3.0868508816 69.053810120  -999.250000 2.7100000381 4.3230648041
 3048.7502441 6.0000000000 0.9236946106 9.4236946106 8.5000000000 0.2629638910 11.908205986 0.3343962133 2.4180200100 4.1325287819 87.711341858 5.2019319534 25.706924438 3.0726060867 69.724319458  -999.250000 2.7100000381 4.3346738815
 3048.8752441 6.0000000000 0.9576874375 9.4576873779 8.5000000000 0.2716731131 11.963376045 0.3340837061 2.3953449726 4.2380690575 88.892723083 5.2685389519 26.081295013 3.0457150936 70.355278015  -999.250000 2.7100000381 4.3673467636
 3049.0002441 6.0000000000 0.9914464951 9.4914455414 8.5000000000 0.2770955861 12.462945938 0.3361018896 2.3726699352 4.3264207840 89.126228333 4.8270859718 26.478069305 3.0160050392 70.931953430  -999.250000 2.7100000381 4.4093470573
 3049.1252441 6.0000000000 1.0099090338 9.5099086761 8.5000000000 0.2770031095 12.997900009 0.3416376114 2.3672800064 4.3783202171 87.817253113 4.1036472321 26.832813263 2.9967010021 71.452713013  -999.250000 2.7100000381 4.3980798721
 3049.2502441 6.0000000000 1.0058770180 9.5058765411 8.5000000000 0.2691065967 13.304550171 0.3491171896 2.3659710884 4.3947010040 85.355178833 3.5656759739 27.095409393 2.9939899445 71.956733704  -999.250000 2.7100000381 4.3218507767
 3049.3752441 6.0000000000 0.9862279296 9.4862279892 8.5000000000 0.2547599077 13.278501511 0.3563393950 2.3619370461 4.3976421356 83.012229919 3.5543735027 27.236633301 3.0134980679 72.428108215  -999.250000 2.7100000381 4.1872348785
 3049.5002441 5.0000000000 0.9565830231 9.4565830231 8.5000000000 0.2373383939 12.817675591 0.3617793918 2.3532919884 4.3981528282 81.983230591 4.0531210899 27.225742340 3.0469551086 72.807586670  -999.250000 2.7100000381 4.0385551453
 3049.6252441 5.0000000000 0.9273663759 9.4273662567 8.5000000000 0.2212888002 11.934805870 0.3647265136 2.3446478844 4.3966660500 82.512992859 4.7292490005 27.107053757 3.0796310902 73.096229553  -999.250000 2.7100000381 3.9297640324
 3049.7502441 5.0000000000 0.9171267152 9.4171266556 8.5000000000 0.2072888017 10.914003372 0.3655982018 2.3337020874 4.3854479790 83.930793762 5.1629753113 26.914733887 3.0906870365 73.315193176  -999.250000 2.7100000381 3.8914349079
 3049.8754883 5.0000000000 0.9468936920 9.4468936920 8.5000000000 0.1941597015 10.045070648 0.3652958870 2.3225879669 4.3498358727 85.246147156 5.1490597725 26.697656631 3.0787200928 73.561683655  -999.250000 2.7100000381 3.9127230644
 3050.0004883 6.0000000000 1.0192120075 9.5192117691 8.5000000000 0.1813718975 9.5014200211 0.3648267090 2.3168718815 4.2833728790 85.903701782 4.8061671257 26.514793396 3.0539391041 73.887413025  -999.250000 2.7100000381 3.9722909927
 3050.1254883 6.0000000000 1.1189769506 9.6189765930 8.5000000000 0.1698956937 9.3289661407 0.3649879098 2.3166730404 4.2028608322 85.966163635 4.5174317360 26.451696396 3.0389459133 74.310989380  -999.250000 2.7100000381 4.0286259651
