# LAS format log file from PETREL
# Project units are specified as depth units
#==================================================================
~Version information
VERS.   2.0:
WRAP.   NO:
#==================================================================
~Well
STRT .m      1153.6579590 :
STOP .m      2874.8635254 :
STEP .m     0.00000000 :
NULL .        -999.250000 :
COMP.           : COMPANY
WELL.  25/5-3  Skirne   : WELL
FLD.            : FIELD
LOC.            : LOCATION
SRVC.           : SERVICE COMPANY
DATE.  2018-09-11 14:48:21   : Log Export Date {yyyy-MM-dd HH:mm:ss}
PROV.           : PROVINCE
UWI.   25/5-3   : UNIQUE WELL ID
API.            : API NUMBER
#==================================================================
~Curve
DEPT .m                   : DEPTH
Lithology_geolink ._      : Lithology_geolink
CALI .in                  : CALI
BS .in                    : BS
DRHO .g/cm3               : DRHO
THOR .ppm                 : THOR
NPHI .m3/m3               : NPHI
RHOB .g/cm3               : RHOB
PEF .b/e                  : PEF
GR .gAPI                  : GR
URAN .ppm                 : URAN
DTC .us/ft                : DTC
RDEP .ohm.m               : RDEP
SP .mV                    : SP
RSHA .ohm.m               : RSHA
RMED .ohm.m               : RMED
~Parameter
#==================================================================
~Ascii
# ...
 1944.1567383  -999.250000 12.913999557 12.250000954 0.0470016003  -999.250000 0.0000000000 2.1960282326 10.851173401 59.992206573  -999.250000 135.07685852 0.7000144124 -2.027304173 0.7810240388 0.7480112314
 1944.3090820  -999.250000 12.859000206 12.250000954 0.0529855862  -999.250000 0.0000000000 2.1920158863 9.8933076859 60.319702148  -999.250000 136.57295227 0.6960127950 -2.101699591 0.7730191946 0.7480000257
 1944.4615479  -999.250000 12.750000000 12.250000954 0.0440144241  -999.250000 0.0000000000 2.1890094280 9.3289022446 59.695014954  -999.250000 136.73724365 0.6940048337 -2.226599455 0.7620176673 0.7489984035
 1944.6138916  -999.250000 12.859000206 12.250000954 0.0489879884  -999.250000 0.0000000000 2.1880040169 8.7354269028 58.892219543  -999.250000 136.02859497 0.6999807954 -2.291739941 0.7699807882 0.7579783797
 1944.7663574  -999.250000 12.741999626 12.250000954 0.0529935881  -999.250000 0.0000000000 2.1870031357 9.2960977554 58.260021210  -999.250000 134.95924377 0.7099759579 -2.245150566 0.7859743834 0.7689823508
 1944.9187012  -999.250000 12.765999794 12.250000954 0.0529999994  -999.250000 0.0000000000 2.1870000362 10.365284920 57.675342560  -999.250000 133.40982056 0.7239551544 -2.119504452 0.8419102430 0.7799823284
 1945.0710449  -999.250000 12.944999695 12.250000954 0.0430240221  -999.250000 0.0000000000 2.1879959106 11.403504372 57.189941406  -999.250000 131.86433411 0.7429390550 -2.008444548 0.8759183288 0.7939664125
 1945.2235107  -999.250000 12.843999863 12.250000954 0.0489903837  -999.250000 0.0000000000 2.1929800510 11.749448776 57.285606384  -999.250000 131.45190430 0.7659263015 -2.006008148 0.8799935579 0.8019871712
 1945.3758545  -999.250000 12.805000305 12.250000954 0.0430144146  -999.250000 0.0000000000 2.1999719143 9.7238779068 58.267051697  -999.250000 131.87971497 0.7879294753 -2.148427010 0.8620432019 0.8079856038
 1945.5283203  -999.250000 12.546999931 12.250000954 0.0290224347  -999.250000 0.0000000000 2.2089641094 8.8374156952 59.473167419  -999.250000 131.75411987 0.8099295497 -2.397003174 0.8370400667 0.8279679418
 1945.6806641  -999.250000 13.078001022 12.250000954 0.0309951957  -999.250000 0.0000000000 2.2189600468 8.6175260544 60.085556030  -999.250000 130.79406738 0.8289390802 -2.663930178 0.8629375100 0.8509447575
 1945.8331299  -999.250000 13.430000305 12.250000954 0.0300016012  -999.250000 0.0000000000 2.2279639244 8.8126859665 59.859916687  -999.250000 129.47946167 0.8469567299 -2.868183374 0.9258990288 0.8679727316
 1945.9854736  -999.250000 13.484000206 12.250000954 0.0240144115  -999.250000 0.0000000000 2.2339758873 7.8183946609 59.287300110  -999.250000 128.28607178 0.8579647541 -2.977563143 0.9878510833 0.8809687495
 1946.1379395  -999.250000 12.984000206 12.250000954 0.0389759615  -999.250000 0.0000000000 2.2369880676 7.9997053146 58.752140045  -999.250000 127.78103638 0.8679759502 -3.010867834 0.9840064645 0.8750095963
 1946.2902832  -999.250000 12.765999794 12.250000954 0.0649375468  -999.250000 0.0000000000 2.2369999886 8.6314802170 58.160373688  -999.250000 128.13813782 0.8799615502 -3.009008169 0.9660432339 0.8750000000
 1946.4427490  -999.250000 12.703001022 12.250000954 0.0530192293  -999.250000 0.0000000000 2.2340118885 9.1940994263 57.384109497  -999.250000 128.93933105 0.8819952011 -3.008003950 0.9430368543 0.8849839568
 1946.5950928  -999.250000 12.906000137 12.250000954 0.0290576462  -999.250000 0.0000000000 2.2290201187 8.2522697449 56.771453857  -999.250000 129.67759705 0.8710352182 -3.012979984 0.9120744467 0.8889904022
 1946.7475586  -999.250000 13.328000069 12.250000954 0.0339919887  -999.250000 0.0000000000 2.2200288773 8.0553131104 57.025177002  -999.250000 130.30030823 0.8560360670 -3.004028797 0.9020160437 0.8790160418
 1946.8999023  -999.250000 12.999999046 12.250000954 0.0210208334  -999.250000 0.0000000000 2.2080478668 7.8363509178 58.375576019  -999.250000 130.56019592 0.8370608687 -2.950216293 0.8810336590 0.8610288501
 1947.0522461  -999.250000 12.843999863 12.250000954 0.0110240187  -999.250000 0.0000000000 2.1950519085 9.5817966461 60.243507385  -999.250000 130.59497070 0.8170640469 -2.835460663 0.8550624847 0.8480312228
 1947.2047119  -999.250000 12.538999557 12.250000954 0.0119983973  -999.250000 0.0000000000 2.1830480099 9.5860004425 61.838619232  -999.250000 131.73118591 0.8050384521 -2.674644470 0.8540015817 0.8240384459
 1947.3570557  -999.250000 12.906000137 12.250000954 0.0289591663  -999.250000 0.0000000000 2.1770241261 12.321413994 63.194572449  -999.250000 134.85766602 0.7980223894 -2.504681110 0.8520048261 0.8060432076
 1947.5095215  -999.250000 13.078001022 12.250000954 0.0359887816  -999.250000 0.0000000000 2.1779959202 11.149890900 64.902153015  -999.250000 136.80220032 0.7900256515 -2.364560604 0.8370240331 0.8159839511
 1947.6618652  -999.250000 12.562999725 12.250000954 0.0589447543  -999.250000 0.0000000000 2.1869640350 10.454668999 66.911941528  -999.250000 136.29216003 0.7790352702 -2.272368670 0.8190288544 0.8409599662
 1947.8143311  -999.250000 12.616999626 12.250000954 0.0729775652  -999.250000 0.0000000000 2.1999480724 9.1351156235 67.968780518  -999.250000 136.15461731 0.7720168233 -2.227180243 0.8199992180 0.8290095925
 1947.9666748  -999.250000 12.647999763 12.250000954 0.0739976019  -999.250000 0.0000000000 2.2119517326 9.5150794983 66.892349243  -999.250000 135.89660645 0.7710032463 -2.196124315 0.8399839401 0.8140120506
 1948.1191406  -999.250000 12.546999931 12.250000954 0.0630176291  -999.250000 0.0000000000 2.2199680805 9.6407995224 64.030479431  -999.250000 134.60621643 0.7749903798 -2.133252144 0.8459951878 0.8100032210
 1948.2714844  -999.250000 12.555000305 12.250000954 0.0620024018  -999.250000 0.0000000000 2.2249798775 10.996735573 61.188385010  -999.250000 133.96705627 0.7899519801 -2.018460512 0.8340095878 0.8139967918
 1948.4239502  -999.250000 12.538999557 12.250000954 0.0470240377  -999.250000 0.0000000000 2.2279880047 10.079477310 60.034591675  -999.250000 133.71264648 0.8129447103 -1.866608500 0.8270056248 0.8259903789
 1948.5762939  -999.250000 12.765999794 12.250000954 0.0340312272  -999.250000 0.0000000000 2.2329800129 10.031112671 60.831775665  -999.250000 133.15007019 0.8289487362 -1.717597008 0.8639703989 0.8549767733
 1948.7287598  -999.250000 12.741999626 12.250000954 0.0230176281  -999.250000 0.0000000000 2.2389807701 8.8608779907 62.672096252  -999.250000 132.67810059 0.8299975991 -1.625294924 0.9339439869 0.9019623995
 1948.8811035  -999.250000 12.741999626 12.250000954 0.0220016018  -999.250000 0.0000000000 2.2459719181 8.4616384506 64.200881958  -999.250000 132.41378784 0.8349839449 -1.620020032 0.9679727554 0.8870120645
 1949.0334473  -999.250000 12.602000237 12.250000954 0.0110264206  -999.250000 0.0000000000 2.2499840260 7.6469597816 64.469940186  -999.250000 132.82742310 0.8389871716 -1.692707539 0.9480320215 0.8640368581
 1949.1859131  -999.250000 12.656000137 12.250000954 0.0139951929  -999.250000 0.0000000000 2.2519919872 6.9620962143 63.367435455  -999.250000 133.24380493 0.8350127935 -1.802559614 0.8940432668 0.8600032330
 1949.3382568  -999.250000 12.828000069 12.250000954 0.0130024021  -999.250000 0.0000000000 2.2510039806 6.3644361496 62.004467010  -999.250000 133.34892273 0.8250320554 -1.915547252 0.8680415750 0.8639936447
 1949.4907227  -999.250000 12.852000237 12.250000954 0.0199887808  -999.250000 0.0000000000 2.2490081787 6.6405544281 61.814739227  -999.250000 133.47431946 0.8120415807 -2.007631540 0.8719967604 0.8450152278
 1949.6430664  -999.250000 12.788998604 12.250000954 0.0439423546  -999.250000 0.0000000000 2.2470080853 7.3113861084 63.501213074  -999.250000 133.57482910 0.7980448604 -2.075727463 0.8949631453 0.8150480390
 1949.7955322  -999.250000 12.812999725 12.250000954 0.0459967963  -999.250000 0.0000000000 2.2450079918 8.2714614868 66.368499756  -999.250000 134.07257080 0.7850312591 -2.113847971 0.8730176687 0.8030095696
 1949.9478760  -999.250000 12.906000137 12.250000954 0.0300384294  -999.250000 0.0000000000 2.2430081367 8.1253557205 69.131927490  -999.250000 134.24096680 0.7770256400 -2.113003969 0.8450224400 0.8169887662
