# LAS format log file from PETREL
# Project units are specified as depth units
#==================================================================
~Version information
VERS.   2.0:
WRAP.   NO:
#==================================================================
~Well
STRT .m      625.95562744 :
STOP .m      2455.8225098 :
STEP .m     0.00000000 :
NULL .        -999.250000 :
COMP.           : COMPANY
WELL.  25/6-3   : WELL
FLD.            : FIELD
LOC.            : LOCATION
SRVC.           : SERVICE COMPANY
DATE.  2018-09-11 14:48:22   : Log Export Date {yyyy-MM-dd HH:mm:ss}
PROV.           : PROVINCE
UWI.   25/6-3   : UNIQUE WELL ID
API.            : API NUMBER
#==================================================================
~Curve
DEPT .m                   : DEPTH
Lithology_geolink ._      : Lithology_geolink
CALI .in                  : CALI
BS .in                    : BS
NPHI .m3/m3               : NPHI
RHOB .g/cm3               : RHOB
GR .gAPI                  : GR
DTC .us/ft                : DTC
DTS .us/ft                : DTS
RDEP .ohm.m               : RDEP
SP .mV                    : SP
RSHA .ohm.m               : RSHA
RMIC .ohm.m               : RMIC
RMED .ohm.m               : RMED
~Parameter
#==================================================================
~Ascii
# ...
 833.82922363  -999.250000 12.480999947 17.500000000  -999.250000  -999.250000 24.087999344 139.70100403 0.0000000000 1.7728770971 0.0000000000  -999.250000  -999.250000 1.9256556034
 833.98162842  -999.250000 12.474199295 17.500000000  -999.250000  -999.250000 22.503999710 141.18400574 0.0000000000 1.4659755230 0.0000000000  -999.250000  -999.250000 1.0658886433
 834.13403320  -999.250000 12.468600273 17.500000000  -999.250000  -999.250000 23.674999237 142.35099792 0.0000000000 1.4050055742 0.0000000000  -999.250000  -999.250000 0.7880244255
 834.28643799  -999.250000 12.482199669 17.500000000  -999.250000  -999.250000 27.233999252 143.08399963 0.0000000000 1.4190068245 0.0000000000  -999.250000  -999.250000 0.8490263820
 834.43884277  -999.250000 12.493300438 17.500000000  -999.250000  -999.250000 32.369998932 143.26699829 0.0000000000 1.4360556602 0.0000000000  -999.250000  -999.250000 0.9152711630
 834.59124756  -999.250000 12.479700089 17.500000000  -999.250000  -999.250000 37.752998352 142.76699829 0.0000000000 1.5750453472 0.0000000000  -999.250000  -999.250000 1.5920909643
 834.74365234  -999.250000 12.482199669 17.500000000  -999.250000  -999.250000 40.786998749 141.75000000 0.0000000000 1.6880444288 0.0000000000  -999.250000  -999.250000 1.8189696074
 834.89605713  -999.250000 12.484199524 17.500000000  -999.250000  -999.250000 42.466999054 140.36599731 0.0000000000 1.7990232706 0.0000000000  -999.250000  -999.250000 1.7429820299
 835.04846191  -999.250000 12.485898972 17.500000000  -999.250000  -999.250000 39.881999969 138.89999390 0.0000000000 1.8570008278 0.0000000000  -999.250000  -999.250000 1.6979970932
 835.20086670  -999.250000 12.488800049 17.500000000  -999.250000  -999.250000 36.122001648 137.44999695 0.0000000000 1.8590503931 0.0000000000  -999.250000  -999.250000 1.6910488605
 835.35327148  -999.250000 12.489601135 17.500000000  -999.250000  -999.250000 35.818000793 136.18299866 0.0000000000 1.9220048189 0.0000000000  -999.250000  -999.250000 1.7520047426
 835.50567627  -999.250000 12.493300438 17.500000000  -999.250000  -999.250000 32.666000366 135.26600647 0.0000000000 1.9279999733 0.0000000000  -999.250000  -999.250000 1.7579952478
 835.65802002  -999.250000 12.493300438 17.500000000  -999.250000  -999.250000 32.179000854 135.14999390 0.0000000000 1.9280011654 0.0000000000  -999.250000  -999.250000 1.7520011663
 835.81042480  -999.250000 12.493300438 17.500000000  -999.250000  -999.250000 31.559000015 136.05000305 0.0000000000 1.9310032129 0.0000000000  -999.250000  -999.250000 1.7550059557
 835.96282959  -999.250000 12.493300438 17.500000000  -999.250000  -999.250000 29.101999283 137.58299255 0.0000000000 1.9389832020 0.0000000000  -999.250000  -999.250000 1.7699867487
 836.11523438  -999.250000 12.493300438 17.500000000  -999.250000  -999.250000 28.908000946 138.68400574 0.0000000000 1.8969887495 0.0000000000  -999.250000  -999.250000 1.7369859219
 836.26763916  -999.250000 12.506899834 17.500000000  -999.250000  -999.250000 29.676000595 139.44999695 0.0000000000 1.8689963818 0.0000000000  -999.250000  -999.250000 1.7019912004
 836.42004395  -999.250000 12.504399300 17.500000000  -999.250000  -999.250000 30.129999161 139.76699829 0.0000000000 1.8599879742 0.0000000000  -999.250000  -999.250000 1.6799646616
 836.57244873  -999.250000 12.500101089 17.500000000  -999.250000  -999.250000 34.534999847 139.06700134 0.0000000000 1.8299980164 0.0000000000  -999.250000  -999.250000 1.5919940472
 836.72485352  -999.250000 12.505599976 17.500000000  -999.250000  -999.250000 35.654998779 137.13299561 0.0000000000 1.8249940872 0.0000000000  -999.250000  -999.250000 1.5770168304
 836.87725830  -999.250000 12.498799324 17.500000000  -999.250000  -999.250000 36.933998108 135.01600647 0.0000000000 1.8099935055 0.0000000000  -999.250000  -999.250000 1.6189943552
 837.02966309  -999.250000 12.493300438 17.500000000  -999.250000  -999.250000 35.115001678 133.91600037 0.0000000000 1.7939924002 0.0000000000  -999.250000  -999.250000 1.6049852371
 837.18206787  -999.250000 12.493300438 17.500000000  -999.250000  -999.250000 34.763000488 133.63299561 0.0000000000 1.7749959230 0.0000000000  -999.250000  -999.250000 1.5679770708
 837.33447266  -999.250000 12.493300438 17.500000000  -999.250000  -999.250000 35.511001587 134.18299866 0.0000000000 1.7649999857 0.0000000000  -999.250000  -999.250000 1.5109944344
 837.48687744  -999.250000 12.500101089 17.500000000  -999.250000  -999.250000 34.164001465 135.55000305 0.0000000000 1.7650040388 0.0000000000  -999.250000  -999.250000 1.5040063858
 837.63928223  -999.250000 12.498799324 17.500000000  -999.250000  -999.250000 34.164001465 137.68400574 0.0000000000 1.7700040340 0.0000000000  -999.250000  -999.250000 1.5119847059
 837.79162598  -999.250000 12.500101089 17.500000000  -999.250000  -999.250000 34.787998199 139.66700745 0.0000000000 1.7750028372 0.0000000000  -999.250000  -999.250000 1.4930032492
 837.94403076  -999.250000 12.505599976 17.500000000  -999.250000  -999.250000 34.876998901 140.75000000 0.0000000000 1.7820007801 0.0000000000  -999.250000  -999.250000 1.5010012388
 838.09643555  -999.250000 12.512399673 17.500000000  -999.250000  -999.250000 30.964000702 140.94999695 0.0000000000 1.7840241194 0.0000000000  -999.250000  -999.250000 1.5040552616
 838.24884033  -999.250000 12.513400078 17.500000000  -999.250000  -999.250000 30.695999146 140.25000000 0.0000000000 1.8440064192 0.0000000000  -999.250000  -999.250000 1.6420140266
 838.40124512  -999.250000 12.500699997 17.500000000  -999.250000  -999.250000 28.315000534 138.66600037 0.0000000000 1.8600103855 0.0000000000  -999.250000  -999.250000 1.6770029068
 838.55364990  -999.250000 12.500101089 17.500000000  -999.250000  -999.250000 28.209999084 136.19900513 0.0000000000 1.8859932423 0.0000000000  -999.250000  -999.250000 1.6839679480
 838.70605469  -999.250000 12.512399673 17.500000000  -999.250000  -999.250000 30.010999680 132.98300171 0.0000000000 1.8689970970 0.0000000000  -999.250000  -999.250000 1.6040203571
 838.85845947  -999.250000 12.517999649 17.500000000  -999.250000  -999.250000 29.989999771 130.18200684 0.0000000000 1.8620055914 0.0000000000  -999.250000  -999.250000 1.6550064087
 839.01086426  -999.250000 12.517999649 17.500000000  -999.250000  -999.250000 29.347999573 128.08200073 0.0000000000 1.8759996891 0.0000000000  -999.250000  -999.250000 1.6709903479
 839.16326904  -999.250000 12.517999649 17.500000000  -999.250000  -999.250000 29.780000687 126.68299103 0.0000000000 1.8750076294 0.0000000000  -999.250000  -999.250000 1.6470063925
 839.31567383  -999.250000 12.517999649 17.500000000  -999.250000  -999.250000 29.627000809 125.99900055 0.0000000000 1.8939912319 0.0000000000  -999.250000  -999.250000 1.6629935503
 839.46807861  -999.250000 12.517999649 17.500000000  -999.250000  -999.250000 29.465999603 126.01599884 0.0000000000 1.8720031977 0.0000000000  -999.250000  -999.250000 1.6469775438
 839.62048340  -999.250000 12.513400078 17.500000000  -999.250000  -999.250000 31.009000778 126.74999237 0.0000000000 1.8760000467 0.0000000000  -999.250000  -999.250000 1.6190279722
 839.77288818  -999.250000 12.509699821 17.500000000  -999.250000  -999.250000 31.927999496 127.75000000 0.0000000000 1.8760015965 0.0000000000  -999.250000  -999.250000 1.6539928913
 839.92523193  -999.250000 12.514300346 17.500000000  -999.250000  -999.250000 32.041000366 128.16700745 0.0000000000 1.8779968023 0.0000000000  -999.250000  -999.250000 1.6449979544
 840.07763672  -999.250000 12.517999649 17.500000000  -999.250000  -999.250000 31.649999619 127.99999237 0.0000000000 1.8700096607 0.0000000000  -999.250000  -999.250000 1.6400108337
 840.23004150  -999.250000 12.522500992 17.500000000  -999.250000  -999.250000 33.264999390 127.25000000 0.0000000000 1.8940024376 0.0000000000  -999.250000  -999.250000 1.6670024395
 840.38244629  -999.250000 12.521699905 17.500000000  -999.250000  -999.250000 33.939998627 126.23300171 0.0000000000 1.8999831676 0.0000000000  -999.250000  -999.250000 1.6729767323
