# LAS format log file from PETREL
# Project units are specified as depth units
#==================================================================
~Version information
VERS.   2.0:
WRAP.   NO:
#==================================================================
~Well
STRT .m      1025.4147949 :
STOP .m      2373.8500977 :
STEP .m     0.00000000 :
NULL .        -999.250000 :
COMP.           : COMPANY
WELL.  25/6-2  Delta-Beta   : WELL
FLD.            : FIELD
LOC.            : LOCATION
SRVC.           : SERVICE COMPANY
DATE.  2018-09-11 14:48:22   : Log Export Date {yyyy-MM-dd HH:mm:ss}
PROV.           : PROVINCE
UWI.   25/6-2   : UNIQUE WELL ID
API.            : API NUMBER
#==================================================================
~Curve
DEPT .m                   : DEPTH
Lithology_geolink ._      : Lithology_geolink
CALI .in                  : CALI
BS .in                    : BS
MUDWEIGHT ._              : MUDWEIGHT
ROP .m/h                  : ROP
DRHO .g/cm3               : DRHO
NPHI .m3/m3               : NPHI
RHOB .g/cm3               : RHOB
GR .gAPI                  : GR
DTC .us/ft                : DTC
RDEP .ohm.m               : RDEP
SP .mV                    : SP
RSHA .ohm.m               : RSHA
RMIC .ohm.m               : RMIC
RMED .ohm.m               : RMED
~Parameter
#==================================================================
~Ascii
# ...
 2012.0524902 6.0000000000 17.722749710 17.500000000 1.3500000238 72929.414063 -0.012359836  -999.250000 2.2760884762 96.046432495 128.14556885 1.0663319826 0.5251377225  -999.250000  -999.250000 0.7452371120
 2012.2049561 6.0000000000 17.696029663 17.500000000 1.3500000238 71409.898438 -0.013939823  -999.250000 2.2728223801 95.823493958 128.24145508 1.0894949436 0.1559423059  -999.250000  -999.250000 0.7645881772
 2012.3572998 6.0000000000 17.688560486 17.500000000 1.3500000238 71367.539063 -0.013555444  -999.250000 2.2720563412 95.346397400 128.42645264 1.0987540483 -0.170142516  -999.250000  -999.250000 0.7613766789
 2012.5097656 6.0000000000 17.722480774 17.500000000 1.3500000238 71381.039063 -0.011998116  -999.250000 2.2750065327 94.028724670 128.60929871 1.0742180347 -0.419067323  -999.250000  -999.250000 0.7411323190
 2012.6621094 6.0000000000 17.698680878 17.500000000 1.3500000238 71392.914063 -0.010085535  -999.250000 2.2804315090 91.652610779 128.79965210 1.0662620068 -0.607941568  -999.250000  -999.250000 0.7473955750
 2012.8145752 5.0000000000 17.758520126 17.500000000 1.3500000238 71414.890625 -0.007580339  -999.250000 2.2871468067 88.637756348 128.50050354 1.0561369658 -0.769249976  -999.250000  -999.250000 0.7303900719
 2012.9669189 5.0000000000 17.756080627 17.500000000 1.3500000238 77182.007813 -0.004939402  -999.250000 2.2926237583 86.116600037 127.37889862 1.0346200466 -0.912102461  -999.250000  -999.250000 0.7041286230
 2013.1193848 5.0000000000 17.704099655 17.500000000 1.3500000238 79488.476563 -0.003800872  -999.250000 2.2946546078 85.366035461 126.25825500 1.0335910320 -1.011706710  -999.250000  -999.250000 0.7101863027
 2013.2717285 5.0000000000 17.677129745 17.500000000 1.3500000238 79719.750000 -0.003739814  -999.250000 2.2919790745 86.978942871 126.17163849 1.0411900282 -1.032098532  -999.250000  -999.250000 0.7256445289
 2013.4240723 6.0000000000 17.684289932 17.500000000 1.3500000238 79640.125000 -0.005648405  -999.250000 2.2858169079 90.337951660 127.10080719 1.0313299894 -0.950507224  -999.250000  -999.250000 0.7161737084
 2013.5765381 6.0000000000 17.675720215 17.500000000 1.3500000238 79145.726563 -0.010748354  -999.250000 2.2781238556 94.166503906 127.99967957 1.0251289606 -0.775533676  -999.250000  -999.250000 0.7130692005
 2013.7288818 6.0000000000 17.672290802 17.500000000 1.3500000238 79069.382813 -0.014184642  -999.250000 2.2716414928 97.200561523 128.09155273 1.0404829979 -0.547634125  -999.250000  -999.250000 0.7398089767
 2013.8813477 6.0000000000 17.672000885 17.500000000 1.3500000238 79067.367188 -0.017395455  -999.250000 2.2671093941 98.767425537 127.65268707 1.0661180019 -0.323014438  -999.250000  -999.250000 0.7543206811
 2014.0336914 6.0000000000 17.672000885 17.500000000 1.3500000238 72757.953125 -0.019434560  -999.250000 2.2660732269 98.921493530 127.14093781 1.0806679726 -0.144763008  -999.250000  -999.250000 0.7591030002
 2014.1861572 6.0000000000 17.695230484 17.500000000 1.3500000238 61421.511719 -0.019444782  -999.250000 2.2675018311 98.113807678 126.81600189 1.0805280209 -0.023774039  -999.250000  -999.250000 0.7614443898
 2014.3385010 6.0000000000 17.725679398 17.500000000 1.3500000238 59807.328125 -0.016801145  -999.250000 2.2709672451 96.764694214 126.81515503 1.0828850269 0.0536004789  -999.250000  -999.250000 0.7664576769
 2014.4909668 6.0000000000 17.722200394 17.500000000 1.3500000238 59820.382813 -0.014442871  -999.250000 2.2764332294 95.066612244 127.00722504 1.0764360428 0.1024903804  -999.250000  -999.250000 0.7633910775
 2014.6433105 6.0000000000 17.707269669 17.500000000 1.3500000238 59832.464844 -0.009864742  -999.250000 2.2816441059 93.563919067 127.27147675 1.0584210157 0.1299583763  -999.250000  -999.250000 0.7470620275
 2014.7957764 6.0000000000 17.715280533 17.500000000 1.3500000238 59744.835938 -0.006603595  -999.250000 2.2866628170 92.893974304 127.48986053 1.0488259792 0.1396298110  -999.250000  -999.250000 0.7446033955
 2014.9481201 6.0000000000 17.695470810 17.500000000 1.3500000238 57526.105469 -0.006086334  -999.250000 2.2901608944 93.108070374 127.46379852 1.0483529568 0.1402746141  -999.250000  -999.250000 0.7426959276
 2015.1005859 6.0000000000 17.676570892 17.500000000 1.3500000238 47465.128906 -0.005735431  -999.250000 2.2924447060 93.607498169 127.22956848 1.0596109629 0.1392740309  -999.250000  -999.250000 0.7577363253
 2015.2529297 6.0000000000 17.672290802 17.500000000 1.3500000238 45474.949219 -0.005589574  -999.250000 2.2929646969 93.904502869 126.82887268 1.0825279951 0.1375492364  -999.250000  -999.250000 0.7745718956
 2015.4052734 6.0000000000 17.672000885 17.500000000 1.3500000238 45412.960938 -0.006681538  -999.250000 2.2937517166 94.065971375 126.17652130 1.1090739965 0.1362748444  -999.250000  -999.250000 0.7981029749
 2015.5577393 6.0000000000 17.672000885 17.500000000 1.3500000238 45426.347656 -0.006409541  -999.250000 2.2969853878 93.895370483 125.45169067 1.1245720387 0.1345492452  -999.250000  -999.250000 0.8060206771
 2015.7100830 6.0000000000 17.672000885 17.500000000 1.3500000238 45438.351563 -0.005854850  -999.250000 2.3039357662 92.633987427 124.67684937 1.1149029732 0.1332748383  -999.250000  -999.250000 0.7941833138
 2015.8625488 6.0000000000 17.695240021 17.500000000 1.3500000238 45451.800781 -0.006094056  -999.250000 2.3148612976 89.881072998 122.97723389 1.1213929653 0.1315480769  -999.250000  -999.250000 0.8015236259
 2016.0148926 6.0000000000 17.679199219 17.500000000 1.3500000238 46964.562500 -0.006722280  -999.250000 2.3275403976 86.566467285 119.52432251 1.1960400343 0.1302746087  -999.250000  -999.250000 0.8632419705
 2016.1673584 6.0000000000 17.672559738 17.500000000 1.3500000238 50413.410156 -0.002696915  -999.250000 2.3390154839 84.383628845 115.05768585 1.2526600361 0.1292740256  -999.250000  -999.250000 0.8735191226
 2016.3197021 16.000000000 17.648759842 17.500000000 1.3500000238 50995.625000 0.0008654889  -999.250000 2.3447999954 84.265884399 112.42682648 1.2721920013 0.1275492460  -999.250000  -999.250000 0.8752127886
 2016.4721680 6.0000000000 17.735240936 17.500000000 1.3500000238 50949.546875 0.0000937262  -999.250000 2.3436670303 85.921890259 113.84397125 1.2103129625 0.1262740344  -999.250000  -999.250000 0.8328543901
 2016.6245117 6.0000000000 17.739759445 17.500000000 1.3500000238 50424.265625 -0.003255716  -999.250000 2.3362994194 88.325408936 118.00400543 1.1258850098 0.1245492399  -999.250000  -999.250000 0.7760620117
 2016.7769775 6.0000000000 17.700099945 17.500000000 1.3500000238 50354.648438 -0.001849238  -999.250000 2.3266520500 90.369010925 122.24929810 1.1076149940 0.1232740432  -999.250000  -999.250000 0.7866373062
 2016.9293213 6.0000000000 17.676839828 17.500000000 1.3500000238 50493.566406 -0.000940658  -999.250000 2.3166770935 91.238059998 124.86440277 1.1298120022 0.1215492412  -999.250000  -999.250000 0.8187260032
 2017.0817871 6.0000000000 17.672290802 17.500000000 1.3500000238 53141.488281 -0.002637632  -999.250000 2.3081758022 90.870910645 125.61503601 1.1480050087 0.1202740371  -999.250000  -999.250000 0.8228784204
 2017.2341309 6.0000000000 17.672000885 17.500000000 1.3500000238 59221.750000 -0.002807128  -999.250000 2.3023929596 90.209503174 125.44815826 1.1656960249 0.1185492426  -999.250000  -999.250000 0.8325812221
 2017.3864746 6.0000000000 17.672000885 17.500000000 1.3500000238 60664.363281 -0.004648665  -999.250000 2.2973411083 90.141944885 125.15070343 1.1731300354 0.1172748357  -999.250000  -999.250000 0.8319975734
 2017.5389404 6.0000000000 17.672000885 17.500000000 1.3500000238 60761.871094 -0.008174242  -999.250000 2.2938396931 90.555397034 124.90155029 1.1727980375 0.1155492440  -999.250000  -999.250000 0.8370795846
 2017.6912842 6.0000000000 17.672000885 17.500000000 1.3500000238 60774.484375 -0.011028991  -999.250000 2.2908022404 90.499481201 124.71420288 1.1677609682 0.1142748371  -999.250000  -999.250000 0.8381047249
 2017.8437500 6.0000000000 17.672000885 17.500000000 1.3500000238 60785.355469 -0.010130383  -999.250000 2.2900552750 89.322990417 124.72351074 1.1579619646 0.1132740378  -999.250000  -999.250000 0.8199462891
