# LAS format log file from PETREL
# Project units are specified as depth units
#==================================================================
~Version information
VERS.   2.0:
WRAP.   NO:
#==================================================================
~Well
STRT .m      1025.4147949 :
STOP .m      2373.8500977 :
STEP .m     0.00000000 :
NULL .        -999.250000 :
COMP.           : COMPANY
WELL.  25/6-2  Delta-Beta   : WELL
FLD.            : FIELD
LOC.            : LOCATION
SRVC.           : SERVICE COMPANY
DATE.  2018-09-11 14:48:22   : Log Export Date {yyyy-MM-dd HH:mm:ss}
PROV.           : PROVINCE
UWI.   25/6-2   : UNIQUE WELL ID
API.            : API NUMBER
#==================================================================
~Curve
DEPT .m                   : DEPTH
Lithology_geolink ._      : Lithology_geolink
CALI .in                  : CALI
BS .in                    : BS
MUDWEIGHT ._              : MUDWEIGHT
ROP .m/h                  : ROP
DRHO .g/cm3               : DRHO
NPHI .m3/m3               : NPHI
RHOB .g/cm3               : RHOB
GR .gAPI                  : GR
DTC .us/ft                : DTC
RDEP .ohm.m               : RDEP
SP .mV                    : SP
RSHA .ohm.m               : RSHA
RMIC .ohm.m               : RMIC
RMED .ohm.m               : RMED
~Parameter
#==================================================================
~Ascii
# ...
 2101.2062988 5.0000000000 14.980600357 12.250000954 1.3500000238 96912.609375 0.0677158535 0.4351662099 1.9108910561 86.300384521 121.72150421 0.8892670274 -2.358807802 0.9373775125 0.3233051896 0.6925696731
 2101.3588867 5.0000000000 14.514909744 12.250000954 1.3500000238 99652.296875 0.0754104033 0.4488470852 1.8871899843 86.473678589 125.92030334 0.8947324157 -2.244849682 0.9494211078 0.2358013988 0.7106711268
 2101.5112305 5.0000000000 14.906908989 12.250000954 1.3500000238 99668.382813 0.0891823694 0.4602966905 1.8875800371 85.899353027 126.64849854 0.9250758886 -2.097275496 0.9877606034 0.2457620949 0.7331696749
 2101.6635742 5.0000000000 15.998009682 12.250000954 1.3500000238 99685.023438 0.0977454782 0.4652653039 1.9113949537 85.781646729 125.87039948 0.9425820112 -1.920717955 0.9711148143 0.2427591980 0.7736127973
 2101.8159180 5.0000000000 14.882579803 12.250000954 1.3500000238 99702.273438 0.0917650014 0.4631676078 1.9537509680 87.481025696 127.13429260 0.9531344175 -1.732371807 0.9576144218 0.2558591962 0.8090146184
 2101.9685059 5.0000000000 14.873418808 12.250000954 1.3500000238 99718.718750 0.0804955289 0.4576291144 2.0034689903 90.694343567 128.31379700 0.9698086977 -1.558764458 1.0057849884 0.2085548043 0.9073855281
 2102.1208496 6.0000000000 14.386581421 12.250000954 1.3500000238 88307.406250 0.0704260767 0.4540616870 2.0506589413 93.258209229 125.34390259 0.9083662033 -1.431822419 1.1374640465 0.1942697018 1.0996240377
 2102.2731934 6.0000000000 14.883171082 12.250000954 1.3500000238 70488.273438 0.0630662963 0.4562954009 2.0877439976 93.768562317 121.12280273 0.8733204007 -1.381442308 1.2482990026 0.3683854043 0.9807651043
 2102.4255371 6.0000000000 14.380339622 12.250000954 1.3500000238 67984.906250 0.0440550894 0.4639778137 2.1144199371 93.372993469 119.77549744 0.8915209770 -1.423256397 1.2561990023 0.7613747120 0.7072281241
 2102.5781250 6.0000000000 13.980419159 12.250000954 1.3500000238 68001.000000 0.0240187291 0.4730348885 2.1355919838 94.290100098 122.44290161 0.9359676242 -1.552346110 1.2260370255 0.2680307031 0.6432499886
 2102.7304688 6.0000000000 15.085849762 12.250000954 1.3500000238 68017.679688 0.0141312601 0.4781267941 2.1571729183 96.813842773 127.21849823 1.0139820576 -1.749107122 1.1138930321 0.2008253038 0.6855841875
 2102.8828125 6.0000000000 16.283109665 12.250000954 1.3500000238 68035.703125 0.0233230907 0.4756585956 2.1836559772 99.153022766 128.79029846 1.0728529692 -1.984019279 0.9791470766 0.2802239954 0.8270084262
 2103.0351563 6.0000000000 14.981200218 12.250000954 1.3500000238 68051.679688 0.0411040187 0.4658460021 2.2152791023 100.11266327 126.53430176 1.0116569996 -2.227019310 0.9667497873 0.3658465147 0.9887111783
 2103.1875000 6.0000000000 15.810719490 12.250000954 1.3500000238 71803.523438 0.0527809896 0.4526943862 2.2466890812 100.43708801 123.58290100 0.9020583034 -2.447564125 0.9840087295 0.5108255744 0.9468739033
 2103.3400879 6.0000000000 14.555850029 12.250000954 1.3500000238 113456.69531 0.0559306704 0.4418435991 2.2732279301 101.48302460 121.46170044 0.8460022211 -2.619793653 0.9946781993 0.8386965990 0.8555085063
 2103.4924316 6.0000000000 14.060669899 12.250000954 1.3500000238 119926.60938 0.0604836196 0.4371266961 2.2900769711 103.37877655 121.28669739 0.8270587921 -2.725295067 0.9968572855 0.7397484183 0.8131232262
 2103.6447754 6.0000000000 13.898070335 12.250000954 1.3500000238 119942.49219 0.0699437633 0.4385182858 2.2982559204 105.26646423 121.87419891 0.8243616819 -2.758416653 0.9954982996 0.5838894248 0.7866197824
 2103.7971191 7.0000000000 13.977370262 12.250000954 1.3500000238 119959.10938 0.0758116916 0.4431208968 2.3006441593 106.56586456 121.39289856 0.8422034979 -2.724333286 0.9724258780 0.8450651765 0.8346608877
 2103.9497070 7.0000000000 13.980960846 12.250000954 1.3500000238 119976.19531 0.0760435835 0.4474678934 2.2994799614 107.40373230 121.00180817 0.9030194283 -2.634620667 0.8939921260 0.7676172256 0.9226673245
 2104.1020508 7.0000000000 13.916830063 12.250000954 1.3500000238 118362.50000 0.0719839931 0.4493488967 2.2975330353 107.86242676 121.45290375 0.9318420887 -2.504589796 0.8559740782 0.8872153163 0.9344244003
 2104.2543945 7.0000000000 14.245671272 12.250000954 1.3500000238 111915.29688 0.0650535673 0.4481315911 2.2985389233 107.23491669 121.31650543 0.9403442740 -2.346480846 0.8561447859 0.7503371835 0.9194859266
 2104.4067383 6.0000000000 13.888310432 12.250000954 1.3500000238 110434.90625 0.0548098311 0.4438695908 2.3042209148 104.62077332 119.88130951 0.9904323816 -2.164096117 0.8884394765 0.5159446001 0.9280369878
 2104.5593262 6.0000000000 13.811800957 12.250000954 1.3500000238 110370.69531 0.0441352688 0.4362544119 2.3141360283 100.17523956 117.56710052 1.0811660290 -1.955192327 0.9708328843 0.4565517008 0.9786037803
 2104.7116699 6.0000000000 13.790080070 12.250000954 1.3500000238 110386.79688 0.0367857218 0.4242370129 2.3228149414 95.434410095 114.59539795 1.2010159492 -1.720598459 1.1402579546 0.9560031295 1.0555039644
 2104.8640137 6.0000000000 13.811240196 12.250000954 1.3500000238 110403.40625 0.0310171694 0.4073680043 2.3248579502 92.087547302 111.19910431 1.3537559509 -1.468564153 1.3911000490 1.4337439537 1.1256380081
 2105.0163574 5.0000000000 13.790801048 12.250000954 1.3500000238 110611.09375 0.0246543400 0.3879190981 2.3129880428 90.734207153 108.14939880 1.5445760489 -1.224153876 1.6028649807 1.8370579481 1.2243419886
 2105.1687012 5.0000000000 13.811209679 12.250000954 1.3500000238 113666.30469 0.0244763903 0.3714557886 2.2807519436 90.854553223 105.86789703 1.5704380274 -1.021096110 1.7721890211 1.6276839972 1.2862780094
 2105.3212891 5.0000000000 13.877160072 12.250000954 1.3500000238 115634.39844 0.0348334685 0.3647885919 2.2288579941 91.733169556 104.87909698 1.4764519930 -0.899419188 1.8035299778 1.7330520153 1.0555319786
 2105.4736328 5.0000000000 13.924940109 12.250000954 1.3500000238 115982.88281 0.0374106988 0.3722251058 2.1631569862 92.951698303 106.91380310 1.3658039570 -0.890384614 1.7389780283 1.9932130575 0.7560588717
 2105.6259766 5.0000000000 13.963829994 12.250000954 1.3500000238 116016.20313 0.0396046117 0.3927735090 2.0929269791 94.265327454 112.04239655 1.2792630196 -1.006378174 1.5723409653 2.2073669434 0.6146097779
 2105.7783203 5.0000000000 14.002601624 12.250000954 1.3500000238 116032.60938 0.0551172383 0.4205274880 2.0302209854 95.339149475 117.82510376 1.1971110106 -1.235609055 1.2356239557 0.8013389707 0.5697411895
 2105.9309082 6.0000000000 14.532059669 12.250000954 1.3500000238 116049.10938 0.0798274130 0.4472508132 1.9820220470 95.958358765 123.19100189 1.1574219465 -1.549808025 1.1084530354 0.2185166031 0.6410958767
 2106.0832520 6.0000000000 15.529769897 12.250000954 1.3500000238 116045.70313 0.0973030627 0.4662666023 1.9512449503 96.380744934 126.54300690 1.1186879873 -1.912910223 1.0603480339 0.2483278066 0.7354565263
 2106.2355957 6.0000000000 16.493099213 12.250000954 1.3500000238 113674.89844 0.1119069010 0.4751810133 1.9346879721 97.086425781 125.61679840 1.0319709778 -2.291256428 1.0596760511 0.3031947017 0.7737048268
 2106.3879395 6.0000000000 16.437360764 12.250000954 1.3500000238 111541.78906 0.1166260019 0.4761857092 1.9252229929 98.129356384 122.96050262 0.8962330222 -2.652423143 1.0406980515 0.3136348128 0.7578104138
 2106.5405273 6.0000000000 15.498209953 12.250000954 1.3500000238 111279.89844 0.1104473993 0.4739213884 1.9178860188 98.960510254 122.00499725 0.7983769774 -2.970692158 1.0224479437 0.2942825854 0.7265697718
 2106.6928711 6.0000000000 16.149379730 12.250000954 1.3500000238 111296.70313 0.1017856002 0.4724973142 1.9116170406 98.936660767 122.56379700 0.7645981908 -3.227227211 0.9857949018 0.3353792131 0.6920949221
 2106.8452148 6.0000000000 15.112859726 12.250000954 1.3500000238 111313.79688 0.0835423619 0.4740515053 1.9093550444 97.922920227 123.49858856 0.8242304921 -3.414692163 0.9447429180 0.2580563128 0.6248282790
 2106.9975586 6.0000000000 15.659009933 12.250000954 1.3500000238 111265.20313 0.0557362810 0.4789885879 1.9165250063 96.583869934 124.20170593 0.8910524845 -3.533436060 0.9279401898 0.4060994089 0.6312031150
