# LAS format log file from PETREL
# Project units are specified as depth units
#==================================================================
~Version information
VERS.   2.0:
WRAP.   NO:
#==================================================================
~Well
STRT .m      1025.4147949 :
STOP .m      2373.8500977 :
STEP .m     0.00000000 :
NULL .        -999.250000 :
COMP.           : COMPANY
WELL.  25/6-2  Delta-Beta   : WELL
FLD.            : FIELD
LOC.            : LOCATION
SRVC.           : SERVICE COMPANY
DATE.  2018-09-11 14:48:22   : Log Export Date {yyyy-MM-dd HH:mm:ss}
PROV.           : PROVINCE
UWI.   25/6-2   : UNIQUE WELL ID
API.            : API NUMBER
#==================================================================
~Curve
DEPT .m                   : DEPTH
Lithology_geolink ._      : Lithology_geolink
CALI .in                  : CALI
BS .in                    : BS
MUDWEIGHT ._              : MUDWEIGHT
ROP .m/h                  : ROP
DRHO .g/cm3               : DRHO
NPHI .m3/m3               : NPHI
RHOB .g/cm3               : RHOB
GR .gAPI                  : GR
DTC .us/ft                : DTC
RDEP .ohm.m               : RDEP
SP .mV                    : SP
RSHA .ohm.m               : RSHA
RMIC .ohm.m               : RMIC
RMED .ohm.m               : RMED
~Parameter
#==================================================================
~Ascii
# ...
 1649.4927979  -999.250000 17.806829453 17.500000000 1.3500000238 93629.023438 -0.010521160  -999.250000 2.0678958893 62.916919708 120.54370117 0.7493476868 -33.51280594  -999.250000  -999.250000 0.3771790862
 1649.6451416  -999.250000 17.803400040 17.500000000 1.3500000238 93523.109375 -0.010086080  -999.250000 2.0689260960 62.816638947 119.43150330 0.7508124709 -33.29355621  -999.250000  -999.250000 0.3777653873
 1649.7976074  -999.250000 17.855829239 17.500000000 1.3500000238 93011.429688 -0.009126536  -999.250000 2.0667591095 62.854892731 118.77400970 0.7519950271 -33.00352097  -999.250000  -999.250000 0.3802199960
 1649.9499512  -999.250000 17.943790436 17.500000000 1.3500000238 92943.796875 -0.007527064  -999.250000 2.0608251095 63.210597992 118.78189087 0.7498577833 -32.69976425  -999.250000  -999.250000 0.3787012100
 1650.1024170  -999.250000 17.967269897 17.500000000 1.3500000238 129921.29688 -0.007569420  -999.250000 2.0516600609 63.772884369 119.26190186 0.7493144870 -32.43360519  -999.250000  -999.250000 0.3832714856
 1650.2547607  -999.250000 17.968999863 17.500000000 1.3500000238 135700.90625 -0.010988890  -999.250000 2.0417129993 64.393669128 119.57379913 0.7476409078 -32.22507858  -999.250000  -999.250000 0.3796299100
 1650.4072266  -999.250000 17.817399979 17.500000000 1.3500000238 135697.79688 -0.016072219  -999.250000 2.0332100391 65.210441589 119.27559662 0.7418465018 -32.05619812  -999.250000  -999.250000 0.3773804009
 1650.5595703  -999.250000 17.676370621 17.500000000 1.3500000238 135700.00000 -0.019284800  -999.250000 2.0274119377 66.120948792 119.16510010 0.7316476703 -31.89839935  -999.250000  -999.250000 0.3687700927
 1650.7120361  -999.250000 17.701549530 17.500000000 1.3500000238 135702.20313 -0.019427070  -999.250000 2.0253450871 66.658721924 120.23539734 0.7234904170 -31.73991776  -999.250000  -999.250000 0.3632068038
 1650.8643799  -999.250000 17.798980713 17.500000000 1.3500000238 135704.40625 -0.016330760  -999.250000 2.0257649422 66.274253845 121.86139679 0.7261204123 -31.60627747  -999.250000  -999.250000 0.3672905862
 1651.0168457  -999.250000 17.825990677 17.500000000 1.3500000238 133107.40625 -0.012240180  -999.250000 2.0274751186 64.880905151 122.86869812 0.7234017253 -31.55462837  -999.250000  -999.250000 0.3703616858
 1651.1691895  -999.250000 17.898210526 17.500000000 1.3500000238 122226.60938 -0.008065267  -999.250000 2.0294570923 63.258964539 123.10099792 0.7235066295 -31.64423370  -999.250000  -999.250000 0.3746908009
 1651.3216553  -999.250000 17.966590881 17.500000000 1.3500000238 119817.89844 -0.005209355  -999.250000 2.0307099819 62.329345703 122.96450043 0.7254849076 -31.89958191  -999.250000  -999.250000 0.3699147105
 1651.4739990  -999.250000 17.971660614 17.500000000 1.3500000238 119201.20313 -0.004757538  -999.250000 2.0302350521 62.595500946 122.48970795 0.7279285192 -32.29268265  -999.250000  -999.250000 0.3688924909
 1651.6263428  -999.250000 17.946109772 17.500000000 1.3500000238 119102.79688 -0.006537366  -999.250000 2.0277769566 63.758552551 122.02210236 0.7288364768 -32.74311066  -999.250000  -999.250000 0.3712207079
 1651.7788086  -999.250000 17.786199570 17.500000000 1.3500000238 119101.39844 -0.011172300  -999.250000 2.0255610943 65.182861328 122.18199921 0.7321537137 -33.14503479  -999.250000  -999.250000 0.3719446063
 1651.9311523  -999.250000 17.691440582 17.500000000 1.3500000238 119103.70313 -0.019377980  -999.250000 2.0235428810 66.197746277 122.73380280 0.7322227955 -33.42292786  -999.250000  -999.250000 0.3727469146
 1652.0836182  -999.250000 17.719440460 17.500000000 1.3500000238 77226.437500 -0.026838470  -999.250000 2.0237839222 66.243370056 123.28569031 0.7307590246 -33.56789017  -999.250000  -999.250000 0.3662396073
 1652.2359619  -999.250000 17.885259628 17.500000000 1.3500000238 70646.203125 -0.028315760  -999.250000 2.0262229443 65.383049011 123.80159760 0.7277560234 -33.63056183  -999.250000  -999.250000 0.3671495020
 1652.3884277  -999.250000 17.957399368 17.500000000 1.3500000238 70648.390625 -0.023842670  -999.250000 2.0306789875 64.243865967 124.10900116 0.7248420715 -33.67484665  -999.250000  -999.250000 0.3664317131
 1652.5407715  -999.250000 17.898210526 17.500000000 1.3500000238 70650.593750 -0.018251641  -999.250000 2.0363900661 63.746006012 123.91990662 0.7226752043 -33.73475266  -999.250000  -999.250000 0.3645415902
 1652.6932373  -999.250000 17.876729965 17.500000000 1.3500000238 70652.781250 -0.012140440  -999.250000 2.0416231155 64.217941284 123.15180206 0.7208182216 -33.79497910  -999.250000  -999.250000 0.3632897139
 1652.8455811  -999.250000 17.839889526 17.500000000 1.3500000238 70258.328125 -0.006575888  -999.250000 2.0451490879 65.274177551 122.21649933 0.7231603861 -33.80087280  -999.250000  -999.250000 0.3622711897
 1652.9980469  -999.250000 17.805719376 17.500000000 1.3500000238 75308.429688 -0.000661346  -999.250000 2.0481851101 66.382850647 121.60990143 0.7295351028 -33.70073700  -999.250000  -999.250000 0.3642562926
 1653.1503906  -999.250000 17.716159821 17.500000000 1.3500000238 106619.79688 0.0043841521  -999.250000 2.0519320965 67.205131531 121.23820496 0.7341374159 -33.48166275  -999.250000  -999.250000 0.3664369881
 1653.3028564  -999.250000 17.596609116 17.500000000 1.3500000238 114486.39844 0.0042573139  -999.250000 2.0551679134 67.561340332 120.99430084 0.7347552180 -33.18473434  -999.250000  -999.250000 0.3684563041
 1653.4552002  -999.250000 17.565299988 17.500000000 1.3500000238 114971.10156 -0.000074000  -999.250000 2.0581860542 67.142730713 120.69010162 0.7355561852 -32.88093185  -999.250000  -999.250000 0.3674683869
 1653.6075439  -999.250000 17.784160614 17.500000000 1.3500000238 114792.29688 -0.002001049  -999.250000 2.0596919060 65.931205750 119.88939667 0.7320821285 -32.63460541  -999.250000  -999.250000 0.3640435934
 1653.7600098  -999.250000 17.865510941 17.500000000 1.3500000238 114348.50000 -0.003986639  -999.250000 2.0592350960 64.549339294 119.10340881 0.7304387093 -32.47069931  -999.250000  -999.250000 0.3630732000
 1653.9123535  -999.250000 17.839590073 17.500000000 1.3500000238 113646.60156 -0.009876071  -999.250000 2.0567770004 63.928157806 118.87930298 0.7297441959 -32.38135147  -999.250000  -999.250000 0.3689604104
 1654.0648193  -999.250000 17.828859329 17.500000000 1.3500000238 109869.50000 -0.012714000  -999.250000 2.0523209572 64.455276489 118.89810181 0.7250893116 -32.35041809  -999.250000  -999.250000 0.3648625016
 1654.2171631  -999.250000 17.839950562 17.500000000 1.3500000238 103440.00000 -0.008943382  -999.250000 2.0473570824 65.517578125 119.04330444 0.7213084102 -32.36843109  -999.250000  -999.250000 0.3653857112
 1654.3696289  -999.250000 17.831760406 17.500000000 1.3500000238 101981.79688 -0.004343121  -999.250000 2.0423579216 66.155807495 119.28130341 0.7285531163 -32.43924713  -999.250000  -999.250000 0.3733856976
 1654.5219727  -999.250000 17.711759567 17.500000000 1.3500000238 101840.89844 -0.005136521  -999.250000 2.0381040573 65.912879944 119.21700287 0.7466291189 -32.57370377  -999.250000  -999.250000 0.3810273111
 1654.6744385  -999.250000 17.465040207 17.500000000 1.3500000238 101833.89844 -0.008022693  -999.250000 2.0355799198 65.269973755 119.00279999 0.7576856017 -32.78102493  -999.250000  -999.250000 0.3828698993
 1654.8267822  -999.250000 17.361080170 17.500000000 1.3500000238 101836.10156 -0.010884030  -999.250000 2.0350370407 64.889152527 119.41011810 0.7583593130 -33.05889511  -999.250000  -999.250000 0.3807569146
 1654.9792480  -999.250000 17.589780807 17.500000000 1.3500000238 101838.29688 -0.010496860  -999.250000 2.0372400284 64.818450928 120.74739838 0.7542803884 -33.38491440  -999.250000  -999.250000 0.3808015883
 1655.1315918  -999.250000 17.677890778 17.500000000 1.3500000238 101840.50000 -0.008793271  -999.250000 2.0409319401 64.472412109 122.43690491 0.7529309988 -33.71388245  -999.250000  -999.250000 0.3794867992
 1655.2840576  -999.250000 17.675760269 17.500000000 1.3500000238 101842.39844 -0.006948192  -999.250000 2.0464060307 63.435276031 123.56459808 0.7524647117 -33.99145889  -999.250000  -999.250000 0.3812746108
