# LAS format log file from PETREL
# Project units are specified as depth units
#==================================================================
~Version information
VERS.   2.0:
WRAP.   NO:
#==================================================================
~Well
STRT .m      1025.4147949 :
STOP .m      2373.8500977 :
STEP .m     0.00000000 :
NULL .        -999.250000 :
COMP.           : COMPANY
WELL.  25/6-2  Delta-Beta   : WELL
FLD.            : FIELD
LOC.            : LOCATION
SRVC.           : SERVICE COMPANY
DATE.  2018-09-11 14:48:22   : Log Export Date {yyyy-MM-dd HH:mm:ss}
PROV.           : PROVINCE
UWI.   25/6-2   : UNIQUE WELL ID
API.            : API NUMBER
#==================================================================
~Curve
DEPT .m                   : DEPTH
Lithology_geolink ._      : Lithology_geolink
CALI .in                  : CALI
BS .in                    : BS
MUDWEIGHT ._              : MUDWEIGHT
ROP .m/h                  : ROP
DRHO .g/cm3               : DRHO
NPHI .m3/m3               : NPHI
RHOB .g/cm3               : RHOB
GR .gAPI                  : GR
DTC .us/ft                : DTC
RDEP .ohm.m               : RDEP
SP .mV                    : SP
RSHA .ohm.m               : RSHA
RMIC .ohm.m               : RMIC
RMED .ohm.m               : RMED
~Parameter
#==================================================================
~Ascii
# ...
 1203.7227783  -999.250000 18.144449234 17.500000000 1.2999999523 56648.968750 0.0085858535  -999.250000 1.9714641571 79.462371826 140.30090332 1.5592799187 0.4773301482  -999.250000  -999.250000 0.9612520933
 1203.8752441  -999.250000 17.724889755 17.500000000 1.2999999523 56443.988281 0.0072946930  -999.250000 1.9500449896 81.246009827 140.28329468 1.5572409630 0.0780657083  -999.250000  -999.250000 0.9632076025
 1204.0275879  -999.250000 18.246589661 17.500000000 1.2999999523 56037.289063 0.0010259361  -999.250000 1.9310662746 82.806327820 140.04440308 1.5788847208 -0.271762997  -999.250000  -999.250000 0.9787577987
 1204.1800537  -999.250000 18.228559494 17.500000000 1.2999999523 60273.132813 -0.001613200  -999.250000 1.9189189672 83.483985901 140.40119934 1.5748369694 -0.540352523  -999.250000  -999.250000 0.9560179710
 1204.3323975  -999.250000 17.944900513 17.500000000 1.2999999523 78081.976563 -0.005123611  -999.250000 1.9161931276 83.325958252 140.63369751 1.5699158907 -0.724992752  -999.250000  -999.250000 0.9654750824
 1204.4847412  -999.250000 17.992780685 17.500000000 1.2999999523 80782.406250 -0.005666415  -999.250000 1.9219393730 82.972038269 139.61959839 1.5889997482 -0.837141812  -999.250000  -999.250000 0.9838727713
 1204.6372070  -999.250000 17.807130814 17.500000000 1.2999999523 80790.687500 -0.004627292  -999.250000 1.9327522516 83.097427368 138.48399353 1.6131696701 -0.881776631  -999.250000  -999.250000 1.0182019472
 1204.7895508  -999.250000 17.960329056 17.500000000 1.2999999523 80799.750000 -0.003789875  -999.250000 1.9439350367 83.621948242 138.70640564 1.5990213156 -0.855790079  -999.250000  -999.250000 0.9704877734
 1204.9420166  -999.250000 18.385559082 17.500000000 1.2999999523 80919.421875 -0.005947551  -999.250000 1.9519890547 83.630676270 139.57049561 1.5637340546 -0.754894316  -999.250000  -999.250000 0.9645460844
 1205.0943604  -999.250000 17.879709244 17.500000000 1.2999999523 85545.828125 -0.000537169  -999.250000 1.9560916424 82.530822754 139.87010193 1.5284222364 -0.583828568  -999.250000  -999.250000 0.9577847123
 1205.2468262  -999.250000 17.850730896 17.500000000 1.2999999523 90487.898438 0.0070008850  -999.250000 1.9576849937 80.923515320 139.90939331 1.5181950331 -0.355510801  -999.250000  -999.250000 0.9559699893
 1205.3991699  -999.250000 18.234479904 17.500000000 1.2999999523 91157.812500 0.0127447676  -999.250000 1.9579807520 80.187545776 140.37350464 1.5479841232 -0.090906247  -999.250000  -999.250000 0.9582086205
 1205.5516357  -999.250000 17.932739258 17.500000000 1.2999999523 91166.492188 0.0267968196  -999.250000 1.9587429762 80.779899597 140.95159912 1.5493940115 0.1929871887  -999.250000  -999.250000 0.9589427114
 1205.7039795  -999.250000 18.191030502 17.500000000 1.2999999523 91174.570313 0.0329593308  -999.250000 1.9597231150 81.661659241 140.83059692 1.5264683962 0.4845328331  -999.250000  -999.250000 0.9426093102
 1205.8564453  -999.250000 18.522949219 17.500000000 1.2999999523 91182.773438 0.0302610397  -999.250000 1.9592380524 81.400741577 139.98500061 1.5336550474 0.7792131305  -999.250000  -999.250000 0.9735757113
 1206.0087891  -999.250000 18.035129547 17.500000000 1.2999999523 91191.296875 0.0301119685  -999.250000 1.9567929506 79.842918396 139.34089661 1.5414747000 1.0740424395  -999.250000  -999.250000 0.9634380937
 1206.1612549  -999.250000 17.765790939 17.500000000 1.2999999523 91199.843750 0.0296302605  -999.250000 1.9501169920 78.146133423 139.12260437 1.5194970369 1.3562035561  -999.250000  -999.250000 0.9336683750
 1206.3135986  -999.250000 17.895179749 17.500000000 1.2999999523 101170.60156 0.0183934048  -999.250000 1.9407335520 77.353240967 139.08520508 1.5108668804 1.5861016512  -999.250000  -999.250000 0.9396855235
 1206.4659424  -999.250000 18.563270569 17.500000000 1.2999999523 105353.10156 0.0088551724  -999.250000 1.9307739735 77.353836060 140.02639771 1.5013656616 1.7099759579  -999.250000  -999.250000 0.9287499189
 1206.6184082  -999.250000 18.220050812 17.500000000 1.2999999523 105258.50000 0.0022728725  -999.250000 1.9252253771 77.256950378 141.85749817 1.4188491106 1.6844475269  -999.250000  -999.250000 0.8650149703
 1206.7707520  -999.250000 19.047689438 17.500000000 1.2999999523 105025.29688 -0.001570416  -999.250000 1.9263042212 76.768989563 143.02540588 1.3691488504 1.4982283115  -999.250000  -999.250000 0.8635020256
 1206.9232178  -999.250000 18.932310104 17.500000000 1.2999999523 105387.39844 -0.002164748  -999.250000 1.9343700409 76.520668030 143.33509827 1.3455560207 1.1732938290  -999.250000  -999.250000 0.8608661890
 1207.0755615  -999.250000 18.405469894 17.500000000 1.2999999523 105671.50000 -0.001642754  -999.250000 1.9471997023 77.331520081 143.37060547 1.3337293863 0.7502860427  -999.250000  -999.250000 0.8591709733
 1207.2280273  -999.250000 18.144880295 17.500000000 1.2999999523 121733.89844 0.0002360745  -999.250000 1.9581600428 79.181961060 142.64509583 1.3768600225 0.2771881521  -999.250000  -999.250000 0.8943964243
 1207.3803711  -999.250000 17.922409058 17.500000000 1.2999999523 135417.00000 0.0065857382  -999.250000 1.9615492821 81.302429199 140.82969666 1.4975003004 -0.185489580  -999.250000  -999.250000 0.9625971913
 1207.5328369  -999.250000 18.640970230 17.500000000 1.2999999523 137364.79688 0.0111510502  -999.250000 1.9552979469 82.977706909 138.79200745 1.6269470453 -0.574150503  -999.250000  -999.250000 1.0193070173
 1207.6851807  -999.250000 18.050329208 17.500000000 1.2999999523 137402.29688 0.0077833715  -999.250000 1.9412982464 83.828170776 137.21760559 1.6810905933 -0.849713147  -999.250000  -999.250000 1.0255910158
 1207.8376465  -999.250000 17.860380173 17.500000000 1.2999999523 137406.09375 0.0040219850  -999.250000 1.9239399433 83.763908386 136.15100098 1.6969269514 -1.002216935  -999.250000  -999.250000 1.0404839516
 1207.9899902  -999.250000 17.730499268 17.500000000 1.2999999523 136823.50000 0.0008172332  -999.250000 1.9089460373 82.953048706 135.61129761 1.6815630198 -1.044385433  -999.250000  -999.250000 1.0485429764
 1208.1424561  -999.250000 17.934799194 17.500000000 1.2999999523 136364.09375 -0.002483782  -999.250000 1.9000699520 81.864791870 135.02270508 1.6586389542 -0.999575317  -999.250000  -999.250000 1.0268199444
 1208.2947998  -999.250000 17.673280716 17.500000000 1.2999999523 92350.976563 -0.003300018  -999.250000 1.8988770247 81.039093018 133.77450562 1.6678520441 -0.897949576  -999.250000  -999.250000 1.0388430357
 1208.4471436  -999.250000 17.640699387 17.500000000 1.2999999523 82199.523438 -0.002392265  -999.250000 1.9019509554 80.640296936 133.09590149 1.6470459700 -0.761316538  -999.250000  -999.250000 1.0184110403
 1208.5996094  -999.250000 17.990640640 17.500000000 1.2999999523 81697.500000 -0.004432810  -999.250000 1.9073790312 80.669158936 134.47039795 1.6182190180 -0.597507596  -999.250000  -999.250000 1.0099149942
 1208.7519531  -999.250000 17.926490784 17.500000000 1.2999999523 81705.789063 -0.004704528  -999.250000 1.9118570089 81.250022888 136.69450378 1.6047240496 -0.395501614  -999.250000  -999.250000 1.0112470388
 1208.9044189  -999.250000 17.821529388 17.500000000 1.2999999523 81714.179688 -0.000783264  -999.250000 1.9144090414 82.422103882 137.90930176 1.6012239456 -0.141012013  -999.250000  -999.250000 0.9992902875
 1209.0567627  -999.250000 18.077079773 17.500000000 1.2999999523 83037.968750 -0.000493644  -999.250000 1.9171910286 83.680282593 137.72520447 1.6114209890 0.1650256515  -999.250000  -999.250000 1.0101469755
 1209.2092285  -999.250000 17.839580536 17.500000000 1.2999999523 96542.671875 -0.003150893  -999.250000 1.9194279909 84.117324829 136.62719727 1.6399370432 0.5045956969  -999.250000  -999.250000 1.0279469490
 1209.3615723  -999.250000 18.090770721 17.500000000 1.2999999523 105388.20313 -0.002309398  -999.250000 1.9207049608 83.398117065 135.73179626 1.6554850340 0.8471866846  -999.250000  -999.250000 1.0274499655
 1209.5140381  -999.250000 17.915590286 17.500000000 1.2999999523 106207.00000 0.0001194005  -999.250000 1.9187530279 82.112564087 135.68739319 1.6348470449 1.1564867496  -999.250000  -999.250000 1.0328090191
