# LAS format log file from PETREL
# Project units are specified as depth units
#==================================================================
~Version information
VERS.   2.0:
WRAP.   NO:
#==================================================================
~Well
STRT .m      625.95562744 :
STOP .m      2455.8225098 :
STEP .m     0.00000000 :
NULL .        -999.250000 :
COMP.           : COMPANY
WELL.  25/6-3   : WELL
FLD.            : FIELD
LOC.            : LOCATION
SRVC.           : SERVICE COMPANY
DATE.  2018-09-11 14:48:22   : Log Export Date {yyyy-MM-dd HH:mm:ss}
PROV.           : PROVINCE
UWI.   25/6-3   : UNIQUE WELL ID
API.            : API NUMBER
#==================================================================
~Curve
DEPT .m                   : DEPTH
Lithology_geolink ._      : Lithology_geolink
CALI .in                  : CALI
BS .in                    : BS
NPHI .m3/m3               : NPHI
RHOB .g/cm3               : RHOB
GR .gAPI                  : GR
DTC .us/ft                : DTC
DTS .us/ft                : DTS
RDEP .ohm.m               : RDEP
SP .mV                    : SP
RSHA .ohm.m               : RSHA
RMIC .ohm.m               : RMIC
RMED .ohm.m               : RMED
~Parameter
#==================================================================
~Ascii
# ...
 2034.1317139 19.000000000 8.6702003479 8.5000000000 0.4337530136 2.2692999840 75.886703491 117.91970062  -999.250000 1.5470949411  -999.250000 1.2555295229 1.2796000242 1.6740909815
 2034.2840576 19.000000000 8.6456003189 8.5000000000 0.4369329810 2.2850000858 74.421600342 119.19030762  -999.250000 1.3566495180  -999.250000 1.1836832762 1.2044999599 1.4811351299
 2034.4365234 19.000000000 8.6456003189 8.5000000000 0.4356949925 2.2953000069 73.210700989 123.13809967  -999.250000 1.0445076227  -999.250000 0.9998205304 1.1395000219 1.1510078907
 2034.5888672 19.000000000 8.6702003479 8.5000000000 0.4927790165 2.2967998981 73.943702698 123.48889160  -999.250000 1.1117236614  -999.250000 0.7125390768 0.7037000060 1.2184317112
 2034.7412109 19.000000000 8.6702003479 8.5000000000 0.4895060062 2.2934999466 75.893096924 123.00060272  -999.250000 1.2659183741  -999.250000 0.7398043275 0.7312999964 1.3827245235
 2034.8936768 19.000000000 8.6702003479 8.5000000000 0.4940910041 2.3018999100 75.154998779 122.94560242  -999.250000 1.2888356447  -999.250000 0.9526756406 0.7578999996 1.4134432077
 2035.0460205 19.000000000 8.6785001755 8.5000000000 0.4752590060 2.3076000214 75.848701477 121.59980011  -999.250000 1.3332649469  -999.250000 1.3700835705 1.3655999899 1.4672677517
 2035.1984863 19.000000000 8.7031002045 8.5000000000 0.4613320231 2.3129000664 73.547996521 120.02660370  -999.250000 1.2894983292  -999.250000 1.3829654455 1.3796000481 1.4270077944
 2035.3508301 5.0000000000 8.7360000610 8.5000000000 0.4200590253 2.3187999725 76.465698242 120.45659637  -999.250000 1.2874369621  -999.250000 1.3854882717 1.3901000023 1.4366348982
 2035.5032959 5.0000000000 8.7566003799 8.5000000000 0.4190990031 2.3283998966 79.659500122 121.49829102  -999.250000 1.3337211609  -999.250000 1.3800590038 1.3756999969 1.4803178310
 2035.6556396 5.0000000000 8.7524003983 8.5000000000 0.4235950112 2.3361001015 84.260696411 123.04850006  -999.250000 1.4847657681  -999.250000 1.3492358923 1.3892999887 1.6271483898
 2035.8081055 5.0000000000 9.0073003769 8.5000000000 0.4301399887 2.3348999023 87.394302368 123.93640137  -999.250000 1.4416983128  -999.250000 1.2374691963 1.2641999722 1.5623838902
 2035.9604492 5.0000000000 8.7195997238 8.5000000000 0.4635710120 2.3208999634 88.741096497 124.27059937  -999.250000 1.1912502050  -999.250000 1.1631218195 1.1807999611 1.3029538393
 2036.1129150 5.0000000000 8.7195997238 8.5000000000 0.4428089857 2.3122999668 86.803703308 122.02030182  -999.250000 1.2540526390  -999.250000 1.1495102644 1.1255999804 1.3702573776
 2036.2652588 5.0000000000 8.8551998138 8.5000000000 0.4229010046 2.3004999161 85.835502625 120.63680267  -999.250000 1.3492866755  -999.250000 1.2535545826 1.2001999617 1.4684922695
 2036.4177246 19.000000000 8.7072000504 8.5000000000 0.4027619958 2.3008000851 79.539100647 118.73870087  -999.250000 1.4576855898  -999.250000 1.4608705044 1.3667999506 1.5840592384
 2036.5700684 19.000000000 8.6948995590 8.5000000000 0.4113239944 2.3013999462 73.958702087 117.35749817  -999.250000 1.6984491348  -999.250000 1.7616291046 1.6603000164 1.8707853556
 2036.7224121 19.000000000 8.6948995590 8.5000000000 0.4325630069 2.3215000629 66.465499878 117.72789764  -999.250000 2.1339256763  -999.250000 1.9213259220 1.9766999483 2.3515543938
 2036.8748779 19.000000000 8.7031002045 8.5000000000 0.4215390086 2.3336000443 68.480796814 118.34490204  -999.250000 2.2904403210  -999.250000 1.7425873280 1.8035000563 2.5443279743
 2037.0272217 19.000000000 8.7112998962 8.5000000000 0.4274399877 2.3301000595 73.213600159 116.98940277  -999.250000 2.0908739567  -999.250000 1.5509562492 1.6132999659 2.3294322491
 2037.1796875 19.000000000 8.7072000504 8.5000000000 0.4424580038 2.3210000992 77.693801880 118.60729980  -999.250000 1.6836854219  -999.250000 1.4028834105 1.4183000326 1.8704707623
 2037.3320313 19.000000000 8.6948995590 8.5000000000 0.4685520232 2.3187999725 77.481498718 120.47720337  -999.250000 1.5407674313  -999.250000 1.3569734097 1.3702000380 1.7093594074
 2037.4844971 19.000000000 8.7112998962 8.5000000000 0.4967670143 2.3208000660 77.481498718 120.08370209  -999.250000 1.5000586510  -999.250000 1.3424576521 1.3288999796 1.6585570574
 2037.6368408 19.000000000 8.7319002151 8.5000000000 0.4965779781 2.3148999214 82.067901611 119.21691132  -999.250000 1.4484809637  -999.250000 1.3770285845 1.3711999655 1.6049770117
 2037.7893066 19.000000000 8.7195997238 8.5000000000 0.5454019904 2.3094000816 77.600898743 118.63590240  -999.250000 1.4246338606  -999.250000 1.3836628199 1.3894000053 1.5762332678
 2037.9416504 19.000000000 8.7441997528 8.5000000000 0.5674459934 2.3057999611 72.747100830 120.12920380  -999.250000 1.3421025276  -999.250000 1.2966240644 1.3715000153 1.4929090738
 2038.0941162 19.000000000 8.7441997528 8.5000000000 0.5463880301 2.3085000515 63.680599213 121.48810577  -999.250000 1.2209510803  -999.250000 1.1432127953 1.1376999617 1.3800356388
 2038.2464600 19.000000000 8.7319002151 8.5000000000 0.4822070003 2.3092000484 63.559501648 120.02580261  -999.250000 1.5023770332  -999.250000 1.2339391708 1.1548999548 1.7142097950
 2038.3989258 19.000000000 8.7112998962 8.5000000000 0.4636029899 2.3132998943 62.228298187 116.96589661  -999.250000 1.7238643169  -999.250000 1.6286551952 1.4017000198 1.9765585661
 2038.5512695 19.000000000 8.7031002045 8.5000000000 0.4451220036 2.3199999332 60.775199890 114.54419708  -999.250000 2.1381602287  -999.250000 2.1212012768 2.1098001003 2.4495482445
 2038.7037354 19.000000000 8.6948995590 8.5000000000 0.4588489830 2.3355000019 55.848499298 113.76830292  -999.250000 2.2129952908  -999.250000 2.0013616085 2.1454000473 2.5091578960
 2038.8560791 19.000000000 8.6948995590 8.5000000000 0.4584519863 2.3450000286 56.463699341 115.56760406  -999.250000 1.9606168270  -999.250000 1.6384179592 1.6959999800 2.2334053516
 2039.0084229 19.000000000 8.6702003479 8.5000000000 0.4547890127 2.3494999409 60.447898865 114.90869904  -999.250000 1.8568649292  -999.250000 1.4850920439 1.5161999464 2.1154599190
 2039.1608887 19.000000000 8.6785001755 8.5000000000 0.4615739882 2.3447000980 66.706497192 113.36920166  -999.250000 1.8130602837  -999.250000 1.4194128513 1.4189000130 2.0653462410
 2039.3132324 19.000000000 8.6785001755 8.5000000000 0.4648289979 2.3477001190 69.249298096 113.48999786  -999.250000 1.6386222839  -999.250000 1.4012526274 1.4205000401 1.8734033108
 2039.4656982 19.000000000 8.6702003479 8.5000000000 0.4561259747 2.3487000465 64.771400452 112.77349854  -999.250000 1.4172028303  -999.250000 1.3684768677 1.3603999615 1.6283643246
 2039.6180420 19.000000000 8.6826000214 8.5000000000 0.4157450199 2.3510999680 58.596000671 111.04029846  -999.250000 1.9192689657  -999.250000 1.4378657341 1.3855999708 2.2070538998
 2039.7705078 19.000000000 8.6826000214 8.5000000000 0.4093109965 2.3450999260 54.832901001 110.92079926  -999.250000 1.6312249899  -999.250000 1.5343128443 1.5487999916 1.9003213644
 2039.9228516 19.000000000 8.6702003479 8.5000000000 0.4289680123 2.3345000744 55.326698303 111.26950073  -999.250000 1.9120619297  -999.250000 1.4749370813 1.5036000013 2.1766033173
 2040.0753174 19.000000000 8.6948995590 8.5000000000 0.4281740189 2.3350999355 57.837299347 111.37989807  -999.250000 2.2387228012  -999.250000 1.3429141045 1.4141000509 2.5549609661
 2040.2276611 19.000000000 8.6948995590 8.5000000000 0.4412559867 2.3364999294 61.600299835 112.18459320  -999.250000 2.2530002594  -999.250000 1.2738574743 1.1920000315 2.5929980278
 2040.3801270 19.000000000 8.6948995590 8.5000000000 0.4719620049 2.3371000290 62.922000885 113.10759735  -999.250000 2.2532994747  -999.250000 1.5378885269 1.4476000071 2.5906932354
 2040.5324707 19.000000000 8.6948995590 8.5000000000 0.5556010008 2.3348000050 61.864398956 114.17600250  -999.250000 2.2529971600  -999.250000 1.8447203636 1.7293000221 2.5866076946
 2040.6849365 19.000000000 8.6948995590 8.5000000000 0.5051810145 2.3387000561 62.469799042 112.63730621  -999.250000 2.2494175434  -999.250000 2.1150527000 2.0896999836 2.5959968567
