# LAS format log file from PETREL
# Project units are specified as depth units
#==================================================================
~Version information
VERS.   2.0:
WRAP.   NO:
#==================================================================
~Well
STRT .m      1025.4147949 :
STOP .m      2373.8500977 :
STEP .m     0.00000000 :
NULL .        -999.250000 :
COMP.           : COMPANY
WELL.  25/6-2  Delta-Beta   : WELL
FLD.            : FIELD
LOC.            : LOCATION
SRVC.           : SERVICE COMPANY
DATE.  2018-09-11 14:48:22   : Log Export Date {yyyy-MM-dd HH:mm:ss}
PROV.           : PROVINCE
UWI.   25/6-2   : UNIQUE WELL ID
API.            : API NUMBER
#==================================================================
~Curve
DEPT .m                   : DEPTH
Lithology_geolink ._      : Lithology_geolink
CALI .in                  : CALI
BS .in                    : BS
MUDWEIGHT ._              : MUDWEIGHT
ROP .m/h                  : ROP
DRHO .g/cm3               : DRHO
NPHI .m3/m3               : NPHI
RHOB .g/cm3               : RHOB
GR .gAPI                  : GR
DTC .us/ft                : DTC
RDEP .ohm.m               : RDEP
SP .mV                    : SP
RSHA .ohm.m               : RSHA
RMIC .ohm.m               : RMIC
RMED .ohm.m               : RMED
~Parameter
#==================================================================
~Ascii
# ...
 1922.8984375  -999.250000 17.963560104 17.500000000 1.3500000238 42407.281250 0.0130158188  -999.250000 2.2747988701 74.309455872 135.44799805 0.8871871829 2.3737692833  -999.250000  -999.250000 0.6076580882
 1923.0509033  -999.250000 17.948129654 17.500000000 1.3500000238 42008.609375 0.0240782630  -999.250000 2.2721862793 74.421844482 134.75950623 0.8645787835 2.2012579441  -999.250000  -999.250000 0.5963249207
 1923.2032471  -999.250000 17.997240067 17.500000000 1.3500000238 41956.421875 0.0319009200  -999.250000 2.2787497044 74.993804932 132.83779907 0.8506510854 1.9659101963  -999.250000  -999.250000 0.5796977282
 1923.3557129  -999.250000 18.177860260 17.500000000 1.3500000238 41526.328125 0.0476233549  -999.250000 2.2920858860 76.082481384 129.61869812 0.8446890116 1.7078846693  -999.250000  -999.250000 0.5820531249
 1923.5080566  -999.250000 18.230049133 17.500000000 1.3500000238 41337.480469 0.0561483353  -999.250000 2.3092176914 77.611953735 125.42340851 0.8359305859 1.4693974257  -999.250000  -999.250000 0.5770862103
 1923.6605225  -999.250000 17.953149796 17.500000000 1.3500000238 41341.140625 0.0555760190  -999.250000 2.3249161243 79.039291382 121.99369812 0.8366066813 1.2835460901  -999.250000  -999.250000 0.5601128936
 1923.8128662  -999.250000 17.842580795 17.500000000 1.3500000238 41363.800781 0.0514150448  -999.250000 2.3362195492 79.538932800 122.18680573 0.8444672823 1.1681858301  -999.250000  -999.250000 0.5857936144
 1923.9653320  -999.250000 17.793369293 17.500000000 1.3500000238 41387.648438 0.0435856096  -999.250000 2.3418157101 78.656188965 125.38909912 0.8566107154 1.1260592937  -999.250000  -999.250000 0.5847272873
 1924.1176758  -999.250000 17.887489319 17.500000000 1.3500000238 41534.839844 0.0259649940  -999.250000 2.3429265022 76.398384094 126.71540070 0.8705993295 1.1496987343  -999.250000  -999.250000 0.5792500973
 1924.2701416  -999.250000 17.825839996 17.500000000 1.3500000238 44345.339844 0.0156771131  -999.250000 2.3422505856 73.459365845 124.89859772 0.8766812086 1.2197380066  -999.250000  -999.250000 0.5840538144
 1924.4224854  -999.250000 17.834470749 17.500000000 1.3500000238 46682.269531 0.0127779422  -999.250000 2.3420178890 71.120849609 123.63490295 0.8683025837 1.3057630062  -999.250000  -999.250000 0.5866029263
 1924.5749512  -999.250000 18.065559387 17.500000000 1.3500000238 47001.558594 0.0107080620  -999.250000 2.3419976234 70.575653076 124.30359650 0.8870601058 1.3793109655  -999.250000  -999.250000 0.6196299195
 1924.7272949  -999.250000 18.439750671 17.500000000 1.3500000238 47026.441406 0.0088644708  -999.250000 2.3404991627 71.979820251 125.36150360 0.9369876981 1.4298815727  -999.250000  -999.250000 0.6517462134
 1924.8796387  -999.250000 18.130060196 17.500000000 1.3500000238 46966.109375 0.0094702113  -999.250000 2.3370354176 74.228179932 126.80149841 1.0076320171 1.4716987610  -999.250000  -999.250000 0.7023969293
 1925.0321045  -999.250000 17.928270340 17.500000000 1.3500000238 46464.738281 0.0095225666  -999.250000 2.3300721645 76.344200134 128.71189880 1.0690259933 1.5373435020  -999.250000  -999.250000 0.7228789926
 1925.1844482  -999.250000 17.880989075 17.500000000 1.3500000238 46698.328125 0.0103496574  -999.250000 2.3191504478 78.525459290 130.63209534 1.0765080452 1.6572371721  -999.250000  -999.250000 0.7093216777
 1925.3369141  -999.250000 17.922479630 17.500000000 1.3500000238 56751.250000 0.0098215025  -999.250000 2.3072204590 81.619163513 132.70230103 1.0331120491 1.8377422094  -999.250000  -999.250000 0.6795145869
 1925.4892578 6.0000000000 17.948089600 17.500000000 1.3500000238 61779.128906 0.0093564335  -999.250000 2.2952246666 85.624763489 134.75880432 0.9668887854 2.0571537018  -999.250000  -999.250000 0.6214886904
 1925.6417236 6.0000000000 17.975940704 17.500000000 1.3500000238 62343.105469 0.0089169070  -999.250000 2.2847232819 89.377021790 136.73559570 0.8887373805 2.2714371681  -999.250000  -999.250000 0.5872806907
 1925.7940674 6.0000000000 17.983440399 17.500000000 1.3500000238 62367.511719 0.0087852562  -999.250000 2.2776865959 91.827552795 137.90580750 0.8415027261 2.4260642529  -999.250000  -999.250000 0.5796942115
 1925.9465332 6.0000000000 17.902370453 17.500000000 1.3500000238 62391.445313 0.0089262556  -999.250000 2.2746117115 93.059860229 137.82609558 0.8332151771 2.4825637341  -999.250000  -999.250000 0.5827584863
 1926.0988770 6.0000000000 17.900199890 17.500000000 1.3500000238 61642.406250 0.0116103329  -999.250000 2.2755379677 93.936050415 137.71080017 0.8332250118 2.4298782349  -999.250000  -999.250000 0.5688623190
 1926.2513428 6.0000000000 17.975839615 17.500000000 1.3500000238 38045.300781 0.0116183218  -999.250000 2.2789700031 94.889183044 138.07539368 0.8224483132 2.2771961689  -999.250000  -999.250000 0.5515670180
 1926.4036865 6.0000000000 17.986309052 17.500000000 1.3500000238 26465.949219 0.0141431484  -999.250000 2.2851781845 95.555175781 138.43899536 0.8086199760 2.0432322025  -999.250000  -999.250000 0.5435513258
 1926.5561523 6.0000000000 18.031469345 17.500000000 1.3500000238 25247.080078 0.0197788160  -999.250000 2.2928781509 95.214790344 139.11830139 0.7993522286 1.7532764673  -999.250000  -999.250000 0.5555161238
 1926.7084961 6.0000000000 17.998659134 17.500000000 1.3500000238 25271.800781 0.0205369014  -999.250000 2.3016061783 93.401588440 139.81809998 0.7937679887 1.4417574406  -999.250000  -999.250000 0.5596684813
 1926.8609619 6.0000000000 17.880310059 17.500000000 1.3500000238 25295.550781 0.0201796740  -999.250000 2.3128433228 90.303672791 139.03729248 0.7986865044 1.1541305780  -999.250000  -999.250000 0.5479757190
 1927.0133057 6.0000000000 17.752910614 17.500000000 1.3500000238 25319.470703 0.0219739340  -999.250000 2.3255310059 86.620018005 136.58529663 0.7934163213 0.9388806820  -999.250000  -999.250000 0.5360212922
 1927.1656494 6.0000000000 17.732490540 17.500000000 1.3500000238 25344.400391 0.0182337556  -999.250000 2.3392558098 83.072891235 130.47300720 0.7936787009 0.8244294524  -999.250000  -999.250000 0.5399240851
 1927.3181152 6.0000000000 17.733730316 17.500000000 1.3500000238 40248.218750 0.0114229638  -999.250000 2.3502397537 79.669471741 122.03639984 0.8017957807 0.8169407845  -999.250000  -999.250000 0.5522841811
 1927.4704590 16.000000000 17.745979309 17.500000000 1.3500000238 57529.644531 0.0070010247  -999.250000 2.3550610542 76.030342102 116.56320190 0.8247997761 0.8990576863  -999.250000  -999.250000 0.5765671134
 1927.6229248 5.0000000000 17.726490021 17.500000000 1.3500000238 59639.246094 0.0078444080  -999.250000 2.3499433994 72.477737427 112.83380127 0.9268360734 1.0374115705  -999.250000  -999.250000 0.6560814977
 1927.7752686 5.0000000000 17.614000320 17.500000000 1.3500000238 59286.214844 0.0065490264  -999.250000 2.3369014263 70.470848083 112.07199860 1.1048970222 1.1977949142  -999.250000  -999.250000 0.7644965053
 1927.9277344 5.0000000000 17.638969421 17.500000000 1.3500000238 58969.707031 0.0030351528  -999.250000 2.3197803497 71.328422546 119.12660217 1.1898369789 1.3560345173  -999.250000  -999.250000 0.7715042830
 1928.0800781 5.0000000000 17.935529709 17.500000000 1.3500000238 58640.308594 0.0032368454  -999.250000 2.3040819168 74.449188232 129.65130615 1.1342589855 1.5076538324  -999.250000  -999.250000 0.7340804935
 1928.2325439 6.0000000000 17.813779831 17.500000000 1.3500000238 49449.160156 0.0062049907  -999.250000 2.2950258255 77.782768250 135.33850098 0.9854887724 1.6621249914  -999.250000  -999.250000 0.6333439946
 1928.3848877 6.0000000000 17.731870651 17.500000000 1.3500000238 39916.070313 0.0038295749  -999.250000 2.2931299210 79.649703979 136.10549927 0.8589609861 1.8346997499  -999.250000  -999.250000 0.5682070255
 1928.5373535 6.0000000000 17.765989304 17.500000000 1.3500000238 38665.578125 -0.001218550  -999.250000 2.2967531681 80.039230347 135.80659485 0.8257989883 2.0297572613  -999.250000  -999.250000 0.5496242046
 1928.6896973 6.0000000000 17.779880524 17.500000000 1.3500000238 38688.808594 -0.002797776  -999.250000 2.3024063110 79.750816345 135.35560608 0.8656898141 2.2335388660  -999.250000  -999.250000 0.5885667205
