# LAS format log file from PETREL
# Project units are specified as depth units
#==================================================================
~Version information
VERS.   2.0:
WRAP.   NO:
#==================================================================
~Well
STRT .m      1025.4147949 :
STOP .m      2373.8500977 :
STEP .m     0.00000000 :
NULL .        -999.250000 :
COMP.           : COMPANY
WELL.  25/6-2  Delta-Beta   : WELL
FLD.            : FIELD
LOC.            : LOCATION
SRVC.           : SERVICE COMPANY
DATE.  2018-09-11 14:48:22   : Log Export Date {yyyy-MM-dd HH:mm:ss}
PROV.           : PROVINCE
UWI.   25/6-2   : UNIQUE WELL ID
API.            : API NUMBER
#==================================================================
~Curve
DEPT .m                   : DEPTH
Lithology_geolink ._      : Lithology_geolink
CALI .in                  : CALI
BS .in                    : BS
MUDWEIGHT ._              : MUDWEIGHT
ROP .m/h                  : ROP
DRHO .g/cm3               : DRHO
NPHI .m3/m3               : NPHI
RHOB .g/cm3               : RHOB
GR .gAPI                  : GR
DTC .us/ft                : DTC
RDEP .ohm.m               : RDEP
SP .mV                    : SP
RSHA .ohm.m               : RSHA
RMIC .ohm.m               : RMIC
RMED .ohm.m               : RMED
~Parameter
#==================================================================
~Ascii
# ...
 1471.1849365  -999.250000 18.411529541 17.500000000 1.3500000238 83683.843750 0.0039566201  -999.250000 2.0633099079 79.327362061 144.71290588 1.2552920580 0.6625244021  -999.250000  -999.250000 0.8274226785
 1471.3372803  -999.250000 18.394819260 17.500000000 1.3500000238 79955.593750 0.0051880488  -999.250000 2.0645101070 78.346710205 146.28739929 1.2016069889 0.7105432749  -999.250000  -999.250000 0.7754393816
 1471.4896240  -999.250000 18.344320297 17.500000000 1.3500000238 79479.867188 0.0063006198  -999.250000 2.0694348812 77.129417419 146.71870422 1.1512030363 0.8307710290  -999.250000  -999.250000 0.7534497976
 1471.6420898  -999.250000 18.317989349 17.500000000 1.3500000238 79484.296875 0.0063235699  -999.250000 2.0775990486 75.844230652 146.24130249 1.1236549616 0.9941755533  -999.250000  -999.250000 0.7419477105
 1471.7944336  -999.250000 18.382600784 17.500000000 1.3500000238 79498.070313 0.0059592668  -999.250000 2.0850501060 74.884101868 145.11419678 1.1337349415 1.1773053408  -999.250000  -999.250000 0.7525827289
 1471.9468994  -999.250000 18.311059952 17.500000000 1.3500000238 79512.703125 0.0034552200  -999.250000 2.0898520947 74.787620544 143.73750305 1.1436400414 1.3715844154  -999.250000  -999.250000 0.7529304028
 1472.0992432  -999.250000 18.446689606 17.500000000 1.3500000238 75235.343750 0.0016581300  -999.250000 2.0879418850 75.870788574 142.95829773 1.1397980452 1.5808413029  -999.250000  -999.250000 0.7498536706
 1472.2517090  -999.250000 18.601060867 17.500000000 1.3500000238 69313.578125 0.0014233380  -999.250000 2.0796179771 77.854415894 143.56759644 1.1260780096 1.8158782721  -999.250000  -999.250000 0.7415860295
 1472.4040527  -999.250000 18.580200195 17.500000000 1.3500000238 68501.523438 0.0023185071  -999.250000 2.0667440891 79.962387085 145.90370178 1.1027050018 2.0855963230  -999.250000  -999.250000 0.7332084179
 1472.5565186  -999.250000 18.691940308 17.500000000 1.3500000238 68516.343750 0.0091302535  -999.250000 2.0543129444 81.302482605 149.06579590 1.0503369570 2.3837525845  -999.250000  -999.250000 0.6798132062
 1472.7088623  -999.250000 18.591350555 17.500000000 1.3500000238 68530.867188 0.0156966802  -999.250000 2.0460031033 81.602958679 151.23431396 1.0249619484 2.6734905243  -999.250000  -999.250000 0.6879733205
 1472.8613281  -999.250000 18.550479889 17.500000000 1.3500000238 68546.140625 0.0184198897  -999.250000 2.0433850288 81.265106201 151.46020508 1.0240050554 2.8989272118  -999.250000  -999.250000 0.6951354742
 1473.0136719  -999.250000 18.488830566 17.500000000 1.3500000238 69525.617188 0.0164736696  -999.250000 2.0452558994 80.993911743 150.21409607 1.0367139578 3.0085432529  -999.250000  -999.250000 0.6989619732
 1473.1661377  -999.250000 18.644889832 17.500000000 1.3500000238 99626.101563 0.0105210003  -999.250000 2.0496718884 80.965332031 148.71910095 1.0640430450 2.9638597965  -999.250000  -999.250000 0.7184767723
 1473.3184814  -999.250000 18.745620728 17.500000000 1.3500000238 108676.79688 0.0019694129  -999.250000 2.0531439781 80.575592041 147.89579773 1.0841740370 2.7559399605  -999.250000  -999.250000 0.7282484174
 1473.4709473  -999.250000 18.811040878 17.500000000 1.3500000238 109373.79688 0.0004195979  -999.250000 2.0546898842 79.160728455 147.51130676 1.0903010368 2.4174780846  -999.250000  -999.250000 0.7291610837
 1473.6232910  -999.250000 18.640430450 17.500000000 1.3500000238 109115.90625 0.0001075629  -999.250000 2.0527439117 76.808601379 146.86129761 1.1152720451 2.0161707401  -999.250000  -999.250000 0.7490581870
 1473.7756348  -999.250000 18.698930740 17.500000000 1.3500000238 108761.70313 0.0008334870  -999.250000 2.0460929871 74.489875793 145.64739990 1.1495100260 1.6306657791  -999.250000  -999.250000 0.7614389062
 1473.9281006  -999.250000 18.591659546 17.500000000 1.3500000238 108706.79688 0.0036984261  -999.250000 2.0344560146 73.128616333 144.14379883 1.1947720051 1.3286845684  -999.250000  -999.250000 0.7905281186
 1474.0804443  -999.250000 18.562410355 17.500000000 1.3500000238 89195.382813 0.0043945778  -999.250000 2.0200619698 72.952980042 143.16760254 1.2280269861 1.1321657896  -999.250000  -999.250000 0.8082327843
 1474.2329102  -999.250000 18.655889511 17.500000000 1.3500000238 48842.300781 0.0005344885  -999.250000 2.0065879822 73.422752380 143.12609863 1.2359340191 1.0150696039  -999.250000  -999.250000 0.8140090704
 1474.3852539  -999.250000 18.522329330 17.500000000 1.3500000238 43108.628906 -0.000501121  -999.250000 1.9995130301 74.033157349 143.29409790 1.2321319580 0.9337331653  -999.250000  -999.250000 0.8074743152
 1474.5377197  -999.250000 18.868970871 17.500000000 1.3500000238 43141.371094 0.0021724380  -999.250000 2.0010759830 74.806190491 143.06239319 1.2403500080 0.8550976515  -999.250000  -999.250000 0.8230156898
 1474.6900635  -999.250000 18.559030533 17.500000000 1.3500000238 43156.738281 0.0062708291  -999.250000 2.0116209984 75.850730896 142.91760254 1.2490530014 0.7801802754  -999.250000  -999.250000 0.8098390102
 1474.8425293  -999.250000 18.444679260 17.500000000 1.3500000238 43171.089844 0.0090548526  -999.250000 2.0266859531 76.992897034 143.30949402 1.2547459602 0.7448006272  -999.250000  -999.250000 0.8178473711
 1474.9948730  -999.250000 18.367599487 17.500000000 1.3500000238 43648.750000 0.0121919196  -999.250000 2.0403959751 77.888122559 143.98210144 1.2235310078 0.7932668328  -999.250000  -999.250000 0.7931641936
 1475.1473389  -999.250000 18.310710907 17.500000000 1.3500000238 176892.00000 0.0132770501  -999.250000 2.0482308865 78.614196777 144.78909302 1.1891429424 0.9421088696  -999.250000  -999.250000 0.7734717131
 1475.2996826  -999.250000 18.285949707 17.500000000 1.3500000238 259477.90625 0.0117802704  -999.250000 2.0483970642 79.434326172 145.87840271 1.1508530378 1.1668244600  -999.250000  -999.250000 0.7520539761
 1475.4521484  -999.250000 18.270120621 17.500000000 1.3500000238 269180.09375 0.0093279909  -999.250000 2.0435650349 80.085105896 147.04040527 1.1140769720 1.4250776768  -999.250000  -999.250000 0.7269428968
 1475.6044922  -999.250000 18.242420197 17.500000000 1.3500000238 269195.09375 0.0102417301  -999.250000 2.0376379490 79.912055969 147.73309326 1.0855439901 1.6731009483  -999.250000  -999.250000 0.7137510180
 1475.7568359  -999.250000 18.246519089 17.500000000 1.3500000238 269172.50000 0.0116066802  -999.250000 2.0361120701 78.693428040 147.93389893 1.0698870420 1.8825409412  -999.250000  -999.250000 0.7044460177
 1475.9093018  -999.250000 18.226589203 17.500000000 1.3500000238 268621.18750 0.0091662090  -999.250000 2.0412189960 77.205528259 147.75509644 1.0580220222 2.0513570309  -999.250000  -999.250000 0.6976876259
 1476.0616455  -999.250000 18.149520874 17.500000000 1.3500000238 268057.18750 0.0093501471  -999.250000 2.0525579453 76.342605591 146.71009827 1.0954719782 2.1818268299  -999.250000  -999.250000 0.7403628230
 1476.2141113  -999.250000 18.138690948 17.500000000 1.3500000238 118607.10938 0.0175334904  -999.250000 2.0654489994 76.153076172 145.23489380 1.1533770561 2.2656645775  -999.250000  -999.250000 0.7637475729
 1476.3664551  -999.250000 18.035539627 17.500000000 1.3500000238 95141.851563 0.0236464906  -999.250000 2.0747239590 76.142662048 145.04620361 1.1700299978 2.2878942490  -999.250000  -999.250000 0.7625489831
 1476.5189209  -999.250000 18.095819473 17.500000000 1.3500000238 95157.039063 0.0200791303  -999.250000 2.0753600597 76.061386108 146.64639282 1.1384160519 2.2274787426  -999.250000  -999.250000 0.7409034967
 1476.6712646  -999.250000 18.145790100 17.500000000 1.3500000238 95171.609375 0.0160544198  -999.250000 2.0675790310 76.206100464 148.76300049 1.1036889553 2.0672476292  -999.250000  -999.250000 0.7172603011
 1476.8237305  -999.250000 19.099250793 17.500000000 1.3500000238 95185.992188 0.0140282596  -999.250000 2.0547490120 76.836822510 150.08659363 1.0703020096 1.8065516949  -999.250000  -999.250000 0.6971992850
 1476.9760742  -999.250000 18.792100906 17.500000000 1.3500000238 95201.648438 0.0158792697  -999.250000 2.0408210754 77.861656189 150.30810547 1.0622600317 1.4744783640  -999.250000  -999.250000 0.7064769864
