# LAS format log file from PETREL
# Project units are specified as depth units
#==================================================================
~Version information
VERS.   2.0:
WRAP.   NO:
#==================================================================
~Well
STRT .m      625.95562744 :
STOP .m      2455.8225098 :
STEP .m     0.00000000 :
NULL .        -999.250000 :
COMP.           : COMPANY
WELL.  25/6-3   : WELL
FLD.            : FIELD
LOC.            : LOCATION
SRVC.           : SERVICE COMPANY
DATE.  2018-09-11 14:48:22   : Log Export Date {yyyy-MM-dd HH:mm:ss}
PROV.           : PROVINCE
UWI.   25/6-3   : UNIQUE WELL ID
API.            : API NUMBER
#==================================================================
~Curve
DEPT .m                   : DEPTH
Lithology_geolink ._      : Lithology_geolink
CALI .in                  : CALI
BS .in                    : BS
NPHI .m3/m3               : NPHI
RHOB .g/cm3               : RHOB
GR .gAPI                  : GR
DTC .us/ft                : DTC
DTS .us/ft                : DTS
RDEP .ohm.m               : RDEP
SP .mV                    : SP
RSHA .ohm.m               : RSHA
RMIC .ohm.m               : RMIC
RMED .ohm.m               : RMED
~Parameter
#==================================================================
~Ascii
# ...
 2449.8789063  -999.250000 8.7278003693 8.5000000000 0.3534740210 2.4537999630 34.560501099 92.893997192  -999.250000 1.3904999495  -999.250000 1.7878820896 1.5765999556 1.6559000015
 2450.0312500  -999.250000 8.7688999176 8.5000000000 0.3704569936 2.4753000736 35.199001312 88.456001282  -999.250000 1.7930999994  -999.250000 2.8789091110 2.2358000278 1.9850000143
 2450.1838379  -999.250000 8.8346996307 8.5000000000 0.3624215424 2.5156493187 35.737400055 82.059844971  -999.250000 2.2567412853  -999.250000 4.8982877731 4.2455635071 2.4239468575
 2450.3361816  -999.250000 8.7195997238 8.5000000000 0.3739587963 2.5464100838 36.411800385 78.530303955  -999.250000 2.7809395790  -999.250000 5.3000426292 6.2739305496 2.8892476559
 2450.4885254  -999.250000 8.5715999603 8.5000000000 0.3619710207 2.5525999069 38.027999878 75.287902832  -999.250000 2.8055999279  -999.250000 2.9581563473 3.2353999615 2.8564999104
 2450.6408691  -999.250000 8.5715999603 8.5000000000 0.3783710003 2.5346999168  -999.250000 73.720703125  -999.250000 2.7964000702  -999.250000 2.6350154877 2.3703999519 2.8287999630
 2450.7934570  -999.250000 8.6372995377 8.5000000000 0.3778651953 2.5384387970  -999.250000 71.195587158  -999.250000 3.2032506466  -999.250000 4.4937062263 3.2024562359 3.1538741589
 2450.9458008  -999.250000 8.5305004120 8.5000000000 0.3686071932 2.5626175404  -999.250000 70.051948547  -999.250000 6.9828534126  -999.250000 8.3441801071 7.2302694321 6.5110888481
 2451.0981445  -999.250000 8.6209001541 8.5000000000 0.3412910402 2.5736072063  -999.250000 61.421417236  -999.250000 13.308724403  -999.250000 9.7997169495 10.695620537 12.174469948
 2451.2504883  -999.250000 8.6290998459 8.5000000000 0.3313339949 2.5780999660  -999.250000 61.118499756  -999.250000 13.573300362  -999.250000 7.2706885338 7.9004001617 12.717100143
 2451.4030762  -999.250000 8.5797996521 8.5000000000 0.3405724168 2.5798006058  -999.250000 57.120845795  -999.250000 9.7799959183  -999.250000 5.8869638443 5.9354577065 9.3692178726
 2451.5554199  -999.250000 8.5387001038 8.5000000000 0.3545432687 2.5802781582  -999.250000 57.149074554  -999.250000 8.0937070847  -999.250000 5.6671819687 5.7838168144 7.8836617470
 2451.7077637  -999.250000 8.5139999390 8.5000000000 0.3615824580 2.5665700436  -999.250000 58.503822327  -999.250000 6.9766073227  -999.250000 5.4559078217 5.4206757545 6.9252214432
 2451.8601074  -999.250000 8.4851999283 8.5000000000 0.3749779761 2.5478000641  -999.250000 58.828800201  -999.250000 6.9201240540  -999.250000 5.5439972878 5.5306000710 6.8775095940
 2452.0124512  -999.250000 8.4565000534 8.5000000000 0.3601259887 2.5434999466  -999.250000 58.325500488  -999.250000 7.6233487129  -999.250000 5.5977525711 5.5724000931 7.6967692375
 2452.1650391  -999.250000 8.4399995804 8.5000000000 0.3497552276 2.5489051342  -999.250000 65.413719177  -999.250000 9.5202379227  -999.250000 5.3592448235 5.6500463486 9.9185695648
 2452.3173828  -999.250000 8.4070997238 8.5000000000 0.3330732286 2.5520877838  -999.250000 64.677970886  -999.250000 8.7197208405  -999.250000 4.4566898346 4.7427697182 9.3772478104
 2452.4697266  -999.250000 8.3989000320 8.5000000000 0.3300970197 2.5445001125  -999.250000 66.530097961  -999.250000 7.2360153198  -999.250000 3.7596871853 3.8501999378 7.9106311798
 2452.6220703  -999.250000 8.4070997238 8.5000000000 0.3311719894 2.5339999199  -999.250000 69.110702515  -999.250000 6.3726215363  -999.250000 3.6074473858 3.5678000450 7.0572376251
 2452.7746582  -999.250000 8.4317998886 8.5000000000  -999.250000 2.5368266106  -999.250000 68.531654358  -999.250000 6.0121507645  -999.250000 3.7083787918 3.6915838718 6.7067623138
 2452.9270020  -999.250000 8.4729003906 8.5000000000  -999.250000 2.5534248352  -999.250000 65.818115234  -999.250000 5.9344439507  -999.250000 3.8329973221 3.7443432808 6.6328730583
 2453.0793457  -999.250000 8.4482002258 8.5000000000  -999.250000 2.5687956810  -999.250000 63.273021698  -999.250000 5.9618496895  -999.250000 4.1039233208 4.0209150314 6.6786065102
 2453.2316895  -999.250000 8.4729003906 8.5000000000  -999.250000 2.5660998821  -999.250000 60.852500916  -999.250000 6.0543665886  -999.250000 4.4649963379 4.2799000740 6.8064684868
 2453.3842773  -999.250000 8.4791002274 8.5000000000  -999.250000 2.5561861992  -999.250000 54.393939972  -999.250000 5.6586475372  -999.250000 4.8959894180 4.8575921059 6.4114074707
 2453.5366211  -999.250000 8.4482002258 8.5000000000  -999.250000 2.5475993156  -999.250000 59.532325745  -999.250000 5.2688946724  -999.250000 5.0111832619 4.9773693085 5.8534030914
 2453.6889648  -999.250000 8.4482002258 8.5000000000  -999.250000 2.5470919609  -999.250000 60.798706055  -999.250000 5.5155148506  -999.250000 5.1161785126 5.0828661919 6.0427684784
 2453.8413086  -999.250000 8.4544000626 8.5000000000  -999.250000 2.5420999527  -999.250000 63.298301697  -999.250000 5.8990592957  -999.250000 5.2170243263 5.1868000031 6.3977136612
 2453.9936523  -999.250000 8.4482002258 8.5000000000  -999.250000 2.5371000767  -999.250000 62.796298981  -999.250000 6.3724489212  -999.250000 5.2914204597 5.2810997963 6.8428702354
 2454.1462402  -999.250000 8.4482002258 8.5000000000  -999.250000 2.5390155315  -999.250000 61.846168518  -999.250000 6.6536836624  -999.250000 5.3126878738 5.3132972717 7.1372942924
 2454.2985840  -999.250000 8.4482002258 8.5000000000  -999.250000 2.5486352444  -999.250000 60.512931824  -999.250000 7.1488065720  -999.250000 5.3061256409 5.3113737106 7.6358327866
 2454.4509277  -999.250000 8.4482002258 8.5000000000  -999.250000 2.5706999302  -999.250000 59.657699585  -999.250000 8.3397789001  -999.250000 5.2785258293 5.2950000763 8.8429822922
 2454.6032715  -999.250000 8.4399995804 8.5000000000  -999.250000 2.5708999634  -999.250000 60.192600250  -999.250000 10.383440018  -999.250000 5.2212920189 5.2435998917 10.826075554
 2454.7558594  -999.250000 8.4317998886 8.5000000000  -999.250000 2.5699782372  -999.250000 61.541877747  -999.250000 10.897596359  -999.250000 5.1560902596 5.1739106178 11.237120628
 2454.9082031  -999.250000 8.4399995804 8.5000000000  -999.250000 2.5564904213  -999.250000 61.900890350  -999.250000 7.9978823662  -999.250000 5.1063723564 5.1183400154 8.2515382767
 2455.0605469  -999.250000 8.4153995514 8.5000000000  -999.250000 2.5506136417  -999.250000 61.709281921  -999.250000 6.9897274971  -999.250000 5.0738205910 5.0809640884 7.2163486481
 2455.2128906  -999.250000 8.4153995514 8.5000000000  -999.250000 2.5590999126  -999.250000 62.320999146  -999.250000 6.6944694519  -999.250000 5.0506191254 5.0585999489 6.9341096878
 2455.3654785  -999.250000 8.4153995514 8.5000000000  -999.250000 2.5706202984  -999.250000 62.265964508  -999.250000 6.1136341095  -999.250000 5.0274186134 5.0336685181 6.3783679008
 2455.5178223  -999.250000 8.4070997238 8.5000000000  -999.250000 2.5831937790  -999.250000 62.119636536  -999.250000 5.8116683960  -999.250000 5.0100445747 5.0141797066 6.0559926033
 2455.6701660  -999.250000 8.4070997238 8.5000000000  -999.250000 2.5793995857  -999.250000 62.453388214  -999.250000 5.1692624092  -999.250000 4.9999170303 5.0012931824 5.4910335541
 2455.8225098  -999.250000 8.4236001968 8.5000000000  -999.250000 2.5790998936  -999.250000 62.320701599  -999.250000 5.2715649605  -999.250000 4.9977054596 4.9970002174 5.6378941536
