# LAS format log file from PETREL
# Project units are specified as depth units
#==================================================================
~Version information
VERS.   2.0:
WRAP.   NO:
#==================================================================
~Well
STRT .m      625.95562744 :
STOP .m      2455.8225098 :
STEP .m     0.00000000 :
NULL .        -999.250000 :
COMP.           : COMPANY
WELL.  25/6-3   : WELL
FLD.            : FIELD
LOC.            : LOCATION
SRVC.           : SERVICE COMPANY
DATE.  2018-09-11 14:48:22   : Log Export Date {yyyy-MM-dd HH:mm:ss}
PROV.           : PROVINCE
UWI.   25/6-3   : UNIQUE WELL ID
API.            : API NUMBER
#==================================================================
~Curve
DEPT .m                   : DEPTH
Lithology_geolink ._      : Lithology_geolink
CALI .in                  : CALI
BS .in                    : BS
NPHI .m3/m3               : NPHI
RHOB .g/cm3               : RHOB
GR .gAPI                  : GR
DTC .us/ft                : DTC
DTS .us/ft                : DTS
RDEP .ohm.m               : RDEP
SP .mV                    : SP
RSHA .ohm.m               : RSHA
RMIC .ohm.m               : RMIC
RMED .ohm.m               : RMED
~Parameter
#==================================================================
~Ascii
# ...
 941.11883545  -999.250000 12.616600037 17.500000000  -999.250000  -999.250000 48.618999481 150.81700134 0.0000000000 1.6289995909 0.0000000000  -999.250000  -999.250000 1.5190012455
 941.27124023  -999.250000 12.616600037 17.500000000  -999.250000  -999.250000 50.167999268 150.55000305 0.0000000000 1.6279915571 0.0000000000  -999.250000  -999.250000 1.5219490528
 941.42364502  -999.250000 12.616600037 17.500000000  -999.250000  -999.250000 50.187999725 149.76600647 0.0000000000 1.6069879532 0.0000000000  -999.250000  -999.250000 1.3949763775
 941.57604980  -999.250000 12.625699997 17.500000000  -999.250000  -999.250000 46.345001221 148.21600342 0.0000000000 1.5769956112 0.0000000000  -999.250000  -999.250000 1.3360015154
 941.72845459  -999.250000 12.651201248 17.500000000  -999.250000  -999.250000 45.651000977 146.03300476 0.0000000000 1.5659976006 0.0000000000  -999.250000  -999.250000 1.3400253057
 941.88085938  -999.250000 12.645600319 17.500000000  -999.250000  -999.250000 45.347999573 143.66600037 0.0000000000 1.5599999428 0.0000000000  -999.250000  -999.250000 1.4029999971
 942.03326416  -999.250000 12.635700226 17.500000000  -999.250000  -999.250000 45.323001862 141.73300171 0.0000000000 1.5599958897 0.0000000000  -999.250000  -999.250000 1.4029840231
 942.18566895  -999.250000 12.641300201 17.500000000  -999.250000  -999.250000 45.242000580 140.89999390 0.0000000000 1.5549919605 0.0000000000  -999.250000  -999.250000 1.3829847574
 942.33801270  -999.250000 12.641300201 17.500000000  -999.250000  -999.250000 45.252998352 141.31700134 0.0000000000 1.5449879169 0.0000000000  -999.250000  -999.250000 1.3639963865
 942.49041748  -999.250000 12.632200241 17.500000000  -999.250000  -999.250000 43.902999878 142.86700439 0.0000000000 1.5150002241 0.0000000000  -999.250000  -999.250000 1.3549885750
 942.64282227  -999.250000 12.633900642 17.500000000  -999.250000  -999.250000 42.977001190 144.86700439 0.0000000000 1.5155001879 0.0000000000  -999.250000  -999.250000 1.3264886141
 942.79522705  -999.250000 12.641300201 17.500000000  -999.250000  -999.250000 43.825000763 146.63400269 0.0000000000 1.5160044432 0.0000000000  -999.250000  -999.250000 1.2980128527
 942.94763184  -999.250000 12.641300201 17.500000000  -999.250000  -999.250000 46.083999634 147.78399658 0.0000000000 1.5269967318 0.0000000000  -999.250000  -999.250000 1.3300272226
 943.10003662  -999.250000 12.634499550 17.500000000  -999.250000  -999.250000 46.093498230 148.35099792 0.0000000000 1.5190000534 0.0000000000  -999.250000  -999.250000 1.3979920149
 943.25244141  -999.250000 12.635799408 17.500000000  -999.250000  -999.250000 46.103000641 148.86700439 0.0000000000 1.5190004110 0.0000000000  -999.250000  -999.250000 1.3779959679
 943.40484619  -999.250000 12.641300201 17.500000000  -999.250000  -999.250000 43.680999756 149.65100098 0.0000000000 1.5200043917 0.0000000000  -999.250000  -999.250000 1.3680015802
 943.55725098  -999.250000 12.641300201 17.500000000  -999.250000  -999.250000 40.333999634 150.96699524 0.0000000000 1.5310032368 0.0000000000  -999.250000  -999.250000 1.3720047474
 943.70965576  -999.250000 12.648099899 17.500000000  -999.250000  -999.250000 39.259998322 152.44999695 0.0000000000 1.5389784575 0.0000000000  -999.250000  -999.250000 1.3839795589
 943.86206055  -999.250000 12.653600693 17.500000000  -999.250000  -999.250000 39.477001190 153.55000305 0.0000000000 1.4849808216 0.0000000000  -999.250000  -999.250000 1.3329839706
 944.01446533  -999.250000 12.655900002 17.500000000  -999.250000  -999.250000 40.042999268 153.83299255 0.0000000000 1.4610159397 0.0000000000  -999.250000  -999.250000 1.3129070997
 944.16687012  -999.250000 12.648699760 17.500000000  -999.250000  -999.250000 40.800998688 153.18299866 0.0000000000 1.4810143709 0.0000000000  -999.250000  -999.250000 1.1969720125
 944.31921387  -999.250000 12.641300201 17.500000000  -999.250000  -999.250000 41.652999878 152.05000305 0.0000000000 1.4989902973 0.0000000000  -999.250000  -999.250000 1.1620676517
 944.47161865  -999.250000 12.645799637 17.500000000  -999.250000  -999.250000 43.641998291 150.81599426 0.0000000000 1.4750059843 0.0000000000  -999.250000  -999.250000 1.3310041428
 944.62402344  -999.250000 12.645001411 17.500000000  -999.250000  -999.250000 46.374000549 150.05000305 0.0000000000 1.4900059700 0.0000000000  -999.250000  -999.250000 1.3415042162
 944.77642822  -999.250000 12.645799637 17.500000000  -999.250000  -999.250000 45.483001709 149.75000000 0.0000000000 1.5050008297 0.0000000000  -999.250000  -999.250000 1.3520156145
 944.92883301  -999.250000 12.645001411 17.500000000  -999.250000  -999.250000 44.216999054 149.91598511 0.0000000000 1.5069979429 0.0000000000  -999.250000  -999.250000 1.3909912109
 945.08123779  -999.250000 12.641300201 17.500000000  -999.250000  -999.250000 42.421001434 150.03300476 0.0000000000 1.5019887686 0.0000000000  -999.250000  -999.250000 1.3689419031
 945.23364258  -999.250000 12.641300201 17.500000000  -999.250000  -999.250000 40.625000000 149.93301392 0.0000000000 1.4739891291 0.0000000000  -999.250000  -999.250000 1.2240179777
 945.38604736  -999.250000 12.645799637 17.500000000  -999.250000  -999.250000 35.585998535 149.50000000 0.0000000000 1.4469947815 0.0000000000  -999.250000  -999.250000 1.2690052986
 945.53845215  -999.250000 12.645001411 17.500000000  -999.250000  -999.250000 33.238998413 148.94999695 0.0000000000 1.4340044260 0.0000000000  -999.250000  -999.250000 1.2819666862
 945.69085693  -999.250000 12.641300201 17.500000000  -999.250000  -999.250000 36.069000244 148.63299561 0.0000000000 1.4449971914 0.0000000000  -999.250000  -999.250000 1.1990052462
 945.84326172  -999.250000 12.641300201 17.500000000  -999.250000  -999.250000 38.916000366 148.66700745 0.0000000000 1.4379931688 0.0000000000  -999.250000  -999.250000 1.2120096684
 945.99566650  -999.250000 12.641300201 17.500000000  -999.250000  -999.250000 41.236999512 149.13299561 0.0000000000 1.4209991693 0.0000000000  -999.250000  -999.250000 1.2360128164
 946.14807129  -999.250000 12.641300201 17.500000000  -999.250000  -999.250000 40.951000214 149.85000610 0.0000000000 1.4200111628 0.0000000000  -999.250000  -999.250000 1.2520159483
 946.30047607  -999.250000 12.641300201 17.500000000  -999.250000  -999.250000 40.256999969 150.68400574 0.0000000000 1.4340000153 0.0000000000  -999.250000  -999.250000 1.2720191479
 946.45281982  -999.250000 12.641300201 17.500000000  -999.250000  -999.250000 39.243999481 151.41700745 0.0000000000 1.4340008497 0.0000000000  -999.250000  -999.250000 1.2959991693
 946.60522461  -999.250000 12.648099899 17.500000000  -999.250000  -999.250000 39.631999969 151.98399353 0.0000000000 1.4360008240 0.0000000000  -999.250000  -999.250000 1.2939991951
 946.75762939  -999.250000 12.646800041 17.500000000  -999.250000  -999.250000 44.890998840 152.20001221 0.0000000000 1.4379991293 0.0000000000  -999.250000  -999.250000 1.2920097113
 946.91003418  -999.250000 12.641300201 17.500000000  -999.250000  -999.250000 45.266998291 152.20001221 0.0000000000 1.4359987974 0.0000000000  -999.250000  -999.250000 1.3159815073
 947.06243896  -999.250000 12.634499550 17.500000000  -999.250000  -999.250000 44.616500854 151.86700439 0.0000000000 1.4329987764 0.0000000000  -999.250000  -999.250000 1.2699943781
 947.21484375  -999.250000 12.635799408 17.500000000  -999.250000  -999.250000 43.965999603 151.35000610 0.0000000000 1.4299983978 0.0000000000  -999.250000  -999.250000 1.2559944391
 947.36724854  -999.250000 12.645799637 17.500000000  -999.250000  -999.250000 42.291000366 150.60000610 0.0000000000 1.4259999990 0.0000000000  -999.250000  -999.250000 1.2419999838
 947.51965332  -999.250000 12.645001411 17.500000000  -999.250000  -999.250000 39.679000854 149.71600342 0.0000000000 1.4260052443 0.0000000000  -999.250000  -999.250000 1.2420188189
 947.67205811  -999.250000 12.641300201 17.500000000  -999.250000  -999.250000 38.995998383 148.69999695 0.0000000000 1.4389996529 0.0000000000  -999.250000  -999.250000 1.2890048027
