# LAS format log file from PETREL
# Project units are specified as depth units
#==================================================================
~Version information
VERS.   2.0:
WRAP.   NO:
#==================================================================
~Well
STRT .m      625.95562744 :
STOP .m      2455.8225098 :
STEP .m     0.00000000 :
NULL .        -999.250000 :
COMP.           : COMPANY
WELL.  25/6-3   : WELL
FLD.            : FIELD
LOC.            : LOCATION
SRVC.           : SERVICE COMPANY
DATE.  2018-09-11 14:48:22   : Log Export Date {yyyy-MM-dd HH:mm:ss}
PROV.           : PROVINCE
UWI.   25/6-3   : UNIQUE WELL ID
API.            : API NUMBER
#==================================================================
~Curve
DEPT .m                   : DEPTH
Lithology_geolink ._      : Lithology_geolink
CALI .in                  : CALI
BS .in                    : BS
NPHI .m3/m3               : NPHI
RHOB .g/cm3               : RHOB
GR .gAPI                  : GR
DTC .us/ft                : DTC
DTS .us/ft                : DTS
RDEP .ohm.m               : RDEP
SP .mV                    : SP
RSHA .ohm.m               : RSHA
RMIC .ohm.m               : RMIC
RMED .ohm.m               : RMED
~Parameter
#==================================================================
~Ascii
# ...
 1718.9683838  -999.250000 9.1941995621 8.5000000000 0.5540310144 2.1075997353 77.633102417 146.07800293  -999.250000 0.6837999821  -999.250000 0.5691063404 0.5562000275 0.7275999784
 1719.1208496  -999.250000 9.0030002594 8.5000000000 0.5074009895 2.1150000095 75.814796448 146.27349854  -999.250000 0.7134000063  -999.250000 0.5522692204 0.5964999795 0.7634000182
 1719.2731934  -999.250000 8.9806003571 8.5000000000 0.4846720099 2.1024000645 74.399002075 146.47929382  -999.250000 0.7691000104  -999.250000 0.4816225171 0.4584999979 0.8156999946
 1719.4256592  -999.250000 9.0593004227 8.5000000000 0.5072069764 2.1266999245 74.381202698 146.53590393  -999.250000 0.7720000148  -999.250000 0.5688090324 0.5307000279 0.8231999874
 1719.5780029  -999.250000 9.0194997787 8.5000000000 0.5772809982 2.1854999065 75.393203735 145.56170654  -999.250000 0.7623999715  -999.250000 0.7812573910 0.6496000290 0.8068000078
 1719.7304688  -999.250000 8.7698001862 8.5000000000 0.6254310012 2.2702000141 75.704002380 143.94729614  -999.250000 0.6783000231  -999.250000 0.9878475070 1.0607000589 0.7319999933
 1719.8828125  -999.250000 8.5916996002 8.5000000000 0.5772569776 2.3069999218 75.874603271 143.88569641  -999.250000 0.7766000032  -999.250000 0.7442727089 0.8334000111 0.8260999918
 1720.0352783  -999.250000 8.5924997330 8.5000000000 0.5067189932 2.2994000912 78.274696350 145.85749817  -999.250000 0.7573999763  -999.250000 0.5365743637 0.5551000237 0.8101000190
 1720.1876221  -999.250000 8.9043998718 8.5000000000 0.4954429865 2.2434000969 82.133598328 147.76710510  -999.250000 0.7087242603  -999.250000 0.5050822496 0.4972999990 0.7455292940
 1720.3400879  -999.250000 9.1122999191 8.5000000000 0.5317860246 2.1879000664 82.706497192 148.08720398  -999.250000 0.7389718294  -999.250000 0.5557987094 0.5216000080 0.7819685936
 1720.4924316  -999.250000 9.0839996338 8.5000000000 0.5693420172 2.1521999836 78.804000854 147.21710205  -999.250000 0.7213962674  -999.250000 0.6130558252 0.6283000112 0.7623980641
 1720.6447754  -999.250000 9.1167001724 8.5000000000 0.5842589736 2.1470999718 74.749099731 146.80119324  -999.250000 0.7167002559  -999.250000 0.5759682655 0.5806999803 0.7600002885
 1720.7972412  -999.250000 9.1343002319 8.5000000000 0.5667489767 2.1501998901 72.684196472 147.12770081  -999.250000 0.7170118690  -999.250000 0.5951073766 0.5659000278 0.7604130507
 1720.9495850  -999.250000 9.2032003403 8.5000000000 0.5328729749 2.2035999298 71.544502258 146.31159973  -999.250000 0.7318548560  -999.250000 0.6699844003 0.6571000218 0.7767605186
 1721.1020508  -999.250000 9.1942996979 8.5000000000 0.5168830156 2.2888000011 70.009696960 144.58680725  -999.250000 0.8003218770  -999.250000 0.6848999858 0.6973999739 0.8523205519
 1721.2543945  -999.250000 9.1842002869 8.5000000000 0.5390850306 2.3027000427 70.746803284 143.51539612  -999.250000 0.8275958300  -999.250000 0.6620509028 0.6583999991 0.8779962063
 1721.4068604  -999.250000 9.2437000275 8.5000000000 0.5942599773 2.2372000217 75.833198547 143.02220154  -999.250000 0.8223546147  -999.250000 0.6665948629 0.6697999835 0.8731516600
 1721.5592041  -999.250000 9.2826004028 8.5000000000 0.6350950003 2.1421999931 81.799797058 144.37019348  -999.250000 0.7657541037  -999.250000 0.6630666256 0.6597999930 0.8128496408
 1721.7116699  -999.250000 9.2992000580 8.5000000000 0.6460160017 2.1085000038 84.278297424 147.10899353  -999.250000 0.7084934711  -999.250000 0.6380769610 0.6700000167 0.7499900460
 1721.8640137  -999.250000 9.2855997086 8.5000000000 0.6313880086 2.1233000755 81.759002686 148.64250183  -999.250000 0.7003020048  -999.250000 0.5646033287 0.5703999996 0.7376084924
 1722.0164795  -999.250000 9.2948999405 8.5000000000 0.6498449445 2.1456000805 80.126800537 148.71350098  -999.250000 0.7028438449  -999.250000 0.5443512797 0.5522999763 0.7482336164
 1722.1688232  -999.250000 9.3024997711 8.5000000000 0.6458799839 2.1591000557 83.086601257 148.69679260  -999.250000 0.7302022576  -999.250000 0.5386129022 0.5274999738 0.7692111731
 1722.3212891  -999.250000 9.2860002518 8.5000000000 0.6170870066 2.1452000141 86.110900879 149.43910217  -999.250000 0.7330022454  -999.250000 0.5667513013 0.5622000098 0.7831076980
 1722.4736328  -999.250000 9.2468996048 8.5000000000 0.5976079702 2.1433000565 86.511497498 149.29400635  -999.250000 0.7344043255  -999.250000 0.5954872370 0.5763999820 0.7879027128
 1722.6260986  -999.250000 9.2300996780 8.5000000000 0.6026239991 2.1544001102 84.375602722 147.61849976  -999.250000 0.7398092747  -999.250000 0.6471537948 0.6359999776 0.7913078666
 1722.7784424  -999.250000 9.2306995392 8.5000000000 0.6240919828 2.1586000919 83.715797424 146.39900208  -999.250000 0.7455988526  -999.250000 0.6732339263 0.6707999706 0.7961990833
 1722.9307861  -999.250000 9.2251996994 8.5000000000 0.6276249886 2.1466000080 83.495903015 145.99670410  -999.250000 0.7442088723  -999.250000 0.6842826605 0.6783999801 0.7951093316
 1723.0832520  -999.250000 9.2251996994 8.5000000000 0.6103680134 2.1266999245 81.721199036 145.73249817  -999.250000 0.7553123236  -999.250000 0.6999731064 0.6967999935 0.8068136573
 1723.2355957  -999.250000 9.2320003510 8.5000000000 0.5838090181 2.1229999065 79.867202759 145.97230530  -999.250000 0.7706915736  -999.250000 0.7181011438 0.7067000270 0.8237934113
 1723.3880615  -999.250000 9.2442998886 8.5000000000 0.5595229864 2.1215000153 78.539398193 146.34550476  -999.250000 0.7601927519  -999.250000 0.7479089499 0.7422999740 0.8154883981
 1723.5404053  -999.250000 9.2431001663 8.5000000000 0.5414220095 2.1270999908 79.851196289 145.95719910  -999.250000 0.7510981560  -999.250000 0.7597359419 0.7598000169 0.8010013700
 1723.6928711  -999.250000 9.2238998413 8.5000000000 0.5340890288 2.1343998909 83.903800964 145.12049866  -999.250000 0.7488001585  -999.250000 0.7528051138 0.7595999837 0.8026944399
 1723.8452148  -999.250000 9.2129001617 8.5000000000 0.5549700260 2.1356000900 87.879203796 144.92489624  -999.250000 0.7489811182  -999.250000 0.7219708562 0.7383999825 0.7957845926
 1723.9976807  -999.250000 9.1992998123 8.5000000000 0.6061640382 2.1235001087 88.152000427 145.74800110  -999.250000 0.7254443169  -999.250000 0.6808820367 0.6870999932 0.7766385674
 1724.1500244  -999.250000 9.1949996948 8.5000000000 0.6649590135 2.1138000488 84.428001404 147.72909546  -999.250000 0.7531507611  -999.250000 0.6717352271 0.6676999927 0.8007572889
 1724.3024902  -999.250000 9.1462001801 8.5000000000 0.7039740086 2.1261999607 79.790496826 148.13679504  -999.250000 0.8165242076  -999.250000 0.7043384314 0.6802999973 0.8722304106
 1724.4548340  -999.250000 9.0951004028 8.5000000000 0.7208930254 2.1493999958 77.963096619 146.26400757  -999.250000 0.8316013813  -999.250000 0.7624737024 0.7552999854 0.8912054300
 1724.6072998  -999.250000 9.0895004272 8.5000000000 0.7216210365 2.1623001099 77.977600098 145.85580444  -999.250000 0.8332926035  -999.250000 0.7770589590 0.7777000070 0.8979899287
 1724.7596436  -999.250000 9.0826997757 8.5000000000 0.6906569600 2.1551001072 77.373497009 145.56300354  -999.250000 0.8286974430  -999.250000 0.7772372365 0.7756999731 0.8916987181
 1724.9119873  -999.250000 9.0839996338 8.5000000000 0.6323080063 2.1468999386 75.774002075 144.20860291  -999.250000 0.8255004883  -999.250000 0.7829617858 0.7804999948 0.8900997043
 1725.0644531  -999.250000 9.0895004272 8.5000000000 0.5919520259 2.1452000141 74.694900513 144.34339905  -999.250000 0.8260978460  -999.250000 0.7889051437 0.7882000208 0.8897002339
 1725.2167969  -999.250000 9.0895004272 8.5000000000 0.5689350367 2.1484000683 76.320602417 145.28970337  -999.250000 0.8234063983  -999.250000 0.7886065841 0.7904000282 0.8900032043
 1725.3692627  -999.250000 9.0895004272 8.5000000000 0.5605499744 2.1486001015 78.589599609 145.64309692  -999.250000 0.8314107656  -999.250000 0.7839987278 0.7847999930 0.8940039277
 1725.5216064  -999.250000 9.0713996887 8.5000000000 0.5477430224 2.1428999901 79.108497620 145.25660706  -999.250000 0.8448988795  -999.250000 0.7786490917 0.7822999954 0.8989044428
