# LAS format log file from PETREL
# Project units are specified as depth units
#==================================================================
~Version information
VERS.   2.0:
WRAP.   NO:
#==================================================================
~Well
STRT .m      1025.4147949 :
STOP .m      2373.8500977 :
STEP .m     0.00000000 :
NULL .        -999.250000 :
COMP.           : COMPANY
WELL.  25/6-2  Delta-Beta   : WELL
FLD.            : FIELD
LOC.            : LOCATION
SRVC.           : SERVICE COMPANY
DATE.  2018-09-11 14:48:22   : Log Export Date {yyyy-MM-dd HH:mm:ss}
PROV.           : PROVINCE
UWI.   25/6-2   : UNIQUE WELL ID
API.            : API NUMBER
#==================================================================
~Curve
DEPT .m                   : DEPTH
Lithology_geolink ._      : Lithology_geolink
CALI .in                  : CALI
BS .in                    : BS
MUDWEIGHT ._              : MUDWEIGHT
ROP .m/h                  : ROP
DRHO .g/cm3               : DRHO
NPHI .m3/m3               : NPHI
RHOB .g/cm3               : RHOB
GR .gAPI                  : GR
DTC .us/ft                : DTC
RDEP .ohm.m               : RDEP
SP .mV                    : SP
RSHA .ohm.m               : RSHA
RMIC .ohm.m               : RMIC
RMED .ohm.m               : RMED
~Parameter
#==================================================================
~Ascii
# ...
 1114.5687256  -999.250000 17.621259689 17.500000000 1.2500000000 63669.347656 0.0126485620  -999.250000 2.0158865452 88.860832214 136.49580383 1.8211324215 -1.427909493  -999.250000  -999.250000 1.0796979666
 1114.7211914  -999.250000 18.186710358 17.500000000 1.2500000000 63693.984375 0.0122267501  -999.250000 2.0198891163 89.322868347 134.46209717 1.8742530346 -1.764191508  -999.250000  -999.250000 1.0958600044
 1114.8735352  -999.250000 18.690990448 17.500000000 1.2500000000 63718.910156 0.0107886819  -999.250000 2.0224041939 89.495513916 137.23008728 1.9093888998 -2.023523569  -999.250000  -999.250000 1.1072959900
 1115.0260010  -999.250000 18.074869156 17.500000000 1.2500000000 64837.957031 0.0116305798  -999.250000 2.0229620934 89.424087524 142.93469238 1.9165209532 -2.169858932  -999.250000  -999.250000 1.1201870441
 1115.1783447  -999.250000 17.557769775 17.500000000 1.2500000000 75135.578125 0.0118714776  -999.250000 2.0215182304 89.621116638 148.32537842 1.9276850224 -2.183686972  -999.250000  -999.250000 1.1333529949
 1115.3308105  -999.250000 17.862489700 17.500000000 1.2500000000 80978.226563 0.0142134298  -999.250000 2.0173289776 90.381416321 153.28120422 1.9425640106 -2.084589720  -999.250000  -999.250000 1.1426769495
 1115.4831543  -999.250000 17.572380066 17.500000000 1.2500000000 84086.867188 0.0171175934  -999.250000 2.0123920441 91.301498413 159.98973083 1.9563090801 -1.925644517  -999.250000  -999.250000 1.1314699650
 1115.6356201  -999.250000 17.471820831 17.500000000 1.2500000000 84495.062500 0.0148535902  -999.250000 2.0081288815 91.612594604 168.00889587 1.9874409437 -1.774760485  -999.250000  -999.250000 1.1377170086
 1115.7879639  -999.250000 17.630950928 17.500000000 1.2500000000 83280.765625 0.0119441515  -999.250000 2.0055952072 90.823249817 174.64259338 1.9909781218 -1.682297230  -999.250000  -999.250000 1.1333010197
 1115.9403076  -999.250000 17.764680862 17.500000000 1.2500000000 82401.109375 0.0136889992  -999.250000 2.0057797432 89.106483459 178.00938416 1.9798109531 -1.651179314  -999.250000  -999.250000 1.1245050430
 1116.0927734  -999.250000 17.945560455 17.500000000 1.2500000000 76372.945313 0.0141885001  -999.250000 2.0096879005 86.804595947 175.65849304 1.9952745438 -1.631116986  -999.250000  -999.250000 1.1177159548
 1116.2451172  -999.250000 18.030979156 17.500000000 1.2500000000 69783.570313 0.0164925214  -999.250000 2.0175745487 84.060256958 167.66191101 1.9526392221 -1.546369910  -999.250000  -999.250000 1.1027319431
 1116.3975830  -999.250000 18.961849213 17.500000000 1.2500000000 67743.382813 0.0158445705  -999.250000 2.0294740200 81.215980530 159.67160034 1.8537360430 -1.334067345  -999.250000  -999.250000 1.0610040426
 1116.5499268  -999.250000 19.176469803 17.500000000 1.2500000000 66864.351563 0.0109921182  -999.250000 2.0431249142 79.299766541 155.16151428 1.7284144163 -0.979056060  -999.250000  -999.250000 0.9949898124
 1116.7023926  -999.250000 18.072900772 17.500000000 1.2500000000 66853.968750 0.0086327912  -999.250000 2.0563769341 79.398246765 153.22680664 1.6177669764 -0.521017611  -999.250000  -999.250000 0.9414384961
 1116.8547363  -999.250000 17.496179581 17.500000000 1.2500000000 67346.039063 0.0072275298  -999.250000 2.0671594143 81.419708252 153.20240784 1.6061433554 -0.047231384  -999.250000  -999.250000 0.9466596842
 1117.0072021  -999.250000 17.524339676 17.500000000 1.2500000000 67503.796875 0.0012407320  -999.250000 2.0750010014 84.060890198 154.29769897 1.6465770006 0.3511233926  -999.250000  -999.250000 0.9788374901
 1117.1595459  -999.250000 17.907100677 17.500000000 1.2500000000 67233.875000 -0.002933266  -999.250000 2.0805723667 85.991058350 155.08767700 1.7449032068 0.6163098812  -999.250000  -999.250000 1.0535559654
 1117.3120117  -999.250000 17.987159729 17.500000000 1.2500000000 71871.171875 -0.001436776  -999.250000 2.0833880901 86.853019714 154.78540039 1.8692690134 0.7425320745  -999.250000  -999.250000 1.1130460501
 1117.4643555  -999.250000 17.938880920 17.500000000 1.2500000000 77336.875000 -0.001259349  -999.250000 2.0861859322 86.955619812 151.60743713 1.9388153553 0.7540152073  -999.250000  -999.250000 1.1218229532
 1117.6168213  -999.250000 18.004060745 17.500000000 1.2500000000 78073.750000 -0.002855331  -999.250000 2.0891680717 86.455627441 144.93249512 1.9429620504 0.6782484055  -999.250000  -999.250000 1.1151920557
 1117.7691650  -999.250000 17.774330139 17.500000000 1.2500000000 77444.804688 -0.006081191  -999.250000 2.0914251804 85.469551086 138.78363037 1.9127712250 0.5283659101  -999.250000  -999.250000 1.1183450222
 1117.9216309  -999.250000 17.635959625 17.500000000 1.2500000000 77059.656250 -0.007266307  -999.250000 2.0927040577 84.332641602 135.60169983 1.8928970098 0.3120625019  -999.250000  -999.250000 1.1005189419
 1118.0739746  -999.250000 17.645399094 17.500000000 1.2500000000 76706.609375 -0.005844925  -999.250000 2.0929808617 83.559173584 134.77745056 1.8939261436 0.0556818917  -999.250000  -999.250000 1.0900360346
 1118.2263184  -999.250000 17.643970490 17.500000000 1.2500000000 78528.289063 -0.006038556  -999.250000 2.0915172100 83.231788635 135.77879333 1.8932924271 -0.198344275  -999.250000  -999.250000 1.0814299583
 1118.3787842  -999.250000 17.617540359 17.500000000 1.2500000000 79954.867188 -0.005872841  -999.250000 2.0865900517 83.218482971 137.13092041 1.8885358572 -0.401561707  -999.250000  -999.250000 1.0747159719
 1118.5311279  -999.250000 17.922660828 17.500000000 1.2500000000 81568.257813 -0.002572965  -999.250000 2.0777041912 83.665222168 138.24670410 1.8561120033 -0.517202556  -999.250000  -999.250000 1.0701459646
 1118.6835938  -999.250000 17.802499771 17.500000000 1.2500000000 81566.976563 -0.000970742  -999.250000 2.0648043156 84.595550537 140.04919434 1.8018189669 -0.535502374  -999.250000  -999.250000 1.0474799871
 1118.8359375  -999.250000 17.589120865 17.500000000 1.2500000000 80984.328125 -0.000035350  -999.250000 2.0508952141 85.423095703 143.14620972 1.7745947838 -0.479618073  -999.250000  -999.250000 1.0279059410
 1118.9884033  -999.250000 17.511899948 17.500000000 1.2500000000 80955.742188 0.0020150931  -999.250000 2.0398490429 85.153228760 145.57690430 1.7767299414 -0.386804491  -999.250000  -999.250000 1.0455080271
 1119.1407471  -999.250000 17.523609161 17.500000000 1.2500000000 99759.257813 0.0036713849  -999.250000 2.0364525318 83.611648560 144.75015259 1.7826662064 -0.282534033  -999.250000  -999.250000 1.0524159670
 1119.2932129  -999.250000 17.612030029 17.500000000 1.2500000000 114266.29688 0.0047310949  -999.250000 2.0464079380 81.802642822 144.16259766 1.8026679754 -0.173584938  -999.250000  -999.250000 1.0559669733
 1119.4455566  -999.250000 17.557239532 17.500000000 1.2500000000 116098.32813 0.0073615354  -999.250000 2.0712361336 81.082931519 147.43507385 1.8264919519 -0.050663732  -999.250000  -999.250000 1.0465140343
 1119.5980225  -999.250000 17.533109665 17.500000000 1.2500000000 116124.99219 0.0085080499  -999.250000 2.1073811054 81.821197510 151.51269531 1.8391679525 0.0947371721  -999.250000  -999.250000 1.0506789684
 1119.7503662  -999.250000 17.531000137 17.500000000 1.2500000000 116150.28125 0.0052257311  -999.250000 2.1483900547 83.219627380 153.57225037 1.8252921104 0.2567485869  -999.250000  -999.250000 1.0498369932
 1119.9028320  -999.250000 17.485000610 17.500000000 1.2500000000 116527.50781 0.0031695780  -999.250000 2.1851620674 84.208786011 153.19569397 1.8277020454 0.4149030447  -999.250000  -999.250000 1.0564869642
 1120.0551758  -999.250000 17.505069733 17.500000000 1.2500000000 113691.67188 0.0026906077  -999.250000 2.2113759518 84.270172119 149.99876404 1.8241918087 0.5431907177  -999.250000  -999.250000 1.0602910519
 1120.2075195  -999.250000 17.445360184 17.500000000 1.2500000000 98054.195313 -0.001663355  -999.250000 2.2234842777 83.758857727 145.22923279 1.8495956659 0.6178398728  -999.250000  -999.250000 1.0750240088
 1120.3599854  -999.250000 17.446809769 17.500000000 1.2500000000 94425.898438 -0.007173419  -999.250000 2.2221372128 83.307769775 139.61199951 1.8579663038 0.6267804503  -999.250000  -999.250000 1.0929559469
