# LAS format log file from PETREL
# Project units are specified as depth units
#==================================================================
~Version information
VERS.   2.0:
WRAP.   NO:
#==================================================================
~Well
STRT .m      625.95562744 :
STOP .m      2455.8225098 :
STEP .m     0.00000000 :
NULL .        -999.250000 :
COMP.           : COMPANY
WELL.  25/6-3   : WELL
FLD.            : FIELD
LOC.            : LOCATION
SRVC.           : SERVICE COMPANY
DATE.  2018-09-11 14:48:22   : Log Export Date {yyyy-MM-dd HH:mm:ss}
PROV.           : PROVINCE
UWI.   25/6-3   : UNIQUE WELL ID
API.            : API NUMBER
#==================================================================
~Curve
DEPT .m                   : DEPTH
Lithology_geolink ._      : Lithology_geolink
CALI .in                  : CALI
BS .in                    : BS
NPHI .m3/m3               : NPHI
RHOB .g/cm3               : RHOB
GR .gAPI                  : GR
DTC .us/ft                : DTC
DTS .us/ft                : DTS
RDEP .ohm.m               : RDEP
SP .mV                    : SP
RSHA .ohm.m               : RSHA
RMIC .ohm.m               : RMIC
RMED .ohm.m               : RMED
~Parameter
#==================================================================
~Ascii
# ...
 2242.0051270 6.0000000000 8.4851999283 8.5000000000 0.4578109980 2.3113000393 113.07363129 123.87879181  -999.250000 1.0573999882  -999.250000 0.6463600397 0.6334000230 1.1111999750
 2242.1577148 6.0000000000 8.3907003403 8.5000000000 0.4595510066 2.3297998905 113.80930328 124.94599915  -999.250000 1.0269355774  -999.250000 0.6922013164 0.6739000082 1.0873233080
 2242.3100586 6.0000000000 8.5715999603 8.5000000000 0.4763259888 2.3598999977 114.17182159 125.21549988  -999.250000 1.0491268635  -999.250000 0.7400384545 0.7310000062 1.1019365788
 2242.4624023 6.0000000000 8.5346002579 8.5000000000 0.4887410104 2.3617000580 114.17240143 125.30690765  -999.250000 1.0658999681  -999.250000 0.8188794851 0.7591999769 1.1247999668
 2242.6147461 6.0000000000 8.5099000931 8.5000000000 0.4787169993 2.3659999371 111.74649048 126.39420319  -999.250000 1.0501999855  -999.250000 0.9564080238 0.9453999996 1.1062999964
 2242.7673340 6.0000000000 8.5139999390 8.5000000000 0.4867879748 2.3640999794 111.62159729 126.25669861  -999.250000 1.0472935438  -999.250000 1.0108256340 0.9797999859 1.1097856760
 2242.9196777 6.0000000000 8.5099000931 8.5000000000 0.5018950105 2.3745999336 111.50050354 120.74720001  -999.250000 1.0433148146  -999.250000 1.0273051262 1.0765999556 1.1009129286
 2243.0720215 6.0000000000 8.5221996307 8.5000000000 0.5100560188 2.3819999695 113.41622925 119.57820129  -999.250000 1.0525047779  -999.250000 0.9253961444 0.9228000045 1.1088986397
 2243.2243652 6.0000000000 8.5715999603 8.5000000000 0.4826999903 2.3863999844 107.99820709 121.64919281  -999.250000 1.0555000305  -999.250000 0.9150919914 0.9308999777 1.1081000566
 2243.3769531 6.0000000000 8.5305004120 8.5000000000 0.4570510089 2.3945000172 108.83709717 122.82900238  -999.250000 1.0066556931  -999.250000 0.9074615240 0.8815000057 1.0584471226
 2243.5292969 6.0000000000 8.5387001038 8.5000000000 0.4589790106 2.4012999535 112.63950348 124.28900146  -999.250000 0.9790239930  -999.250000 0.9541345835 0.9624999762 1.0255202055
 2243.6816406 6.0000000000 8.6290998459 8.5000000000 0.4657050073 2.4154000282 116.85224915 124.59320068  -999.250000 0.9940635562  -999.250000 0.9402461648 0.9363999963 1.0381560326
 2243.8339844 6.0000000000 8.5551004410 8.5000000000 0.4702450037 2.4038999081 112.62779236 123.29309845  -999.250000 1.0336999893  -999.250000 0.9323999882 0.9484000206 1.0730999708
 2243.9863281 6.0000000000 8.5468997955 8.5000000000 0.4572420120 2.3894999027 111.60383606 121.50710297  -999.250000 1.0437999964  -999.250000 0.8361806273 0.8984000087 1.0901000500
 2244.1389160 6.0000000000 8.4975996017 8.5000000000 0.4820640087 2.3868999481 112.58930206 121.47839355  -999.250000 1.0424818993  -999.250000 0.6998063922 0.7032999992 1.0818991661
 2244.2912598 6.0000000000 8.5221996307 8.5000000000 0.4982129931 2.3924002647 115.12803650 123.59110260  -999.250000 1.0935118198  -999.250000 0.7215666771 0.6923999786 1.1437085867
 2244.4436035 6.0000000000 8.5099000931 8.5000000000 0.5303080082 2.4109001160 108.96978760 121.97779846  -999.250000 1.1009000540  -999.250000 0.8525346518 0.7833999991 1.1490999460
 2244.5959473 6.0000000000 8.4811000824 8.5000000000 0.5248309970 2.4056999683 104.08782196 118.10089874  -999.250000 1.0899000168  -999.250000 0.9288600087 0.9991000295 1.1414999962
 2244.7485352 6.0000000000 8.4565000534 8.5000000000 0.5165359974 2.4026999474 101.77690125 123.14209747  -999.250000 1.0525013208  -999.250000 0.7403692603 0.7796000242 1.1029876471
 2244.9008789 6.0000000000 8.4482002258 8.5000000000 0.4842509925 2.3870999813 104.09449768 120.38301086  -999.250000 1.0532703400  -999.250000 0.6439307332 0.6571999788 1.0952758789
 2245.0532227 6.0000000000 8.4358997345 8.5000000000 0.4752520025 2.3896000385 105.00240326 123.80579376  -999.250000 1.0347917080  -999.250000 0.7056077123 0.6158000231 1.0802984238
 2245.2055664 6.0000000000 8.4482002258 8.5000000000 0.4447819889 2.4015998840 105.97360229 123.04940033  -999.250000 1.0296000242  -999.250000 0.9316800237 0.8960000277 1.0793000460
 2245.3581543 6.0000000000 8.5099000931 8.5000000000 0.4411600232 2.4065999985 105.95549774 121.23290253  -999.250000 1.0297168493  -999.250000 1.0370192528 1.0075000525 1.0770390034
 2245.5104980 6.0000000000 8.5468997955 8.5000000000 0.4203300178 2.3873999119 108.71649933 120.38819885  -999.250000 1.0401817560  -999.250000 0.9520999789 1.0995999575 1.1013057232
 2245.6628418 6.0000000000 8.5099000931 8.5000000000 0.4250540137 2.3692998886 105.18910217 121.99490356  -999.250000 1.0287498236  -999.250000 0.5726051331 0.6394000053 1.1048624516
 2245.8151855 6.0000000000 8.4975996017 8.5000000000 0.4206050038 2.3554000854 102.42220306 120.75759888  -999.250000 0.9973999858  -999.250000 0.4340080023 0.4309999943 1.0814000368
 2245.9675293 6.0000000000 8.4975996017 8.5000000000 0.4588399827 2.3599998951 100.00050354 120.91419983  -999.250000 1.0023000240  -999.250000 0.5072435737 0.4404000044 1.0944999456
 2246.1201172 6.0000000000 8.4729003906 8.5000000000 0.4806890190 2.3631000519 105.93240356 121.22599792  -999.250000 1.0045615435  -999.250000 0.7502243519 0.6499999762 1.1001521349
 2246.2724609 6.0000000000 8.5346002579 8.5000000000 0.4588600099 2.3629999161 109.32279968 121.57039642  -999.250000 0.9806142449  -999.250000 0.9612897635 0.9627000093 1.0703080893
 2246.4248047 6.0000000000 8.5346002579 8.5000000000 0.4329700172 2.3650999069 114.16619873 123.14230347  -999.250000 0.9894999862  -999.250000 0.9648064375 0.9582999945 1.0753999949
 2246.5771484 6.0000000000 8.5468997955 8.5000000000 0.4275540113 2.3666000366 115.25379944 124.91609955  -999.250000 0.9884999990  -999.250000 0.8927119970 0.9786000252 1.0813000202
 2246.7297363 6.0000000000 8.5551004410 8.5000000000 0.4204109907 2.3835999966 122.27670288 127.55680084  -999.250000 0.9729416370  -999.250000 0.6859051585 0.7102000117 1.0509498119
 2246.8820801 6.0000000000 8.5221996307 8.5000000000 0.4467250109 2.3854000568 121.91339874 127.88279724  -999.250000 0.9365916848  -999.250000 0.6427333355 0.6344000101 1.0196880102
 2247.0344238 6.0000000000 8.4975996017 8.5000000000 0.4474800229 2.3763999939 121.50650024 126.88649750  -999.250000 0.9313963056  -999.250000 0.7741179466 0.6603999734 1.0121980906
 2247.1867676 6.0000000000 8.4975996017 8.5000000000 0.4488469958 2.3685998917 112.18289948 128.88650513  -999.250000 0.9290999770  -999.250000 1.0326080322 1.0152000189 1.0110000372
 2247.3393555 6.0000000000 8.4851999283 8.5000000000 0.4356449842 2.3756000996 102.49610138 126.80419922  -999.250000 0.9012711644  -999.250000 1.2334461212 1.0695999861 0.9844929576
 2247.4916992 6.0000000000 8.4729003906 8.5000000000 0.4898350239 2.4832999706 95.278503418 126.70089722  -999.250000 0.8838788271  -999.250000 2.3708961010 1.5808000565 0.9807318449
 2247.6440430 6.0000000000 8.5058002472 8.5000000000 0.5132849813 2.6054000854 86.197097778 116.94760132  -999.250000 1.2501598597  -999.250000 7.4713168144 4.0458998680 1.3805199862
 2247.7963867 6.0000000000 8.4482002258 8.5000000000 0.3949800134 2.6932001114 72.264602661 121.19460297  -999.250000 4.7818999290  -999.250000 10.991472244 14.733200073 5.1993999481
 2247.9487305 6.0000000000 8.4482002258 8.5000000000 0.2791340053 2.6648001671 59.566398621 124.40239716  -999.250000 1.7315000296  -999.250000 2.4651770592 3.0402998924 1.9097000360
 2248.1013184 6.0000000000 8.5221996307 8.5000000000 0.2255360037 2.5861999989 59.213500977 124.46279907  -999.250000 0.9879896045  -999.250000 1.1277012825 1.2368999720 1.0914608240
 2248.2536621 6.0000000000 8.4975996017 8.5000000000 0.2605200112 2.4939000607 77.684501648 120.44840240  -999.250000 0.9192641377  -999.250000 0.9082192183 0.8962000012 1.0048706532
 2248.4060059 6.0000000000 8.4893999100 8.5000000000 0.3609439731 2.4137001038 97.958999634 122.68650055  -999.250000 0.9592999816  -999.250000 0.9771295190 0.9337000251 1.0490000248
 2248.5583496 6.0000000000 8.4729003906 8.5000000000 0.4737160206 2.3675000668 106.06130219 122.15609741  -999.250000 0.9797000289  -999.250000 1.0909280777 1.0692000389 1.0635000467
