# LAS format log file from PETREL
# Project units are specified as depth units
#==================================================================
~Version information
VERS.   2.0:
WRAP.   NO:
#==================================================================
~Well
STRT .m      1025.4147949 :
STOP .m      2373.8500977 :
STEP .m     0.00000000 :
NULL .        -999.250000 :
COMP.           : COMPANY
WELL.  25/6-2  Delta-Beta   : WELL
FLD.            : FIELD
LOC.            : LOCATION
SRVC.           : SERVICE COMPANY
DATE.  2018-09-11 14:48:22   : Log Export Date {yyyy-MM-dd HH:mm:ss}
PROV.           : PROVINCE
UWI.   25/6-2   : UNIQUE WELL ID
API.            : API NUMBER
#==================================================================
~Curve
DEPT .m                   : DEPTH
Lithology_geolink ._      : Lithology_geolink
CALI .in                  : CALI
BS .in                    : BS
MUDWEIGHT ._              : MUDWEIGHT
ROP .m/h                  : ROP
DRHO .g/cm3               : DRHO
NPHI .m3/m3               : NPHI
RHOB .g/cm3               : RHOB
GR .gAPI                  : GR
DTC .us/ft                : DTC
RDEP .ohm.m               : RDEP
SP .mV                    : SP
RSHA .ohm.m               : RSHA
RMIC .ohm.m               : RMIC
RMED .ohm.m               : RMED
~Parameter
#==================================================================
~Ascii
# ...
 1292.8768311  -999.250000 18.466060638 17.500000000 1.2999999523 95666.093750 -0.001317307  -999.250000 2.0671920776 84.777496338 143.30470276 1.5124000311 -0.134737179  -999.250000  -999.250000 0.9836922288
 1293.0291748  -999.250000 18.424520493 17.500000000 1.2999999523 104647.50000 0.0013770889  -999.250000 2.0709168911 84.929229736 142.75630188 1.5520730019 -0.462985575  -999.250000  -999.250000 1.0037980080
 1293.1816406  -999.250000 18.407480240 17.500000000 1.2999999523 106346.70313 0.0045622280  -999.250000 2.0734109879 83.559417725 141.90020752 1.5792369843 -0.766213119  -999.250000  -999.250000 1.0401920080
 1293.3339844  -999.250000 18.406000137 17.500000000 1.2999999523 106416.79688 0.0052851210  -999.250000 2.0747048855 80.925025940 141.08639526 1.6077480316 -1.024933577  -999.250000  -999.250000 1.0613689423
 1293.4864502  -999.250000 18.406000137 17.500000000 1.2999999523 106423.29688 0.0058556530  -999.250000 2.0742380619 78.291885376 140.81779480 1.6167559624 -1.202859044  -999.250000  -999.250000 1.0545480251
 1293.6387939  -999.250000 18.406000137 17.500000000 1.2999999523 106429.39844 0.0069940560  -999.250000 2.0717890263 76.845657349 141.15319824 1.6114039421 -1.261610150  -999.250000  -999.250000 1.0363739729
 1293.7912598  -999.250000 18.406000137 17.500000000 1.2999999523 106528.50000 0.0073900241  -999.250000 2.0688281059 76.689987183 141.63090515 1.5785679817 -1.190665126  -999.250000  -999.250000 1.0149749517
 1293.9436035  -999.250000 18.429790497 17.500000000 1.2999999523 134910.29688 0.0052977549  -999.250000 2.0665700436 76.965057373 141.78680420 1.5695209503 -1.018617034  -999.250000  -999.250000 1.0323779583
 1294.0960693  -999.250000 18.471599579 17.500000000 1.2999999523 157318.29688 0.0070879292  -999.250000 2.0660378933 77.008338928 141.46780396 1.5591269732 -0.804221749  -999.250000  -999.250000 1.0185190439
 1294.2484131  -999.250000 18.471979141 17.500000000 1.2999999523 160145.09375 0.0107370196  -999.250000 2.0674870014 77.148117065 140.91340637 1.5478049517 -0.602785289  -999.250000  -999.250000 1.0065670013
 1294.4008789  -999.250000 18.469280243 17.500000000 1.2999999523 160226.90625 0.0120082702  -999.250000 2.0701930523 78.142807007 140.84539795 1.5336970091 -0.428985596  -999.250000  -999.250000 1.0100950003
 1294.5532227  -999.250000 18.492040634 17.500000000 1.2999999523 160701.00000 0.0115293497  -999.250000 2.0724298954 80.258018494 141.75190735 1.5028500557 -0.255794883  -999.250000  -999.250000 0.9954503179
 1294.7055664  -999.250000 18.534360886 17.500000000 1.2999999523 160842.20313 0.0134643596  -999.250000 2.0737051964 82.670280457 143.20289612 1.4462519884 -0.033677343  -999.250000  -999.250000 0.9348204136
 1294.8580322  -999.250000 18.546110153 17.500000000 1.2999999523 160559.50000 0.0152134402  -999.250000 2.0747239590 84.243164063 144.51559448 1.4164589643 0.2751233876  -999.250000  -999.250000 0.9344164729
 1295.0103760  -999.250000 18.547000885 17.500000000 1.2999999523 139337.70313 0.0166848693  -999.250000 2.0764679909 84.740211487 145.42630005 1.3892760277 0.6626485586  -999.250000  -999.250000 0.9229058027
 1295.1628418  -999.250000 18.547000885 17.500000000 1.2999999523 131916.50000 0.0166051593  -999.250000 2.0799350739 85.092887878 145.88310242 1.3767340183 1.0665481091  -999.250000  -999.250000 0.9265605807
 1295.3151855  -999.250000 18.651830673 17.500000000 1.2999999523 131278.79688 0.0127006099  -999.250000 2.0861279964 86.190330505 145.48320007 1.3951339722 1.3946533203  -999.250000  -999.250000 0.9421362281
 1295.4676514  -999.250000 18.603570938 17.500000000 1.2999999523 131809.79688 0.0107391002  -999.250000 2.0938129425 87.567123413 144.01019287 1.4635119438 1.5676218271  -999.250000  -999.250000 0.9974517822
 1295.6199951  -999.250000 18.522100449 17.500000000 1.2999999523 131968.79688 0.0078232484  -999.250000 2.1017949581 87.838783264 142.10249329 1.5429090261 1.5485588312  -999.250000  -999.250000 1.0242780447
 1295.7724609  -999.250000 18.536409378 17.500000000 1.2999999523 131986.09375 0.0051094429  -999.250000 2.1090500355 86.400352478 140.46560669 1.6040910482 1.3516474962  -999.250000  -999.250000 1.0634700060
 1295.9248047  -999.250000 18.488119125 17.500000000 1.2999999523 128421.50000 0.0032536769  -999.250000 2.1145830154 84.234458923 139.41749573 1.6457760334 1.0230848789  -999.250000  -999.250000 1.0817639828
 1296.0772705  -999.250000 18.435529709 17.500000000 1.2999999523 125494.90625 0.0024016809  -999.250000 2.1173920631 82.820953369 139.07189941 1.6453560591 0.6142882109  -999.250000  -999.250000 1.0825970173
 1296.2296143  -999.250000 18.410999298 17.500000000 1.2999999523 125122.41406 -0.001295106  -999.250000 2.1164751053 82.597053528 139.29409790 1.6376730204 0.1772644222  -999.250000  -999.250000 1.0678989887
 1296.3820801  -999.250000 18.406299591 17.500000000 1.2999999523 125127.70313 -0.002913173  -999.250000 2.1130630970 82.869194031 139.98060608 1.6261969805 -0.235637307  -999.250000  -999.250000 1.0447039604
 1296.5344238  -999.250000 18.417890549 17.500000000 1.2999999523 125134.21094 -0.003329674  -999.250000 2.1053860188 82.867317200 141.21940613 1.6091140509 -0.571054518  -999.250000  -999.250000 1.0525649786
 1296.6868896  -999.250000 18.421699524 17.500000000 1.2999999523 125140.50000 -0.004311384  -999.250000 2.0942480564 82.446380615 142.71279907 1.5651450157 -0.793642938  -999.250000  -999.250000 1.0056619644
 1296.8392334  -999.250000 18.410110474 17.500000000 1.2999999523 125147.10156 -0.003350255  -999.250000 2.0808210373 81.804634094 144.11329651 1.5010950565 -0.891533673  -999.250000  -999.250000 0.9745752811
 1296.9915771  -999.250000 18.406299591 17.500000000 1.2999999523 123497.18750 -0.001976689  -999.250000 2.0698308945 81.063255310 145.10690308 1.4675309658 -0.875057638  -999.250000  -999.250000 0.9579616785
 1297.1440430  -999.250000 18.371070862 17.500000000 1.2999999523 121455.50781 -0.003197678  -999.250000 2.0634729862 80.268455505 144.92250061 1.4804999828 -0.768764377  -999.250000  -999.250000 0.9764782786
 1297.2963867  -999.250000 18.394840240 17.500000000 1.2999999523 121055.49219 -0.006303270  -999.250000 2.0643250942 79.551033020 143.33309937 1.5484759808 -0.604452372  -999.250000  -999.250000 1.0393489599
 1297.4488525  -999.250000 18.428890228 17.500000000 1.2999999523 121041.89844 -0.006742662  -999.250000 2.0716319084 79.031425476 141.19769287 1.6065499783 -0.411171466  -999.250000  -999.250000 1.0636960268
 1297.6011963  -999.250000 18.495380402 17.500000000 1.2999999523 121047.99219 -0.007657783  -999.250000 2.0820059776 78.605293274 139.64329529 1.6338469982 -0.205064848  -999.250000  -999.250000 1.1001379490
 1297.7536621  -999.250000 18.537559509 17.500000000 1.2999999523 121496.10156 -0.009507931  -999.250000 2.0914800167 78.106941223 139.18919373 1.6529660225 0.0069471151  -999.250000  -999.250000 1.0954970121
 1297.9060059  -999.250000 18.546409607 17.500000000 1.2999999523 121725.19531 -0.010930750  -999.250000 2.0960590839 77.634040833 139.64250183 1.6517299414 0.2257291675  -999.250000  -999.250000 1.0794750452
 1298.0584717  -999.250000 18.547000885 17.500000000 1.2999999523 142301.70313 -0.010212670  -999.250000 2.0939710140 77.726615906 140.51939392 1.6082229614 0.4503931105  -999.250000  -999.250000 1.0559149981
 1298.2108154  -999.250000 18.547000885 17.500000000 1.2999999523 169021.20313 -0.008643127  -999.250000 2.0871300697 78.888351440 141.67829895 1.5466730595 0.6828477979  -999.250000  -999.250000 1.0105680227
 1298.3632813  -999.250000 18.547000885 17.500000000 1.2999999523 173302.09375 -0.006589784  -999.250000 2.0769720078 80.856407166 143.34210205 1.4850239754 0.9280216694  -999.250000  -999.250000 0.9845340252
 1298.5156250  -999.250000 18.547000885 17.500000000 1.2999999523 173399.70313 -0.004186815  -999.250000 2.0682621002 82.320030212 145.17320251 1.4571729898 1.1827483177  -999.250000  -999.250000 0.9726377130
 1298.6680908  -999.250000 18.570049286 17.500000000 1.2999999523 173405.70313 -0.001247889  -999.250000 2.0624337196 81.934356689 146.25860596 1.4515570402 1.4202849865  -999.250000  -999.250000 0.9709138274
