# LAS format log file from PETREL
# Project units are specified as depth units
#==================================================================
~Version information
VERS.   2.0:
WRAP.   NO:
#==================================================================
~Well
STRT .m      625.95562744 :
STOP .m      2455.8225098 :
STEP .m     0.00000000 :
NULL .        -999.250000 :
COMP.           : COMPANY
WELL.  25/6-3   : WELL
FLD.            : FIELD
LOC.            : LOCATION
SRVC.           : SERVICE COMPANY
DATE.  2018-09-11 14:48:22   : Log Export Date {yyyy-MM-dd HH:mm:ss}
PROV.           : PROVINCE
UWI.   25/6-3   : UNIQUE WELL ID
API.            : API NUMBER
#==================================================================
~Curve
DEPT .m                   : DEPTH
Lithology_geolink ._      : Lithology_geolink
CALI .in                  : CALI
BS .in                    : BS
NPHI .m3/m3               : NPHI
RHOB .g/cm3               : RHOB
GR .gAPI                  : GR
DTC .us/ft                : DTC
DTS .us/ft                : DTS
RDEP .ohm.m               : RDEP
SP .mV                    : SP
RSHA .ohm.m               : RSHA
RMIC .ohm.m               : RMIC
RMED .ohm.m               : RMED
~Parameter
#==================================================================
~Ascii
# ...
 1926.8421631  -999.250000 8.8429002762 8.5000000000 0.4196554124 2.2243080139 79.406501770 135.00315857  -999.250000 0.7830076814  -999.250000 0.6439937353 0.6464937329 0.8653071523
 1926.9945068  -999.250000 8.8263998032 8.5000000000 0.4101778865 2.2344081402 80.508300781 135.56764221  -999.250000 0.7926082015  -999.250000 0.6513175368 0.6387314796 0.8742089272
 1927.1469727  -999.250000 8.7936000824 8.5000000000 0.4137762487 2.2445216179 78.086601257 135.37277222  -999.250000 0.8028957844  -999.250000 0.7233374119 0.6781130433 0.8853912354
 1927.2993164  -999.250000 8.6785001755 8.5000000000 0.4265745282 2.2717165947 74.455902100 135.08851624  -999.250000 0.7976722121  -999.250000 0.8741612434 0.8192373514 0.8745843768
 1927.4517822  -999.250000 8.6826000214 8.5000000000 0.4259741902 2.2924089432 76.029998779 134.60722351  -999.250000 0.8879076838  -999.250000 1.0088185072 0.9906454086 0.9800177217
 1927.6041260  -999.250000 8.6866998672 8.5000000000 0.4099895060 2.3036921024 72.144302368 132.26155090  -999.250000 1.0222523212  -999.250000 1.0546842813 1.0473184586 1.1268659830
 1927.7565918  -999.250000 8.6948995590 8.5000000000 0.3981343806 2.2940127850 72.640197754 128.34387207  -999.250000 1.0873017311  -999.250000 1.0812246799 1.0703544617 1.2089990377
 1927.9089355  -999.250000 8.6948995590 8.5000000000 0.4020856619 2.3020043373 67.433502197 128.57405090  -999.250000 0.9636586308  -999.250000 1.1149677038 1.1043266058 1.0836457014
 1928.0614014  -999.250000 8.6702003479 8.5000000000 0.3792745769 2.3073058128 68.159698486 126.77174377  -999.250000 0.9120702147  -999.250000 1.1414266825 1.1375195980 1.0159801245
 1928.2137451  -999.250000 8.6702003479 8.5000000000 0.4064594209 2.3108024597 67.771598816 127.48766327  -999.250000 0.8934947848  -999.250000 1.1553872824 1.1497142315 1.0035964251
 1928.3662109  -999.250000 8.6372995377 8.5000000000 0.4269512892 2.3136959076 69.137100220 128.19735718  -999.250000 0.8870048523  -999.250000 1.1808857918 1.1674671173 0.9991850853
 1928.5185547  -999.250000 8.6127004623 8.5000000000 0.4477232695 2.3111896515 71.691299438 129.04696655  -999.250000 0.8899790049  -999.250000 1.1834020615 1.2092354298 0.9898913503
 1928.6708984  -999.250000 8.6209001541 8.5000000000 0.4617887735 2.2982838154 74.622100830 130.25479126  -999.250000 0.8637915254  -999.250000 1.0967547894 1.1286203861 0.9790892005
 1928.8233643  -999.250000 8.6209001541 8.5000000000 0.4477729499 2.2780847549 75.787399292 131.98027039  -999.250000 0.8531828523  -999.250000 0.9963295460 1.0291179419 0.9655741453
 1928.9757080  -999.250000 8.6209001541 8.5000000000 0.4539948106 2.2591884136 75.787399292 132.81513977  -999.250000 0.8317838311  -999.250000 0.9191625714 0.9268807173 0.9332829118
 1929.1281738  -999.250000 8.6127004623 8.5000000000 0.4575214088 2.2444903851 74.805999756 135.48974609  -999.250000 0.8115735650  -999.250000 0.8905258179 0.9027693868 0.9118771553
 1929.2805176  -999.250000 8.6290998459 8.5000000000 0.4854755998 2.2324936390 79.996597290 135.30187988  -999.250000 0.7785642743  -999.250000 0.8633478880 0.8645969033 0.8833624721
 1929.4329834  -999.250000 8.6372995377 8.5000000000 0.4737672508 2.2243964672 80.480903625 137.88418579  -999.250000 0.7339602709  -999.250000 0.8581937551 0.8606937528 0.8364520669
 1929.5853271  -999.250000 8.6456003189 8.5000000000 0.4678023160 2.2199029922 81.704399109 137.36216736  -999.250000 0.6844120622  -999.250000 0.8526752591 0.8528994918 0.7767104506
 1929.7377930  -999.250000 8.6331996918 8.5000000000 0.4557584524 2.2237005234 80.628700256 137.96066284  -999.250000 0.6994235516  -999.250000 0.8407933116 0.8521431088 0.7897023559
 1929.8901367  -999.250000 8.6456003189 8.5000000000 0.4728721976 2.2240004539 84.866699219 138.24578857  -999.250000 0.7140998244  -999.250000 0.8097596169 0.8166826963 0.7911992073
 1930.0426025  -999.250000 8.6290998459 8.5000000000 0.4719228745 2.2246913910 84.546897888 138.10813904  -999.250000 0.7139203548  -999.250000 0.7923963666 0.7950865030 0.7902518511
 1930.1949463  -999.250000 8.6948995590 8.5000000000 0.5098787546 2.2193989754 73.884902954 136.82775879  -999.250000 0.7265739441  -999.250000 0.7818803191 0.7866879702 0.8225690722
 1930.3474121  -999.250000 8.7112998962 8.5000000000 0.5057350397 2.2181923389 71.071403503 136.15959167  -999.250000 0.6940947175  -999.250000 0.7675802112 0.7716795206 0.7839955091
 1930.4997559  -999.250000 8.7195997238 8.5000000000 0.4789327681 2.2133991718 77.610000610 138.58677673  -999.250000 0.6908151507  -999.250000 0.7590928078 0.7589004636 0.7812134027
 1930.6520996  -999.250000 8.7195997238 8.5000000000 0.4836672843 2.2124068737 80.831001282 138.30857849  -999.250000 0.7097006440  -999.250000 0.7669485211 0.7595186234 0.7978973985
 1930.8045654  -999.250000 8.7112998962 8.5000000000 0.4865301251 2.2210090160 84.229499817 139.02603149  -999.250000 0.7105032206  -999.250000 0.7804186940 0.7826943398 0.7946028113
 1930.9569092  -999.250000 8.7072000504 8.5000000000 0.5390791893 2.2323069572 79.965896606 139.94863892  -999.250000 0.7144966722  -999.250000 0.7728068233 0.7755930424 0.7980929613
 1931.1093750  -999.250000 8.6948995590 8.5000000000 0.5168326497 2.2407937050 77.302001953 139.73257446  -999.250000 0.7103061080  -999.250000 0.7714305520 0.7669113278 0.7893049717
 1931.2617188  -999.250000 8.6948995590 8.5000000000 0.5175909996 2.2330949306 75.774101257 140.06620789  -999.250000 0.7179183960  -999.250000 0.7810642123 0.7810001969 0.7955188751
 1931.4141846  -999.250000 8.6826000214 8.5000000000 0.4664339125 2.2266938686 74.952102661 140.68519592  -999.250000 0.7409340143  -999.250000 0.7943417430 0.7812327743 0.8191378713
 1931.5665283  -999.250000 8.6866998672 8.5000000000 0.4825363457 2.2191221714 73.377998352 139.68544006  -999.250000 0.7833878398  -999.250000 0.8207515478 0.8220966458 0.8662878275
 1931.7189941  -999.250000 8.6702003479 8.5000000000 0.4805139899 2.2470343113 76.284103394 138.86236572  -999.250000 0.7683751583  -999.250000 0.9432125092 0.8185244799 0.8512723446
 1931.8713379  -999.250000 8.6702003479 8.5000000000 0.4836091399 2.3308885098 79.069000244 133.97869873  -999.250000 0.8775834441  -999.250000 1.1703363657 1.2078063488 0.9586809278
 1932.0238037  -999.250000 8.6826000214 8.5000000000 0.4450789690 2.4412689209 78.789596558 134.60772705  -999.250000 0.8568022847  -999.250000 1.0292719603 1.0905928612 0.9347779751
 1932.1761475  -999.250000 8.7319002151 8.5000000000 0.4057976604 2.5465672016 76.125701904 138.05401611  -999.250000 0.7958145738  -999.250000 0.8250371218 0.8989152908 0.8586064577
 1932.3286133  -999.250000 8.8429002762 8.5000000000 0.4066443741 2.5052065849 74.793800354 140.30996704  -999.250000 0.6891933680  -999.250000 0.6587190032 0.6685508490 0.7418929935
 1932.4809570  -999.250000 8.7441997528 8.5000000000 0.4331049323 2.3845818043 77.858200073 140.53282166  -999.250000 0.6227068901  -999.250000 0.6450653076 0.6379178762 0.6752071381
 1932.6333008  -999.250000 8.7031002045 8.5000000000 0.4829023182 2.2369592190 79.889503479 139.43130493  -999.250000 0.6313202381  -999.250000 0.6598468423 0.6601991057 0.6841195822
 1932.7857666  -999.250000 8.8346996307 8.5000000000 0.4720705152 2.1860027313 84.108001709 140.06771851  -999.250000 0.6566303968  -999.250000 0.6721774936 0.6591325998 0.7086292505
 1932.9379883  -999.250000 8.8592996597 8.5000000000 0.4590039849 2.1893000603 85.196929932 140.71850586  -999.250000 0.6945000291  -999.250000 0.6697919965 0.6998000145 0.7451000214
 1933.0904541  -999.250000 8.7936000824 8.5000000000 0.5073559880 2.1916999817 85.950897217 141.22050476  -999.250000 0.6953999996  -999.250000 0.5895615220 0.6061000228 0.7440000176
 1933.2427979  -999.250000 8.8675003052 8.5000000000 0.5767909884 2.1919999123 81.831001282 142.39540100  -999.250000 0.6995000243  -999.250000 0.5406329036 0.5544999838 0.7481999993
 1933.3952637  -999.250000 8.9251003265 8.5000000000 0.5493999720 2.1877999306 83.521545410 143.27430725  -999.250000 0.6859999895  -999.250000 0.5185717940 0.5112000108 0.7382000089
