# LAS format log file from PETREL
# Project units are specified as depth units
#==================================================================
~Version information
VERS.   2.0:
WRAP.   NO:
#==================================================================
~Well
STRT .m      625.95562744 :
STOP .m      2455.8225098 :
STEP .m     0.00000000 :
NULL .        -999.250000 :
COMP.           : COMPANY
WELL.  25/6-3   : WELL
FLD.            : FIELD
LOC.            : LOCATION
SRVC.           : SERVICE COMPANY
DATE.  2018-09-11 14:48:22   : Log Export Date {yyyy-MM-dd HH:mm:ss}
PROV.           : PROVINCE
UWI.   25/6-3   : UNIQUE WELL ID
API.            : API NUMBER
#==================================================================
~Curve
DEPT .m                   : DEPTH
Lithology_geolink ._      : Lithology_geolink
CALI .in                  : CALI
BS .in                    : BS
NPHI .m3/m3               : NPHI
RHOB .g/cm3               : RHOB
GR .gAPI                  : GR
DTC .us/ft                : DTC
DTS .us/ft                : DTS
RDEP .ohm.m               : RDEP
SP .mV                    : SP
RSHA .ohm.m               : RSHA
RMIC .ohm.m               : RMIC
RMED .ohm.m               : RMED
~Parameter
#==================================================================
~Ascii
# ...
 1511.0948486  -999.250000 8.6695995331 8.5000000000 0.5346930027 2.1033000946 98.256500244 134.87739563  -999.250000 1.4307978153  -999.250000 1.3234509230 1.3198000193 1.5452003479
 1511.2473145  -999.250000 8.6758003235 8.5000000000 0.5020800233 2.1161999702 100.13480377 135.72140503  -999.250000 1.4280892611  -999.250000 1.3433474302 1.3312000036 1.5456895828
 1511.3996582  -999.250000 8.6702003479 8.5000000000 0.4672000110 2.1301999092 100.32399750 135.54660034  -999.250000 1.4213992357  -999.250000 1.3803409338 1.3690999746 1.5391958952
 1511.5520020  -999.250000 8.6747999191 8.5000000000 0.4594845176 2.1415998936 99.132896423 134.99169922  -999.250000 1.4205040932  -999.250000 1.4109458923 1.4041999578 1.5342073441
 1511.7044678  -999.250000 8.6942996979 8.5000000000 0.4738337398 2.1468985081 97.256500244 134.77450562  -999.250000 1.4255040884  -999.250000 1.4326018095 1.4253000021 1.5435053110
 1511.8568115  -999.250000 8.7072000504 8.5000000000 0.4660004377 2.1450333595 93.536499023 134.61799622  -999.250000 1.4306033850  -999.250000 1.5512388945 1.4480999708 1.5501995087
 1512.0092773  -999.250000 8.7276000977 8.5000000000 0.4078523517 2.1868190765 87.118400574 134.23959351  -999.250000 1.4348108768  -999.250000 1.9434243441 1.7706999779 1.5496199131
 1512.1616211  -999.250000 8.6898002625 8.5000000000 0.3446946740 2.3352859020 82.106399536 134.17570496  -999.250000 1.4485991001  -999.250000 2.3288474083 2.3096001148 1.5747193098
 1512.3140869  -999.250000 8.6954002380 8.5000000000 0.3293711245 2.4425852299 83.591003418 134.26249695  -999.250000 1.8216869831  -999.250000 2.1804370880 2.3696999550 1.9731837511
 1512.4664307  -999.250000 8.7744998932 8.5000000000 0.3632606268 2.4241797924 89.768699646 135.04949951  -999.250000 1.6806159019  -999.250000 1.6922184229 1.7791999578 1.8281062841
 1512.6188965  -999.250000 8.7990999222 8.5000000000 0.4077656269 2.2741107941 94.428802490 136.02310181  -999.250000 1.4508761168  -999.250000 1.4878563881 1.5075999498 1.5862618685
 1512.7712402  -999.250000 8.7889995575 8.5000000000 0.4285075665 2.1628751755 94.740303040 136.65550232  -999.250000 1.4212008715  -999.250000 1.4331257343 1.4459999800 1.5387020111
 1512.9237061  -999.250000 8.7988996506 8.5000000000 0.4416820705 2.1319940090 94.069702148 136.29449463  -999.250000 1.4223330021  -999.250000 1.3922743797 1.4057999849 1.5412240028
 1513.0760498  -999.250000 8.8055000305 8.5000000000 0.4510841072 2.1282978058 94.510498047 134.95039368  -999.250000 1.4429061413  -999.250000 1.3632156849 1.3636000156 1.5562072992
 1513.2285156  -999.250000 8.7972002029 8.5000000000 0.4574923515 2.1254918575 94.616699219 134.12350464  -999.250000 1.4507195950  -999.250000 1.3654769659 1.3624000549 1.5653206110
 1513.3808594  -999.250000 8.7391996384 8.5000000000 0.4589618444 2.1203954220 94.393402100 133.80439758  -999.250000 1.4629005194  -999.250000 1.3770920038 1.3719999790 1.5782032013
 1513.5333252  -999.250000 8.7017002106 8.5000000000 0.4600771070 2.1145896912 94.343399048 133.48890686  -999.250000 1.4634556770  -999.250000 1.3962974548 1.3878999949 1.5821771622
 1513.6856689  -999.250000 8.7049999237 8.5000000000 0.4738820791 2.1081984043 95.319000244 133.21629333  -999.250000 1.4358061552  -999.250000 1.4249887466 1.4141000509 1.5679003000
 1513.8380127  -999.250000 8.7075996399 8.5000000000 0.4976707697 2.1059091091 96.111099243 132.33900452  -999.250000 1.4436372519  -999.250000 1.5265252590 1.4480999708 1.5683420897
 1513.9904785  -999.250000 8.7090997696 8.5000000000 0.5123578906 2.1171293259 95.492500305 131.25889587  -999.250000 1.4901406765  -999.250000 1.6478872299 1.6934000254 1.6208401918
 1514.1428223  -999.250000 8.6550998688 8.5000000000 0.5022578239 2.1536324024 94.095497131 132.36669922  -999.250000 1.5407701731  -999.250000 1.5048027039 1.5513999462 1.6708642244
 1514.2952881  -999.250000 8.6104001999 8.5000000000 0.4745625257 2.1938052177 94.156898499 134.21479797  -999.250000 1.5034844875  -999.250000 1.3055154085 1.4059000015 1.6261662245
 1514.4476318  -999.250000 8.6063003540 8.5000000000 0.4365067482 2.2001810074 95.508499146 135.65060425  -999.250000 1.3592740297  -999.250000 1.0810747147 1.0927000046 1.4592653513
 1514.6000977  -999.250000 8.6134996414 8.5000000000 0.4124808609 2.1764757633 97.213401794 137.62780762  -999.250000 1.2019691467  -999.250000 1.0122332573 1.0563999414 1.2911671400
 1514.7524414  -999.250000 8.6141004562 8.5000000000 0.4335555434 2.1461920738 98.508598328 138.81619263  -999.250000 1.1634069681  -999.250000 0.9104654789 0.9186000228 1.2501014471
 1514.9049072  -999.250000 8.6017999649 8.5000000000 0.4816818535 2.1362943649 99.681503296 139.39660645  -999.250000 1.1721512079  -999.250000 0.9148986936 0.8931999803 1.2519679070
 1515.0572510  -999.250000 8.6052999496 8.5000000000 0.5252295136 2.1328015327 99.802200317 139.75750732  -999.250000 1.2041453123  -999.250000 1.0394588709 0.9609000087 1.2943447828
 1515.2097168  -999.250000 8.6171998978 8.5000000000 0.5495084524 2.1345076561 98.468902588 139.63710022  -999.250000 1.2607105970  -999.250000 1.2616486549 1.2062000036 1.3504344225
 1515.3620605  -999.250000 8.6253995895 8.5000000000 0.5385588408 2.1392083168 97.208503723 138.89140320  -999.250000 1.3297071457  -999.250000 1.3988317251 1.3791999817 1.4343137741
 1515.5145264  -999.250000 8.6472997665 8.5000000000 0.5108816028 2.1496961117 96.332702637 138.62649536  -999.250000 1.3387089968  -999.250000 1.4146025181 1.4405000210 1.4515085220
 1515.6668701  -999.250000 8.6597003937 8.5000000000 0.5019195676 2.1472949982 93.815002441 138.09599304  -999.250000 1.3443020582  -999.250000 1.3558889627 1.3596999645 1.4567985535
 1515.8192139  -999.250000 8.6738004684 8.5000000000 0.5050908923 2.1409943104 90.274902344 135.35130310  -999.250000 1.3468174934  -999.250000 1.3518602848 1.3478000164 1.4550141096
 1515.9716797  -999.250000 8.6708002090 8.5000000000 0.5137006640 2.1339015961 88.821701050 137.05400085  -999.250000 1.3687155247  -999.250000 1.3630319834 1.3604999781 1.4726176262
 1516.1240234  -999.250000 8.6646995544 8.5000000000 0.5057853460 2.1359026432 90.786796570 138.99719238  -999.250000 1.3880051374  -999.250000 1.3665105104 1.3683999777 1.4945997000
 1516.2764893  -999.250000 8.6837997437 8.5000000000 0.4911760688 2.1391043663 92.931396484 136.48860168  -999.250000 1.3944027424  -999.250000 1.3630448580 1.3624999523 1.4941103458
 1516.4288330  -999.250000 8.7084999084 8.5000000000 0.4825164080 2.1446001530 93.197700500 134.82859802  -999.250000 1.3978151083  -999.250000 1.3693240881 1.3641999960 1.5071103573
 1516.5812988  -999.250000 8.7195997238 8.5000000000 0.4805199206 2.1447989941 92.457000732 134.46330261  -999.250000 1.4167211056  -999.250000 1.3824115992 1.3802000284 1.5200172663
 1516.7336426  -999.250000 8.7195997238 8.5000000000 0.4966298640 2.1434984207 91.354103088 134.29800415  -999.250000 1.4430181980  -999.250000 1.3740975857 1.3870999813 1.5415163040
 1516.8861084  -999.250000 8.7264003754 8.5000000000 0.5027014017 2.1414148808 89.435401917 134.10639954  -999.250000 1.4657716751  -999.250000 1.3445448875 1.3465000391 1.5618840456
 1517.0384521  -999.250000 8.7206001282 8.5000000000 0.4792142212 2.1507227421 85.791099548 133.90280151  -999.250000 1.4481329918  -999.250000 1.3532102108 1.3403999805 1.5519356728
 1517.1909180  -999.250000 8.7023000717 8.5000000000 0.4508297741 2.1789929867 82.656997681 133.60099792  -999.250000 1.4895385504  -999.250000 1.4096627235 1.3803999424 1.5966478586
 1517.3432617  -999.250000 8.6880998611 8.5000000000 0.4482225180 2.2370140553 83.734802246 132.80059814  -999.250000 1.6382932663  -999.250000 1.4674725533 1.4716999531 1.7511851788
 1517.4957275  -999.250000 8.7166004181 8.5000000000 0.4775972962 2.2544651031 89.337402344 132.34629822  -999.250000 1.6296178102  -999.250000 1.4241089821 1.4585000277 1.7324167490
 1517.6480713  -999.250000 8.7306003571 8.5000000000 0.5208417773 2.2326481342 95.160896301 132.28770447  -999.250000 1.4536256790  -999.250000 1.3366923332 1.3511999846 1.5557191372
