# LAS format log file from PETREL
# Project units are specified as depth units
#==================================================================
~Version information
VERS.   2.0:
WRAP.   NO:
#==================================================================
~Well
STRT .m      625.95562744 :
STOP .m      2455.8225098 :
STEP .m     0.00000000 :
NULL .        -999.250000 :
COMP.           : COMPANY
WELL.  25/6-3   : WELL
FLD.            : FIELD
LOC.            : LOCATION
SRVC.           : SERVICE COMPANY
DATE.  2018-09-11 14:48:22   : Log Export Date {yyyy-MM-dd HH:mm:ss}
PROV.           : PROVINCE
UWI.   25/6-3   : UNIQUE WELL ID
API.            : API NUMBER
#==================================================================
~Curve
DEPT .m                   : DEPTH
Lithology_geolink ._      : Lithology_geolink
CALI .in                  : CALI
BS .in                    : BS
NPHI .m3/m3               : NPHI
RHOB .g/cm3               : RHOB
GR .gAPI                  : GR
DTC .us/ft                : DTC
DTS .us/ft                : DTS
RDEP .ohm.m               : RDEP
SP .mV                    : SP
RSHA .ohm.m               : RSHA
RMIC .ohm.m               : RMIC
RMED .ohm.m               : RMED
~Parameter
#==================================================================
~Ascii
# ...
 733.24523926  -999.250000 12.433500290 17.500000000  -999.250000  -999.250000 6.3350000381 150.33428955 0.0000000000 0.5700004101 0.0000000000  -999.250000  -999.250000 0.3959839642
 733.39764404  -999.250000 12.424798965 17.500000000  -999.250000  -999.250000 7.6209998131 151.06681824 0.0000000000 0.5709955692 0.0000000000  -999.250000  -999.250000 0.3559947908
 733.55004883  -999.250000 12.419300079 17.500000000  -999.250000  -999.250000 9.2279996872 150.59942627 0.0000000000 0.5600048304 0.0000000000  -999.250000  -999.250000 0.3430019915
 733.70245361  -999.250000 12.419300079 17.500000000  -999.250000  -999.250000 6.9590001106 149.16615295 0.0000000000 0.5720008016 0.0000000000  -999.250000  -999.250000 0.3480003774
 733.85485840  -999.250000 12.419300079 17.500000000  -999.250000  -999.250000 5.2849998474 147.01513672 0.0000000000 0.5740135908 0.0000000000  -999.250000  -999.250000 0.3490068018
 734.00720215  -999.250000 12.432901382 17.500000000  -999.250000  -999.250000 5.1030731201 144.83299255 0.0000000000 0.6079999804 0.0000000000  -999.250000  -999.250000 0.3659999967
 734.15960693  -999.250000 12.444001198 17.500000000  -999.250000  -999.250000 6.4164733887 143.06599426 0.0000000000 0.6079999804 0.0000000000  -999.250000  -999.250000 0.3720000088
 734.31201172  -999.250000 12.444001198 17.500000000  -999.250000  -999.250000 6.6828937531 141.98300171 0.0000000000 0.6090000272 0.0000000000  -999.250000  -999.250000 0.3799999952
 734.46441650  -999.250000 12.444001198 17.500000000  -999.250000  -999.250000 7.3337392807 141.56599426 0.0000000000 0.6110000014 0.0000000000  -999.250000  -999.250000 0.3810000122
 734.61682129  -999.250000 12.444001198 17.500000000  -999.250000  -999.250000 7.6728639603 141.46600342 0.0000000000 0.6159999967 0.0000000000  -999.250000  -999.250000 0.3829999864
 734.76922607  -999.250000 12.444001198 17.500000000  -999.250000  -999.250000 5.8057479858 141.44999695 0.0000000000 0.6060000062 0.0000000000  -999.250000  -999.250000 0.3849999905
 734.92156982  -999.250000 12.439399719 17.500000000  -999.250000  -999.250000 6.5084357262 141.43299866 0.0000000000 0.6349999905 0.0000000000  -999.250000  -999.250000 0.3750000000
 735.07397461  -999.250000 12.440299988 17.500000000  -999.250000  -999.250000 6.7288236618 141.69999695 0.0000000000 0.6230000257 0.0000000000  -999.250000  -999.250000 0.3770000041
 735.22637939  -999.250000 12.444001198 17.500000000  -999.250000  -999.250000 6.4320001602 142.66700745 0.0000000000 0.6169999838 0.0000000000  -999.250000  -999.250000 0.3770000041
 735.37878418  -999.250000 12.450798988 17.500000000  -999.250000  -999.250000 8.3889999390 144.44999695 0.0000000000 0.6370000243 0.0000000000  -999.250000  -999.250000 0.3580000103
 735.53118896  -999.250000 12.435899734 17.500000000  -999.250000  -999.250000 9.8690004349 146.93400574 0.0000000000 0.6560000181 0.0000000000  -999.250000  -999.250000 0.3440000117
 735.68359375  -999.250000 12.426099777 17.500000000  -999.250000  -999.250000 10.760999680 149.55099487 0.0000000000 0.6610000134 0.0000000000  -999.250000  -999.250000 0.3109999895
 735.83599854  -999.250000 12.438400269 17.500000000  -999.250000  -999.250000 10.024000168 151.75099182 0.0000000000 0.6200000048 0.0000000000  -999.250000  -999.250000 0.3120000064
 735.98840332  -999.250000 12.444001198 17.500000000  -999.250000  -999.250000 9.3599996567 153.05101013 0.0000000000 0.5849999785 0.0000000000  -999.250000  -999.250000 0.3009999990
 736.14080811  -999.250000 12.444001198 17.500000000  -999.250000  -999.250000 6.3689999580 153.08399963 0.0000000000 0.5780000091 0.0000000000  -999.250000  -999.250000 0.2969999909
 736.29321289  -999.250000 12.444001198 17.500000000  -999.250000  -999.250000 8.3290004730 151.73300171 0.0000000000 0.5450000167 0.0000000000  -999.250000  -999.250000 0.3310000002
 736.44561768  -999.250000 12.448499680 17.500000000  -999.250000  -999.250000 10.383000374 148.86599731 0.0000000000 0.5389999747 0.0000000000  -999.250000  -999.250000 0.3019999862
 736.59802246  -999.250000 12.434100151 17.500000000  -999.250000  -999.250000 10.003999710 144.86599731 0.0000000000 0.5500000119 0.0000000000  -999.250000  -999.250000 0.2809999883
 736.75042725  -999.250000 12.419300079 17.500000000  -999.250000  -999.250000 9.5279998779 140.73199463 0.0000000000 0.5320000052 0.0000000000  -999.250000  -999.250000 0.3109999895
 736.90277100  -999.250000 12.419300079 17.500000000  -999.250000  -999.250000 7.0770001411 137.23199463 0.0000000000 0.5049999952 0.0000000000  -999.250000  -999.250000 0.3510000110
 737.05517578  -999.250000 12.419300079 17.500000000  -999.250000  -999.250000 7.8779997826 135.51600647 0.0000000000 0.4959999919 0.0000000000  -999.250000  -999.250000 0.3630000055
 737.20758057  -999.250000 12.432901382 17.500000000  -999.250000  -999.250000 7.9029998779 135.16600037 0.0000000000 0.4779999852 0.0000000000  -999.250000  -999.250000 0.3880000114
 737.35998535  -999.250000 12.457599640 17.500000000  -999.250000  -999.250000 8.9250001907 136.31599426 0.0000000000 0.4659999907 0.0000000000  -999.250000  -999.250000 0.3659999967
 737.51239014  -999.250000 12.468600273 17.500000000  -999.250000  -999.250000 8.9250001907 138.28300476 0.0000000000 0.4550000131 0.0000000000  -999.250000  -999.250000 0.3959999979
 737.66479492  -999.250000 12.468600273 17.500000000  -999.250000  -999.250000 10.074999809 140.35000610 0.0000000000 0.4539999962 0.0000000000  -999.250000  -999.250000 0.4230000079
 737.81719971  -999.250000 12.468600273 17.500000000  -999.250000  -999.250000 8.2930002213 141.68400574 0.0000000000 0.4350000024 0.0000000000  -999.250000  -999.250000 0.3610000014
 737.96960449  -999.250000 12.441499710 17.500000000  -999.250000  -999.250000 5.9439997673 141.28399658 0.0000000000 0.4289999902 0.0000000000  -999.250000  -999.250000 0.3499999940
 738.12200928  -999.250000 12.419300079 17.500000000  -999.250000  -999.250000 5.7100000381 139.75000000 0.0000000000 0.4210000038 0.0000000000  -999.250000  -999.250000 0.3429999948
 738.27441406  -999.250000 12.419300079 17.500000000  -999.250000  -999.250000 5.0380001068 137.61599731 0.0000000000 0.4440000057 0.0000000000  -999.250000  -999.250000 0.3770000041
 738.42681885  -999.250000 12.419300079 17.500000000  -999.250000  -999.250000 4.3470001221 135.88299561 0.0000000000 0.4180000126 0.0000000000  -999.250000  -999.250000 0.3829999864
 738.57922363  -999.250000 12.426099777 17.500000000  -999.250000  -999.250000 5.6129999161 134.86599731 0.0000000000 0.4210000038 0.0000000000  -999.250000  -999.250000 0.3869999945
 738.73162842  -999.250000 12.431599617 17.500000000  -999.250000  -999.250000 6.3829998970 134.73300171 0.0000000000 0.4210000038 0.0000000000  -999.250000  -999.250000 0.3289999962
 738.88403320  -999.250000 12.431599617 17.500000000  -999.250000  -999.250000 7.7239999771 135.35000610 0.0000000000 0.4189999998 0.0000000000  -999.250000  -999.250000 0.3179999888
 739.03637695  -999.250000 12.431599617 17.500000000  -999.250000  -999.250000 9.2180004120 136.66700745 0.0000000000 0.4099999964 0.0000000000  -999.250000  -999.250000 0.3330000043
 739.18878174  -999.250000 12.438400269 17.500000000  -999.250000  -999.250000 8.0120000839 138.58399963 0.0000000000 0.3840000033 0.0000000000  -999.250000  -999.250000 0.3160000145
 739.34118652  -999.250000 12.430399895 17.500000000  -999.250000  -999.250000 7.4099998474 141.05099487 0.0000000000 0.3959999979 0.0000000000  -999.250000  -999.250000 0.3129999936
 739.49359131  -999.250000 12.419300079 17.500000000  -999.250000  -999.250000 7.3920001984 143.73399353 0.0000000000 0.4020000100 0.0000000000  -999.250000  -999.250000 0.3370000124
 739.64599609  -999.250000 12.419300079 17.500000000  -999.250000  -999.250000 6.4510002136 146.35099792 0.0000000000 0.3729999959 0.0000000000  -999.250000  -999.250000 0.2649999857
 739.79840088  -999.250000 12.419300079 17.500000000  -999.250000  -999.250000 7.4710001945 148.53399658 0.0000000000 0.3869999945 0.0000000000  -999.250000  -999.250000 0.2949999869
