# LAS format log file from PETREL
# Project units are specified as depth units
#==================================================================
~Version information
VERS.   2.0:
WRAP.   NO:
#==================================================================
~Well
STRT .m      625.95562744 :
STOP .m      2455.8225098 :
STEP .m     0.00000000 :
NULL .        -999.250000 :
COMP.           : COMPANY
WELL.  25/6-3   : WELL
FLD.            : FIELD
LOC.            : LOCATION
SRVC.           : SERVICE COMPANY
DATE.  2018-09-11 14:48:22   : Log Export Date {yyyy-MM-dd HH:mm:ss}
PROV.           : PROVINCE
UWI.   25/6-3   : UNIQUE WELL ID
API.            : API NUMBER
#==================================================================
~Curve
DEPT .m                   : DEPTH
Lithology_geolink ._      : Lithology_geolink
CALI .in                  : CALI
BS .in                    : BS
NPHI .m3/m3               : NPHI
RHOB .g/cm3               : RHOB
GR .gAPI                  : GR
DTC .us/ft                : DTC
DTS .us/ft                : DTS
RDEP .ohm.m               : RDEP
SP .mV                    : SP
RSHA .ohm.m               : RSHA
RMIC .ohm.m               : RMIC
RMED .ohm.m               : RMED
~Parameter
#==================================================================
~Ascii
# ...
 1403.8051758  -999.250000 9.0340003967 8.5000000000 0.4483900070 2.1635000706 95.810195923 131.77009583  -999.250000 2.0174999237  -999.250000 1.8878120184 1.9027999640 2.1847000122
 1403.9576416  -999.250000 9.0200996399 8.5000000000 0.4526879787 2.1902000904 92.406997681 130.70530701  -999.250000 1.9843000174  -999.250000 1.8062883615 1.8559999466 2.1656999588
 1404.1099854  -999.250000 9.0260000229 8.5000000000 0.4812130034 2.1989998817 92.166496277 130.24859619  -999.250000 1.8310999870  -999.250000 1.6921889782 1.7008999586 1.9968999624
 1404.2624512  -999.250000 9.0278997421 8.5000000000 0.5186040401 2.1909000874 94.989402771 130.44200134  -999.250000 1.8078999519  -999.250000 1.6809756756 1.6736999750 1.9643000364
 1404.4147949  -999.250000 9.0347003937 8.5000000000 0.5412729979 2.1802999973 97.331199646 130.65609741  -999.250000 1.8163000345  -999.250000 1.7030293941 1.6964000463 1.9831999540
 1404.5671387  -999.250000 9.0402002335 8.5000000000 0.5364910364 2.1738998890 99.236801147 130.95019531  -999.250000 1.8236000538  -999.250000 1.7151497602 1.7171000242 1.9781999588
 1404.7196045  -999.250000 9.0402002335 8.5000000000 0.5094850063 2.1702001095 100.95010376 132.00169373  -999.250000 1.8212000132  -999.250000 1.7074130774 1.7109999657 1.9817999601
 1404.8719482  -999.250000 9.0402002335 8.5000000000 0.4865030050 2.1648001671 103.14910126 133.65620422  -999.250000 1.8221999407  -999.250000 1.6924465895 1.6998000145 1.9824999571
 1405.0244141  -999.250000 9.0333995819 8.5000000000 0.4755690098 2.1596999168 103.86419678 133.18670654  -999.250000 1.8043999672  -999.250000 1.6818000078 1.6768000126 1.9575999975
 1405.1767578  -999.250000 9.0143003464 8.5000000000 0.4701039791 2.1528000832 101.69830322 131.56329346  -999.250000 1.7770999670  -999.250000 1.6891974211 1.6923999786 1.9388999939
 1405.3292236  -999.250000 9.0235996246 8.5000000000 0.4607380033 2.1503999233 99.931900024 131.36529541  -999.250000 1.7912000418  -999.250000 1.6872397661 1.6823999882 1.9610999823
 1405.4815674  -999.250000 9.0356998444 8.5000000000 0.4538819790 2.1480998993 98.968299866 131.51390076  -999.250000 1.7778999805  -999.250000 1.6883727312 1.6974999905 1.9314999580
 1405.6340332  -999.250000 9.0228996277 8.5000000000 0.4591719806 2.1431000233 98.312896729 131.94790649  -999.250000 1.8328000307  -999.250000 1.6862757206 1.6690000296 1.9853999615
 1405.7863770  -999.250000 9.0087003708 8.5000000000 0.4754660130 2.1352999210 97.818397522 133.38960266  -999.250000 1.8769999743  -999.250000 1.7262306213 1.7229000330 2.0313000679
 1405.9388428  -999.250000 9.0009002686 8.5000000000 0.4722239971 2.1268000603 97.667297363 134.19670105  -999.250000 1.8913999796  -999.250000 1.7352230549 1.7332999706 2.0567998886
 1406.0911865  -999.250000 8.9877996445 8.5000000000 0.4420610070 2.1199998856 96.998497009 133.91780090  -999.250000 1.8969000578  -999.250000 1.7382111549 1.7393000126 2.0625998974
 1406.2436523  -999.250000 8.9717998505 8.5000000000 0.4170729816 2.1133999825 93.570503235 133.42840576  -999.250000 1.9017000198  -999.250000 1.7321180105 1.7359000444 2.0587999821
 1406.3959961  -999.250000 8.9729995728 8.5000000000 0.4358029962 2.1071999073 88.890296936 132.78289795  -999.250000 1.9150999784  -999.250000 1.7185915709 1.7240999937 2.0657000542
 1406.5484619  -999.250000 8.9650001526 8.5000000000 0.4929260015 2.1010000706 87.980796814 132.16510010  -999.250000 1.9515000582  -999.250000 1.7080858946 1.7069000006 2.1098999977
 1406.7008057  -999.250000 8.9561004639 8.5000000000 0.5191980004 2.0901999474 90.882598877 131.72169495  -999.250000 1.9972000122  -999.250000 1.7240507603 1.7106000185 2.1624000072
 1406.8531494  -999.250000 8.9693002701 8.5000000000 0.5059590340 2.0804998875 93.660003662 131.10499573  -999.250000 2.0388000011  -999.250000 1.7638537884 1.7525999546 2.1949000359
 1407.0056152  -999.250000 8.9807996750 8.5000000000 0.4856230021 2.0762999058 93.828300476 130.57359314  -999.250000 2.0648000240  -999.250000 1.7860051394 1.7877999544 2.2146000862
 1407.1579590  -999.250000 8.9871997833 8.5000000000 0.4633499980 2.0855998993 91.957801819 130.68800354  -999.250000 2.0408999920  -999.250000 1.7721118927 1.7821999788 2.1896998882
 1407.3104248  -999.250000 9.0113000870 8.5000000000 0.4383589923 2.1043999195 90.304801941 130.88890076  -999.250000 1.9960999489  -999.250000 1.7373346090 1.7506999969 2.1428999901
 1407.4627686  -999.250000 9.0347003937 8.5000000000 0.4308179915 2.1226999760 89.230598450 131.08389282  -999.250000 1.9217000008  -999.250000 1.7127790451 1.7089999914 2.0776998997
 1407.6152344  -999.250000 9.0537996292 8.5000000000 0.4380059838 2.1377000809 89.824996948 131.77609253  -999.250000 1.8846999407  -999.250000 1.7252230644 1.7208000422 2.0253999233
 1407.7675781  -999.250000 9.0649003983 8.5000000000 0.4411140084 2.1407999992 92.267402649 132.48320007  -999.250000 1.8769999743  -999.250000 1.7450402975 1.7345999479 2.0301001072
 1407.9200439  -999.250000 9.0649003983 8.5000000000 0.4328099787 2.1384999752 94.198097229 132.77149963  -999.250000 1.9089000225  -999.250000 1.7789628506 1.7671999931 2.0599000454
 1408.0723877  -999.250000 9.0853004456 8.5000000000 0.4266920090 2.1342999935 94.339103699 132.74270630  -999.250000 1.9689999819  -999.250000 1.8112338781 1.8039000034 2.1340999603
 1408.2248535  -999.250000 9.1086997986 8.5000000000 0.4409400225 2.1326000690 93.779998779 132.54789734  -999.250000 1.9730999470  -999.250000 1.8272166252 1.8267999887 2.1407999992
 1408.3771973  -999.250000 9.1141996384 8.5000000000 0.4576019943 2.1312999725 93.817001343 132.35929871  -999.250000 1.9620000124  -999.250000 1.8148093224 1.8280999660 2.1303999424
 1408.5296631  -999.250000 9.1210002899 8.5000000000 0.4791699946 2.1315000057 92.408599854 132.41700745  -999.250000 1.8999999762  -999.250000 1.7736191750 1.7865999937 2.0529000759
 1408.6820068  -999.250000 9.1288003922 8.5000000000 0.4932989776 2.1350998878 89.393096924 132.96769714  -999.250000 1.8305000067  -999.250000 1.7297989130 1.7460999489 1.9929000139
 1408.8343506  -999.250000 9.1079998016 8.5000000000 0.4838909805 2.1373000145 87.179702759 133.49850464  -999.250000 1.8051999807  -999.250000 1.7050471306 1.6951999664 1.9516999722
 1408.9868164  -999.250000 9.0622997284 8.5000000000 0.4649869800 2.1280999184 87.252296448 133.29910278  -999.250000 1.7970999479  -999.250000 1.7465448380 1.7259999514 1.9362000227
 1409.1391602  -999.250000 9.0085000992 8.5000000000 0.4466739893 2.1101000309 88.752998352 133.05000305  -999.250000 1.9507000446  -999.250000 1.8122617006 1.7900999784 2.0982000828
 1409.2916260  -999.250000 8.9804000854 8.5000000000 0.4307450056 2.0947000980 90.442497253 132.96549988  -999.250000 2.0522999763  -999.250000 1.8517680168 1.8593000174 2.2151999474
 1409.4439697  -999.250000 8.9716997147 8.5000000000 0.4304919839 2.0836999416 92.257400513 132.56039429  -999.250000 2.0281999111  -999.250000 1.8219009638 1.8358000517 2.1851999760
 1409.5964355  -999.250000 8.9594001770 8.5000000000 0.4415239990 2.0882000923 93.290298462 131.91639709  -999.250000 1.9752999544  -999.250000 1.7732012272 1.7924000025 2.1217999458
 1409.7487793  -999.250000 8.9402999878 8.5000000000 0.4620429873 2.0973000526 93.374198914 131.17109680  -999.250000 1.9428999424  -999.250000 1.7139891386 1.7324999571 2.0968000889
 1409.9012451  -999.250000 8.9224004745 8.5000000000 0.4952130020 2.1066999435 94.021102905 130.95260620  -999.250000 1.9146000147  -999.250000 1.6569756269 1.6747000217 2.0620000362
 1410.0535889  -999.250000 8.9237003326 8.5000000000 0.5275859833 2.1010999680 94.763298035 131.45880127  -999.250000 1.8654999733  -999.250000 1.6103688478 1.6194000244 2.0106000900
 1410.2060547  -999.250000 8.9088001251 8.5000000000 0.5273609757 2.0931000710 93.532699585 132.04939270  -999.250000 1.8388999701  -999.250000 1.5923858881 1.5911999941 1.9750000238
 1410.3583984  -999.250000 8.8877000809 8.5000000000 0.5030860305 2.0866000652 90.788597107 132.32850647  -999.250000 1.8436000347  -999.250000 1.5944837332 1.5949000120 1.9759000540
