# LAS format log file from PETREL
# Project units are specified as depth units
#==================================================================
~Version information
VERS.   2.0:
WRAP.   NO:
#==================================================================
~Well
STRT .m      1025.4147949 :
STOP .m      2373.8500977 :
STEP .m     0.00000000 :
NULL .        -999.250000 :
COMP.           : COMPANY
WELL.  25/6-2  Delta-Beta   : WELL
FLD.            : FIELD
LOC.            : LOCATION
SRVC.           : SERVICE COMPANY
DATE.  2018-09-11 14:48:22   : Log Export Date {yyyy-MM-dd HH:mm:ss}
PROV.           : PROVINCE
UWI.   25/6-2   : UNIQUE WELL ID
API.            : API NUMBER
#==================================================================
~Curve
DEPT .m                   : DEPTH
Lithology_geolink ._      : Lithology_geolink
CALI .in                  : CALI
BS .in                    : BS
MUDWEIGHT ._              : MUDWEIGHT
ROP .m/h                  : ROP
DRHO .g/cm3               : DRHO
NPHI .m3/m3               : NPHI
RHOB .g/cm3               : RHOB
GR .gAPI                  : GR
DTC .us/ft                : DTC
RDEP .ohm.m               : RDEP
SP .mV                    : SP
RSHA .ohm.m               : RSHA
RMIC .ohm.m               : RMIC
RMED .ohm.m               : RMED
~Parameter
#==================================================================
~Ascii
 1025.4147949  -999.250000 18.947269440 17.500000000 1.1499999762 171607.50000  -999.250000  -999.250000  -999.250000 63.987373352 137.40460205 1.1948930025 -35.01666641  -999.250000  -999.250000 0.1492393017
 1025.5672607  -999.250000 18.967489243 17.500000000 1.1499999762 172876.20313  -999.250000  -999.250000  -999.250000 62.734226227 137.40460205 1.1625440121 -37.09589005  -999.250000  -999.250000 0.1490193009
 1025.7196045  -999.250000 18.968999863 17.500000000 1.1499999762 172908.79688  -999.250000  -999.250000  -999.250000 59.812557220 137.40460205 1.0981659889 -37.84149933  -999.250000  -999.250000 0.1497400999
 1025.8720703  -999.250000 18.968999863 17.500000000 1.1499999762 172939.70313  -999.250000  -999.250000  -999.250000 59.277633667 137.40460205 1.0557340384 -37.70336914  -999.250000  -999.250000 0.1499805003
 1026.0244141  -999.250000 18.968999863 17.500000000 1.1499999762 172970.59375  -999.250000  -999.250000  -999.250000 60.002601624 137.40460205 1.0829679966 -37.20370483  -999.250000  -999.250000 0.1500000060
 1026.1767578  -999.250000 18.968999863 17.500000000 1.1499999762 171261.09375  -999.250000  -999.250000  -999.250000 60.801738739 137.40460205 1.1216189861 -36.65340805  -999.250000  -999.250000 0.1492584050
 1026.3292236  -999.250000 18.957139969 17.500000000 1.1499999762 116140.28906  -999.250000  -999.250000  -999.250000 61.446285248 137.40460205 1.1518089771 -36.16601181  -999.250000  -999.250000 0.1490193009
 1026.4815674  -999.250000 18.953310013 17.500000000 1.1499999762 107550.80469  -999.250000  -999.250000  -999.250000 62.259075165 137.40460205 1.1928559542 -35.79100800  -999.250000  -999.250000 0.1497402042
 1026.6340332  -999.250000 18.952999115 17.500000000 1.1499999762 107579.89063  -999.250000  -999.250000  -999.250000 63.547893524 137.40460205 1.2509200573 -35.53717041  -999.250000  -999.250000 0.1499806046
 1026.7863770  -999.250000 18.883359909 17.500000000 1.1499999762 107611.00000  -999.250000  -999.250000  -999.250000 64.869918823 137.40460205 1.2901790142 -35.38582993  -999.250000  -999.250000 0.1492584944
 1026.9388428  -999.250000 18.872680664 17.500000000 1.1499999762 107643.00000  -999.250000  -999.250000  -999.250000 65.533554077 137.40460205 1.2912269831 -35.30696106  -999.250000  -999.250000 0.1490193009
 1027.0911865  -999.250000 18.851720810 17.500000000 1.1499999762 107674.60156  -999.250000  -999.250000  -999.250000 65.247306824 137.40460205 1.2666649818 -35.27773666  -999.250000  -999.250000 0.1497400999
 1027.2436523  -999.250000 18.821630478 17.500000000 1.1499999762 123798.39844  -999.250000  -999.250000  -999.250000 64.423912048 137.40460205 1.2276099920 -35.28022003  -999.250000  -999.250000 0.1499805003
 1027.3959961  -999.250000 18.813600540 17.500000000 1.1499999762 135297.90625  -999.250000  -999.250000  -999.250000 63.435523987 137.40460205 1.1812139750 -35.29093552  -999.250000  -999.250000 0.1500000060
 1027.5484619  -999.250000 18.847080231 17.500000000 1.1499999762 136734.50000  -999.250000  -999.250000  -999.250000 61.918457031 137.40460205 1.1396739483 -35.27523041  -999.250000  -999.250000 0.1500000060
 1027.7008057  -999.250000 18.847000122 17.500000000 1.1499999762 136766.20313  -999.250000  -999.250000  -999.250000 59.550827026 137.40460205 1.1169019938 -35.18648529  -999.250000  -999.250000 0.1500000060
 1027.8532715  -999.250000 18.913940430 17.500000000 1.1499999762 136797.90625  -999.250000  -999.250000  -999.250000 57.056983948 137.40460205 1.1218420267 -34.96729279  -999.250000  -999.250000 0.1500000060
 1028.0056152  -999.250000 18.959159851 17.500000000 1.1499999762 136828.90625  -999.250000  -999.250000  -999.250000 56.081275940 137.40460205 1.1891349554 -34.56001282  -999.250000  -999.250000 0.1500000060
 1028.1579590  -999.250000 18.956539154 17.500000000 1.1499999762 130760.10156  -999.250000  -999.250000  -999.250000 57.266921997 137.40460205 1.3263009787 -33.93325043  -999.250000  -999.250000 0.1507402956
 1028.3104248  -999.250000 18.965169907 17.500000000 1.1499999762 97194.843750  -999.250000  -999.250000  -999.250000 59.340694427 137.40460205 1.4774370193 -33.08979797  -999.250000  -999.250000 0.1502389014
 1028.4627686  -999.250000 18.968690872 17.500000000 1.1499999762 92096.203125  -999.250000  -999.250000  -999.250000 60.436534882 137.40460205 1.5536049604 -32.06712723  -999.250000  -999.250000 0.1492775977
 1028.6152344  -999.250000 18.968999863 17.500000000 1.1499999762 92127.476563  -999.250000  -999.250000  -999.250000 59.945194244 137.40460205 1.5983179808 -30.90987396  -999.250000  -999.250000 0.1497599036
 1028.7675781  -999.250000 18.968999863 17.500000000 1.1499999762 92159.046875  -999.250000  -999.250000  -999.250000 58.965950012 137.40460205 1.6518939734 -29.65058708  -999.250000  -999.250000 0.1499806046
 1028.9200439  -999.250000 18.957139969 17.500000000 1.1499999762 91852.773438  -999.250000  -999.250000  -999.250000 58.671672821 137.40460205 1.7090259790 -28.27404404  -999.250000  -999.250000 0.1507404000
 1029.0723877  -999.250000 18.953310013 17.500000000 1.1499999762 90465.000000  -999.250000  -999.250000  -999.250000 59.190883636 137.40460205 1.7615569830 -26.72635460  -999.250000  -999.250000 0.1524593979
 1029.2248535  -999.250000 18.941879272 17.500000000 1.1499999762 88098.140625  -999.250000  -999.250000  -999.250000 59.783134460 137.40460205 1.8066619635 -24.92994308  -999.250000  -999.250000 0.1551778018
 1029.3771973  -999.250000 18.903480530 17.500000000 1.1499999762 87098.828125  -999.250000  -999.250000  -999.250000 59.743274689 137.40460205 1.8485510349 -22.85182571  -999.250000  -999.250000 0.1610949934
 1029.5296631  -999.250000 18.834119797 17.500000000 1.1499999762 86829.468750  -999.250000  -999.250000  -999.250000 59.065002441 137.40460205 1.8693120480 -20.53535652  -999.250000  -999.250000 0.1781617999
 1029.6820068  -999.250000 18.814510345 17.500000000 1.1499999762 86830.843750  -999.250000  -999.250000  -999.250000 58.287361145 137.40460205 1.8745150566 -18.13359642  -999.250000  -999.250000 0.2074256986
 1029.8344727  -999.250000 18.812999725 17.500000000 1.1499999762 86863.398438  -999.250000  -999.250000  -999.250000 58.425704956 137.40460205 1.8598489761 -15.84598637  -999.250000  -999.250000 0.2028646022
 1029.9868164  -999.250000 18.812999725 17.500000000 1.1499999762 86893.906250  -999.250000  -999.250000  -999.250000 60.398818970 137.40460205 1.8390790224 -13.86600304  -999.250000  -999.250000 0.1656316072
 1030.1391602  -999.250000 18.847080231 17.500000000 1.1499999762 86925.679688  -999.250000  -999.250000  -999.250000 64.357963562 137.40460205 1.8219079971 -12.30049706  -999.250000  -999.250000 0.1049674973
 1030.2916260  -999.250000 18.824010849 17.500000000 1.1499999762 89546.406250  -999.250000  -999.250000  -999.250000 69.420936584 161.90370178 1.7991670370 -11.15299034  -999.250000  -999.250000 0.0851137713
 1030.4439697  -999.250000 18.674600601 17.500000000 1.1499999762 90376.921875  -999.250000  -999.250000  -999.250000 74.157455444 170.76530457 1.7720949650 -10.34619236  -999.250000  -999.250000 0.0799273700
 1030.5964355  -999.250000 19.427560806 17.500000000 1.1499999762 90468.546875  -999.250000  -999.250000  -999.250000 77.653587341 171.55360413 1.7383970022 -9.771189690  -999.250000  -999.250000 0.0976144969
 1030.7487793  -999.250000 21.603889465 17.500000000 1.1499999762 90219.468750  -999.250000  -999.250000  -999.250000 79.755760193 171.55369568 1.7078720331 -9.341105461  -999.250000  -999.250000 0.2471919954
 1030.9012451  -999.250000 22.420120239 17.500000000 1.1499999762 89891.156250 -0.149001107  -999.250000 1.4551060200 80.971343994 171.55369568 1.7002819777 -9.007846832  -999.250000  -999.250000 0.5141639113
 1031.0535889  -999.250000 22.491651535 17.500000000 1.1499999762 89873.093750 -0.088134363  -999.250000 1.4592440128 81.865051270 171.55369568 1.7023110390 -8.747286797  -999.250000  -999.250000 0.6158831716
 1031.2060547  -999.250000 22.508630753 17.500000000 1.1499999762 95799.312500 -0.074071757  -999.250000 1.4690150023 82.708076477 171.55369568 1.6864989996 -8.529065132  -999.250000  -999.250000 0.5898637772
