# LAS format log file from PETREL
# Project units are specified as depth units
#==================================================================
~Version information
VERS.   2.0:
WRAP.   NO:
#==================================================================
~Well
STRT .m      1025.4147949 :
STOP .m      2373.8500977 :
STEP .m     0.00000000 :
NULL .        -999.250000 :
COMP.           : COMPANY
WELL.  25/6-2  Delta-Beta   : WELL
FLD.            : FIELD
LOC.            : LOCATION
SRVC.           : SERVICE COMPANY
DATE.  2018-09-11 14:48:22   : Log Export Date {yyyy-MM-dd HH:mm:ss}
PROV.           : PROVINCE
UWI.   25/6-2   : UNIQUE WELL ID
API.            : API NUMBER
#==================================================================
~Curve
DEPT .m                   : DEPTH
Lithology_geolink ._      : Lithology_geolink
CALI .in                  : CALI
BS .in                    : BS
MUDWEIGHT ._              : MUDWEIGHT
ROP .m/h                  : ROP
DRHO .g/cm3               : DRHO
NPHI .m3/m3               : NPHI
RHOB .g/cm3               : RHOB
GR .gAPI                  : GR
DTC .us/ft                : DTC
RDEP .ohm.m               : RDEP
SP .mV                    : SP
RSHA .ohm.m               : RSHA
RMIC .ohm.m               : RMIC
RMED .ohm.m               : RMED
~Parameter
#==================================================================
~Ascii
# ...
 1382.0308838  -999.250000 17.822669983 17.500000000 1.2999999523 18457.679688 -0.007511365  -999.250000 2.1407248974 78.567283630 133.10510254 1.8750590086 0.6415588260  -999.250000  -999.250000 1.2679899931
 1382.1832275  -999.250000 17.827720642 17.500000000 1.2999999523 18336.990234 -0.007669452  -999.250000 2.1417250633 77.023803711 134.23159790 1.8586740494 0.4534831941  -999.250000  -999.250000 1.2607389688
 1382.3356934  -999.250000 17.886049271 17.500000000 1.2999999523 18215.880859 -0.007626889  -999.250000 2.1427249908 75.617088318 134.46429443 1.8460580111 0.3207654059  -999.250000  -999.250000 1.2687760592
 1382.4880371  -999.250000 17.811529160 17.500000000 1.2999999523 18095.169922 -0.008263463  -999.250000 2.1429810524 75.111122131 134.45959473 1.8557380438 0.2795937359  -999.250000  -999.250000 1.2687770128
 1382.6405029  -999.250000 17.818340302 17.500000000 1.2999999523 17974.460938 -0.011820460  -999.250000 2.1407680511 75.589874268 134.30569458 1.8687380552 0.3534443378  -999.250000  -999.250000 1.2807060480
 1382.7928467  -999.250000 17.804050446 17.500000000 1.2999999523 17853.810547 -0.014156370  -999.250000 2.1333611012 76.487892151 134.19340515 1.8711299896 0.5363942385  -999.250000  -999.250000 1.2690260410
 1382.9453125  -999.250000 17.774520874 17.500000000 1.2999999523 17732.890625 -0.013452830  -999.250000 2.1214959621 77.246612549 134.56320190 1.8140779734 0.7911441326  -999.250000  -999.250000 1.2322440147
 1383.0976563  -999.250000 17.789640427 17.500000000 1.2999999523 17612.029297 -0.010507700  -999.250000 2.1056001186 77.721527100 135.19380188 1.7167929411 1.0707668066  -999.250000  -999.250000 1.1768499613
 1383.2500000  -999.250000 17.970529556 17.500000000 1.2999999523 17491.359375 -0.006426062  -999.250000 2.0901598930 77.836784363 136.07009888 1.6195729971 1.3487019539  -999.250000  -999.250000 1.1321820021
 1383.4024658  -999.250000 18.177579880 17.500000000 1.2999999523 17370.550781 -0.004984225  -999.250000 2.0795888901 77.533561707 137.66490173 1.5680439472 1.6276581287  -999.250000  -999.250000 1.1120519638
 1383.5548096  -999.250000 17.974960327 17.500000000 1.2999999523 17249.880859 -0.006741853  -999.250000 2.0764260292 76.893867493 139.14329529 1.5838129520 1.9293029308  -999.250000  -999.250000 1.1371389627
 1383.7072754  -999.250000 17.839420319 17.500000000 1.2999999523 17129.089844 -0.008525742  -999.250000 2.0782523155 76.316909790 138.44500732 1.6647030115 2.2726655006  -999.250000  -999.250000 1.1751370430
 1383.8596191  -999.250000 17.779499054 17.500000000 1.2999999523 17008.189453 -0.009372490  -999.250000 2.0796880722 76.151290894 135.26409912 1.8131469488 2.6524639130  -999.250000  -999.250000 1.2617510557
 1384.0120850  -999.250000 17.754980087 17.500000000 1.2999999523 17907.310547 -0.008243104  -999.250000 2.0747709274 76.248672485 132.65840149 1.9024440050 3.0321407318  -999.250000  -999.250000 1.3035279512
 1384.1644287  -999.250000 17.773370743 17.500000000 1.2999999523 20568.119141 -0.008978317  -999.250000 2.0642037392 76.186981201 132.82269287 1.9080859423 3.3516201973  -999.250000  -999.250000 1.3009200096
 1384.3168945  -999.250000 17.804229736 17.500000000 1.2999999523 21056.369141 -0.011981590  -999.250000 2.0515520573 75.663063049 133.66610718 1.8966649771 3.5541472435  -999.250000  -999.250000 1.3019640446
 1384.4692383  -999.250000 17.753620148 17.500000000 1.2999999523 21085.169922 -0.014161440  -999.250000 2.0415489674 75.096679688 133.05599976 1.8861149549 3.6086826324  -999.250000  -999.250000 1.2730309963
 1384.6217041  -999.250000 17.933450699 17.500000000 1.2999999523 21102.029297 -0.013474750  -999.250000 2.0384259224 75.488769531 132.16220093 1.8838139772 3.5135660172  -999.250000  -999.250000 1.2985780239
 1384.7740479  -999.250000 17.867029190 17.500000000 1.2999999523 21119.029297 -0.012552250  -999.250000 2.0424818993 77.634582520 131.91799927 1.9246629477 3.3008990288  -999.250000  -999.250000 1.3387190104
 1384.9265137  -999.250000 17.831249237 17.500000000 1.2999999523 21135.880859 -0.010468520  -999.250000 2.0513279438 80.857116699 132.11610413 1.8044420481 3.0219328403  -999.250000  -999.250000 1.2229579687
 1385.0788574  -999.250000 18.281749725 17.500000000 1.2999999523 24126.009766 -0.008355171  -999.250000 2.0612499714 82.926963806 133.07229614 1.6726440191 2.7340624332  -999.250000  -999.250000 1.1424219608
 1385.2312012  -999.250000 18.205469131 17.500000000 1.2999999523 27010.992188 -0.004093349  -999.250000 2.0742280483 81.823287964 134.12530518 1.6054550409 2.4879920483  -999.250000  -999.250000 1.1126359701
 1385.3836670  -999.250000 18.018669128 17.500000000 1.2999999523 27405.080078 0.0003516386  -999.250000 2.0918679237 77.644264221 133.71830750 1.6355580091 2.3154664040  -999.250000  -999.250000 1.1568100452
 1385.5360107  -999.250000 18.018379211 17.500000000 1.2999999523 27422.660156 -0.001266435  -999.250000 2.1144967079 72.788795471 130.42739868 1.8235969543 2.2190096378  -999.250000  -999.250000 1.3040009737
 1385.6884766  -999.250000 17.878730774 17.500000000 1.2999999523 27439.089844 -0.002342855  -999.250000 2.1384110451 70.008995056 125.68721008 2.0017058849 2.1799056530  -999.250000  -999.250000 1.3666549921
 1385.8408203  -999.250000 17.785690308 17.500000000 1.2999999523 27456.380859 -0.000153806  -999.250000 2.1586849689 70.293159485 123.72760010 2.0432639122 2.1795120239  -999.250000  -999.250000 1.3524559736
 1385.9932861  -999.250000 17.860210419 17.500000000 1.2999999523 27472.750000 0.0009788746  -999.250000 2.1695950031 72.572265625 125.24109650 1.9448570013 2.2131223679  -999.250000  -999.250000 1.2673480511
 1386.1456299  -999.250000 17.946680069 17.500000000 1.2999999523 27489.449219 -0.000558726  -999.250000 2.1703610420 75.359710693 127.93080139 1.7936819792 2.2886729240  -999.250000  -999.250000 1.1857969761
 1386.2980957  -999.250000 17.885660172 17.500000000 1.2999999523 27506.822266 0.0009522228  -999.250000 2.1618509293 77.946273804 131.14399719 1.6762520075 2.4143290520  -999.250000  -999.250000 1.1289269924
 1386.4504395  -999.250000 17.814950943 17.500000000 1.2999999523 27523.162109 0.0002821729  -999.250000 2.1487920284 80.271965027 135.13909912 1.5826029778 2.5933701992  -999.250000  -999.250000 1.0656419992
 1386.6029053  -999.250000 17.856220245 17.500000000 1.2999999523 27539.968750 0.0016678390  -999.250000 2.1355900764 82.186775208 139.50880432 1.5010620356 2.8185358047  -999.250000  -999.250000 1.0312939882
 1386.7552490  -999.250000 17.792440414 17.500000000 1.2999999523 27556.958984 0.0031892769  -999.250000 2.1262938976 83.632652283 142.97300720 1.4573160410 3.0757427216  -999.250000  -999.250000 1.0065319538
 1386.9077148  -999.250000 17.814199448 17.500000000 1.2999999523 27574.191406 0.0028701050  -999.250000 2.1219189167 84.986404419 144.25160217 1.4409569502 3.3523819447  -999.250000  -999.250000 0.9907541871
 1387.0600586  -999.250000 18.024690628 17.500000000 1.2999999523 27605.380859 0.0035596541  -999.250000 2.1225440502 86.858146667 143.26260376 1.4400810003 3.6362137794  -999.250000  -999.250000 1.0013459921
 1387.2125244  -999.250000 17.926019669 17.500000000 1.2999999523 29688.519531 0.0057008769  -999.250000 2.1259379387 89.281150818 141.57290649 1.4636460543 3.9104201794  -999.250000  -999.250000 1.0093539953
 1387.3648682  -999.250000 17.844179153 17.500000000 1.2999999523 32055.269531 0.0044390522  -999.250000 2.1298999786 91.103721619 141.04620361 1.5000360012 4.1579303741  -999.250000  -999.250000 1.0331330299
 1387.5172119  -999.250000 17.828889847 17.500000000 1.2999999523 32466.027344 0.0032297289  -999.250000 2.1309239864 90.968521118 141.80169678 1.5063190460 4.3593049049  -999.250000  -999.250000 1.0067729950
 1387.6696777  -999.250000 17.827999115 17.500000000 1.2999999523 32494.880859 0.0042223148  -999.250000 2.1272780895 88.625366211 142.44439697 1.4885070324 4.4920630455  -999.250000  -999.250000 0.9945958257
 1387.8220215  -999.250000 17.955980301 17.500000000 1.2999999523 32512.109375 0.0055973772  -999.250000 2.1193981171 85.372444153 142.65580750 1.4588190317 4.5360240936  -999.250000  -999.250000 0.9788836241
