# LAS format log file from PETREL
# Project units are specified as depth units
#==================================================================
~Version information
VERS.   2.0:
WRAP.   NO:
#==================================================================
~Well
STRT .m      625.95562744 :
STOP .m      2455.8225098 :
STEP .m     0.00000000 :
NULL .        -999.250000 :
COMP.           : COMPANY
WELL.  25/6-3   : WELL
FLD.            : FIELD
LOC.            : LOCATION
SRVC.           : SERVICE COMPANY
DATE.  2018-09-11 14:48:22   : Log Export Date {yyyy-MM-dd HH:mm:ss}
PROV.           : PROVINCE
UWI.   25/6-3   : UNIQUE WELL ID
API.            : API NUMBER
#==================================================================
~Curve
DEPT .m                   : DEPTH
Lithology_geolink ._      : Lithology_geolink
CALI .in                  : CALI
BS .in                    : BS
NPHI .m3/m3               : NPHI
RHOB .g/cm3               : RHOB
GR .gAPI                  : GR
DTC .us/ft                : DTC
DTS .us/ft                : DTS
RDEP .ohm.m               : RDEP
SP .mV                    : SP
RSHA .ohm.m               : RSHA
RMIC .ohm.m               : RMIC
RMED .ohm.m               : RMED
~Parameter
#==================================================================
~Ascii
# ...
 1296.5156250  -999.250000 8.9827995300 8.5000000000 0.5845224857 1.8947035074 84.268501282 142.89849854  -999.250000 1.6214022636  -999.250000 1.3033509254 1.3134000301 1.6596027613
 1296.6680908  -999.250000 8.9390001297 8.5000000000 0.5826573968 1.8990020752 86.511901855 142.76739502  -999.250000 1.6242985725  -999.250000 1.2727818489 1.2820999622 1.6629927158
 1296.8204346  -999.250000 8.9214000702 8.5000000000 0.5594259501 1.9014991522 88.153396606 143.16949463  -999.250000 1.6224849224  -999.250000 1.2466146946 1.2531000376 1.6538925171
 1296.9729004  -999.250000 8.9069995880 8.5000000000 0.5531061888 1.9003998041 88.788200378 143.53840637  -999.250000 1.6038016081  -999.250000 1.2366272211 1.2329000235 1.6444903612
 1297.1252441  -999.250000 8.8990001678 8.5000000000 0.5620744824 1.9001011848 89.565902710 143.78630066  -999.250000 1.6058038473  -999.250000 1.2396520376 1.2445000410 1.6324018240
 1297.2777100  -999.250000 8.9068002701 8.5000000000 0.5514465570 1.9016001225 91.064796448 143.62260437  -999.250000 1.6104992628  -999.250000 1.2322918177 1.2294000387 1.6346971989
 1297.4300537  -999.250000 8.9063997269 8.5000000000 0.5309581161 1.9018033743 91.223297119 142.79910278  -999.250000 1.6095998287  -999.250000 1.2392989397 1.2383999825 1.6312962770
 1297.5825195  -999.250000 8.9181003571 8.5000000000 0.5473988652 1.9060118198 88.737998962 142.57479858  -999.250000 1.6095089912  -999.250000 1.2449271679 1.2411999702 1.6267023087
 1297.7348633  -999.250000 8.9496002197 8.5000000000 0.5903394818 1.9134063721 87.718696594 142.99299622  -999.250000 1.6150953770  -999.250000 1.2493618727 1.2527999878 1.6280940771
 1297.8873291  -999.250000 8.9661998749 8.5000000000 0.6133660078 1.9212938547 90.695297241 143.57780457  -999.250000 1.6092756987  -999.250000 1.2388492823 1.2421000004 1.6206758022
 1298.0396729  -999.250000 8.9798002243 8.5000000000 0.5990393162 1.9173864126 94.294097900 143.65609741  -999.250000 1.5940951109  -999.250000 1.2298151255 1.2319999933 1.6055979729
 1298.1921387  -999.250000 9.0045003891 8.5000000000 0.6107147336 1.9003684521 94.619201660 143.80039978  -999.250000 1.5880082846  -999.250000 1.2243953943 1.2252000570 1.6031148434
 1298.3444824  -999.250000 9.0359001160 8.5000000000 0.6829570532 1.8806883097 91.130500793 144.52990723  -999.250000 1.5930973291  -999.250000 1.2243708372 1.2226999998 1.6124053001
 1298.4968262  -999.250000 9.0728998184 8.5000000000 0.7690063119 1.8660929203 84.712303162 144.69200134  -999.250000 1.5899132490  -999.250000 1.2333258390 1.2279000282 1.6190139055
 1298.6492920  -999.250000 9.0759000778 8.5000000000 0.7768182158 1.8572951555 79.076400757 144.78109741  -999.250000 1.6064946651  -999.250000 1.2518045902 1.2447999716 1.6363923550
 1298.8016357  -999.250000 9.1056003571 8.5000000000 0.7235198021 1.8511952162 78.408897400 145.27810669  -999.250000 1.5997730494  -999.250000 1.2616236210 1.2666000128 1.6268746853
 1298.9541016  -999.250000 9.1457004547 8.5000000000 0.6808641553 1.8452954292 83.907096863 145.53089905  -999.250000 1.5661936998  -999.250000 1.2361266613 1.2510999441 1.5953927040
 1299.1064453  -999.250000 9.2033004761 8.5000000000 0.6985779405 1.8396956921 90.733100891 145.64540100  -999.250000 1.5582906008  -999.250000 1.1884471178 1.2044999599 1.5862953663
 1299.2589111  -999.250000 9.2955999374 8.5000000000 0.7284696698 1.8343992233 93.053001404 145.80969238  -999.250000 1.5465761423  -999.250000 1.1528613567 1.1545000076 1.5804694891
 1299.4112549  -999.250000 9.3498001099 8.5000000000 0.7055823207 1.8334046602 93.045196533 145.88580322  -999.250000 1.5168991089  -999.250000 1.1559174061 1.1493999958 1.5423992872
 1299.5637207  -999.250000 9.3065004349 8.5000000000 0.6672927141 1.8392136097 92.749198914 145.84910583  -999.250000 1.5158140659  -999.250000 1.1812994480 1.1697000265 1.5415076017
 1299.7160645  -999.250000 9.3120002747 8.5000000000 0.6546711326 1.8477106094 92.725402832 145.84770203  -999.250000 1.5246080160  -999.250000 1.2079832554 1.2058000565 1.5463101864
 1299.8685303  -999.250000 9.3503999710 8.5000000000 0.6810927391 1.8610159159 91.961700439 145.88200378  -999.250000 1.5346435308  -999.250000 1.2108649015 1.2125912905 1.5590602160
 1300.0208740  -999.250000 9.3507995605 8.5000000000 0.7108323574 1.8710085154 90.598800659 145.29420471  -999.250000 1.5618368387  -999.250000 1.2101560831 1.2072074413 1.5966579914
 1300.1733398  -999.250000 9.3232002258 8.5000000000 0.6975375414 1.8816134930 91.637199402 143.97270203  -999.250000 1.6077842712  -999.250000 1.2351320982 1.2164932489 1.6689409018
 1300.3256836  -999.250000 9.2175998688 8.5000000000 0.6641939282 1.8900077343 92.678398132 143.09550476  -999.250000 1.6603300571  -999.250000 1.3007550240 1.2746652365 1.6944322586
 1300.4780273  -999.250000 9.1670999527 8.5000000000 0.6403966546 1.8997056484 92.421302795 142.79469299  -999.250000 1.6978253126  -999.250000 1.3771255016 1.3560526371 1.7347341776
 1300.6304932  -999.250000 9.1709003448 8.5000000000 0.6337059736 1.9067038298 89.392700195 142.50129700  -999.250000 1.7294075489  -999.250000 1.4416251183 1.4218494892 1.7774034739
 1300.7828369  -999.250000 9.2178001404 8.5000000000 0.6436604261 1.9115059376 85.501998901 142.09240723  -999.250000 1.7387301922  -999.250000 1.4966312647 1.4835327864 1.7817382813
 1300.9353027  -999.250000 9.2622003555 8.5000000000 0.6566839814 1.9190070629 84.553596497 141.48060608  -999.250000 1.7763209343  -999.250000 1.5372203588 1.5244319439 1.8295228481
 1301.0876465  -999.250000 9.2576999664 8.5000000000 0.6865669489 1.9278057814 87.368698120 140.74620056  -999.250000 1.8025131226  -999.250000 1.5669647455 1.5643066168 1.8580088615
 1301.2401123  -999.250000 9.2448997498 8.5000000000 0.6889056563 1.9349037409 91.178100586 140.11590576  -999.250000 1.8189004660  -999.250000 1.5674910545 1.5725872517 1.8690044880
 1301.3924561  -999.250000 9.2442998886 8.5000000000 0.6784348488 1.9395054579 93.546401978 139.81410217  -999.250000 1.8194876909  -999.250000 1.5458482504 1.5566729307 1.8745940924
 1301.5449219  -999.250000 9.2635002136 8.5000000000 0.6569982171 1.9463042021 94.817100525 139.87789917  -999.250000 1.8040606976  -999.250000 1.5074447393 1.5228614807 1.8671487570
 1301.6972656  -999.250000 9.2677001953 8.5000000000 0.6610252261 1.9515016079 95.904701233 139.93710327  -999.250000 1.7549858093  -999.250000 1.4659708738 1.4747779369 1.8031954765
 1301.8497314  -999.250000 9.2622003555 8.5000000000 0.6675164104 1.9534933567 96.967201233 140.06750488  -999.250000 1.7373027802  -999.250000 1.4501918554 1.4473143816 1.7975959778
 1302.0020752  -999.250000 9.2486000061 8.5000000000 0.6184881926 1.9492889643 96.535896301 140.64920044  -999.250000 1.7389900684  -999.250000 1.4659715891 1.4563241005 1.7950932980
 1302.1545410  -999.250000 9.2375001907 8.5000000000 0.5562776923 1.9354689121 95.640602112 141.23330688  -999.250000 1.7265714407  -999.250000 1.4921612740 1.4864286184 1.7866747379
 1302.3068848  -999.250000 9.2285003662 8.5000000000 0.5168145299 1.9160847664 94.451400757 141.86360168  -999.250000 1.7086873055  -999.250000 1.5005406141 1.5042905807 1.7708894014
 1302.4593506  -999.250000 9.2097997665 8.5000000000 0.5150669813 1.8969864845 94.244903564 142.99389648  -999.250000 1.6930502653  -999.250000 1.4921493530 1.4925976992 1.7577577829
 1302.6116943  -999.250000 9.2208995819 8.5000000000 0.5362900496 1.8886017799 95.627899170 143.48060608  -999.250000 1.7244092226  -999.250000 1.5039882660 1.4912319183 1.7938131094
 1302.7640381  -999.250000 9.2103996277 8.5000000000 0.6025193334 1.8909096718 95.921997070 143.00880432  -999.250000 1.7359040976  -999.250000 1.5437780619 1.5310318470 1.8100970984
 1302.9165039  -999.250000 9.1745996475 8.5000000000 0.6678865552 1.9029115438 94.397003174 142.87170410  -999.250000 1.7409062386  -999.250000 1.5762944221 1.5708136559 1.8066003323
 1303.0688477  -999.250000 9.1634998322 8.5000000000 0.6923752427 1.9173119068 92.679298401 143.10319519  -999.250000 1.7486823797  -999.250000 1.5722324848 1.5878609419 1.8070827723
