# LAS format log file from PETREL
# Project units are specified as depth units
#==================================================================
~Version information
VERS.   2.0:
WRAP.   NO:
#==================================================================
~Well
STRT .m      625.95562744 :
STOP .m      2455.8225098 :
STEP .m     0.00000000 :
NULL .        -999.250000 :
COMP.           : COMPANY
WELL.  25/6-3   : WELL
FLD.            : FIELD
LOC.            : LOCATION
SRVC.           : SERVICE COMPANY
DATE.  2018-09-11 14:48:22   : Log Export Date {yyyy-MM-dd HH:mm:ss}
PROV.           : PROVINCE
UWI.   25/6-3   : UNIQUE WELL ID
API.            : API NUMBER
#==================================================================
~Curve
DEPT .m                   : DEPTH
Lithology_geolink ._      : Lithology_geolink
CALI .in                  : CALI
BS .in                    : BS
NPHI .m3/m3               : NPHI
RHOB .g/cm3               : RHOB
GR .gAPI                  : GR
DTC .us/ft                : DTC
DTS .us/ft                : DTS
RDEP .ohm.m               : RDEP
SP .mV                    : SP
RSHA .ohm.m               : RSHA
RMIC .ohm.m               : RMIC
RMED .ohm.m               : RMED
~Parameter
#==================================================================
~Ascii
# ...
 2342.5893555 6.0000000000 8.8429002762 8.5000000000 0.3890510201 2.3401999474 100.72570038 117.13020325  -999.250000 1.0853291750  -999.250000 1.1825793982 1.1778999567 1.1898335218
 2342.7416992 6.0000000000 8.8429002762 8.5000000000 0.3991929889 2.3523001671 100.61540222 117.19529724  -999.250000 1.0411330462  -999.250000 1.1949038506 1.1924999952 1.1483207941
 2342.8940430 6.0000000000 8.8551998138 8.5000000000 0.3851960003 2.3563001156 105.92459869 118.20729828  -999.250000 0.9993000031  -999.250000 1.1998077631 1.2000000477 1.0988999605
 2343.0463867 6.0000000000 8.8551998138 8.5000000000 0.3791230023 2.3622999191 108.22519684 117.06379700  -999.250000 1.0125999451  -999.250000 1.1228239536 1.1993999481 1.1126999855
 2343.1989746 6.0000000000 8.8551998138 8.5000000000 0.3754520118 2.3743000031 107.36730194 116.96089935  -999.250000 1.0116087198  -999.250000 0.9635294676 0.9600999951 1.0998104811
 2343.3513184 6.0000000000 8.8263998032 8.5000000000 0.3775019944 2.3949999809 107.26480103 117.51950073  -999.250000 0.9547787309  -999.250000 0.9960563779 0.9707999825 1.0440700054
 2343.5036621 6.0000000000 8.8017997742 8.5000000000 0.4055619836 2.4068000317 106.29609680 117.37609863  -999.250000 1.0039000511  -999.250000 1.1807217598 1.0496000051 1.0877000093
 2343.6560059 6.0000000000 8.7441997528 8.5000000000 0.3832010031 2.4570999146 113.92070007 117.51390076  -999.250000 1.0767999887  -999.250000 1.4990839958 1.4586999416 1.1694999933
 2343.8085938 6.0000000000 8.8429002762 8.5000000000 0.3923289776 2.4705998898 115.85800171 117.88819885  -999.250000 1.1088199615  -999.250000 1.5747077465 1.5849000216 1.2065159082
 2343.9609375 6.0000000000 8.8510999680 8.5000000000 0.3845029771 2.4709999561 117.41369629 117.64449310  -999.250000 1.1213368177  -999.250000 1.5453436375 1.5530999899 1.2165498734
 2344.1132813 6.0000000000 8.8551998138 8.5000000000 0.3978480101 2.4221000671 110.53240204 116.29969025  -999.250000 1.2066489458  -999.250000 1.5187398195 1.5289000273 1.3099495173
 2344.2656250 6.0000000000 8.8592996597 8.5000000000 0.3636659980 2.4012999535 106.53659821 115.66069794  -999.250000 1.2372000217  -999.250000 1.4895199537 1.4972000122 1.3408000469
 2344.4179688 6.0000000000 8.8429002762 8.5000000000 0.3850709796 2.4049000740 105.48130035 112.79740143  -999.250000 1.3144999743  -999.250000 1.4789084196 1.4731999636 1.4308999777
 2344.5705566 6.0000000000 8.8675003052 8.5000000000 0.3862089813 2.4044001102 107.14759827 113.74140167  -999.250000 1.3815745115  -999.250000 1.5002025366 1.4910999537 1.4988625050
 2344.7229004 6.0000000000 8.8551998138 8.5000000000 0.4062590003 2.4072999954 107.00910187 113.22899628  -999.250000 1.3657181263  -999.250000 1.5237948895 1.5195000172 1.4755324125
 2344.8752441 6.0000000000 8.8305997849 8.5000000000 0.3889420033 2.4068999290 107.71959686 113.30909729  -999.250000 1.3769999743  -999.250000 1.5068743229 1.5328999758 1.4958000183
 2345.0275879 6.0000000000 8.7936000824 8.5000000000 0.3862200081 2.4075999260 106.28140259 112.80609894  -999.250000 1.3779000044  -999.250000 1.4290119410 1.4516999722 1.4876999855
 2345.1801758 6.0000000000 8.7195997238 8.5000000000 0.3977049887 2.4054999352 113.06620026 112.28880310  -999.250000 1.3751008511  -999.250000 1.3534923792 1.3808000088 1.4879935980
 2345.3325195 5.0000000000 8.8182001114 8.5000000000 0.4420610070 2.3945000172 112.35569763 112.42590332  -999.250000 1.3129400015  -999.250000 1.3113372326 1.2956000566 1.4212830067
 2345.4848633 5.0000000000 8.8182001114 8.5000000000 0.4339860082 2.3828001022 111.64320374 114.10299683  -999.250000 1.0882999897  -999.250000 1.3952769041 1.3446999788 1.1611000299
 2345.6372070 5.0000000000 8.8263998032 8.5000000000 0.4154690206 2.3910000324 102.43789673 115.42649841  -999.250000 0.9886000156  -999.250000 1.2842280865 1.5025000572 1.0635999441
 2345.7897949 5.0000000000 8.8182001114 8.5000000000 0.3861199915 2.4110000134 100.00019836 115.73970032  -999.250000 1.0313137770  -999.250000 0.8042781949 0.8203999996 1.1091549397
 2345.9421387 5.0000000000 8.8305997849 8.5000000000 0.3830029964 2.4396998882 100.60559845 115.46269989  -999.250000 1.1026102304  -999.250000 0.7588820457 0.7700999975 1.2061660290
 2346.0944824 5.0000000000 8.8429002762 8.5000000000 0.3605849743 2.4389998913 103.51020050 113.06400299  -999.250000 1.3581756353  -999.250000 0.9689140916 0.7350999713 1.4964911938
 2346.2468262 5.0000000000 8.7688999176 8.5000000000 0.3590790033 2.4226000309 100.24089813 113.59809875  -999.250000 1.3430000544  -999.250000 1.4790319204 1.4645999670 1.4910000563
 2346.3994141 5.0000000000 8.8182001114 8.5000000000 0.3551380038 2.4022998810 104.82270050 112.90409851  -999.250000 1.3399115801  -999.250000 1.4956935644 1.5096999407 1.4846100807
 2346.5517578 6.0000000000 8.8429002762 8.5000000000 0.3793089986 2.3949999809 103.75060272 113.07350159  -999.250000 1.3471062183  -999.250000 1.4645897150 1.4659999609 1.4908986092
 2346.7041016 6.0000000000 8.8551998138 8.5000000000 0.3671410084 2.3952999115 106.15599823 114.37529755  -999.250000 1.3510125875  -999.250000 1.4479781389 1.4615999460 1.4900025129
 2346.8564453 6.0000000000 8.8429002762 8.5000000000 0.3794769943 2.3905999660 99.515800476 114.59539795  -999.250000 1.3588999510  -999.250000 1.4390038252 1.4191000462 1.4916000366
 2347.0087891 6.0000000000 8.8182001114 8.5000000000 0.3607310057 2.3910000324 100.00019836 114.97059631  -999.250000 1.3508000374  -999.250000 1.4709279537 1.4811999798 1.4587999582
 2347.1613770 6.0000000000 8.8182001114 8.5000000000 0.3564600050 2.3910000324 104.77719879 114.77020264  -999.250000 1.3362028599  -999.250000 1.3955422640 1.4491000175 1.4299163818
 2347.3137207 6.0000000000 8.8058996201 8.5000000000 0.3738110065 2.3926999569 104.87920380 114.20259857  -999.250000 1.3379869461  -999.250000 1.2883781195 1.2819999456 1.4400944710
 2347.4660645 5.0000000000 8.7936000824 8.5000000000 0.3949910104 2.3882000446 108.25050354 114.34570313  -999.250000 1.3298000097  -999.250000 1.3335026503 1.3019000292 1.4366999865
 2347.6184082 5.0000000000 8.8017997742 8.5000000000 0.4027470052 2.3849000931 101.79460144 114.14430237  -999.250000 1.3072999716  -999.250000 1.4294919968 1.4005000591 1.4291000366
 2347.7709961 5.0000000000 8.8182001114 8.5000000000 0.4086399972 2.3857998848 105.22000122 113.62789917  -999.250000 1.3250027895  -999.250000 1.4995294809 1.4910999537 1.4392069578
 2347.9233398 5.0000000000 8.8305997849 8.5000000000 0.3728099763 2.3875999451 99.548103333 113.44129944  -999.250000 1.3267102242  -999.250000 1.5216307640 1.5174000263 1.4435255527
 2348.0756836 6.0000000000 8.8429002762 8.5000000000 0.3575989902 2.3917000294 103.64749908 112.99299622  -999.250000 1.3331217766  -999.250000 1.5371063948 1.5305999517 1.4594341516
 2348.2280273 6.0000000000 8.8592996597 8.5000000000 0.3443439901 2.3970000744 100.24109650 112.65440369  -999.250000 1.3466999531  -999.250000 1.5426759720 1.5508999825 1.4807000160
 2348.3806152 6.0000000000 8.8922004700 8.5000000000 0.3659060001 2.4075999260 100.34590149 112.85350037  -999.250000 1.3176219463  -999.250000 1.5266423225 1.5252000093 1.4564381838
 2348.5329590 6.0000000000 8.8798999786 8.5000000000 0.3729589880 2.4124000072 98.668197632 113.71109772  -999.250000 1.3313262463  -999.250000 1.5247641802 1.5297000408 1.4802432060
 2348.6853027 6.0000000000 8.8429002762 8.5000000000 0.3879429996 2.4056999683 101.81639862 114.13559723  -999.250000 1.3476867676  -999.250000 1.4343320131 1.5142999887 1.5070822239
 2348.8376465 6.0000000000 8.8017997742 8.5000000000 0.3783710003 2.3849000931 103.26869965 114.72850037  -999.250000 1.3394000530  -999.250000 1.2536319494 1.2647999525 1.4960000515
 2348.9899902 6.0000000000 8.8305997849 8.5000000000 0.3796119988 2.3682000637 104.57900238 115.37239838  -999.250000 1.2997000217  -999.250000 1.2445061207 1.2299000025 1.4476000071
 2349.1425781 6.0000000000 8.8263998032 8.5000000000 0.3551310003 2.3587000370 104.70010376 114.03170013  -999.250000 1.2782205343  -999.250000 1.3498024940 1.2756999731 1.4321146011
