# LAS format log file from PETREL
# Project units are specified as depth units
#==================================================================
~Version information
VERS.   2.0:
WRAP.   NO:
#==================================================================
~Well
STRT .m      1025.4147949 :
STOP .m      2373.8500977 :
STEP .m     0.00000000 :
NULL .        -999.250000 :
COMP.           : COMPANY
WELL.  25/6-2  Delta-Beta   : WELL
FLD.            : FIELD
LOC.            : LOCATION
SRVC.           : SERVICE COMPANY
DATE.  2018-09-11 14:48:22   : Log Export Date {yyyy-MM-dd HH:mm:ss}
PROV.           : PROVINCE
UWI.   25/6-2   : UNIQUE WELL ID
API.            : API NUMBER
#==================================================================
~Curve
DEPT .m                   : DEPTH
Lithology_geolink ._      : Lithology_geolink
CALI .in                  : CALI
BS .in                    : BS
MUDWEIGHT ._              : MUDWEIGHT
ROP .m/h                  : ROP
DRHO .g/cm3               : DRHO
NPHI .m3/m3               : NPHI
RHOB .g/cm3               : RHOB
GR .gAPI                  : GR
DTC .us/ft                : DTC
RDEP .ohm.m               : RDEP
SP .mV                    : SP
RSHA .ohm.m               : RSHA
RMIC .ohm.m               : RMIC
RMED .ohm.m               : RMED
~Parameter
#==================================================================
~Ascii
# ...
 2279.5144043 6.0000000000 12.384550095 12.250000954 1.2000000477 46209.851563 0.0147095798 0.4763351977 2.2587609291 181.67282104 130.20140076 1.1971030235 -1.613537669 1.6644370556 2.4580979347 1.2254439592
 2279.6667480 6.0000000000 12.330368996 12.250000954 1.2000000477 46224.378906 0.0154502802 0.4760884047 2.2713789940 179.80845642 130.24479675 1.1594439745 -1.154724360 1.6064759493 2.2319550514 1.1401050091
 2279.8193359 6.0000000000 12.321660042 12.250000954 1.2000000477 46476.390625 0.0126146600 0.4780800939 2.2708280087 176.28411865 130.80290222 1.1522500515 -0.694235563 1.5497629642 2.2241060734 1.0990329981
 2279.9716797 6.0000000000 12.349610329 12.250000954 1.2000000477 46885.539063 0.0105641996 0.4809564054 2.2625410557 171.94676208 131.45320129 1.1376550198 -0.278615385 1.5102900267 2.4917650223 1.0572559834
 2280.1240234 6.0000000000 12.329719543 12.250000954 1.2000000477 56564.531250 0.0083188573 0.4828414917 2.2518930435 168.04437256 131.68380737 1.1177719831 0.0516923107 1.4401589632 2.0817968845 1.0308920145
 2280.2763672 6.0000000000 12.379671097 12.250000954 1.2000000477 62747.980469 0.0064383340 0.4823847115 2.2439200878 165.15895081 131.36619568 1.0905410051 0.2741616070 1.4311690331 2.1538059711 1.0102560520
 2280.4289551 6.0000000000 12.396659851 12.250000954 1.2000000477 63504.273438 0.0103237703 0.4792711139 2.2428760529 162.92683411 130.64230347 1.0354150534 0.3879807889 1.4493180513 2.2758929729 0.9977974892
 2280.5812988 6.0000000000 12.368599892 12.250000954 1.2000000477 63522.050781 0.0124240797 0.4740338922 2.2467520237 160.68620300 129.16979980 0.9796832204 0.4059182703 1.4651540518 2.3735818863 0.9808123112
 2280.7336426 6.0000000000 12.359680176 12.250000954 1.2000000477 63535.578125 0.0124794301 0.4677174985 2.2531850338 158.29364014 126.98519897 0.9515317082 0.3502788544 1.4415689707 2.4093511105 0.9559174180
 2280.8859863 6.0000000000 12.358999252 12.250000954 1.2000000477 63550.210938 0.0135558899 0.4619343877 2.2586441040 156.47702026 125.06220245 0.9421805143 0.2502720058 1.3606710434 2.4109530449 0.9298064113
 2281.0385742 6.0000000000 12.330368996 12.250000954 1.2000000477 63990.343750 0.0131144105 0.4586178958 2.2614200115 156.07919312 124.39510345 0.9468173981 0.1357884556 1.2839330435 1.5573760271 0.9429802895
 2281.1909180 6.0000000000 12.379699707 12.250000954 1.2000000477 65692.906250 0.0121456599 0.4586431086 2.2627189159 157.26933289 125.23929596 0.9633905888 0.0437451936 1.2895389795 1.6490290165 0.9762870073
 2281.3432617 6.0000000000 12.425270081 12.250000954 1.2000000477 66295.632813 0.0129131898 0.4606960118 2.2667469978 159.37907410 126.71489716 0.9882215858 0.0006730767 1.3425899744 2.3897709846 0.9996080995
 2281.4956055 6.0000000000 12.435340881 12.250000954 1.2000000477 66362.093750 0.0154815596 0.4617531896 2.2739369869 161.02343750 127.12551117 1.0162409544 0.0190928001 1.4228299856 2.4920170307 1.0428220034
 2281.6479492 6.0000000000 12.435999870 12.250000954 1.2000000477 66376.781250 0.0163947698 0.4594906867 2.2849009037 160.65856934 124.33139801 1.0626679659 0.0956410244 1.5109159946 2.3810350895 1.1581039429
 2281.8005371 6.0000000000 12.435999870 12.250000954 1.2000000477 66364.687500 0.0247143693 0.4541892111 2.2953279018 157.81689453 117.40470123 1.1200649738 0.2175528854 1.6648620367 2.1461861134 1.2720450163
 2281.9528809 6.0000000000 12.407389641 12.250000954 1.2000000477 65511.351563 0.0353939794 0.4483563900 2.3000850677 154.53182983 109.43679810 1.1518340111 0.3679759800 1.8188159466 2.7450909615 1.2417490482
 2282.1052246 16.000000000 12.427281380 12.250000954 1.2000000477 63706.085938 0.0445048995 0.4449017048 2.2941710949 154.45674133 105.22359467 1.1653209925 0.5358653665 1.8089760542 13.909859657 1.1439820528
 2282.2575684 16.000000000 12.435340881 12.250000954 1.2000000477 61995.238281 0.0350269601 0.4456931949 2.2785990238 160.11454773 106.46080780 1.1673949957 0.7199872136 1.7150779963 17.381040573 1.0983710289
 2282.4101563 6.0000000000 12.435999870 12.250000954 1.2000000477 61652.453125 0.0212995093 0.4506719112 2.2569808960 170.50381470 112.32250214 1.1691260338 0.9280816913 1.6252950430 3.9208660126 1.0814059973
 2282.5625000 6.0000000000 12.407349586 12.250000954 1.2000000477 61646.730469 0.0169135202 0.4577941895 2.2348139286 181.50274658 120.62500763 1.1402499676 1.1670384407 1.5490410328 2.3281819820 1.0782070160
 2282.7148438 6.0000000000 12.369289398 12.250000954 1.2000000477 61324.171875 0.0121854199 0.4638684988 2.2180860043 189.25317383 127.59500122 1.0872060061 1.4331874847 1.5025099516 2.4198369980 1.0613909960
 2282.8671875 6.0000000000 12.389049530 12.250000954 1.2000000477 61028.996094 0.0035628921 0.4665192962 2.2089900970 192.63598633 131.05039978 1.0616530180 1.7080448866 1.4926559925 2.3000719547 1.0177220106
 2283.0197754 6.0000000000 12.425950050 12.250000954 1.2000000477 59376.515625 0.0006936866 0.4654845893 2.2071220875 193.38790894 131.90519714 1.0589909554 1.9662164450 1.5205429792 2.5286719799 1.0284099579
 2283.1721191 6.0000000000 12.406689644 12.250000954 1.2000000477 56888.699219 0.0027727401 0.4624164999 2.2115230560 193.85762024 131.53100586 1.0644780397 2.1743845940 1.5563780069 2.1522109509 1.0852990150
 2283.3244629 6.0000000000 12.398660660 12.250000954 1.2000000477 56259.082031 0.0024792070 0.4593671858 2.2196719646 195.51283264 130.75570679 1.0796869993 2.3032259941 1.6006109715 2.2130720615 1.1212810278
 2283.4768066 6.0000000000 12.397998810 12.250000954 1.2000000477 56227.968750 0.0046858112 0.4578256905 2.2316319942 198.92021179 130.13510132 1.1140919924 2.3370735645 1.6459200382 2.4137170315 1.1435619593
 2283.6291504 6.0000000000 12.426630020 12.250000954 1.2000000477 56242.773438 0.0068736058 0.4582745135 2.2438130379 203.61282349 129.61990356 1.1599689722 2.2788782120 1.6489139795 2.8310880661 1.1441260576
 2283.7817383 7.0000000000 12.406700134 12.250000954 1.2000000477 56257.261719 0.0063041379 0.4602464139 2.2558350563 208.17134094 128.74169922 1.2028089762 2.1442019939 1.6517119408 2.8424110413 1.1325360537
 2283.9340820 7.0000000000 12.398660660 12.250000954 1.2000000477 56598.519531 0.0021850390 0.4624856114 2.2648139000 211.07682800 127.41780090 1.2343300581 1.9582597017 1.6528960466 2.7684381008 1.1360119581
 2284.0864258 7.0000000000 12.397998810 12.250000954 1.2000000477 57698.335938 -0.000914737 0.4637936950 2.2691190243 212.75160217 126.33440399 1.2507330179 1.7457404137 1.6484800577 2.9873909950 1.1476149559
 2284.2387695 7.0000000000 12.340000153 12.250000954 1.2000000477 65437.859375 -0.003966662 0.4638063908 2.2676880360 215.20812988 126.20590210 1.2667180300 1.5287183523 1.6516220570 2.1301379204 1.1658020020
 2284.3913574 7.0000000000 12.350978851 12.250000954 1.2000000477 66642.359375 -0.006772334 0.4629547000 2.2617769241 219.47326660 126.96360016 1.2795759439 1.3238077164 1.7113349438 2.5742909908 1.1886839867
 2284.5437012 7.0000000000 12.358341217 12.250000954 1.2000000477 66647.648438 -0.008350329 0.4617885053 2.2533359528 223.77215576 128.01669312 1.2825820446 1.1448606253 1.8200000525 2.6771080494 1.2357980013
 2284.6960449 7.0000000000 12.358999252 12.250000954 1.2000000477 66600.187500 -0.005764834 0.4606401920 2.2436261177 225.12985229 128.73019409 1.2881269455 1.0021730661 1.9067089558 2.7974259853 1.2452620268
 2284.8483887 7.0000000000 12.358999252 12.250000954 1.2000000477 66532.171875 -0.002926665 0.4594031870 2.2351500988 222.33737183 128.83039856 1.2991349697 0.9051168561 1.9266459942 3.1052200794 1.2352830172
 2285.0009766 6.0000000000 12.330368996 12.250000954 1.2000000477 66462.156250 0.0002241026 0.4576078057 2.2293720245 216.18621826 128.75059509 1.3111629486 0.8573173285 1.9159320593 3.2508070469 1.2405060530
 2285.1533203 6.0000000000 12.321660042 12.250000954 1.2000000477 66392.203125 0.0021750478 0.4548051059 2.2265789509 208.63990784 128.84829712 1.3223030567 0.8574374914 1.9122769833 2.6669690609 1.2382830381
 2285.3056641 6.0000000000 12.349610329 12.250000954 1.2000000477 66322.437500 0.0035544380 0.4515790045 2.2267880440 202.59326172 129.01420593 1.3260920048 0.8987500072 1.8727159500 2.8720479012 1.2197459936
