# LAS format log file from PETREL
# Project units are specified as depth units
#==================================================================
~Version information
VERS.   2.0:
WRAP.   NO:
#==================================================================
~Well
STRT .m      625.95562744 :
STOP .m      2455.8225098 :
STEP .m     0.00000000 :
NULL .        -999.250000 :
COMP.           : COMPANY
WELL.  25/6-3   : WELL
FLD.            : FIELD
LOC.            : LOCATION
SRVC.           : SERVICE COMPANY
DATE.  2018-09-11 14:48:22   : Log Export Date {yyyy-MM-dd HH:mm:ss}
PROV.           : PROVINCE
UWI.   25/6-3   : UNIQUE WELL ID
API.            : API NUMBER
#==================================================================
~Curve
DEPT .m                   : DEPTH
Lithology_geolink ._      : Lithology_geolink
CALI .in                  : CALI
BS .in                    : BS
NPHI .m3/m3               : NPHI
RHOB .g/cm3               : RHOB
GR .gAPI                  : GR
DTC .us/ft                : DTC
DTS .us/ft                : DTS
RDEP .ohm.m               : RDEP
SP .mV                    : SP
RSHA .ohm.m               : RSHA
RMIC .ohm.m               : RMIC
RMED .ohm.m               : RMED
~Parameter
#==================================================================
~Ascii
# ...
 2134.7158203 2.0000000000 8.3619003296 8.5000000000 0.2318366617 2.4342000484 60.083698273 90.320999146  -999.250000 1.6098649502  -999.250000 0.8999875188 1.0424875021 1.6487599611
 2134.8681641 2.0000000000 8.2756004333 8.5000000000 0.2696471214 2.2920999527 55.327800751 94.428695679  -999.250000 1.0892411470  -999.250000 0.5472548008 0.5983445048 1.1250476837
 2135.0205078 2.0000000000 8.3660001755 8.5000000000 0.2872157395 2.1602990627 52.690898895 97.622901917  -999.250000 0.8655599952  -999.250000 0.4155945778 0.4390825629 0.9054401517
 2135.1728516 2.0000000000 8.3743000031 8.5000000000 0.3194960058 2.0973999500 52.093799591 98.802001953  -999.250000 0.7781999707  -999.250000 0.3543576896 0.3657999933 0.8057000041
 2135.3254395 2.0000000000 8.4482002258 8.5000000000 0.3098737895 2.0830926895 50.874500275 100.44830322  -999.250000 0.7618889213  -999.250000 0.3230778873 0.3300650716 0.7790853977
 2135.4777832 2.0000000000 8.4399995804 8.5000000000 0.3066238463 2.0784997940 50.120998383 100.21230316  -999.250000 0.7549909949  -999.250000 0.3076235354 0.3082966208 0.7699841261
 2135.6301270 2.0000000000 8.4482002258 8.5000000000 0.3071272671 2.0784015656 53.651500702 99.880401611  -999.250000 0.7493923306  -999.250000 0.3036271930 0.3061872125 0.7600764632
 2135.7824707 2.0000000000 8.4482002258 8.5000000000 0.2960599959 2.0794999599 54.498699188 98.336204529  -999.250000 0.7445999980  -999.250000 0.2971743643 0.2982000113 0.7454000115
 2135.9348145 2.0000000000 8.4482002258 8.5000000000 0.3210829794 2.0836999416 55.592601776 99.220802307  -999.250000 0.7301999927  -999.250000 0.2914102376 0.2949999869 0.7192000151
 2136.0874023 2.0000000000 8.3743000031 8.5000000000 0.3116219938 2.0872044563 54.773300171 99.342002869  -999.250000 0.7243998051  -999.250000 0.2814807892 0.2837884724 0.7071959972
 2136.2397461 2.0000000000 8.2756004333 8.5000000000 0.3053433895 2.0901079178 55.929000854 99.148696899  -999.250000 0.7243002057  -999.250000 0.2756030262 0.2765950561 0.7046740651
 2136.3920898 2.0000000000 8.3824996948 8.5000000000 0.2837490141 2.0950000286 55.134498596 99.288200378  -999.250000 0.7243999839  -999.250000 0.2724743485 0.2734999955 0.6884999871
 2136.5444336 2.0000000000 8.4111995697 8.5000000000 0.2633079886 2.1010000706 52.919601440 98.738403320  -999.250000 0.7271000147  -999.250000 0.2705564201 0.2703000009 0.6733999848
 2136.6970215 2.0000000000 8.4317998886 8.5000000000 0.2763804197 2.1035091877 51.103698730 98.435302734  -999.250000 0.7149531841  -999.250000 0.2689740360 0.2710894346 0.6409392357
 2136.8493652 2.0000000000 8.4358997345 8.5000000000 0.2891388237 2.1093053818 54.426498413 99.641090393  -999.250000 0.6857798100  -999.250000 0.2652730644 0.2645038366 0.6030785441
 2137.0017090 2.0000000000 8.4317998886 8.5000000000 0.3101896346 2.1127049923 53.809101105 99.738891602  -999.250000 0.6732007861  -999.250000 0.2665462494 0.2668982446 0.5896992087
 2137.1540527 2.0000000000 8.4482002258 8.5000000000 0.2968550026 2.1157999039 55.204799652 99.766799927  -999.250000 0.6736999750  -999.250000 0.2684282064 0.2657999992 0.5892000198
 2137.3066406 2.0000000000 8.4399995804 8.5000000000 0.2936570942 2.1124913692 52.058200836 100.18160248  -999.250000 0.6756121516  -999.250000 0.2719706595 0.2739898860 0.5828211308
 2137.4589844 2.0000000000 8.4482002258 8.5000000000 0.3018199801 2.1071944237 55.028800964 102.46240234  -999.250000 0.6832039952  -999.250000 0.2667658627 0.2676953375 0.5959979296
 2137.6113281 2.0000000000 8.3989000320 8.5000000000 0.3143214881 2.1037945747 54.060100555 102.31169891  -999.250000 0.6857033372  -999.250000 0.2634814382 0.2647934556 0.5947036743
 2137.7636719 2.0000000000 8.3619003296 8.5000000000 0.3495600224 2.1003999710 54.110900879 101.63410187  -999.250000 0.6877999902  -999.250000 0.2613089681 0.2606999874 0.5970000029
 2137.9160156 2.0000000000 8.4317998886 8.5000000000 0.3398680091 2.0996000767 52.342601776 100.38569641  -999.250000 0.6843000054  -999.250000 0.2631448805 0.2626000047 0.5899999738
 2138.0686035 2.0000000000 8.4236001968 8.5000000000 0.3471547067 2.1004035473 56.459499359 97.846603394  -999.250000 0.6918974519  -999.250000 0.2653951943 0.2643054426 0.5973920226
 2138.2209473 2.0000000000 8.4358997345 8.5000000000 0.3183294535 2.1027054787 56.459499359 97.412208557  -999.250000 0.6902992129  -999.250000 0.2683110237 0.2677030265 0.5923948884
 2138.3732910 2.0000000000 8.4236001968 8.5000000000 0.3292199969 2.1061000824 59.858501434 97.436599731  -999.250000 0.6898000240  -999.250000 0.2700487077 0.2696000040 0.5892000198
 2138.5256348 2.0000000000 8.4236001968 8.5000000000 0.3193460107 2.1082999706 56.458900452 98.150596619  -999.250000 0.6901000142  -999.250000 0.2708717883 0.2709999979 0.5902000070
 2138.6782227 2.0000000000 8.4236001968 8.5000000000 0.3372493088 2.1083953381 57.506500244 98.017097473  -999.250000 0.6826985478  -999.250000 0.2706966400 0.2706004679 0.5808942318
 2138.8305664 2.0000000000 8.3989000320 8.5000000000 0.3337300420 2.1053953171 53.986598969 98.139602661  -999.250000 0.6817967892  -999.250000 0.2687774301 0.2708894312 0.5772974491
 2138.9829102 2.0000000000 8.3373003006 8.5000000000 0.3399270773 2.1024017334 54.998600006 97.985702515  -999.250000 0.6797946692  -999.250000 0.2645243406 0.2643011212 0.5756964684
 2139.1352539 2.0000000000 8.2919998169 8.5000000000 0.3194000125 2.1033999920 53.908901215 98.219001770  -999.250000 0.6765000224  -999.250000 0.2663461566 0.2649999857 0.5734999776
 2139.2878418 2.0000000000 8.3577995300 8.5000000000 0.3266961575 2.1069095135 54.756000519 97.893806458  -999.250000 0.6715999842  -999.250000 0.2713903785 0.2692109048 0.5689992309
 2139.4401855 2.0000000000 8.4070997238 8.5000000000 0.3180739582 2.1129014492 53.753101349 96.387001038  -999.250000 0.6716017723  -999.250000 0.2768052816 0.2760039866 0.5685009360
 2139.5925293 2.0000000000 8.3989000320 8.5000000000 0.3286557794 2.1137948036 55.043701172 96.740798950  -999.250000 0.6727070212  -999.250000 0.2772457600 0.2784937620 0.5691016316
 2139.7448730 2.0000000000 8.4153995514 8.5000000000 0.3347600102 2.1105000973 56.626800537 97.546211243  -999.250000 0.6771000028  -999.250000 0.2718115449 0.2745999992 0.5701000094
 2139.8972168 2.0000000000 8.3989000320 8.5000000000 0.3475170135 2.1089000702 59.522201538 98.483901978  -999.250000 0.6678000093  -999.250000 0.2654192150 0.2658999860 0.5627999902
 2140.0498047 2.0000000000 8.3989000320 8.5000000000 0.3441708982 2.1081011295 57.020801544 98.640655518  -999.250000 0.6696988940  -999.250000 0.2634980679 0.2643955052 0.5650001764
 2140.2021484 2.0000000000 8.3373003006 8.5000000000 0.3397338092 2.1087980270 58.221298218 100.47757721  -999.250000 0.6689925194  -999.250000 0.2632723153 0.2616083026 0.5650993586
 2140.3544922 2.0000000000 8.3331003189 8.5000000000 0.3452389836 2.1075997353 54.285800934 100.34129333  -999.250000 0.6643000245  -999.250000 0.2681140900 0.2667999864 0.5647000074
 2140.5068359 2.0000000000 8.3414001465 8.5000000000 0.3379309773 2.1054999828 55.738800049 100.00720215  -999.250000 0.6686000228  -999.250000 0.2711884677 0.2709000111 0.5662000179
 2140.6594238 2.0000000000 8.3743000031 8.5000000000 0.3331898451 2.1044962406 53.811798096 99.240402222  -999.250000 0.6697069407  -999.250000 0.2699961662 0.2717910409 0.5673091412
 2140.8117676 2.0000000000 8.3743000031 8.5000000000 0.3256192207 2.1021022797 54.721599579 97.000381470  -999.250000 0.6740072370  -999.250000 0.2665859163 0.2662019432 0.5730051398
 2140.9641113 2.0000000000 8.3907003403 8.5000000000 0.3319328427 2.1036081314 56.223999023 96.362876892  -999.250000 0.6785159707  -999.250000 0.2683294713 0.2674046457 0.5762119889
 2141.1164551 2.0000000000 8.3824996948 8.5000000000 0.3062430024 2.1087000370 54.892101288 95.287902832  -999.250000 0.6884999871  -999.250000 0.2699154019 0.2703000009 0.5837000012
 2141.2690430 2.0000000000 8.3865995407 8.5000000000 0.3185082972 2.1137025356 53.439800262 94.082725525  -999.250000 0.6959009767  -999.250000 0.2670384645 0.2690897584 0.5914976001
