# LAS format log file from PETREL
# Project units are specified as depth units
#==================================================================
~Version information
VERS.   2.0:
WRAP.   NO:
#==================================================================
~Well
STRT .m      625.95562744 :
STOP .m      2455.8225098 :
STEP .m     0.00000000 :
NULL .        -999.250000 :
COMP.           : COMPANY
WELL.  25/6-3   : WELL
FLD.            : FIELD
LOC.            : LOCATION
SRVC.           : SERVICE COMPANY
DATE.  2018-09-11 14:48:22   : Log Export Date {yyyy-MM-dd HH:mm:ss}
PROV.           : PROVINCE
UWI.   25/6-3   : UNIQUE WELL ID
API.            : API NUMBER
#==================================================================
~Curve
DEPT .m                   : DEPTH
Lithology_geolink ._      : Lithology_geolink
CALI .in                  : CALI
BS .in                    : BS
NPHI .m3/m3               : NPHI
RHOB .g/cm3               : RHOB
GR .gAPI                  : GR
DTC .us/ft                : DTC
DTS .us/ft                : DTS
RDEP .ohm.m               : RDEP
SP .mV                    : SP
RSHA .ohm.m               : RSHA
RMIC .ohm.m               : RMIC
RMED .ohm.m               : RMED
~Parameter
#==================================================================
~Ascii
 625.95562744  -999.250000 12.456299782 17.500000000  -999.250000  -999.250000 58.403999329 119.78299713 0.0000000000 1.6710000038 0.0000000000  -999.250000  -999.250000 1.5900000334
 626.10803223  -999.250000 12.456299782 17.500000000  -999.250000  -999.250000 49.745998383 122.28299713 0.0000000000 1.6590000391 0.0000000000  -999.250000  -999.250000 1.5859999657
 626.26037598  -999.250000 12.456299782 17.500000000  -999.250000  -999.250000 43.930000305 125.46700287 0.0000000000 1.6449999809 0.0000000000  -999.250000  -999.250000 1.5690000057
 626.41278076  -999.250000 12.456299782 17.500000000  -999.250000  -999.250000 44.416999817 128.63400269 0.0000000000 1.6180000305 0.0000000000  -999.250000  -999.250000 1.5340000391
 626.56518555  -999.250000 12.456299782 17.500000000  -999.250000  -999.250000 45.376998901 130.43400574 0.0000000000 1.6089999676 0.0000000000  -999.250000  -999.250000 1.5240000486
 626.71759033  -999.250000 12.456299782 17.500000000  -999.250000  -999.250000 45.263999939 130.31700134 0.0000000000 1.6080000401 0.0000000000  -999.250000  -999.250000 1.4659999609
 626.86999512  -999.250000 12.456299782 17.500000000  -999.250000  -999.250000 45.036998749 128.14999390 0.0000000000 1.6069999933 0.0000000000  -999.250000  -999.250000 1.4429999590
 627.02239990  -999.250000 12.456299782 17.500000000  -999.250000  -999.250000 44.948001862 124.83300018 0.0000000000 1.5759999752 0.0000000000  -999.250000  -999.250000 1.3739999533
 627.17480469  -999.250000 12.456299782 17.500000000  -999.250000  -999.250000 46.020999908 121.50000000 0.0000000000 1.5160000324 0.0000000000  -999.250000  -999.250000 1.3569999933
 627.32720947  -999.250000 12.456299782 17.500000000  -999.250000  -999.250000 46.557998657 119.11598969 0.0000000000 1.4850000143 0.0000000000  -999.250000  -999.250000 1.3489999771
 627.47961426  -999.250000 12.456299782 17.500000000  -999.250000  -999.250000 47.284999847 118.21600342 0.0000000000 1.4709999561 0.0000000000  -999.250000  -999.250000 1.3459999561
 627.63201904  -999.250000 12.456299782 17.500000000  -999.250000  -999.250000 47.575000763 118.64900208 0.0000000000 1.4859999418 0.0000000000  -999.250000  -999.250000 1.3309999704
 627.78442383  -999.250000 12.456299782 17.500000000  -999.250000  -999.250000 49.730998993 119.78299713 0.0000000000 1.4939999580 0.0000000000  -999.250000  -999.250000 1.3229999542
 627.93682861  -999.250000 12.456299782 17.500000000  -999.250000  -999.250000 49.908000946 120.34999847 0.0000000000 1.5219999552 0.0000000000  -999.250000  -999.250000 1.2899999619
 628.08923340  -999.250000 12.456299782 17.500000000  -999.250000  -999.250000 62.536998749 121.15000153 0.0000000000 1.5509999990 0.0000000000  -999.250000  -999.250000 1.2549999952
 628.24157715  -999.250000 12.456299782 17.500000000  -999.250000  -999.250000 63.625999451 121.76699829 0.0000000000 1.5970000029 0.0000000000  -999.250000  -999.250000 1.3849999905
 628.39398193  -999.250000 12.456299782 17.500000000  -999.250000  -999.250000 61.061000824 122.31700134 0.0000000000 1.6519999504 0.0000000000  -999.250000  -999.250000 1.5399999619
 628.54638672  -999.250000 12.456299782 17.500000000  -999.250000  -999.250000 54.053001404 122.91699982 0.0000000000 1.6990000010 0.0000000000  -999.250000  -999.250000 1.5920000076
 628.69879150  -999.250000 12.456299782 17.500000000  -999.250000  -999.250000 54.176998138 124.05000305 0.0000000000 1.7910000086 0.0000000000  -999.250000  -999.250000 1.6959999800
 628.85119629  -999.250000 12.456299782 17.500000000  -999.250000  -999.250000 54.403999329 126.36699677 0.0000000000 1.8140000105 0.0000000000  -999.250000  -999.250000 1.7220000029
 629.00360107  -999.250000 12.463100433 17.500000000  -999.250000  -999.250000 54.819000244 128.68400574 0.0000000000 1.8339999914 0.0000000000  -999.250000  -999.250000 1.7180000544
 629.15600586  -999.250000 12.468600273 17.500000000  -999.250000  -999.250000 55.597999573 131.31700134 0.0000000000 1.8439999819 0.0000000000  -999.250000  -999.250000 1.7159999609
 629.30841064  -999.250000 12.468600273 17.500000000  -999.250000  -999.250000 55.590000153 133.88400269 0.0000000000 1.8639999628 0.0000000000  -999.250000  -999.250000 1.7120000124
 629.46081543  -999.250000 12.475399971 17.500000000  -999.250000  -999.250000 55.575000763 136.13400269 0.0000000000 1.8530000448 0.0000000000  -999.250000  -999.250000 1.7130000591
 629.61322021  -999.250000 12.487800598 17.500000000  -999.250000  -999.250000 52.618000031 137.63400269 0.0000000000 1.8320000172 0.0000000000  -999.250000  -999.250000 1.7170000076
 629.76562500  -999.250000 12.493300438 17.500000000  -999.250000  -999.250000 46.772998810 138.43400574 0.0000000000 1.8209999800 0.0000000000  -999.250000  -999.250000 1.7189999819
 629.91802979  -999.250000 12.488800049 17.500000000  -999.250000  -999.250000 46.300998688 138.08399963 0.0000000000 1.8090000153 0.0000000000  -999.250000  -999.250000 1.6809999943
 630.07043457  -999.250000 12.537199974 17.500000000  -999.250000  -999.250000 45.705001831 136.60000610 0.0000000000 1.7970000505 0.0000000000  -999.250000  -999.250000 1.6440000534
 630.22283936  -999.250000 12.518500328 17.500000000  -999.250000  -999.250000 48.813999176 134.26699829 0.0000000000 1.7580000162 0.0000000000  -999.250000  -999.250000 1.5429999828
 630.37518311  -999.250000 12.464099884 17.500000000  -999.250000  -999.250000 49.053001404 132.14999390 0.0000000000 1.7330000401 0.0000000000  -999.250000  -999.250000 1.4830000401
 630.52758789  -999.250000 12.471699715 17.500000000  -999.250000  -999.250000 48.949001312 130.68299866 0.0000000000 1.7339999676 0.0000000000  -999.250000  -999.250000 1.3999999762
 630.67999268  -999.250000 12.487800598 17.500000000  -999.250000  -999.250000 48.534000397 129.98300171 0.0000000000 1.7690000534 0.0000000000  -999.250000  -999.250000 1.4490000010
 630.83239746  -999.250000 12.484199524 17.500000000  -999.250000  -999.250000 48.522998810 130.11599731 0.0000000000 1.7480000257 0.0000000000  -999.250000  -999.250000 1.5199999809
 630.98480225  -999.250000 12.472300529 17.500000000  -999.250000  -999.250000 48.678001404 130.50000000 0.0000000000 1.7960000038 0.0000000000  -999.250000  -999.250000 1.9249999523
 631.13720703  -999.250000 12.468600273 17.500000000  -999.250000  -999.250000 48.691001892 131.16700745 0.0000000000 1.8190000057 0.0000000000  -999.250000  -999.250000 1.6950000525
 631.28961182  -999.250000 12.468600273 17.500000000  -999.250000  -999.250000 45.707000732 131.25000000 0.0000000000 1.8049999475 0.0000000000  -999.250000  -999.250000 1.6480000019
 631.44201660  -999.250000 12.475399971 17.500000000  -999.250000  -999.250000 43.820999146 131.16700745 0.0000000000 1.7949999571 0.0000000000  -999.250000  -999.250000 1.5319999456
 631.59442139  -999.250000 12.474199295 17.500000000  -999.250000  -999.250000 41.722999573 130.89999390 0.0000000000 1.8029999733 0.0000000000  -999.250000  -999.250000 1.5839999914
 631.74682617  -999.250000 12.489000320 17.500000000  -999.250000  -999.250000 41.460998535 131.25000000 0.0000000000 1.8009999990 0.0000000000  -999.250000  -999.250000 1.6970000267
 631.89923096  -999.250000 12.498799324 17.500000000  -999.250000  -999.250000 41.458999634 132.21699524 0.0000000000 1.8099999428 0.0000000000  -999.250000  -999.250000 1.7389999628
 632.05163574  -999.250000 12.500101089 17.500000000  -999.250000  -999.250000 43.220001221 133.76699829 0.0000000000 1.8200000525 0.0000000000  -999.250000  -999.250000 1.7460000515
 632.20404053  -999.250000 12.498799324 17.500000000  -999.250000  -999.250000 47.758998871 135.53399658 0.0000000000 1.7929999828 0.0000000000  -999.250000  -999.250000 1.7430000305
 632.35644531  -999.250000 12.493300438 17.500000000  -999.250000  -999.250000 51.113998413 137.11700439 0.0000000000 1.7869999409 0.0000000000  -999.250000  -999.250000 1.7419999838
 632.50878906  -999.250000 12.493300438 17.500000000  -999.250000  -999.250000 52.721000671 138.36700439 0.0000000000 1.8200000525 0.0000000000  -999.250000  -999.250000 1.7460000515
