# LAS format log file from PETREL
# Project units are specified as depth units
#==================================================================
~Version information
VERS.   2.0:
WRAP.   NO:
#==================================================================
~Well
STRT .m      1025.4147949 :
STOP .m      2373.8500977 :
STEP .m     0.00000000 :
NULL .        -999.250000 :
COMP.           : COMPANY
WELL.  25/6-2  Delta-Beta   : WELL
FLD.            : FIELD
LOC.            : LOCATION
SRVC.           : SERVICE COMPANY
DATE.  2018-09-11 14:48:22   : Log Export Date {yyyy-MM-dd HH:mm:ss}
PROV.           : PROVINCE
UWI.   25/6-2   : UNIQUE WELL ID
API.            : API NUMBER
#==================================================================
~Curve
DEPT .m                   : DEPTH
Lithology_geolink ._      : Lithology_geolink
CALI .in                  : CALI
BS .in                    : BS
MUDWEIGHT ._              : MUDWEIGHT
ROP .m/h                  : ROP
DRHO .g/cm3               : DRHO
NPHI .m3/m3               : NPHI
RHOB .g/cm3               : RHOB
GR .gAPI                  : GR
DTC .us/ft                : DTC
RDEP .ohm.m               : RDEP
SP .mV                    : SP
RSHA .ohm.m               : RSHA
RMIC .ohm.m               : RMIC
RMED .ohm.m               : RMED
~Parameter
#==================================================================
~Ascii
# ...
 1744.5904541  -999.250000 18.960260391 17.500000000 1.3500000238 43952.800781 0.0007725496  -999.250000 2.0566599369 74.294166565 143.08740234 0.7527003288 3.1761648655  -999.250000  -999.250000 0.4728746116
 1744.7427979  -999.250000 19.177299500 17.500000000 1.3500000238 43920.449219 -0.000991124  -999.250000 2.0814399719 74.375556946 134.84190369 0.7522063851 3.3428101540  -999.250000  -999.250000 0.4759685993
 1744.8952637  -999.250000 19.067239761 17.500000000 1.3500000238 45042.179688 -0.005989071  -999.250000 2.1183829308 73.508621216 123.78990173 0.8358535767 3.4049897194  -999.250000  -999.250000 0.5434542894
 1745.0476074  -999.250000 18.879430771 17.500000000 1.3500000238 48574.179688 -0.013643580  -999.250000 2.1604158878 71.708496094 116.88771057 0.9437798262 3.3203847408  -999.250000  -999.250000 0.6052386761
 1745.2000732  -999.250000 18.866590500 17.500000000 1.3500000238 49409.019531 -0.008057122  -999.250000 2.1943950653 69.816589355 116.77310181 1.0075659752 3.0801706314  -999.250000  -999.250000 0.6199858189
 1745.3524170  -999.250000 18.990760803 17.500000000 1.3500000238 49235.480469 -0.001424373  -999.250000 2.2091610432 69.011169434 122.06459808 1.0112420321 2.7241539955  -999.250000  -999.250000 0.6232413054
 1745.5048828  -999.250000 18.946630478 17.500000000 1.3500000238 48837.378906 -0.002321148  -999.250000 2.1998710632 69.947204590 130.97610474 0.9246584177 2.3270409107  -999.250000  -999.250000 0.5483332276
 1745.6572266  -999.250000 19.005470276 17.500000000 1.3500000238 48785.750000 -0.000807239  -999.250000 2.1716260910 72.096839905 139.15580750 0.8196632266 1.9656490088  -999.250000  -999.250000 0.4971343875
 1745.8096924  -999.250000 19.379680634 17.500000000 1.3500000238 49213.710938 0.0090574101  -999.250000 2.1351919174 74.269012451 143.32099915 0.7600790858 1.6890552044  -999.250000  -999.250000 0.4739022851
 1745.9620361  -999.250000 19.456289291 17.500000000 1.3500000238 49460.671875 0.0158524401  -999.250000 2.1017780304 75.303909302 144.97959900 0.7528008223 1.5078486204  -999.250000  -999.250000 0.4789951146
 1746.1143799  -999.250000 19.430690765 17.500000000 1.3500000238 50332.230469 0.0175393205  -999.250000 2.0778861046 74.893661499 146.16630554 0.7627640963 1.4064387083  -999.250000  -999.250000 0.4825054109
 1746.2668457  -999.250000 19.457700729 17.500000000 1.3500000238 51393.320313 0.0133588500  -999.250000 2.0634160042 73.670494080 147.47720337 0.7697644830 1.3673580885  -999.250000  -999.250000 0.4882035851
 1746.4191895  -999.250000 19.187780380 17.500000000 1.3500000238 51571.671875 0.0086548692  -999.250000 2.0564820766 72.584259033 148.58850098 0.7726591825 1.3812596798  -999.250000  -999.250000 0.4921110868
 1746.5716553  -999.250000 18.866960526 17.500000000 1.3500000238 51582.160156 0.0066923518  -999.250000 2.0528500080 72.314277649 148.90350342 0.7665656209 1.4403883219  -999.250000  -999.250000 0.4869545996
 1746.7239990  -999.250000 18.950460434 17.500000000 1.3500000238 51321.601563 0.0070900661  -999.250000 2.0513079166 72.661308289 148.75840759 0.7555614114 1.5395914316  -999.250000  -999.250000 0.4753913879
 1746.8764648  -999.250000 18.949649811 17.500000000 1.3500000238 50956.890625 0.0055439528  -999.250000 2.0510179996 72.906906128 148.47009277 0.7529786229 1.6735004187  -999.250000  -999.250000 0.4759683907
 1747.0288086  -999.250000 18.798610687 17.500000000 1.3500000238 55582.312500 0.0067762672  -999.250000 2.0517480373 72.555656433 147.82530212 0.7516835928 1.8388990164  -999.250000  -999.250000 0.4686625898
 1747.1812744  -999.250000 18.800559998 17.500000000 1.3500000238 60167.613281 0.0082895029  -999.250000 2.0527288914 71.800643921 147.02960205 0.7614442706 2.0353746414  -999.250000  -999.250000 0.4721716940
 1747.3336182  -999.250000 18.846229553 17.500000000 1.3500000238 61202.656250 0.0077144909  -999.250000 2.0529820919 71.234992981 146.43530273 0.7862367034 2.2598652840  -999.250000  -999.250000 0.4916754961
 1747.4860840  -999.250000 19.208860397 17.500000000 1.3500000238 61275.406250 0.0059776232  -999.250000 2.0522520542 71.048377991 146.25430298 0.8099225163 2.5042209625  -999.250000  -999.250000 0.4975492954
 1747.6384277  -999.250000 19.062280655 17.500000000 1.3500000238 61281.429688 0.0039313808  -999.250000 2.0505230427 71.119338989 146.60859680 0.8111851215 2.7538893223  -999.250000  -999.250000 0.5032231212
 1747.7908936  -999.250000 18.943950653 17.500000000 1.3500000238 60692.300781 -0.000779650  -999.250000 2.0477941036 71.313507080 147.17399597 0.8043463826 2.9829549789  -999.250000  -999.250000 0.4928619862
 1747.9432373  -999.250000 18.888010025 17.500000000 1.3500000238 56331.058594 -0.004474217  -999.250000 2.0448129177 71.747352600 147.36360168 0.7957587838 3.1575984955  -999.250000  -999.250000 0.4877916873
 1748.0955811  -999.250000 19.097919464 17.500000000 1.3500000238 42655.890625 -0.007232991  -999.250000 2.0418119431 72.576103210 148.01029968 0.7909677029 3.2465476990  -999.250000  -999.250000 0.4885312915
 1748.2480469  -999.250000 19.201690674 17.500000000 1.3500000238 40617.421875 -0.007884969  -999.250000 2.0388131142 73.577751160 151.37750244 0.7838721275 3.2292692661  -999.250000  -999.250000 0.4807192087
 1748.4003906  -999.250000 18.821159363 17.500000000 1.3500000238 40623.500000 -0.002588782  -999.250000 2.0350649357 74.461280823 154.15409851 0.7899519205 3.0987834930  -999.250000  -999.250000 0.4849149883
 1748.5528564  -999.250000 19.164800644 17.500000000 1.3500000238 40629.761719 0.0021491169  -999.250000 2.0318310261 75.132507324 151.09359741 0.7994691730 2.8650937080  -999.250000  -999.250000 0.4942849874
 1748.7052002  -999.250000 19.137809753 17.500000000 1.3500000238 40635.910156 0.0055265659  -999.250000 2.0303080082 75.759010315 146.20910645 0.8101788759 2.5592908859  -999.250000  -999.250000 0.4975615144
 1748.8576660  -999.250000 19.179470062 17.500000000 1.3500000238 40642.929688 0.0100024398  -999.250000 2.0307660103 76.216499329 144.67260742 0.8302847743 2.2295129299  -999.250000  -999.250000 0.5098896027
 1749.0100098  -999.250000 18.932649612 17.500000000 1.3500000238 41606.500000 0.0186424702  -999.250000 2.0339720249 75.931396484 145.13450623 0.8431944847 1.9293845892  -999.250000  -999.250000 0.5054615140
 1749.1624756  -999.250000 18.885730743 17.500000000 1.3500000238 50526.949219 0.0212991405  -999.250000 2.0379180908 74.735702515 145.42649841 0.8468384147 1.7007366419  -999.250000  -999.250000 0.5114063025
 1749.3148193  -999.250000 19.077020645 17.500000000 1.3500000238 53513.230469 0.0249850899  -999.250000 2.0411698818 73.465148926 145.07769775 0.8451333046 1.5657691956  -999.250000  -999.250000 0.5085570216
 1749.4672852  -999.250000 18.995840073 17.500000000 1.3500000238 53771.179688 0.0238888897  -999.250000 2.0434410572 73.399856567 144.30969238 0.8373748064 1.5222219229  -999.250000  -999.250000 0.5048819780
 1749.6196289  -999.250000 19.003530502 17.500000000 1.3500000238 53777.472656 0.0196963008  -999.250000 2.0432159901 74.517585754 144.11189270 0.8322073817 1.5597501993  -999.250000  -999.250000 0.5085334182
 1749.7720947  -999.250000 19.283269882 17.500000000 1.3500000238 53783.621094 0.0176773202  -999.250000 2.0415229797 75.318786621 144.55619812 0.8369123936 1.6644694805  -999.250000  -999.250000 0.5113837123
 1749.9244385  -999.250000 19.578449249 17.500000000 1.3500000238 52583.390625 0.0134938098  -999.250000 2.0387949944 74.549263000 144.82099915 0.8414605856 1.8255259991  -999.250000  -999.250000 0.5209053755
 1750.0769043  -999.250000 19.639629364 17.500000000 1.3500000238 51229.691406 0.0076232082  -999.250000 2.0365600586 72.748855591 145.58309937 0.8448411226 2.0349855423  -999.250000  -999.250000 0.5140311718
 1750.2292480  -999.250000 19.535900116 17.500000000 1.3500000238 50608.320313 0.0052257450  -999.250000 2.0360369682 71.565986633 147.45140076 0.8391072154 2.2829415798  -999.250000  -999.250000 0.5134766102
 1750.3815918  -999.250000 19.023380280 17.500000000 1.3500000238 50414.218750 0.0052295090  -999.250000 2.0397379398 71.861747742 149.23550415 0.8316606283 2.5553717613  -999.250000  -999.250000 0.5146921277
