# LAS format log file from PETREL
# Project units are specified as depth units
#==================================================================
~Version information
VERS.   2.0:
WRAP.   NO:
#==================================================================
~Well
STRT .m      1025.4147949 :
STOP .m      2373.8500977 :
STEP .m     0.00000000 :
NULL .        -999.250000 :
COMP.           : COMPANY
WELL.  25/6-2  Delta-Beta   : WELL
FLD.            : FIELD
LOC.            : LOCATION
SRVC.           : SERVICE COMPANY
DATE.  2018-09-11 14:48:22   : Log Export Date {yyyy-MM-dd HH:mm:ss}
PROV.           : PROVINCE
UWI.   25/6-2   : UNIQUE WELL ID
API.            : API NUMBER
#==================================================================
~Curve
DEPT .m                   : DEPTH
Lithology_geolink ._      : Lithology_geolink
CALI .in                  : CALI
BS .in                    : BS
MUDWEIGHT ._              : MUDWEIGHT
ROP .m/h                  : ROP
DRHO .g/cm3               : DRHO
NPHI .m3/m3               : NPHI
RHOB .g/cm3               : RHOB
GR .gAPI                  : GR
DTC .us/ft                : DTC
RDEP .ohm.m               : RDEP
SP .mV                    : SP
RSHA .ohm.m               : RSHA
RMIC .ohm.m               : RMIC
RMED .ohm.m               : RMED
~Parameter
#==================================================================
~Ascii
# ...
 1560.3387451  -999.250000 20.057710648 17.500000000 1.3500000238 69702.906250 0.0090643885  -999.250000 1.8931649923 80.873062134 158.46020508 0.8079383969 -0.715334952  -999.250000  -999.250000 0.4873670936
 1560.4912109  -999.250000 20.571130753 17.500000000 1.3500000238 69723.023438 0.0108069899  -999.250000 1.8954370022 80.053436279 157.99330139 0.8116151690 -0.891764641  -999.250000  -999.250000 0.4916700125
 1560.6435547  -999.250000 20.144079208 17.500000000 1.3500000238 69743.921875 0.0137689598  -999.250000 1.8952159882 78.409858704 157.81939697 0.8179970980 -1.140253186  -999.250000  -999.250000 0.4981214106
 1560.7960205  -999.250000 20.366569519 17.500000000 1.3500000238 69865.632813 0.0122733498  -999.250000 1.8905420303 77.050437927 157.99929810 0.8286084533 -1.434508443  -999.250000  -999.250000 0.4938896894
 1560.9483643  -999.250000 19.868400574 17.500000000 1.3500000238 70397.781250 0.0104072699  -999.250000 1.8823939562 76.753356934 157.91439819 0.8376466632 -1.760400653  -999.250000  -999.250000 0.5010789037
 1561.1007080  -999.250000 19.500509262 17.500000000 1.3500000238 62828.503906 0.0110203503  -999.250000 1.8727060556 77.249580383 157.45260620 0.8434330225 -2.101429224  -999.250000  -999.250000 0.5007891059
 1561.2531738  -999.250000 19.123640060 17.500000000 1.3500000238 58584.992188 0.0077737002  -999.250000 1.8649619818 77.714256287 157.19769287 0.8409526944 -2.432618618  -999.250000  -999.250000 0.5008202195
 1561.4055176  -999.250000 18.778820038 17.500000000 1.3500000238 58124.925781 0.0035485099  -999.250000 1.8601449728 77.859275818 157.30279541 0.8380477428 -2.713654995  -999.250000  -999.250000 0.5032178164
 1561.5579834  -999.250000 19.463479996 17.500000000 1.3500000238 58146.019531 0.0032802967  -999.250000 1.8590739965 78.073478699 157.33349609 0.8361380696 -2.901918411  -999.250000  -999.250000 0.5024510026
 1561.7103271  -999.250000 20.271020889 17.500000000 1.3500000238 58166.984375 0.0037998830  -999.250000 1.8619860411 78.776130676 156.93550110 0.8434738517 -2.967665434  -999.250000  -999.250000 0.5087413788
 1561.8627930  -999.250000 19.957160950 17.500000000 1.3500000238 58189.910156 0.0020457210  -999.250000 1.8666579723 80.075836182 156.23260498 0.8513647914 -2.912397385  -999.250000  -999.250000 0.5078449845
 1562.0151367  -999.250000 19.226699829 17.500000000 1.3500000238 59070.285156 0.0039762589  -999.250000 1.8716399670 81.709243774 155.48530579 0.8581152558 -2.761517763  -999.250000  -999.250000 0.5197132826
 1562.1676025  -999.250000 19.088649750 17.500000000 1.3500000238 69490.351563 0.0061701830  -999.250000 1.8766390085 83.089508057 154.95419312 0.8621491790 -2.553944826  -999.250000  -999.250000 0.5251712799
 1562.3199463  -999.250000 19.092550278 17.500000000 1.3500000238 76092.210938 0.0067538489  -999.250000 1.8808929920 83.570266724 155.07301331 0.8640393019 -2.328211546  -999.250000  -999.250000 0.5229743123
 1562.4724121  -999.250000 19.105190277 17.500000000 1.3500000238 76892.757813 0.0068000001  -999.250000 1.8856569529 83.117088318 155.86630249 0.8584831953 -2.108836651  -999.250000  -999.250000 0.5145925283
 1562.6247559  -999.250000 19.213960648 17.500000000 1.3500000238 76914.296875 0.0090982094  -999.250000 1.8913860321 82.551055908 156.61470032 0.8481456637 -1.900112271  -999.250000  -999.250000 0.5099421144
 1562.7772217  -999.250000 19.025789261 17.500000000 1.3500000238 76935.062500 0.0117400996  -999.250000 1.8981120586 82.658149719 156.64559937 0.8427646756 -1.682498813  -999.250000  -999.250000 0.5068150759
 1562.9295654  -999.250000 19.495140076 17.500000000 1.3500000238 76955.859375 0.0128098102  -999.250000 1.9058409929 83.353164673 155.95559692 0.8514665365 -1.428024054  -999.250000  -999.250000 0.5127583742
 1563.0819092  -999.250000 19.192390442 17.500000000 1.3500000238 76227.789063 0.0121597601  -999.250000 1.9138209820 83.677604675 154.98199463 0.8617160320 -1.125069618  -999.250000  -999.250000 0.5163227916
 1563.2343750  -999.250000 18.428720474 17.500000000 1.3500000238 69665.929688 0.0122568104  -999.250000 1.9210760593 82.888610840 154.50259399 0.8690124750 -0.799213111  -999.250000  -999.250000 0.5273749232
 1563.3867188  -999.250000 18.335020065 17.500000000 1.3500000238 67541.421875 0.0120887402  -999.250000 1.9280920029 81.211418152 155.15409851 0.8730903268 -0.510845482  -999.250000  -999.250000 0.5247604847
 1563.5391846  -999.250000 18.403120041 17.500000000 1.3500000238 67384.882813 0.0099428128  -999.250000 1.9350939989 79.697822571 156.60169983 0.8713947535 -0.328032047  -999.250000  -999.250000 0.5246396065
 1563.6915283  -999.250000 18.677650452 17.500000000 1.3500000238 67405.656250 0.0073149991  -999.250000 1.9428429604 79.344726563 158.00660706 0.8691020012 -0.292777419  -999.250000  -999.250000 0.5257092118
 1563.8439941  -999.250000 18.735759735 17.500000000 1.3500000238 67426.781250 0.0043466999  -999.250000 1.9500759840 80.348793030 159.14320374 0.8644949198 -0.404136211  -999.250000  -999.250000 0.5252351165
 1563.9963379  -999.250000 18.385229111 17.500000000 1.3500000238 66747.078125 -0.000042600  -999.250000 1.9548560381 82.126693726 160.18670654 0.8542308211 -0.622211397  -999.250000  -999.250000 0.5107681751
 1564.1488037  -999.250000 18.274660110 17.500000000 1.3500000238 64505.121094 -0.004116979  -999.250000 1.9574179649 83.644783020 160.60220337 0.8497904539 -0.890203536  -999.250000  -999.250000 0.5175045729
 1564.3011475  -999.250000 18.510839462 17.500000000 1.3500000238 62869.160156 -0.004386848  -999.250000 1.9579629898 84.044853210 159.67199707 0.8522355556 -1.161421418  -999.250000  -999.250000 0.5207179785
 1564.4536133  -999.250000 18.552860260 17.500000000 1.3500000238 62683.242188 -0.005109160  -999.250000 1.9572540522 83.237037659 157.43269348 0.8452949524 -1.407345891  -999.250000  -999.250000 0.5135198236
 1564.6059570  -999.250000 18.081369400 17.500000000 1.3500000238 62705.550781 -0.003465574  -999.250000 1.9570189714 82.205581665 154.72140503 0.8427632451 -1.613937497  -999.250000  -999.250000 0.5186321139
 1564.7584229  -999.250000 18.306629181 17.500000000 1.3500000238 62725.480469 0.0005150246  -999.250000 1.9584920406 82.275581360 152.90229797 0.8550501466 -1.773554802  -999.250000  -999.250000 0.5304788947
 1564.9107666  -999.250000 18.284349442 17.500000000 1.3500000238 62746.710938 0.0025196129  -999.250000 1.9626950026 83.898323059 152.55050659 0.8744559288 -1.871097803  -999.250000  -999.250000 0.5374814868
 1565.0632324  -999.250000 18.404640198 17.500000000 1.3500000238 63895.785156 0.0039635370  -999.250000 1.9668920040 85.985366821 153.04740906 0.8891968131 -1.892277002  -999.250000  -999.250000 0.5433763862
 1565.2155762  -999.250000 18.379079819 17.500000000 1.3500000238 65349.726563 0.0077948119  -999.250000 1.9701650143 87.001098633 153.77760315 0.8961731195 -1.837793231  -999.250000  -999.250000 0.5426480174
 1565.3679199  -999.250000 18.244359970 17.500000000 1.3500000238 65568.703125 0.0077322870  -999.250000 1.9724359512 86.615371704 154.44880676 0.8970303535 -1.728753090  -999.250000  -999.250000 0.5405625105
 1565.5203857  -999.250000 18.089479446 17.500000000 1.3500000238 65589.117188 0.0054039452  -999.250000 1.9737089872 85.900970459 154.95190430 0.8870227337 -1.598013639  -999.250000  -999.250000 0.5377966166
 1565.6727295  -999.250000 18.445999146 17.500000000 1.3500000238 65610.179688 0.0044249818  -999.250000 1.9739810228 85.633750916 155.38139343 0.8757842183 -1.472002387  -999.250000  -999.250000 0.5273268223
 1565.8251953  -999.250000 18.148780823 17.500000000 1.3500000238 65631.390625 0.0037292039  -999.250000 1.9739999771 85.101974487 155.51409912 0.8667455316 -1.355489135  -999.250000  -999.250000 0.5249850154
 1565.9775391  -999.250000 18.306360245 17.500000000 1.3500000238 65651.992188 0.0017094370  -999.250000 1.9725070000 83.237136841 155.00729370 0.8670716882 -1.229213953  -999.250000  -999.250000 0.5279644728
 1566.1300049  -999.250000 18.546739578 17.500000000 1.3500000238 74556.703125 0.0009874264  -999.250000 1.9675600529 80.294937134 154.34260559 0.8858781457 -1.068510056  -999.250000  -999.250000 0.5333961248
