# LAS format log file from PETREL
# Project units are specified as depth units
#==================================================================
~Version information
VERS.   2.0:
WRAP.   NO:
#==================================================================
~Well
STRT .m      625.95562744 :
STOP .m      2455.8225098 :
STEP .m     0.00000000 :
NULL .        -999.250000 :
COMP.           : COMPANY
WELL.  25/6-3   : WELL
FLD.            : FIELD
LOC.            : LOCATION
SRVC.           : SERVICE COMPANY
DATE.  2018-09-11 14:48:22   : Log Export Date {yyyy-MM-dd HH:mm:ss}
PROV.           : PROVINCE
UWI.   25/6-3   : UNIQUE WELL ID
API.            : API NUMBER
#==================================================================
~Curve
DEPT .m                   : DEPTH
Lithology_geolink ._      : Lithology_geolink
CALI .in                  : CALI
BS .in                    : BS
NPHI .m3/m3               : NPHI
RHOB .g/cm3               : RHOB
GR .gAPI                  : GR
DTC .us/ft                : DTC
DTS .us/ft                : DTS
RDEP .ohm.m               : RDEP
SP .mV                    : SP
RSHA .ohm.m               : RSHA
RMIC .ohm.m               : RMIC
RMED .ohm.m               : RMED
~Parameter
#==================================================================
~Ascii
# ...
 1819.5524902  -999.250000 9.2486000061 8.5000000000 0.6390249729 2.2081999779 74.786102295 144.43589783  -999.250000 0.7590399981  -999.250000 0.7177212238 0.6962000132 0.8131419420
 1819.7048340  -999.250000 9.1422996521 8.5000000000 0.6229019761 2.2895998955 75.502197266 142.45190430  -999.250000 0.8089417815  -999.250000 0.7684514523 0.7634000182 0.8655382395
 1819.8572998  -999.250000 9.2144002914 8.5000000000 0.6801670194 2.2829999924 79.033996582 140.50010681  -999.250000 0.8610578179  -999.250000 0.7498731017 0.7792000175 0.9132573605
 1820.0096436  -999.250000 9.3634004593 8.5000000000 0.7277839780 2.2274000645 82.657302856 140.55090332  -999.250000 0.8083766103  -999.250000 0.6809746027 0.6876999736 0.8600804210
 1820.1621094  -999.250000 9.3809995651 8.5000000000 0.6806400418 2.1577000618 85.729202271 141.23100281  -999.250000 0.7792096138  -999.250000 0.6606743336 0.6667000055 0.8357039690
 1820.3144531  -999.250000 9.4158000946 8.5000000000 0.6080610156 2.1324000359 89.102096558 142.25779724  -999.250000 0.7911689878  -999.250000 0.6442490816 0.6478999853 0.8406633735
 1820.4669189  -999.250000 9.4063997269 8.5000000000 0.5521110296 2.1171000004 92.828796387 144.55850220  -999.250000 0.7524970174  -999.250000 0.6024615169 0.6365000010 0.7949957848
 1820.6192627  -999.250000 9.4682998657 8.5000000000 0.5222849846 2.0790998936 92.647499084 146.44509888  -999.250000 0.7487894297  -999.250000 0.5141911507 0.5303000212 0.7896884084
 1820.7717285  -999.250000 9.3486995697 8.5000000000 0.5668510199 2.0473001003 88.597602844 148.06919861  -999.250000 0.7355316281  -999.250000 0.4790064096 0.4799999893 0.7752267122
 1820.9240723  -999.250000 9.5550003052 8.5000000000 0.6559600234 2.0522000790 83.608001709 148.50990295  -999.250000 0.6928799748  -999.250000 0.4933932126 0.4769000113 0.7294759750
 1821.0765381  -999.250000 9.5413999557 8.5000000000 0.6809220314 2.0878999233 79.907501221 148.62570190  -999.250000 0.6678976417  -999.250000 0.5470858812 0.5284000039 0.6994939446
 1821.2288818  -999.250000 9.2279996872 8.5000000000 0.6385900378 2.1033000946 80.573898315 149.25140381  -999.250000 0.6664312482  -999.250000 0.5512476563 0.5867000222 0.6957353354
 1821.3812256  -999.250000 9.2932996750 8.5000000000 0.6386659741 2.1041998863 83.209899902 148.68400574  -999.250000 0.7053766251  -999.250000 0.4737620354 0.4760000110 0.7397778034
 1821.5336914  -999.250000 9.3991003036 8.5000000000 0.6702110171 2.0894999504 84.525100708 147.18960571  -999.250000 0.6761940718  -999.250000 0.4619863927 0.4690000117 0.7120898366
 1821.6860352  -999.250000 9.4056997299 8.5000000000 0.6528019905 2.0906999111 84.053100586 145.95899963  -999.250000 0.6688182354  -999.250000 0.4970389307 0.4471000135 0.6994161606
 1821.8385010  -999.250000 9.4405002594 8.5000000000 0.5926010013 2.0878999233 83.147598267 145.70759583  -999.250000 0.6916118860  -999.250000 0.5983320475 0.6032999754 0.7196117043
 1821.9908447  -999.250000 9.4650001526 8.5000000000 0.5448229909 2.0927000046 83.508399963 145.69369507  -999.250000 0.7063917518  -999.250000 0.5817471743 0.5878000259 0.7341953516
 1822.1433105  -999.250000 9.4730997086 8.5000000000 0.5303229690 2.0905001163 84.646896362 145.45460510  -999.250000 0.6961046457  -999.250000 0.5324897170 0.5688999891 0.7284035683
 1822.2956543  -999.250000 9.4706001282 8.5000000000 0.5335350037 2.0787999630 84.992401123 145.44009399  -999.250000 0.7018932104  -999.250000 0.4546914995 0.4553000033 0.7328976989
 1822.4481201  -999.250000 9.4595003128 8.5000000000 0.5681809783 2.0685000420 83.580398560 145.79820251  -999.250000 0.6933999658  -999.250000 0.4345217943 0.4533999860 0.7299953103
 1822.6004639  -999.250000 9.4595003128 8.5000000000 0.6165950298 2.0646998882 81.597000122 146.48150635  -999.250000 0.6932839751  -999.250000 0.4029227197 0.3944999874 0.7240853310
 1822.7529297  -999.250000 9.4368000031 8.5000000000 0.6342520118 2.0683000088 81.328498840 147.04600525  -999.250000 0.6733077168  -999.250000 0.4225948751 0.4208000004 0.7058027387
 1822.9052734  -999.250000 9.4591999054 8.5000000000 0.6539873481 2.0754001141 84.367103577 147.47619629  -999.250000 0.6780958176  -999.250000 0.4399468303 0.4264000058 0.7074939013
 1823.0577393  -999.250000 9.6781997681 8.5000000000 0.6782634854 2.0736000538 88.447303772 148.79960632  -999.250000 0.6729061007  -999.250000 0.4704628289 0.4686999917 0.6999137402
 1823.2100830  -999.250000 9.6256999969 8.5000000000 0.7347179055 2.0817999840 91.515899658 150.77929688  -999.250000 0.6767192483  -999.250000 0.4715098441 0.4742000103 0.7085170150
 1823.3625488  -999.250000 9.4867000580 8.5000000000 0.7918832898 2.0893204212 92.979301453 150.94880676  -999.250000 0.7007104158  -999.250000 0.4416012764 0.4657999873 0.7297070622
 1823.5148926  -999.250000 9.4953002930 8.5000000000 0.7551968098 2.1021025181 92.767898560 149.56732178  -999.250000 0.7071990967  -999.250000 0.3695794344 0.3903000057 0.7340990305
 1823.6672363  -999.250000 9.4706001282 8.5000000000 0.6525971293 2.1054980755 92.348800659 148.12069702  -999.250000 0.7060994506  -999.250000 0.3281576931 0.3255999982 0.7329006791
 1823.8197021  -999.250000 9.4663000107 8.5000000000 0.5666074157 2.1030938625 92.082099915 147.31629944  -999.250000 0.7053982019  -999.250000 0.3610038459 0.3336000144 0.7336968780
 1823.9720459  -999.250000 9.4378995895 8.5000000000 0.5434259176 2.0952987671 91.284400940 147.07339478  -999.250000 0.7031978369  -999.250000 0.4575627744 0.4190999866 0.7297972441
 1824.1245117  -999.250000 9.3965997696 8.5000000000 0.5757863522 2.0937986374 89.047203064 147.35859680  -999.250000 0.7004937530  -999.250000 0.5490476489 0.5392000079 0.7263937593
 1824.2768555  -999.250000 9.4352998734 8.5000000000 0.6062380075 2.0920064449 86.877799988 147.77990723  -999.250000 0.6927335858  -999.250000 0.5642172694 0.5698999763 0.7186423540
 1824.4293213  -999.250000 9.4759998322 8.5000000000 0.6262539029 2.1000142097 86.224296570 147.90550232  -999.250000 0.7346132994  -999.250000 0.5487298369 0.5522000194 0.7715104222
 1824.5816650  -999.250000 9.4668998718 8.5000000000 0.6385591626 2.1180205345 86.250602722 147.61489868  -999.250000 0.7512010336  -999.250000 0.5520911813 0.5414000154 0.7845032215
 1824.7341309  -999.250000 9.4867000580 8.5000000000 0.6375287771 2.1435217857 87.673400879 146.68829346  -999.250000 0.7525036931  -999.250000 0.5987343192 0.5746999979 0.7885037065
 1824.8864746  -999.250000 9.5360002518 8.5000000000 0.6299216747 2.1569912434 89.297798157 145.77529907  -999.250000 0.7547984123  -999.250000 0.6743497849 0.6495000124 0.7907997966
 1825.0389404  -999.250000 9.5310001373 8.5000000000 0.6345166564 2.1458778381 91.240699768 145.30969238  -999.250000 0.7527930737  -999.250000 0.7083923221 0.7268999815 0.7905995250
 1825.1912842  -999.250000 9.5134000778 8.5000000000 0.6287011504 2.1319959164 90.551200867 145.24000549  -999.250000 0.7485013008  -999.250000 0.6537805200 0.6693000197 0.7903030515
 1825.3437500  -999.250000 9.5396995544 8.5000000000 0.6326599717 2.1269049644 87.804702759 145.05279541  -999.250000 0.7500905395  -999.250000 0.6009804606 0.6209999919 0.7940799594
 1825.4960938  -999.250000 9.5401000977 8.5000000000 0.6569908261 2.1301004887 85.301696777 145.03840637  -999.250000 0.7441836596  -999.250000 0.5758938789 0.5587999821 0.7815814614
 1825.6484375  -999.250000 9.5433998108 8.5000000000 0.6742023230 2.1307008266 84.542602539 145.14289856  -999.250000 0.7237794995  -999.250000 0.5942776799 0.6119999886 0.7584761977
 1825.8009033  -999.250000 9.6216001511 8.5000000000 0.6746428013 2.1314873695 86.614898682 145.30679321  -999.250000 0.6981853843  -999.250000 0.5618767738 0.5568000078 0.7287871838
 1825.9532471  -999.250000 9.6052999496 8.5000000000 0.6556352377 2.1157848835 89.371696472 146.06219482  -999.250000 0.6800613403  -999.250000 0.5373158455 0.5726000071 0.7128658295
 1826.1057129  -999.250000 9.5340995789 8.5000000000 0.6285035014 2.0968868732 90.896697998 147.03509521  -999.250000 0.7567180395  -999.250000 0.4425536096 0.4627000093 0.7951233983
