# LAS format log file from PETREL
# Project units are specified as depth units
#==================================================================
~Version information
VERS.   2.0:
WRAP.   NO:
#==================================================================
~Well
STRT .m      625.95562744 :
STOP .m      2455.8225098 :
STEP .m     0.00000000 :
NULL .        -999.250000 :
COMP.           : COMPANY
WELL.  25/6-3   : WELL
FLD.            : FIELD
LOC.            : LOCATION
SRVC.           : SERVICE COMPANY
DATE.  2018-09-11 14:48:22   : Log Export Date {yyyy-MM-dd HH:mm:ss}
PROV.           : PROVINCE
UWI.   25/6-3   : UNIQUE WELL ID
API.            : API NUMBER
#==================================================================
~Curve
DEPT .m                   : DEPTH
Lithology_geolink ._      : Lithology_geolink
CALI .in                  : CALI
BS .in                    : BS
NPHI .m3/m3               : NPHI
RHOB .g/cm3               : RHOB
GR .gAPI                  : GR
DTC .us/ft                : DTC
DTS .us/ft                : DTS
RDEP .ohm.m               : RDEP
SP .mV                    : SP
RSHA .ohm.m               : RSHA
RMIC .ohm.m               : RMIC
RMED .ohm.m               : RMED
~Parameter
#==================================================================
~Ascii
# ...
 1611.6789551  -999.250000 9.2763996124 8.5000000000 0.5542967916 2.1687793732 92.757102966 141.13420105  -999.250000 0.9845876098  -999.250000 0.8439988494 0.8608157635 1.0572032928
 1611.8312988  -999.250000 9.2677001953 8.5000000000 0.5940542221 2.1558072567 94.607696533 141.46069336  -999.250000 0.9145058393  -999.250000 0.8190961480 0.8083269596 0.9969022870
 1611.9837646  -999.250000 9.3346996307 8.5000000000 0.5867710710 2.1647353172 95.537200928 141.75740051  -999.250000 0.9218496680  -999.250000 0.8399044871 0.8418900371 0.9997534752
 1612.1361084  -999.250000 9.3077001572 8.5000000000 0.5568858385 2.1867015362 93.401397705 141.97410583  -999.250000 0.9528276920  -999.250000 0.8515407443 0.8357394934 1.0331329107
 1612.2885742  -999.250000 9.2194004059 8.5000000000 0.5541834831 2.1884822845 90.725700378 142.25289917  -999.250000 0.9874355197  -999.250000 0.8900209665 0.8850249648 1.0742297173
 1612.4409180  -999.250000 9.2046003342 8.5000000000 0.5413671136 2.1774892807 91.274002075 142.09449768  -999.250000 1.0096045732  -999.250000 0.8926956654 0.9005802870 1.0927015543
 1612.5932617  -999.250000 9.2046003342 8.5000000000 0.5190922618 2.1640992165 93.880302429 141.49949646  -999.250000 1.0152072906  -999.250000 0.8763210177 0.8760007620 1.0946044922
 1612.7457275  -999.250000 9.1887998581 8.5000000000 0.5332058668 2.1630983353 96.452796936 141.16290283  -999.250000 1.0243005753  -999.250000 0.8766465187 0.8769990802 1.1003066301
 1612.8980713  -999.250000 9.1780996323 8.5000000000 0.5866459012 2.1609930992 96.041000366 141.06039429  -999.250000 1.0251040459  -999.250000 0.9049556255 0.8759724498 1.1085987091
 1613.0505371  -999.250000 9.1663999557 8.5000000000 0.6140211225 2.1522898674 92.348503113 140.86889648  -999.250000 1.0302114487  -999.250000 0.9753325582 0.9664223194 1.1070085764
 1613.2028809  -999.250000 9.1325998306 8.5000000000 0.5867331028 2.1396842003 88.556701660 140.72120667  -999.250000 1.0445152521  -999.250000 1.0002679825 0.9942151308 1.1177164316
 1613.3553467  -999.250000 9.1277999878 8.5000000000 0.5706586838 2.1200795174 87.782897949 140.38439941  -999.250000 1.0635185242  -999.250000 1.0100796223 1.0130925179 1.1383286715
 1613.5076904  -999.250000 9.1388998032 8.5000000000 0.5802752972 2.0943789482 90.025199890 140.01199341  -999.250000 1.0866098404  -999.250000 0.9963799119 1.0036817789 1.1741061211
 1613.6601563  -999.250000 9.1434001923 8.5000000000 0.5942935348 2.0680725574 92.707000732 140.03425598  -999.250000 1.0989844799  -999.250000 0.9759839177 0.9808754921 1.1816921234
 1613.8125000  -999.250000 9.1379995346 8.5000000000 0.5752804875 2.0507943630 93.538299561 140.32437134  -999.250000 1.0892761946  -999.250000 0.9648609757 0.9655981660 1.1767619848
 1613.9649658  -999.250000 9.1396999359 8.5000000000 0.5610014796 2.0437026024 93.669502258 140.53845215  -999.250000 1.0594947338  -999.250000 0.9572491050 0.9632698894 1.1293938160
 1614.1173096  -999.250000 9.1426000595 8.5000000000 0.5943916440 2.0453081131 94.121597290 140.95158386  -999.250000 1.0561835766  -999.250000 0.9425399899 0.9444951415 1.1254856586
 1614.2697754  -999.250000 9.1388998032 8.5000000000 0.6401118040 2.0555458069 95.416397095 141.31292725  -999.250000 1.0356612206  -999.250000 0.9372091293 0.9383940697 1.1076580286
 1614.4221191  -999.250000 9.1478996277 8.5000000000 0.6668111682 2.0841283798 97.114097595 141.38801575  -999.250000 1.0114866495  -999.250000 0.9381380677 0.9347085953 1.0814861059
 1614.5744629  -999.250000 9.1597995758 8.5000000000 0.6457971334 2.1196272373 99.005203247 141.40097046  -999.250000 0.9948920608  -999.250000 0.9389146566 0.9453838468 1.0640915632
 1614.7269287  -999.250000 9.1408996582 8.5000000000 0.6172469854 2.1536152363 100.22750092 141.35662842  -999.250000 0.9849962592  -999.250000 0.9168779254 0.9251792431 1.0535991192
 1614.8792725  -999.250000 9.1586999893 8.5000000000 0.6009737253 2.1724102497 101.59130096 141.15193176  -999.250000 0.9803225994  -999.250000 0.9048221707 0.8993137479 1.0525232553
 1615.0317383  -999.250000 9.2018003464 8.5000000000 0.6044609547 2.1851048470 103.44270325 140.94161987  -999.250000 1.0085291862  -999.250000 0.9312804341 0.9165368080 1.0816322565
 1615.1840820  -999.250000 9.3011999130 8.5000000000 0.6418857574 2.1910023689 102.94950104 140.59388733  -999.250000 1.0450106859  -999.250000 0.9631420970 0.9625015855 1.1219109297
 1615.3365479  -999.250000 9.3663997650 8.5000000000 0.6689817905 2.1940946579 100.00370026 139.82469177  -999.250000 1.0583366156  -999.250000 0.9497195482 0.9644631743 1.1355365515
 1615.4888916  -999.250000 9.2929000854 8.5000000000 0.6461964846 2.1876897812 96.550399780 139.94052124  -999.250000 0.9791744351  -999.250000 0.8791063428 0.9184017181 1.0564709902
 1615.6413574  -999.250000 9.2646999359 8.5000000000 0.5856788754 2.1748871803 96.694099426 140.32994080  -999.250000 0.9473186135  -999.250000 0.7972137332 0.7958070040 1.0203200579
 1615.7937012  -999.250000 9.2733001709 8.5000000000 0.5344710350 2.1668984890 98.930297852 139.60922241  -999.250000 0.9589092135  -999.250000 0.7804228663 0.8001506329 1.0328035355
 1615.9461670  -999.250000 9.2440996170 8.5000000000 0.5270370245 2.1652081013 100.26619720 139.02053833  -999.250000 0.9703925848  -999.250000 0.7571719885 0.7386925817 1.0373023748
 1616.0985107  -999.250000 9.3220996857 8.5000000000 0.5413977504 2.1702029705 101.57569885 138.91282654  -999.250000 0.9657968879  -999.250000 0.7937973738 0.7963935137 1.0387998819
 1616.2509766  -999.250000 9.3570995331 8.5000000000 0.5623012185 2.1737861633 103.31529999 138.82231140  -999.250000 0.9618916512  -999.250000 0.7857251167 0.7882871628 1.0385938883
 1616.4033203  -999.250000 9.3170995712 8.5000000000 0.5874080658 2.1650931835 104.85759735 138.64613342  -999.250000 0.9567176700  -999.250000 0.7215638161 0.7801535726 1.0348185301
 1616.5556641  -999.250000 9.3522996902 8.5000000000 0.6161643863 2.1565849781 104.45359802 138.42854309  -999.250000 0.9786937237  -999.250000 0.5803234577 0.5974571705 1.0578953028
 1616.7081299  -999.250000 9.3650999069 8.5000000000 0.6128590703 2.1377928257 102.39099884 138.24571228  -999.250000 0.9708895087  -999.250000 0.5565955043 0.5440314412 1.0520834923
 1616.8604736  -999.250000 9.4163999557 8.5000000000 0.5930555463 2.1287901402 100.50789642 138.26205444  -999.250000 0.9577957988  -999.250000 0.6279553175 0.5833115578 1.0314936638
 1617.0129395  -999.250000 9.4106998444 8.5000000000 0.6025671959 2.1167018414 99.833999634 138.70001221  -999.250000 0.9526022673  -999.250000 0.7059559226 0.7225584984 1.0235929489
 1617.1652832  -999.250000 9.3540000916 8.5000000000 0.6576398611 2.1192066669 101.16510010 139.45771790  -999.250000 0.9553970098  -999.250000 0.6669151783 0.6707902551 1.0147997141
 1617.3177490  -999.250000 9.2805004120 8.5000000000 0.6874208450 2.1275076866 103.38800049 140.48815918  -999.250000 0.9517169595  -999.250000 0.6720023751 0.6587331891 1.0145215988
 1617.4700928  -999.250000 9.2999000549 8.5000000000 0.6734696627 2.1369998455 105.15059662 141.68768311  -999.250000 0.9728800654  -999.250000 0.7351273298 0.7001873255 1.0413748026
 1617.6225586  -999.250000 9.2930002213 8.5000000000 0.6755569577 2.1368024349 105.75959778 142.03991699  -999.250000 0.9480006695  -999.250000 0.8204460144 0.8092280626 1.0100017786
 1617.7749023  -999.250000 9.2783002853 8.5000000000 0.6567510366 2.1399102211 104.24690247 141.56941223  -999.250000 0.9487997293  -999.250000 0.8563680649 0.8442304134 1.0122984648
 1617.9273682  -999.250000 9.3114995956 8.5000000000 0.5992968082 2.1527326107 101.64150238 141.21012878  -999.250000 0.9484224319  -999.250000 0.8968804479 0.8821736574 1.0103235245
 1618.0797119  -999.250000 9.3046998978 8.5000000000 0.5548957586 2.1731116772 98.246398926 140.78845215  -999.250000 0.9624421000  -999.250000 0.9469289780 0.9281469584 1.0250391960
 1618.2321777  -999.250000 9.3128004074 8.5000000000 0.5358154774 2.1877036095 96.772903442 140.36004639  -999.250000 1.0149358511  -999.250000 0.9967741370 0.9867501259 1.0740448236
