# LAS format log file from PETREL
# Project units are specified as depth units
#==================================================================
~Version information
VERS.   2.0:
WRAP.   NO:
#==================================================================
~Well
STRT .m      1025.4147949 :
STOP .m      2373.8500977 :
STEP .m     0.00000000 :
NULL .        -999.250000 :
COMP.           : COMPANY
WELL.  25/6-2  Delta-Beta   : WELL
FLD.            : FIELD
LOC.            : LOCATION
SRVC.           : SERVICE COMPANY
DATE.  2018-09-11 14:48:22   : Log Export Date {yyyy-MM-dd HH:mm:ss}
PROV.           : PROVINCE
UWI.   25/6-2   : UNIQUE WELL ID
API.            : API NUMBER
#==================================================================
~Curve
DEPT .m                   : DEPTH
Lithology_geolink ._      : Lithology_geolink
CALI .in                  : CALI
BS .in                    : BS
MUDWEIGHT ._              : MUDWEIGHT
ROP .m/h                  : ROP
DRHO .g/cm3               : DRHO
NPHI .m3/m3               : NPHI
RHOB .g/cm3               : RHOB
GR .gAPI                  : GR
DTC .us/ft                : DTC
RDEP .ohm.m               : RDEP
SP .mV                    : SP
RSHA .ohm.m               : RSHA
RMIC .ohm.m               : RMIC
RMED .ohm.m               : RMED
~Parameter
#==================================================================
~Ascii
# ...
 2368.6684570 6.0000000000 12.359680176 12.250000954 1.2200000286 38607.730469 0.0072557251 0.3211075962 2.4721050262 109.41899872  -999.250000 1.7623080015 -0.800326884 2.1256690025 3.3598859310 1.5682070255
 2368.8208008 6.0000000000 12.358999252 12.250000954 1.2200000286 38050.691406 0.0078672422  -999.250000 2.4695599079 109.41899872  -999.250000 1.7642879486 -0.598548055 2.1259999275 3.5985031128 1.5642260313
 2368.9733887 6.0000000000 12.358999252 12.250000954 1.2200000286 38027.019531 0.0088887038  -999.250000 2.4705474377 109.41899872  -999.250000 1.7673289776 -0.375842959 2.1192140579 3.5347030163 1.5396660566
 2369.1257324 6.0000000000 12.358999252 12.250000954 1.2200000286 38032.898438 0.0101209404  -999.250000 2.4739875793 109.41899872  -999.250000 1.7616440058 -0.147654399 2.1028189659 3.5573360920 1.5325340033
 2369.2780762  -999.250000 12.358999252 12.250000954 1.2200000286 38039.199219 0.0126698120  -999.250000 2.4787089825 109.41899872  -999.250000 1.7511219978 0.0667259619 2.0847389698 3.5454089642 1.5342609882
 2369.4304199  -999.250000 12.358999252 12.250000954 1.2200000286 38045.589844 0.0168452598  -999.250000 2.4836850166 109.41899872  -999.250000 1.7393009663 0.2445096076 2.0803101063 3.3897099495 1.5160520077
 2369.5830078  -999.250000 12.388379097 12.250000954 1.2200000286 38051.691406 0.0216087196  -999.250000 2.4879319668 109.41899872  -999.250000 1.7278369665 0.3649390936 2.0799999237 3.3618690968 1.5089199543
 2369.7353516  -999.250000 12.397319794 12.250000954 1.2200000286 38391.199219 0.0311286096  -999.250000 2.4904401302 109.41899872  -999.250000 1.7146439552 0.4140993655 2.0724589825 3.3500440121 1.5057729483
 2369.8876953  -999.250000 12.397998810 12.250000954 1.2200000286 39507.191406 0.0356511585  -999.250000 2.4917182922 109.41899872  -999.250000 1.7023090124 0.3878591955 2.0505390167 3.3959560394 1.4876780510
 2370.0400391  -999.250000 12.368579865 12.250000954 1.2200000286 41756.191406 0.0357681401  -999.250000 2.4912290573 109.41899872  -999.250000 1.6883180141 0.2951442301 2.0119230747 3.3306128979 1.4627369642
 2370.1923828  -999.250000 12.331000328 12.250000954 1.2200000286 42197.921875 0.0368048809  -999.250000 2.4895079136 109.41899872  -999.250000 1.6862590313 0.1546538472 1.9888889790 3.3845229149 1.4488910437
 2370.3449707  -999.250000 12.350291252 12.250000954 1.2200000286 42221.140625 0.0391405784  -999.250000 2.4875211716 109.41899872  -999.250000 1.6934109926 -0.012141027 1.9903190136 3.4415609837 1.4499390125
 2370.4973145  -999.250000 12.358341217 12.250000954 1.2200000286 42227.730469 0.0313421004  -999.250000 2.4840135574 109.41899872  -999.250000 1.6968569756 -0.181761608 2.0241870880 3.3587861061 1.4569389820
 2370.6496582  -999.250000 12.388409615 12.250000954 1.2200000286 42233.820313 0.0253896993  -999.250000 2.4800529480 109.41899872  -999.250000 1.7008609772 -0.334716350 2.0680789948 3.2743899822 1.4679009914
 2370.8020020  -999.250000 12.397331238 12.250000954 1.2200000286 42240.011719 0.0244716797  -999.250000 2.4768059254 109.41899872  -999.250000 1.7074190378 -0.457033664 2.0927739143 3.2824170589 1.4617300034
 2370.9545898  -999.250000 12.339970589 12.250000954 1.2200000286 42246.308594 0.0167843942  -999.250000 2.4730317593 109.41899872  -999.250000 1.7280479670 -0.545477569 2.1044659615 3.3247249126 1.4914979935
 2371.1069336  -999.250000 12.322340012 12.250000954 1.2200000286 42252.640625 0.0135447672  -999.250000 2.4698033333 109.41899872  -999.250000 1.7621320486 -0.595329583 2.1000568867 3.4224710464 1.5707809925
 2371.2592773  -999.250000 12.321000099 12.250000954 1.2200000286 42258.898438 0.0193302687  -999.250000 2.4667851925 109.41899872  -999.250000 1.7931120396 -0.602370203 2.0981559753 3.3187780380 1.5888160467
 2371.4116211  -999.250000 12.349671364 12.250000954 1.2200000286 42265.460938 0.0187363196  -999.250000 2.4637889862 109.41899872  -999.250000 1.8078869581 -0.560346186 2.0980000496 2.8226189613 1.5732350349
 2371.5642090  -999.250000 12.358341217 12.250000954 1.2200000286 42272.109375 0.0193915144  -999.250000 2.4615430832 109.41899872  -999.250000 1.8165709972 -0.470060915 2.0980000496 2.8113999367 1.5668530464
 2371.7165527  -999.250000 12.301731110 12.250000954 1.2200000286 42278.000000 0.0309522096  -999.250000 2.4602816105 109.41899872  -999.250000 1.8262950182 -0.338685900 2.0980000496 3.2683210373 1.5660350323
 2371.8688965  -999.250000 12.284319878 12.250000954 1.2200000286 41937.031250 0.0354836732  -999.250000 2.4607739449 109.41899872  -999.250000 1.8198690414 -0.175785601 2.1047821045 3.5083889961 1.5614739656
 2372.0212402  -999.250000 12.282999992 12.250000954 1.2200000286 37218.531250 0.0331966095  -999.250000 2.4624910355 109.41899872  -999.250000 1.8044530153 0.0103846183 2.1286790371 3.2390220165 1.5222380161
 2372.1735840  -999.250000 12.282999992 12.250000954 1.2200000286 36144.398438 0.0360800885  -999.250000 2.4652290344 109.41899872  -999.250000 1.7900489569 0.2125480771 2.1498129368 3.1063539982 1.4813109636
 2372.3261719  -999.250000 12.311638832 12.250000954 1.2200000286 36096.371094 0.0362174511  -999.250000 2.4682159424 109.41899872  -999.250000 1.7705060244 0.4210608900 2.1471309662 3.0111029148 1.4739249945
 2372.4785156  -999.250000 12.320340157 12.250000954 1.2200000286 36102.460938 0.0362640284  -999.250000 2.4719681740 109.41899872  -999.250000 1.7350009680 0.6225535870 2.1028189659 2.7111399174 1.4716860056
 2372.6308594  -999.250000 12.292340279 12.250000954 1.2200000286 36109.140625 0.0328561403  -999.250000 2.4751930237 109.41899872  -999.250000 1.6887140274 0.7996875048 2.0041220188 2.8678140640 1.4491280317
 2372.7832031  -999.250000 12.254227638 12.250000954 1.2200000286 35926.179688 0.0359833911  -999.250000 2.4774570465 109.41899872  -999.250000 1.6345549822 0.9265817404 1.9064910412 3.0724680424 1.3992660046
 2372.9357910  -999.250000 12.274060249 12.250000954 1.2200000286 31718.212891 0.0378726609  -999.250000 2.4787194729 109.41899872  -999.250000 1.5832250118 0.9795544744 1.8449879885 3.1606009007 1.3404719830
 2373.0881348  -999.250000 12.310958862 12.250000954 1.2200000286 29480.462891 0.0358193591  -999.250000 2.4789829254 109.41899872  -999.250000 1.5517489910 0.9444159865 1.8160170317 2.7883570194 1.3290369511
 2373.2404785  -999.250000 12.291689873 12.250000954 1.2200000286 29237.390625 0.0373458266  -999.250000 2.4790000916 109.41899872  -999.250000 1.5306470394 0.8227355480 1.7952580452 2.5237069130 1.3379679918
 2373.3928223  -999.250000 12.312320709 12.250000954 1.2200000286 29243.919922 0.0453810506  -999.250000 2.4790000916 109.41899872  -999.250000 1.5233939886 0.6319999695 1.7903439999 2.6548058987 1.3588529825
 2373.5454102  -999.250000 12.291709900 12.250000954 1.2200000286 29250.298828 0.0477411188  -999.250000 2.4797534943 109.41899872  -999.250000 1.5307689905 0.4040224254 1.8260480165 2.9403159618 1.3698509932
 2373.6977539  -999.250000 12.254268646 12.250000954 1.2200000286 29256.550781 0.0465742983  -999.250000 2.4799818993 109.41899872  -999.250000 1.5404289961 0.1762980819 1.8589559793 2.9619500637 1.3831659555
 2373.8500977  -999.250000 12.274080276 12.250000954 1.2200000286 28841.191406 0.0449643470  -999.250000 2.4792394638 109.41899872  -999.250000 1.5546430349 -0.015025602 1.8890589476 3.1199479103 1.3837219477
