# LAS format log file from PETREL
# Project units are specified as depth units
#==================================================================
~Version information
VERS.   2.0:
WRAP.   NO:
#==================================================================
~Well
STRT .m      1025.4147949 :
STOP .m      2373.8500977 :
STEP .m     0.00000000 :
NULL .        -999.250000 :
COMP.           : COMPANY
WELL.  25/6-2  Delta-Beta   : WELL
FLD.            : FIELD
LOC.            : LOCATION
SRVC.           : SERVICE COMPANY
DATE.  2018-09-11 14:48:22   : Log Export Date {yyyy-MM-dd HH:mm:ss}
PROV.           : PROVINCE
UWI.   25/6-2   : UNIQUE WELL ID
API.            : API NUMBER
#==================================================================
~Curve
DEPT .m                   : DEPTH
Lithology_geolink ._      : Lithology_geolink
CALI .in                  : CALI
BS .in                    : BS
MUDWEIGHT ._              : MUDWEIGHT
ROP .m/h                  : ROP
DRHO .g/cm3               : DRHO
NPHI .m3/m3               : NPHI
RHOB .g/cm3               : RHOB
GR .gAPI                  : GR
DTC .us/ft                : DTC
RDEP .ohm.m               : RDEP
SP .mV                    : SP
RSHA .ohm.m               : RSHA
RMIC .ohm.m               : RMIC
RMED .ohm.m               : RMED
~Parameter
#==================================================================
~Ascii
# ...
 2190.3603516 2.0000000000 11.935999870 12.250000954 1.2000000477 62560.835938 -0.001253255 0.2554543912 2.2187519073 56.098228455 93.539833069 0.8515744209 -20.87199974 0.6381947994 0.5247678161 0.6239342093
 2190.5129395 2.0000000000 11.907409668 12.250000954 1.2000000477 62521.070313 -0.000419625 0.2543500960 2.2204871178 55.565422058 92.546791077 0.8592541218 -21.10924530 0.6372652054 0.5384401083 0.6219180226
 2190.6652832 2.0000000000 11.898670197 12.250000954 1.2000000477 62537.875000 0.0013758870 0.2555317879 2.2232189178 56.210823059 91.563301086 0.8620125055 -21.30122185 0.6355140805 0.5447701812 0.6210700870
 2190.8176270 2.0000000000 11.926561356 12.250000954 1.2000000477 62555.808594 0.0019724751 0.2583130002 2.2277050018 57.808265686 90.653137207 0.8696522117 -21.43493652 0.6335315704 0.5399062037 0.6240038276
 2190.9699707 2.0000000000 11.906760216 12.250000954 1.2000000477 62976.941406 0.0046844389 0.2614423931 2.2334229946 59.125198364 90.007232666 0.8787844181 -21.51193619 0.6352897882 0.5215097070 0.6219195127
 2191.1223145 2.0000000000 11.927249908 12.250000954 1.2000000477 67200.062500 0.0075197378 0.2638491094 2.2386550903 59.378326416 89.692596436 0.8840984702 -21.54203796 0.6456999779 0.5163804293 0.6270790100
 2191.2749023 2.0000000000 11.906780243 12.250000954 1.2000000477 69264.500000 0.0088657262 0.2651157081 2.2429170609 59.106269836 89.643089294 0.8837568760 -21.54046631 0.6510207057 0.5420798063 0.6288583279
 2191.4272461 2.0000000000 11.898670197 12.250000954 1.2000000477 69528.851563 0.0103259003 0.2655234933 2.2461829185 59.213817596 89.710777283 0.8793470263 -21.51622009 0.6511952281 0.5398173928 0.6229789257
 2191.5795898 2.0000000000 11.926569939 12.250000954 1.2000000477 69549.156250 0.0117664998 0.2654812038 2.2492020130 59.742271423 89.773712158 0.8702949286 -21.46661949 0.6510177255 0.5462453961 0.6241462231
 2191.7319336 2.0000000000 11.935329437 12.250000954 1.2000000477 69565.843750 0.0160850100 0.2650989890 2.2522029877 59.927494049 89.829002380 0.8590630293 -21.38214493 0.6472359896 0.5472813845 0.6219186783
 2191.8845215 2.0000000000 11.935999870 12.250000954 1.2000000477 69583.546875 0.0150846597 0.2640326917 2.2552039623 59.270923615 89.915122986 0.8528621197 -21.25363922 0.6370369196 0.5281155109 0.6120187044
 2192.0368652 2.0000000000 11.907440186 12.250000954 1.2000000477 69599.632813 0.0143416999 0.2619737983 2.2574501038 58.080154419 89.916610718 0.8444933891 -21.08142281 0.6296929717 0.5118638873 0.6009206176
 2192.1892090 2.0000000000 11.927240372 12.250000954 1.2000000477 69616.343750 0.0133189596 0.2590588033 2.2579638958 56.973628998 89.690391541 0.8327453136 -20.87854767 0.6235896945 0.5067397952 0.5951828957
 2192.3415527 2.0000000000 11.935329437 12.250000954 1.2000000477 69633.132813 0.0114232004 0.2559868097 2.2572481632 56.441394806 89.316619873 0.8253059983 -20.66589355 0.6206008196 0.5052831173 0.5918129086
 2192.4941406 2.0000000000 11.935999870 12.250000954 1.2000000477 69291.023438 0.0078002410 0.2535690963 2.2555129528 56.678764343 88.975830078 0.8126543760 -20.47052002 0.6192827821 0.5065215230 0.5910527706
 2192.6464844 2.0000000000 11.935999870 12.250000954 1.2000000477 69013.226563 0.0106049804 0.2521745861 2.2527809143 57.651924133 88.779258728 0.8088114858 -20.32462502 0.6205198169 0.5114663243 0.5879917741
 2192.7988281 2.0000000000 11.935999870 12.250000954 1.2000000477 68992.726563 0.0116380397 0.2514814138 2.2497990131 58.831535339 88.709037781 0.8005899191 -20.25270271 0.6202129126 0.5098845959 0.5840616226
 2192.9511719 2.0000000000 11.935999870 12.250000954 1.2000000477 69009.906250 0.0119950902 0.2508732080 2.2467980385 59.451717377 88.690040588 0.7949625254 -20.26726723 0.6177607179 0.4947159886 0.5830705762
 2193.1037598 2.0000000000 11.935999870 12.250000954 1.2000000477 64179.664063 0.0124560799 0.2498860061 2.2445490360 59.346935272 88.757720947 0.7988781929 -20.36366272 0.6147947907 0.4865610003 0.5890073180
 2193.2561035 2.0000000000 11.907449722 12.250000954 1.2000000477 62980.574219 0.0131005198 0.2486578971 2.2417809963 59.146667480 88.896507263 0.8095036149 -20.52667236 0.6133012176 0.4903382063 0.5961083770
 2193.4084473 2.0000000000 11.927229881 12.250000954 1.2000000477 62852.871094 0.0122849401 0.2479144037 2.2403020859 59.592025757 88.945541382 0.8264790773 -20.73498535 0.6137691140 0.5045918822 0.6008777022
 2193.5607910 2.0000000000 11.906760216 12.250000954 1.2000000477 62858.132813 0.0126540698 0.2486546934 2.2400178909 60.452869415 88.911048889 0.8423643112 -20.96197128 0.6162360907 0.5019171238 0.6071829796
 2193.7131348 2.0000000000 11.927249908 12.250000954 1.2000000477 62672.828125 0.0136888605 0.2514534891 2.2415039539 60.979801178 88.965309143 0.8555244803 -21.18155670 0.6222035289 0.5016614795 0.6208676100
 2193.8657227 2.0000000000 11.906741142 12.250000954 1.2000000477 62262.894531 0.0167476200 0.2559447885 2.2434689999 60.871746063 89.116836548 0.8624851108 -21.37457657 0.6313834786 0.4951784909 0.6344661117
 2194.0180664 2.0000000000 11.927229881 12.250000954 1.2000000477 55291.988281 0.0221139695 0.2609513998 2.2469708920 60.492904663 89.263183594 0.8744195104 -21.52808571 0.6398239732 0.4825946987 0.6475108266
 2194.1704102 2.0000000000 11.906760216 12.250000954 1.2000000477 43232.179688 0.0243445598 0.2652091086 2.2494330406 60.192703247 89.394210815 0.8875901103 -21.63596725 0.6471107006 0.4844990969 0.6537706852
 2194.3227539 2.0000000000 11.898670197 12.250000954 1.2000000477 41522.750000 0.0258732606 0.2678888142 2.2499649525 59.658126831 89.535011292 0.8982781172 -21.69606590 0.6496270895 0.4881289005 0.6549289823
 2194.4753418 2.0000000000 11.926589966 12.250000954 1.2000000477 41539.238281 0.0269761309 0.2686061859 2.2492480278 58.695056915 89.681831360 0.9049831033 -21.71117783 0.6492298841 0.4949524105 0.6549999714
 2194.6276855 2.0000000000 11.935329437 12.250000954 1.2000000477 41555.949219 0.0254219808 0.2673192918 2.2460119724 57.745361328 89.814826965 0.9060313106 -21.68659210 0.6490175724 0.4802395105 0.6549999714
 2194.7800293 2.0000000000 11.935999870 12.250000954 1.2000000477 40976.050781 0.0195235908 0.2643469870 2.2420649529 57.497550964 89.917770386 0.9014667273 -21.62618256 0.6505025029 0.4798871875 0.6519916058
 2194.9323730 2.0000000000 11.935999870 12.250000954 1.2000000477 40898.468750 0.0164300594 0.2604702115 2.2380640507 57.908687592 90.091903687 0.8916208744 -21.52944565 0.6524676085 0.4688158035 0.6510707140
 2195.0849609 2.0000000000 11.935999870 12.250000954 1.2000000477 40915.511719 0.0159248505 0.2565985918 2.2348139286 58.221805573 90.363250732 0.8813099265 -21.39546204 0.6544684172 0.4652777910 0.6472355127
 2195.2373047 2.0000000000 11.907449722 12.250000954 1.2000000477 40829.171875 0.0164750405 0.2533859015 2.2325499058 57.902770996 90.513618469 0.8652275205 -21.22677803 0.6542133093 0.4739868045 0.6400672197
 2195.3896484 2.0000000000 11.927229881 12.250000954 1.2000000477 40335.769531 0.0168320592 0.2510528862 2.2312839031 57.066707611 90.501831055 0.8540338278 -21.03425980 0.6525142789 0.4797857106 0.6313648224
 2195.5419922 2.0000000000 11.935329437 12.250000954 1.2000000477 40275.179688 0.0187482499 0.2495698035 2.2302660942 56.260677338 90.480796814 0.8451619744 -20.83504105 0.6475195289 0.4733929038 0.6261482835
 2195.6943359 2.0000000000 11.935999870 12.250000954 1.2000000477 40291.679688 0.0158022791 0.2487158030 2.2292659283 55.811340332 90.480445862 0.8397511840 -20.65396309 0.6408330798 0.4575675130 0.6160230041
 2195.8469238 2.0000000000 11.935999870 12.250000954 1.2000000477 39905.281250 0.0117443698 0.2481938004 2.2290179729 55.721179962 90.462463379 0.8376173973 -20.51888466 0.6346021891 0.4570704997 0.6079335213
 2195.9992676 2.0000000000 11.935999870 12.250000954 1.2000000477 48971.281250 0.0098451981 0.2478750050 2.2297520638 55.849769592 90.413665771 0.8315677047 -20.45478439 0.6285899282 0.4698818922 0.6031131744
 2196.1516113 2.0000000000 11.935999870 12.250000954 1.2000000477 55963.492188 0.0082826437 0.2480528057 2.2307341099 56.189834595 90.346031189 0.8223695755 -20.46986008 0.6248490810 0.4841902852 0.5990613103
