# LAS format log file from PETREL
# Project units are specified as depth units
#==================================================================
~Version information
VERS.   2.0:
WRAP.   NO:
#==================================================================
~Well
STRT .m      1025.4147949 :
STOP .m      2373.8500977 :
STEP .m     0.00000000 :
NULL .        -999.250000 :
COMP.           : COMPANY
WELL.  25/6-2  Delta-Beta   : WELL
FLD.            : FIELD
LOC.            : LOCATION
SRVC.           : SERVICE COMPANY
DATE.  2018-09-11 14:48:22   : Log Export Date {yyyy-MM-dd HH:mm:ss}
PROV.           : PROVINCE
UWI.   25/6-2   : UNIQUE WELL ID
API.            : API NUMBER
#==================================================================
~Curve
DEPT .m                   : DEPTH
Lithology_geolink ._      : Lithology_geolink
CALI .in                  : CALI
BS .in                    : BS
MUDWEIGHT ._              : MUDWEIGHT
ROP .m/h                  : ROP
DRHO .g/cm3               : DRHO
NPHI .m3/m3               : NPHI
RHOB .g/cm3               : RHOB
GR .gAPI                  : GR
DTC .us/ft                : DTC
RDEP .ohm.m               : RDEP
SP .mV                    : SP
RSHA .ohm.m               : RSHA
RMIC .ohm.m               : RMIC
RMED .ohm.m               : RMED
~Parameter
#==================================================================
~Ascii
# ...
 1833.7445068  -999.250000 19.666170120 17.500000000 1.3500000238 46952.988281 -0.003972635  -999.250000 2.0666079521 78.772293091 139.57260132 0.8177378774 1.0992091894  -999.250000  -999.250000 0.4785976112
 1833.8968506  -999.250000 20.081239700 17.500000000 1.3500000238 44589.789063 -0.000189593  -999.250000 2.0789370537 77.603439331 143.30250549 0.8033018708 0.9495460391  -999.250000  -999.250000 0.4726602137
 1834.0493164  -999.250000 18.859420776 17.500000000 1.3500000238 36776.429688 0.0023929160  -999.250000 2.0877850056 75.875350952 146.95559692 0.7850660086 0.7478157282  -999.250000  -999.250000 0.4645150900
 1834.2016602  -999.250000 18.804979324 17.500000000 1.3500000238 35075.070313 0.0017003660  -999.250000 2.0950899124 73.852180481 149.60549927 0.7526795864 0.5107533932  -999.250000  -999.250000 0.4441013038
 1834.3540039  -999.250000 18.473159790 17.500000000 1.3500000238 34998.878906 0.0027573290  -999.250000 2.1021099091 71.888854980 150.10009766 0.7432197928 0.2503205240  -999.250000  -999.250000 0.4444048107
 1834.5064697  -999.250000 19.289640427 17.500000000 1.3500000238 35007.191406 0.0038307561  -999.250000 2.1083641052 70.572662354 147.99360657 0.7348856926 -0.009941553  -999.250000  -999.250000 0.4436061084
 1834.6588135  -999.250000 20.237230301 17.500000000 1.3500000238 35016.410156 -0.001730414  -999.250000 2.1113870144 70.293281555 144.97740173 0.7491831183 -0.238910258  -999.250000  -999.250000 0.4549742937
 1834.8112793  -999.250000 21.029148102 17.500000000 1.3500000238 35860.660156 -0.003017321  -999.250000 2.1104660034 70.576339722 142.65600586 0.7936534286 -0.407686949  -999.250000  -999.250000 0.4861077964
 1834.9636230  -999.250000 20.799871445 17.500000000 1.3500000238 44416.890625 0.0005735765  -999.250000 2.1070439816 70.280426025 141.26489258 0.8550202250 -0.501153886  -999.250000  -999.250000 0.5175492167
 1835.1160889  -999.250000 19.512449265 17.500000000 1.3500000238 48415.359375 0.0033792141  -999.250000 2.1030790806 68.800567627 141.08459473 0.9193124175 -0.516652524  -999.250000  -999.250000 0.5425397754
 1835.2684326  -999.250000 19.196540833 17.500000000 1.3500000238 48842.429688 0.0069462089  -999.250000 2.1020729542 66.763977051 141.52890015 0.9421716928 -0.462846130  -999.250000  -999.250000 0.5500671864
 1835.4208984  -999.250000 18.730049133 17.500000000 1.3500000238 48405.390625 0.0113809314  -999.250000 2.1057419777 65.557136536 141.29260254 0.9265909791 -0.348804623  -999.250000  -999.250000 0.5464673042
 1835.5732422  -999.250000 18.460430145 17.500000000 1.3500000238 48193.089844 0.0132922400  -999.250000 2.1128940582 66.021179199 140.70539856 0.8919755220 -0.180442303  -999.250000  -999.250000 0.5217428207
 1835.7257080  -999.250000 19.040719986 17.500000000 1.3500000238 48011.769531 0.0121813295  -999.250000 2.1215889454 67.777481079 140.59240723 0.8653463721 0.0324358977  -999.250000  -999.250000 0.5092967153
 1835.8780518  -999.250000 19.141130447 17.500000000 1.3500000238 46978.929688 0.0097540095  -999.250000 2.1305680275 69.579582214 140.87829590 0.8430538774 0.2707974315  -999.250000  -999.250000 0.4973678887
 1836.0305176  -999.250000 18.893819809 17.500000000 1.3500000238 46477.660156 0.0075828927  -999.250000 2.1388220787 70.608375549 141.04780579 0.8333616257 0.5163894296  -999.250000  -999.250000 0.4949826896
 1836.1828613  -999.250000 18.385599136 17.500000000 1.3500000238 46174.480469 0.0075697731  -999.250000 2.1445939541 71.206199646 140.82980347 0.8340564966 0.7542762160  -999.250000  -999.250000 0.4979706109
 1836.3353271  -999.250000 17.952770233 17.500000000 1.3500000238 46142.839844 0.0081801265  -999.250000 2.1489019394 72.233345032 140.62350464 0.8412824869 0.9749094844  -999.250000  -999.250000 0.4996745884
 1836.4876709  -999.250000 17.909490585 17.500000000 1.3500000238 46151.019531 0.0080630323  -999.250000 2.1521730423 73.945877075 140.91729736 0.8417466879 1.1731193066  -999.250000  -999.250000 0.4969846904
 1836.6400146  -999.250000 18.259540558 17.500000000 1.3500000238 45798.089844 0.0081732403  -999.250000 2.1529459953 75.705757141 141.34660339 0.8332905173 1.3375512362  -999.250000  -999.250000 0.4968205988
 1836.7924805  -999.250000 18.601020813 17.500000000 1.3500000238 45445.179688 0.0089882407  -999.250000 2.1515030861 76.825950623 141.51119995 0.8212684989 1.4430384636  -999.250000  -999.250000 0.4879728854
 1836.9448242  -999.250000 18.986080170 17.500000000 1.3500000238 42577.039063 0.0105745103  -999.250000 2.1487920284 77.210624695 141.70550537 0.8109840751 1.4597563744  -999.250000  -999.250000 0.4837177992
 1837.0972900  -999.250000 19.284929276 17.500000000 1.3500000238 37887.699219 0.0129566202  -999.250000 2.1450610161 77.207206726 141.90150452 0.8104249835 1.3642537594  -999.250000  -999.250000 0.4860272110
 1837.2496338  -999.250000 19.950450897 17.500000000 1.3500000238 37227.718750 0.0188217703  -999.250000 2.1403319836 76.795570374 141.57760620 0.8167697787 1.1522564888  -999.250000  -999.250000 0.4899159968
 1837.4020996  -999.250000 19.229949951 17.500000000 1.3500000238 36759.050781 0.0209162906  -999.250000 2.1338520050 75.583320618 140.90060425 0.8316205740 0.8444395661  -999.250000  -999.250000 0.4969005883
 1837.5544434  -999.250000 18.586130142 17.500000000 1.3500000238 36573.500000 0.0225887094  -999.250000 2.1268908978 73.497039795 140.70140076 0.8467745781 0.4813653827  -999.250000  -999.250000 0.5025879145
 1837.7069092  -999.250000 18.540660858 17.500000000 1.3500000238 36175.878906 0.0190028902  -999.250000 2.1191411018 71.121627808 141.29760742 0.8460326791 0.1157021597  -999.250000  -999.250000 0.5001627803
 1837.8592529  -999.250000 19.495759964 17.500000000 1.3500000238 35914.660156 0.0201013796  -999.250000 2.1134059429 69.261734009 142.17840576 0.8264995813 -0.203480765  -999.250000  -999.250000 0.4772307873
 1838.0117188  -999.250000 20.385799408 17.500000000 1.3500000238 35473.660156 0.0232426506  -999.250000 2.1098470688 68.356124878 142.83909607 0.8058183193 -0.451611370  -999.250000  -999.250000 0.4645084143
 1838.1640625  -999.250000 21.260950089 17.500000000 1.3500000238 33167.449219 0.0301143192  -999.250000 2.1075589657 68.575096130 142.97869873 0.7977312803 -0.629208148  -999.250000  -999.250000 0.4576478899
 1838.3165283  -999.250000 22.021688461 17.500000000 1.3500000238 32508.197266 0.0329218805  -999.250000 2.1062879562 69.744026184 142.45300293 0.8006740808 -0.750592113  -999.250000  -999.250000 0.4605917931
 1838.4688721  -999.250000 22.345760345 17.500000000 1.3500000238 32467.349609 0.0296028703  -999.250000 2.1037747860 71.320037842 141.95689392 0.7941222191 -0.821301043  -999.250000  -999.250000 0.4566456974
 1838.6212158  -999.250000 21.946962357 17.500000000 1.3500000238 32476.017578 0.0205134694  -999.250000 2.1000618935 72.476081848 142.40379333 0.7806767225 -0.834826946  -999.250000  -999.250000 0.4476223886
 1838.7736816  -999.250000 21.948072433 17.500000000 1.3500000238 32483.949219 0.0144328503  -999.250000 2.0953309536 72.796173096 143.36149597 0.7627338767 -0.770961523  -999.250000  -999.250000 0.4331449866
 1838.9260254  -999.250000 19.935047150 17.500000000 1.3500000238 32492.560547 0.0119625404  -999.250000 2.0925951004 72.650848389 143.53199768 0.7500951290 -0.610096157  -999.250000  -999.250000 0.4300341904
 1839.0784912  -999.250000 19.159889221 17.500000000 1.3500000238 31910.300781 0.0129493997  -999.250000 2.0920357704 72.722770691 142.67449951 0.7628291845 -0.345698148  -999.250000  -999.250000 0.4389311969
 1839.2308350  -999.250000 20.083120346 17.500000000 1.3500000238 30977.068359 0.0143499598  -999.250000 2.0949919224 73.116622925 141.51849365 0.7823439240 0.0015641066  -999.250000  -999.250000 0.4477472901
 1839.3833008  -999.250000 20.561109543 17.500000000 1.3500000238 30503.710938 0.0162968095  -999.250000 2.0989210606 73.175270081 140.59289551 0.8088591099 0.3935564458  -999.250000  -999.250000 0.4639928043
 1839.5356445  -999.250000 20.262969971 17.500000000 1.3500000238 30457.199219 0.0185835902  -999.250000 2.1029200554 72.293983459 140.19110107 0.8306400180 0.7814295292  -999.250000  -999.250000 0.4671513140
