# LAS format log file from PETREL
# Project units are specified as depth units
#==================================================================
~Version information
VERS.   2.0:
WRAP.   NO:
#==================================================================
~Well
STRT .m      376.26940918 :
STOP .m      2542.6337891 :
STEP .m     0.00000000 :
NULL .        -999.250000 :
COMP.           : COMPANY
WELL.  25/8-1  Forseti   : WELL
FLD.            : FIELD
LOC.            : LOCATION
SRVC.           : SERVICE COMPANY
DATE.  2018-09-11 14:48:23   : Log Export Date {yyyy-MM-dd HH:mm:ss}
PROV.           : PROVINCE
UWI.   25/8-1   : UNIQUE WELL ID
API.            : API NUMBER
#==================================================================
~Curve
DEPT .m                   : DEPTH
Lithology_geolink ._      : Lithology_geolink
DCAL .in                  : DCAL
CALI .in                  : CALI
BS .in                    : BS
MUDWEIGHT ._              : MUDWEIGHT
ROP .m/h                  : ROP
DRHO .g/cm3               : DRHO
RHOB .g/cm3               : RHOB
GR .gAPI                  : GR
DTC .us/ft                : DTC
DTE .us/ft                : DTE
RDEP .ohm.m               : RDEP
SP .mV                    : SP
RSHA .ohm.m               : RSHA
RMIC .ohm.m               : RMIC
RMED .ohm.m               : RMED
~Parameter
#==================================================================
~Ascii
# ...
 675.12561035  -999.250000 -4.447000027 13.553000450 18.000000000 9.1000003815 0.9126930833  -999.250000  -999.250000 27.714000702 160.03170776 160.03138733 0.9290000200 18.187000275 1.2760000229 2.4716839790 1.2760721445
 675.27801514  -999.250000 -4.460000038 13.539999008 18.000000000 9.1000003815 0.7643383145  -999.250000  -999.250000 27.621999741 160.21850586 160.21846008 0.8980000019 17.884000778 1.2530000210 2.3403389454 1.2530553341
 675.43041992  -999.250000 -4.473999977 13.526000023 18.000000000 9.1000003815 0.7575728893  -999.250000  -999.250000 27.236999512 159.95730591 159.95745850 0.8700000048 17.752000809 1.2369999886 2.1778249741 1.2370384932
 675.58282471  -999.250000 -4.462999821 13.536999702 18.000000000 9.1000003815 0.7465339899  -999.250000  -999.250000 26.853000641 159.25270081 159.25318909 0.8600000143 17.652000427 1.2300000191 2.1211640835 1.2300168276
 675.73522949  -999.250000 -4.480000019 13.520000458 18.000000000 9.1000003815 0.7463775873  -999.250000  -999.250000 26.290000916 158.86541748 158.86558533 0.8640000224 17.492000580 1.2230000496 2.1448190212 1.2230168581
 675.88763428  -999.250000 -4.511000156 13.489000320 18.000000000 9.1000003815 0.7463911176  -999.250000  -999.250000 25.695999146 158.69020081 158.69024658 0.8679999709 17.332000732 1.2170000076 2.1388530731 1.2170144320
 676.04003906  -999.250000 -4.454999924 13.545001030 18.000000000 9.1000003815 0.7467057109  -999.250000  -999.250000 26.628999710 159.04611206 159.04574585 0.8719999790 17.194999695 1.2109999657 2.1891059875 1.2110143900
 676.19238281  -999.250000 -4.254000187 13.745999336 18.000000000 9.1000003815 0.7530117035  -999.250000  -999.250000 28.756000519 160.14199829 160.14071655 0.8759999871 17.138999939 1.2059999704 2.3091709614 1.2060140371
 676.34478760  -999.250000 -4.177000046 13.822999954 18.000000000 9.1000003815 0.7592586875  -999.250000  -999.250000 30.552999496 160.98439026 160.98367310 0.8840000033 17.180000305 1.2120000124 2.3077681065 1.2119832039
 676.49719238  -999.250000 -4.369999886 13.630001068 18.000000000 9.1000003815 0.7595145106  -999.250000  -999.250000 31.659999847 161.03617859 161.03622437 0.8970000148 17.287000656 1.2200000286 2.1037409306 1.2199808359
 676.64959717  -999.250000 -4.544000149 13.456001282 18.000000000 9.1000003815 0.7598289847  -999.250000  -999.250000 32.796001434 160.24209595 160.24266052 0.9089999795 17.340000153 1.2220000029 1.9974360466 1.2219952345
 676.80200195  -999.250000 -4.630000114 13.369999886 18.000000000 9.1000003815 0.7482013106  -999.250000  -999.250000 33.974998474 158.59089661 158.59230042 0.9219999909 17.246000290 1.2300000191 2.1232500076 1.2299808264
 676.95440674  -999.250000 -4.828000069 13.171999931 18.000000000 9.1000003815 0.7477033734  -999.250000  -999.250000 34.875999451 157.23741150 157.23811340 0.9359999895 17.184000015 1.2430000305 2.2399320602 1.2429687977
 677.10681152  -999.250000 -5.071000099 12.928999901 18.000000000 9.1000003815 0.7480180264  -999.250000  -999.250000 35.457000732 156.65820313 156.65846252 0.9530000091 17.212999344 1.2519999743 2.3940560818 1.2519783974
 677.25921631  -999.250000 -5.172999859 12.826999664 18.000000000 9.1000003815 0.7480314970  -999.250000  -999.250000 36.476001740 156.15370178 156.15402222 0.9729999900 17.254999161 1.2640000582 2.5845329762 1.2639712095
 677.41162109  -999.250000 -5.113999844 12.885999680 18.000000000 9.1000003815 0.7483460903  -999.250000  -999.250000 36.972999573 156.18980408 156.18971252 0.9929999709 17.368000031 1.2819999456 2.6005890369 1.2819566727
 677.56402588  -999.250000 -5.026999950 12.972998619 18.000000000 9.1000003815 0.7367184162  -999.250000  -999.250000 36.595001221 156.91029358 156.90989685 1.0119999647 17.530000687 1.3029999733 2.5195839405 1.3029495478
 677.71643066  -999.250000 -5.024000645 12.976000786 18.000000000 9.1000003815 0.7245792150  -999.250000  -999.250000 35.950000763 157.20030212 157.20022583 1.0240000486 17.691999435 1.3240000010 2.4760849476 1.3239495754
 677.86883545  -999.250000 -5.197000027 12.802999496 18.000000000 9.1000003815 0.6888430715  -999.250000  -999.250000 35.749000549 156.54461670 156.54544067 1.0329999924 17.854999542 1.3380000591 2.4663329124 1.3379664421
 678.02124023  -999.250000 -5.426000118 12.574000359 18.000000000 9.1000003815 0.6165447831  -999.250000  -999.250000 36.381999969 155.21159363 155.21249390 1.0420000553 18.017000198 1.3450000286 2.4747331142 1.3449832201
 678.17364502  -999.250000 -5.535999775 12.463999748 18.000000000 9.1000003815 0.5427259207  -999.250000  -999.250000 36.126998901 153.81028748 153.81114197 1.0509999990 18.101999283 1.3530000448 2.5494918823 1.3529808521
 678.32598877  -999.250000 -5.569999695 12.430000305 18.000000000 9.1000003815 0.5044599175  -999.250000  -999.250000 34.696998596 152.82119751 152.82205200 1.0590000153 18.065999985 1.3630000353 2.7106399536 1.3629720211
 678.47839355  -999.250000 -5.605000019 12.395000458 18.000000000 9.1000003815 0.4913116395  -999.250000  -999.250000 33.507999420 152.37480164 152.37522888 1.0670000315 18.065999985 1.3619999886 2.8251829147 1.3620023727
 678.63079834  -999.250000 -5.638999462 12.361000061 18.000000000 9.1000003815 0.4908136129  -999.250000  -999.250000 33.838001251 152.47239685 152.47235107 1.0729999542 18.187000275 1.3480000496 2.8214321136 1.3480336666
 678.78320313  -999.250000 -5.650000572 12.350000381 18.000000000 9.1000003815 0.4911282957  -999.250000  -999.250000 33.740001678 153.00740051 153.00704956 1.0629999638 18.266000748 1.3329999447 2.7804830074 1.3330359459
 678.93560791  -999.250000 -5.638999462 12.361000061 18.000000000 9.1000003815 0.4911417067  -999.250000  -999.250000 31.794000626 153.83438110 153.83381653 1.0390000343 18.142000198 1.3229999542 2.7165489197 1.3230240345
 679.08801270  -999.250000 -5.605000019 12.395000458 18.000000000 9.1000003815 0.4914563894  -999.250000  -999.250000 30.128000259 154.70289612 154.70242310 1.0149999857 17.822999954 1.3099999428 2.6262118816 1.3100311756
 679.24041748  -999.250000 -5.551000118 12.449000359 18.000000000 9.1000003815 0.5034257174  -999.250000  -999.250000 30.562000275 155.47010803 155.46961975 0.9940000176 17.551000595 1.2899999619 2.5830819607 1.2900480032
 679.39282227  -999.250000 -5.439999580 12.559999466 18.000000000 9.1000003815 0.5394899249  -999.250000  -999.250000 30.767999649 156.16760254 156.16719055 0.9769999981 17.479000092 1.2710000277 2.5661320686 1.2710456848
 679.54522705  -999.250000 -5.282999992 12.716999054 18.000000000 9.1000003815 0.6121162772  -999.250000  -999.250000 29.656999588 156.68618774 156.68589783 0.9610000253 17.530000687 1.2580000162 2.4712970257 1.2580312490
 679.69763184  -999.250000 -5.149000168 12.850999832 18.000000000 9.1000003815 0.6865779161  -999.250000  -999.250000 28.888999939 157.28102112 157.28034973 0.9449999928 17.565999985 1.2469999790 2.3389511108 1.2470264435
 679.85003662  -999.250000 -5.077000618 12.923000336 18.000000000 9.1000003815 0.7487825155  -999.250000  -999.250000 29.128000259 158.38800049 158.38673401 0.9279999733 17.510000229 1.2319999933 2.2867629528 1.2320359945
 680.00244141  -999.250000 -4.987999916 13.012000084 18.000000000 9.1000003815 0.7868651748  -999.250000  -999.250000 30.018999100 159.15151978 159.15083313 0.9210000038 17.382999420 1.2189999819 2.3306450844 1.2190312147
 680.15484619  -999.250000 -4.958000183 13.041999817 18.000000000 9.1000003815 0.7887005210  -999.250000  -999.250000 30.326000214 159.20440674 159.20434570 0.9250000119 17.298000336 1.2120000124 2.3908560276 1.2120168209
 680.30725098  -999.250000 -5.130000114 12.869999886 18.000000000 9.1000003815 0.7890285254  -999.250000  -999.250000 30.277000427 159.46749878 159.46722412 0.9319999814 17.434999466 1.2050000429 2.3858609200 1.2050168514
 680.45959473  -999.250000 -5.298999786 12.701000214 18.000000000 9.1000003815 0.7890419960  -999.250000  -999.250000 30.403999329 159.35060120 159.35081482 0.9319999814 17.711000443 1.1970000267 2.3488969803 1.1970224380
 680.61199951  -999.250000 -5.401000023 12.598999977 18.000000000 9.1000003815 0.7893565893  -999.250000  -999.250000 30.833999634 158.18649292 158.18742371 0.9210000038 17.981000900 1.1890000105 2.2699050903 1.1890192032
