# LAS format log file from PETREL
# Project units are specified as depth units
#==================================================================
~Version information
VERS.   2.0:
WRAP.   NO:
#==================================================================
~Well
STRT .m      1079.9069824 :
STOP .m      2540.5083008 :
STEP .m     0.00000000 :
NULL .        -999.250000 :
COMP.           : COMPANY
WELL.  25/8-9  Krap 2   : WELL
FLD.            : FIELD
LOC.            : LOCATION
SRVC.           : SERVICE COMPANY
DATE.  2018-09-11 14:48:24   : Log Export Date {yyyy-MM-dd HH:mm:ss}
PROV.           : PROVINCE
UWI.   25/8-9   : UNIQUE WELL ID
API.            : API NUMBER
#==================================================================
~Curve
DEPT .m                   : DEPTH
Lithology_geolink ._      : Lithology_geolink
BS .in                    : BS
MUDWEIGHT ._              : MUDWEIGHT
SGR .gAPI                 : SGR
RHOB .g/cm3               : RHOB
GR .gAPI                  : GR
DTC .us/ft                : DTC
DTS .us/ft                : DTS
~Parameter
#==================================================================
~Ascii
# ...
 2240.5852051 6.0000000000 8.5000000000 1.2999999523 82.028800964 2.3570022583 73.237388611 112.11679840 257.67260742
 2240.7375488 6.0000000000 8.5000000000 1.2999999523 80.492897034 2.3586604595 72.681983948 116.17269897 278.65148926
 2240.8898926 6.0000000000 8.5000000000 1.2999999523 78.556900024 2.3566470146 71.923950195 116.42009735 265.69369507
 2241.0422363 6.0000000000 8.5000000000 1.2999999523 79.158500671 2.3526835442 71.482810974 114.62149811 249.78462219
 2241.1948242 5.0000000000 8.5000000000 1.2999999523 78.122901917 2.3460288048 71.277847290 112.96330261 246.74429321
 2241.3471680 5.0000000000 8.5000000000 1.2999999523 78.190902710 2.3538315296 70.439796448 109.36450195 258.57629395
 2241.4995117 5.0000000000 8.5000000000 1.2999999523 73.260803223 2.3784399033 68.513587952 106.72599792 266.16390991
 2241.6518555 5.0000000000 8.5000000000 1.2999999523 69.931602478 2.3943479061 65.756965637 105.13240051 272.33279419
 2241.8041992 5.0000000000 8.5000000000 1.2999999523 67.529602051 2.3781080246 63.788444519 106.17590332 255.52331543
 2241.9567871 5.0000000000 8.5000000000 1.2999999523 70.795303345 2.3485217094 64.027297974 108.11190033 244.57678223
 2242.1091309 5.0000000000 8.5000000000 1.2999999523 72.433502197 2.3278269768 66.188850403 110.92559814 252.33140564
 2242.2614746 5.0000000000 8.5000000000 1.2999999523 74.281303406 2.3301372528 68.342849731 115.64029694 268.50808716
 2242.4138184 5.0000000000 8.5000000000 1.2999999523 74.835998535 2.3283395767 68.430923462 117.10440063 234.03300476
 2242.5664063 5.0000000000 8.5000000000 1.2999999523 71.710502625 2.3437962532 66.264968872 113.71199799 234.70790100
 2242.7187500 5.0000000000 8.5000000000 1.2999999523 66.382896423 2.3751392365 63.024593353 111.31580353 234.66389465
 2242.8710938 5.0000000000 8.5000000000 1.2999999523 62.517101288 2.3847954273 60.818191528 108.03299713 241.66540527
 2243.0234375 5.0000000000 8.5000000000 1.2999999523 63.412300110 2.3625159264 61.146858215 104.27729797 234.55390930
 2243.1760254 5.0000000000 8.5000000000 1.2999999523 68.250999451 2.3237760067 63.264793396 98.840896606 236.04841614
 2243.3283691 5.0000000000 8.5000000000 1.2999999523 69.955802917 2.3081152439 65.167304993 97.400299072 246.12860107
 2243.4807129 5.0000000000 8.5000000000 1.2999999523 70.650001526 2.3048624992 65.500045776 98.861999512 254.52409363
 2243.6330566 5.0000000000 8.5000000000 1.2999999523 71.451599121 2.3155708313 64.757682800 100.12879181 256.55709839
 2243.7854004 5.0000000000 8.5000000000 1.2999999523 72.652099609 2.3359708786 64.514259338 101.95629883 253.43330383
 2243.9379883 5.0000000000 8.5000000000 1.2999999523 75.060401917 2.3464856148 66.049858093 105.22000885 241.12130737
 2244.0903320 5.0000000000 8.5000000000 1.2999999523 75.973701477 2.3456263542 69.193809509 111.15599823 241.37770081
 2244.2426758 6.0000000000 8.5000000000 1.2999999523 75.980300903 2.3432538509 71.867652893 111.91419220 260.52551270
 2244.3950195 6.0000000000 8.5000000000 1.2999999523 77.397201538 2.3521935940 72.421783447 112.35669708 258.83929443
 2244.5476074 6.0000000000 8.5000000000 1.2999999523 76.069396973 2.3554353714 71.379653931 113.09369659 254.42481995
 2244.6999512 6.0000000000 8.5000000000 1.2999999523 76.178398132 2.3611791134 70.010696411 112.00360107 251.25590515
 2244.8522949 6.0000000000 8.5000000000 1.2999999523 74.254898071 2.3674588203 69.291847229 111.03939819 248.13259888
 2245.0046387 6.0000000000 8.5000000000 1.2999999523 75.115898132 2.3719081879 69.508041382 110.76999664 242.73300171
 2245.1572266 6.0000000000 8.5000000000 1.2999999523 77.436302185 2.3735692501 69.963043213 109.30509949 243.78848267
 2245.3095703 6.0000000000 8.5000000000 1.2999999523 79.275199890 2.3678228855 69.872200012 109.34519958 244.42059326
 2245.4619141 6.0000000000 8.5000000000 1.2999999523 77.570800781 2.3635942936 69.359046936 110.39759827 243.64639282
 2245.6142578 6.0000000000 8.5000000000 1.2999999523 76.296798706 2.3516714573 68.811729431 111.12640381 246.30149841
 2245.7668457 6.0000000000 8.5000000000 1.2999999523 73.550003052 2.3406462669 68.121612549 110.06369781 251.39990234
 2245.9191895 6.0000000000 8.5000000000 1.2999999523 73.147399902 2.3320772648 67.326148987 110.32640076 258.97909546
 2246.0715332 6.0000000000 8.5000000000 1.2999999523 70.729598999 2.3409085274 66.954193115 112.89240265 258.80630493
 2246.2238770 6.0000000000 8.5000000000 1.2999999523 72.078399658 2.3675930500 67.157318115 113.03910065 253.53109741
 2246.3762207 6.0000000000 8.5000000000 1.2999999523 71.186599731 2.4015884399 67.334648132 113.47199249 249.52270508
 2246.5288086 6.0000000000 8.5000000000 1.2999999523 70.874298096 2.4249558449 66.862915039 113.52709961 240.81500244
 2246.6811523 6.0000000000 8.5000000000 1.2999999523 69.911903381 2.4159319401 65.411163330 112.43740082 237.00700378
 2246.8334961 5.0000000000 8.5000000000 1.2999999523 68.385398865 2.3891112804 63.383159637 109.83180237 240.04130554
 2246.9858398 5.0000000000 8.5000000000 1.2999999523 69.542800903 2.3882067204 61.944599152 109.07919312 231.19798279
 2247.1384277 5.0000000000 8.5000000000 1.2999999523 66.311798096 2.4128353596 61.795658112 108.01349640 228.62120056
 2247.2907715 5.0000000000 8.5000000000 1.2999999523 65.526298523 2.4270098209 61.878131866 105.81159973 238.54490662
 2247.4431152 5.0000000000 8.5000000000 1.2999999523 62.572498322 2.4264187813 60.725509644 104.64869690 239.71290588
 2247.5954590 5.0000000000 8.5000000000 1.2999999523 61.132801056 2.4137687683 58.934619904 106.51879883 238.49510193
 2247.7480469 5.0000000000 8.5000000000 1.2999999523 63.132198334 2.3972191811 58.113513947 109.85130310 238.98550415
 2247.9003906 5.0000000000 8.5000000000 1.2999999523 65.212699890 2.3710491657 58.749649048 109.60880280 244.05220032
 2248.0527344 5.0000000000 8.5000000000 1.2999999523 70.706001282 2.3635702133 60.212104797 108.32050323 247.47747803
 2248.2050781 5.0000000000 8.5000000000 1.2999999523 70.888900757 2.3695583344 61.519020081 107.16580200 252.43840027
 2248.3574219 5.0000000000 8.5000000000 1.2999999523 68.178398132 2.3831903934 61.494647980 107.86060333 255.55799866
 2248.5100098 5.0000000000 8.5000000000 1.2999999523 65.057998657 2.3791916370 59.578659058 110.77909851 251.87210083
 2248.6623535 5.0000000000 8.5000000000 1.2999999523 63.301399231 2.3731269836 57.023296356 112.78810120 244.46150208
 2248.8146973 5.0000000000 8.5000000000 1.2999999523 63.466499329 2.3750529289 56.061100006 113.15819550 245.88549805
 2248.9670410 5.0000000000 8.5000000000 1.2999999523 62.966300964 2.3981096745 57.231025696 113.66590118 241.32189941
 2249.1196289 5.0000000000 8.5000000000 1.2999999523 65.502403259 2.4290039539 59.495536804 113.29380035 232.59489441
 2249.2719727 5.0000000000 8.5000000000 1.2999999523 68.566001892 2.4208853245 62.218566895 112.86219788 232.87139893
 2249.4243164 6.0000000000 8.5000000000 1.2999999523 71.071502686 2.3825736046 64.948478699 112.01229858 229.84419250
 2249.5766602 6.0000000000 8.5000000000 1.2999999523 70.446098328 2.3574564457 67.028114319 110.16960144 233.62350464
 2249.7292480 6.0000000000 8.5000000000 1.2999999523 71.074600220 2.3568999767 67.793075562 108.84829712 240.47869873
 2249.8815918 6.0000000000 8.5000000000 1.2999999523 70.777496338 2.3593478203 67.586174011 109.11070251 239.04222107
 2250.0339355 6.0000000000 8.5000000000 1.2999999523 71.347000122 2.3616521358 67.484130859 109.45179749 228.39190674
 2250.1862793 6.0000000000 8.5000000000 1.2999999523 68.761001587 2.3646328449 67.115974426 109.83699799 211.49420166
 2250.3386230 6.0000000000 8.5000000000 1.2999999523 66.504501343 2.3629376888 65.048080444 108.55629730 196.00759888
 2250.4912109 6.0000000000 8.5000000000 1.2999999523 63.528701782 2.3571135998 61.194759369 107.95980072 201.10420227
 2250.6435547 5.0000000000 8.5000000000 1.2999999523 61.502300262 2.3514363766 57.832572937 109.37609863 212.50888062
 2250.7958984 5.0000000000 8.5000000000 1.2999999523 59.712398529 2.3537437916 57.097789764 111.13059998 221.25259399
