# LAS format log file from PETREL
# Project units are specified as depth units
#==================================================================
~Version information
VERS.   2.0:
WRAP.   NO:
#==================================================================
~Well
STRT .m      376.26940918 :
STOP .m      2542.6337891 :
STEP .m     0.00000000 :
NULL .        -999.250000 :
COMP.           : COMPANY
WELL.  25/8-1  Forseti   : WELL
FLD.            : FIELD
LOC.            : LOCATION
SRVC.           : SERVICE COMPANY
DATE.  2018-09-11 14:48:23   : Log Export Date {yyyy-MM-dd HH:mm:ss}
PROV.           : PROVINCE
UWI.   25/8-1   : UNIQUE WELL ID
API.            : API NUMBER
#==================================================================
~Curve
DEPT .m                   : DEPTH
Lithology_geolink ._      : Lithology_geolink
DCAL .in                  : DCAL
CALI .in                  : CALI
BS .in                    : BS
MUDWEIGHT ._              : MUDWEIGHT
ROP .m/h                  : ROP
DRHO .g/cm3               : DRHO
RHOB .g/cm3               : RHOB
GR .gAPI                  : GR
DTC .us/ft                : DTC
DTE .us/ft                : DTE
RDEP .ohm.m               : RDEP
SP .mV                    : SP
RSHA .ohm.m               : RSHA
RMIC .ohm.m               : RMIC
RMED .ohm.m               : RMED
~Parameter
#==================================================================
~Ascii
# ...
 528.51690674  -999.250000 -5.347999573 12.651999474 18.000000000 9.0000000000 0.2030836940  -999.250000  -999.250000 60.180000305 176.48519897 176.48298645 1.2640000582 27.868999481 1.6380000114 2.0609629154 1.6380320787
 528.66931152  -999.250000 -5.355999947 12.644000053 18.000000000 9.0000000000 0.1788055003  -999.250000  -999.250000 61.262001038 179.69050598 179.68870544 1.2530000210 27.833999634 1.6239999533 2.0329709053 1.6240223646
 528.82171631  -999.250000 -5.366000175 12.633999825 18.000000000 9.0000000000 0.1664891988  -999.250000  -999.250000 61.624000549 181.95237732 181.95111084 1.2419999838 27.746000290 1.6180000305 1.9104419947 1.6180096865
 528.97412109  -999.250000 -5.372000217 12.628001213 18.000000000 9.0000000000 0.1663253009  -999.250000  -999.250000 61.285999298 182.85292053 182.85246277 1.2369999886 27.632999420 1.6150000095 1.7539099455 1.6150047779
 529.12652588  -999.250000 -5.374000072 12.626000404 18.000000000 9.0000000000 0.1669681966  -999.250000  -999.250000 60.881000519 182.89720154 182.89717102 1.2419999838 27.504961014 1.6130000353 1.6537619829 1.6130032539
 529.27893066  -999.250000 -5.367000103 12.633000374 18.000000000 9.0000000000 0.1600694060  -999.250000  -999.250000 62.238998413 182.50909424 182.50941467 1.2599999905 27.412008286 1.6139999628 1.6088440418 1.6139984131
 529.43133545  -999.250000 -5.366000175 12.633999825 18.000000000 9.0000000000 0.1553698927  -999.250000  -999.250000 63.191001892 180.81620789 180.81727600 1.2879999876 27.433015823 1.6239999533 1.5765329599 1.6239839792
 529.58374023  -999.250000 -5.377000332 12.623000145 18.000000000 9.0000000000 0.1558133066  -999.250000  -999.250000 61.311000824 178.56210327 178.56248474 1.3190000057 27.471981049 1.6469999552 1.5536580086 1.6469722986
 529.73614502  -999.250000 -5.387000561 12.612999916 18.000000000 9.0000000000 0.1561547071  -999.250000  -999.250000 58.187999725 177.45199585 177.45213318 1.3550000191 27.422985077 1.6859999895 1.5355000496 1.6859531403
 529.88854980  -999.250000 -5.397999763 12.602001190 18.000000000 9.0000000000 0.1564828008  -999.250000  -999.250000 56.111999512 176.62010193 176.62020874 1.3919999599 27.383026123 1.7369999886 1.5078560114 1.7369387150
 530.04089355  -999.250000 -5.407999992 12.592000008 18.000000000 9.0000000000 0.1571253538  -999.250000  -999.250000 56.455863953 174.96675110 174.96792603 1.4249867201 27.451999664 1.7879796028 1.5018523932 1.7879183292
 530.19329834  -999.250000 -5.424999237 12.574999809 18.000000000 9.0000000000 0.1574668586  -999.250000  -999.250000 57.543563843 172.74678040 172.74821472 1.4489903450 27.625000000 1.8239855766 1.5923007727 1.8239423037
 530.34570313  -999.250000 -5.447999954 12.552000046 18.000000000 9.0000000000 0.1577951014  -999.250000  -999.250000 57.620998383 170.38340759 170.38479614 1.4620000124 27.767999649 1.8350000381 1.7261079550 1.8349823952
 530.49810791  -999.250000 -5.471000195 12.529000282 18.000000000 9.0000000000 0.1584379971  -999.250000  -999.250000 57.223999023 168.47000122 168.47103882 1.4620000124 27.871000290 1.8250000477 1.7692539692 1.8250160217
 530.65051270  -999.250000 -5.493999481 12.505998611 18.000000000 9.0000000000 0.1587793976  -999.250000  -999.250000 58.111999512 165.29679871 165.29911804 1.4509999752 27.934000015 1.8040000200 1.7716399431 1.8040336370
 530.80291748  -999.250000 -5.525000572 12.474999428 18.000000000 9.0000000000 0.1591074020  -999.250000  -999.250000 59.298999786 160.78080750 160.78344727 1.4329999685 27.933000565 1.7890000343 1.8415399790 1.7890241146
 530.95532227  -999.250000 -5.567999363 12.432000160 18.000000000 9.0000000000 0.1594354957  -999.250000  -999.250000 61.058998108 159.01660156 159.01710510 1.4090000391 27.940000534 1.7810000181 1.9216279984 1.7810128927
 531.10766602  -999.250000 -5.599999428 12.400000572 18.000000000 9.0000000000 0.1600784063  -999.250000  -999.250000 63.230129242 159.81140137 159.81076050 1.3830103874 27.995000839 1.7630071640 1.9146767855 1.7630360126
 531.26007080  -999.250000 -5.610000134 12.390000343 18.000000000 9.0000000000 0.1604198068  -999.250000  -999.250000 64.139633179 160.74365234 160.74337769 1.3600091934 28.138000488 1.7370103598 1.8389903307 1.7370520830
 531.41247559  -999.250000 -5.607999802 12.392000198 18.000000000 9.0000000000 0.1607479006  -999.250000  -999.250000 64.868713379 161.88854980 161.88829041 1.3430068493 28.295999527 1.7170079947 1.7211072445 1.7170400620
 531.56488037  -999.250000 -5.598999977 12.401000023 18.000000000 9.0000000000 0.1591871977  -999.250000  -999.250000 67.173080444 163.12258911 163.12283325 1.3350032568 28.381999969 1.7070040703 1.5894587040 1.7070200443
 531.71728516  -999.250000 -5.584000111 12.416002274 18.000000000 9.0000000000 0.1496770978  -999.250000  -999.250000 68.006668091 165.83061218 165.83116150 1.3310015202 28.405000687 1.7000029087 1.5209574699 1.7000112534
 531.86968994  -999.250000 -5.567999363 12.432000160 18.000000000 9.0000000000 0.1499077976  -999.250000  -999.250000 66.028793335 168.43116760 168.43135071 1.3250024319 28.356000900 1.6920032501 1.4892017841 1.6920129061
 532.02209473  -999.250000 -5.546999931 12.453000069 18.000000000 9.0000000000 0.1502491981  -999.250000  -999.250000 63.115165710 166.16201782 166.16357422 1.3180028200 28.259000778 1.6810044050 1.4392240047 1.6810176373
 532.17449951  -999.250000 -5.524000168 12.475997925 18.000000000 9.0000000000 0.1505773067  -999.250000  -999.250000 60.163181305 164.49726868 164.49652100 1.3110028505 28.146999359 1.6730031967 1.4476516247 1.6730128527
 532.32690430  -999.250000 -5.500999928 12.499000549 18.000000000 9.0000000000 0.1512200981  -999.250000  -999.250000 58.892505646 166.21391296 166.21353149 1.3040028811 28.065999985 1.6680020094 1.5336215496 1.6680079699
 532.47930908  -999.250000 -5.478000164 12.522000313 18.000000000 9.0000000000 0.1515614986  -999.250000  -999.250000 59.494998932 165.06520081 165.06646729 1.2940000296 27.951999664 1.6619999409 1.5891480446 1.6620095968
 532.63171387  -999.250000 -5.447999954 12.552000046 18.000000000 9.0000000000 0.1518896073  -999.250000  -999.250000 62.868999481 163.89950562 163.89973450 1.2810000181 27.774999619 1.6599999666 1.5892790556 1.6600031853
 532.78411865  -999.250000 -5.401000023 12.598999977 18.000000000 9.0000000000 0.1525325030  -999.250000  -999.250000 66.667999268 166.93359375 166.93225098 1.2710000277 27.591999054 1.6640000343 1.5700910091 1.6639935970
 532.93652344  -999.250000 -5.354000092 12.645999908 18.000000000 9.0000000000 0.1528737992  -999.250000  -999.250000 67.738998413 168.90980530 168.90905762 1.2580000162 27.483999252 1.6720000505 1.5457719564 1.6719871759
 533.08892822  -999.250000 -5.327000141 12.673000336 18.000000000 9.0000000000 0.1532018930  -999.250000  -999.250000 66.388999939 167.14680481 167.14807129 1.2400000095 27.614999771 1.6770000458 1.5325020552 1.6769920588
 533.24127197  -999.250000 -5.306000233 12.694000244 18.000000000 9.0000000000 0.1538448036  -999.250000  -999.250000 64.297836304 167.56350708 167.56292725 1.2220071554 27.896999359 1.6770000458 1.5299079418 1.6770000458
 533.39367676  -999.250000 -5.285000324 12.715000153 18.000000000 9.0000000000 0.1541862041  -999.250000  -999.250000 63.138465881 170.51330566 170.51155090 1.2070059776 28.103000641 1.6690000296 1.5448570251 1.6690160036
 533.54608154  -999.250000 -5.257999897 12.741999626 18.000000000 9.0000000000 0.1545142978  -999.250000  -999.250000 63.732765198 171.75650024 171.75587463 1.2050008774 28.079999924 1.6540000439 1.5794960260 1.6540300846
 533.69848633  -999.250000 -5.228000164 12.772000313 18.000000000 9.0000000000 0.1551571041  -999.250000  -999.250000 65.215408325 171.50559998 171.50563049 1.2249920368 28.055999756 1.6369999647 1.6143499613 1.6370272636
 533.85089111  -999.250000 -5.203000546 12.796999931 18.000000000 9.0000000000 0.1554985046  -999.250000  -999.250000 65.932708740 170.70230103 170.70278931 1.2539883852 28.155000687 1.6230000257 1.6464699507 1.6230224371
 534.00329590  -999.250000 -5.195000172 12.805000305 18.000000000 9.0000000000 0.1677885056  -999.250000  -999.250000 64.950996399 169.66949463 169.67016602 1.2849875689 28.235000610 1.6219999790 1.6482510567 1.6220015287
