# LAS format log file from PETREL
# Project units are specified as depth units
#==================================================================
~Version information
VERS.   2.0:
WRAP.   NO:
#==================================================================
~Well
STRT .m      1079.9069824 :
STOP .m      2540.5083008 :
STEP .m     0.00000000 :
NULL .        -999.250000 :
COMP.           : COMPANY
WELL.  25/8-9  Krap 2   : WELL
FLD.            : FIELD
LOC.            : LOCATION
SRVC.           : SERVICE COMPANY
DATE.  2018-09-11 14:48:24   : Log Export Date {yyyy-MM-dd HH:mm:ss}
PROV.           : PROVINCE
UWI.   25/8-9   : UNIQUE WELL ID
API.            : API NUMBER
#==================================================================
~Curve
DEPT .m                   : DEPTH
Lithology_geolink ._      : Lithology_geolink
BS .in                    : BS
MUDWEIGHT ._              : MUDWEIGHT
SGR .gAPI                 : SGR
RHOB .g/cm3               : RHOB
GR .gAPI                  : GR
DTC .us/ft                : DTC
DTS .us/ft                : DTS
~Parameter
#==================================================================
~Ascii
# ...
 1370.0765381  -999.250000 8.5000000000 1.3099999428 69.355697632 2.0971999168 68.970901489 149.15310669 436.06048584
 1370.2288818  -999.250000 8.5000000000 1.3099999428 69.043800354 2.1005699635 69.209899902 149.23060608 430.99420166
 1370.3813477  -999.250000 8.5000000000 1.3099999428 69.860397339 2.1054568291 68.581802368 148.88110352 429.10488892
 1370.5336914  -999.250000 8.5000000000 1.3099999428 68.571296692 2.1075828075 67.258796692 148.51339722 428.35769653
 1370.6861572  -999.250000 8.5000000000 1.3099999428 65.553703308 2.1024498940 65.382797241 148.11079407 428.41799927
 1370.8385010  -999.250000 8.5000000000 1.3099999428 63.265098572 2.0944705009 63.636001587 147.44470215 421.69210815
 1370.9909668  -999.250000 8.5000000000 1.3099999428 63.140499115 2.0960850716 62.522201538 147.73660278 429.39028931
 1371.1433105  -999.250000 8.5000000000 1.3099999428 59.910301208 2.1160228252 61.864299774 147.98410034 437.69589233
 1371.2956543  -999.250000 8.5000000000 1.3099999428 58.175399780 2.1391587257 60.643199921 148.13560486 435.68786621
 1371.4481201  -999.250000 8.5000000000 1.3099999428 57.371898651 2.1228473186 58.274600983 144.85200500 421.43789673
 1371.6004639  -999.250000 8.5000000000 1.3099999428 60.732799530 2.0987133980 56.407501221 143.77409363 402.64779663
 1371.7529297  -999.250000 8.5000000000 1.3099999428 64.633499146 2.0814514160 56.739398956 141.99029541 404.07971191
 1371.9052734  -999.250000 8.5000000000 1.3099999428 67.247299194 2.0830812454 58.821399689 140.31120300 412.53012085
 1372.0577393  -999.250000 8.5000000000 1.3099999428 67.064796448 2.0871605873 61.471801758 140.76229858 417.95291138
 1372.2100830  -999.250000 8.5000000000 1.3099999428 65.709098816 2.0835325718 64.096900940 143.82350159 431.48999023
 1372.3625488  -999.250000 8.5000000000 1.3099999428 65.390197754 2.0716056824 65.836196899 145.64529419 437.59271240
 1372.5148926  -999.250000 8.5000000000 1.3099999428 66.717300415 2.0706071854 65.805496216 150.79289246 437.04144287
 1372.6673584  -999.250000 8.5000000000 1.3099999428 68.422096252 2.0790183544 64.719703674 149.94860840 434.68270874
 1372.8197021  -999.250000 8.5000000000 1.3099999428 68.719802856 2.0833621025 63.991798401 151.51770020 433.45590210
 1372.9721680  -999.250000 8.5000000000 1.3099999428 69.678901672 2.0834000111 63.723400116 150.95280457 438.78448486
 1373.1245117  -999.250000 8.5000000000 1.3099999428 67.262298584 2.0770564079 62.876899719 150.59739685 437.82980347
 1373.2768555  -999.250000 8.5000000000 1.3099999428 63.391899109 2.0859062672 61.057201385 150.71319580 433.92761230
 1373.4293213  -999.250000 8.5000000000 1.3099999428 58.332099915 2.1074092388 59.199501038 151.31820679 439.40930176
 1373.5816650  -999.250000 8.5000000000 1.3099999428 58.755901337 2.1431837082 58.616401672 151.52220154 446.54309082
 1373.7341309  -999.250000 8.5000000000 1.3099999428 59.666099548 2.1407246590 59.820400238 150.29939270 443.84548950
 1373.8864746  -999.250000 8.5000000000 1.3099999428 62.176399231 2.1107151508 61.337200165 149.25570679 439.35079956
 1374.0389404  -999.250000 8.5000000000 1.3099999428 62.542098999 2.0790047646 61.151599884 148.06140137 441.84838867
 1374.1912842  -999.250000 8.5000000000 1.3099999428 64.304603577 2.0767176151 59.815101624 146.79730225 441.98818970
 1374.3437500  -999.250000 8.5000000000 1.3099999428 63.708801270 2.0692660809 59.286201477 146.57960510 440.21859741
 1374.4960938  -999.250000 8.5000000000 1.3099999428 63.975498199 2.0833852291 59.812801361 146.99949646 435.40478516
 1374.6485596  -999.250000 8.5000000000 1.3099999428 60.804199219 2.1418352127 59.953601837 148.90789795 450.56060791
 1374.8009033  -999.250000 8.5000000000 1.3099999428 59.305599213 2.1783797741 59.280601501 151.73390198 458.69171143
 1374.9533691  -999.250000 8.5000000000 1.3099999428 60.560001373 2.1568937302 58.929698944 150.98460388 441.66250610
 1375.1057129  -999.250000 8.5000000000 1.3099999428 62.716701508 2.1060504913 59.577598572 150.56590271 443.34051514
 1375.2581787  -999.250000 8.5000000000 1.3099999428 66.109298706 2.0833160877 60.550701141 151.82919312 441.19079590
 1375.4105225  -999.250000 8.5000000000 1.3099999428 64.363601685 2.0935075283 61.030399323 152.46980286 438.83859253
 1375.5628662  -999.250000 8.5000000000 1.3099999428 66.700996399 2.1207585335 61.387500763 151.23710632 448.94149780
 1375.7153320  -999.250000 8.5000000000 1.3099999428 63.173698425 2.2000970840 61.703498840 152.14059448 441.49420166
 1375.8676758  -999.250000 8.5000000000 1.3099999428 64.836502075 2.2761085033 61.205799103 151.20820618 439.45788574
 1376.0201416  -999.250000 8.5000000000 1.3099999428 65.127601624 2.2568943501 59.776901245 150.55659485 433.71960449
 1376.1724854  -999.250000 8.5000000000 1.3099999428 70.714599609 2.1665027142 58.712600708 148.19920349 429.21218872
 1376.3249512  -999.250000 8.5000000000 1.3099999428 70.362098694 2.0973076820 59.485500336 147.40109253 424.96139526
 1376.4772949  -999.250000 8.5000000000 1.3099999428 70.931396484 2.0715036392 61.970798492 147.23579407 420.96429443
 1376.6297607  -999.250000 8.5000000000 1.3099999428 70.072601318 2.0641691685 64.709503174 147.99360657 428.51272583
 1376.7821045  -999.250000 8.5000000000 1.3099999428 70.252799988 2.0582518578 66.700996399 149.33039856 431.51620483
 1376.9345703  -999.250000 8.5000000000 1.3099999428 69.112701416 2.0538389683 68.069503784 150.44869995 432.94958496
 1377.0869141  -999.250000 8.5000000000 1.3099999428 70.891098022 2.0536017418 68.918098450 150.56860352 434.33477783
 1377.2393799  -999.250000 8.5000000000 1.3099999428 72.577301025 2.0581557751 69.184097290 151.07240295 439.05270386
 1377.3917236  -999.250000 8.5000000000 1.3099999428 73.144699097 2.0638496876 68.696502686 147.92340088 444.60632324
 1377.5440674  -999.250000 8.5000000000 1.3099999428 72.010803223 2.0697479248 67.882400513 150.14559937 441.27050781
 1377.6965332  -999.250000 8.5000000000 1.3099999428 69.069396973 2.0789189339 67.430999756 150.00140381 460.94720459
 1377.8488770  -999.250000 8.5000000000 1.3099999428 63.850601196 2.1145267487 66.405899048 149.04479980 454.94268799
 1378.0013428  -999.250000 8.5000000000 1.3099999428 59.114101410 2.2104721069 63.487598419 150.27389526 435.21389771
 1378.1536865  -999.250000 8.5000000000 1.3099999428 58.288398743 2.3309361935 59.554000854 149.80720520 418.04061890
 1378.3061523  -999.250000 8.5000000000 1.3099999428 61.558700562 2.2946321964 57.445999146 147.83720398 364.97000122
 1378.4584961  -999.250000 8.5000000000 1.3099999428 66.103401184 2.1604816914 58.384601593 144.71139526 355.23638916
 1378.6109619  -999.250000 8.5000000000 1.3099999428 68.795196533 2.0773942471 60.716098785 139.06080627 360.27890015
 1378.7633057  -999.250000 8.5000000000 1.3099999428 71.506599426 2.0720405579 62.770000458 140.21769714 372.10501099
 1378.9157715  -999.250000 8.5000000000 1.3099999428 71.570396423 2.0780463219 64.337699890 140.90710449 377.03747559
 1379.0681152  -999.250000 8.5000000000 1.3099999428 73.077903748 2.0732431412 65.183700562 142.54350281 403.78298950
 1379.2205811  -999.250000 8.5000000000 1.3099999428 71.139198303 2.0755767822 64.812599182 149.68099976 419.78115845
 1379.3729248  -999.250000 8.5000000000 1.3099999428 71.741500854 2.0859081745 64.048698425 150.62930298 423.80499268
 1379.5252686  -999.250000 8.5000000000 1.3099999428 70.054702759 2.0979933739 63.987400055 152.37010193 418.28811646
 1379.6777344  -999.250000 8.5000000000 1.3099999428 72.724502563 2.0875935555 64.842102051 150.12199402 412.42541504
 1379.8300781  -999.250000 8.5000000000 1.3099999428 73.844802856 2.0789895058 66.359100342 148.28379822 411.30679321
 1379.9825439  -999.250000 8.5000000000 1.3099999428 74.720199585 2.0799894333 68.175399780 147.81500244 413.69421387
 1380.1348877  -999.250000 8.5000000000 1.3099999428 72.729301453 2.0890195370 69.675697327 147.58090210 416.81240845
 1380.2873535  -999.250000 8.5000000000 1.3099999428 73.745300293 2.0934610367 70.145202637 147.40420532 419.40490723
