# LAS format log file from PETREL
# Project units are specified as depth units
#==================================================================
~Version information
VERS.   2.0:
WRAP.   NO:
#==================================================================
~Well
STRT .m      1079.9069824 :
STOP .m      2540.5083008 :
STEP .m     0.00000000 :
NULL .        -999.250000 :
COMP.           : COMPANY
WELL.  25/8-9  Krap 2   : WELL
FLD.            : FIELD
LOC.            : LOCATION
SRVC.           : SERVICE COMPANY
DATE.  2018-09-11 14:48:24   : Log Export Date {yyyy-MM-dd HH:mm:ss}
PROV.           : PROVINCE
UWI.   25/8-9   : UNIQUE WELL ID
API.            : API NUMBER
#==================================================================
~Curve
DEPT .m                   : DEPTH
Lithology_geolink ._      : Lithology_geolink
BS .in                    : BS
MUDWEIGHT ._              : MUDWEIGHT
SGR .gAPI                 : SGR
RHOB .g/cm3               : RHOB
GR .gAPI                  : GR
DTC .us/ft                : DTC
DTS .us/ft                : DTS
~Parameter
#==================================================================
~Ascii
# ...
 2333.8540039 11.000000000 8.5000000000 1.2999999523 22.395700455 2.5857269764 21.420780182 73.229400635 159.72140503
 2334.0063477 11.000000000 8.5000000000 1.2999999523 24.067100525 2.5894064903 22.140892029 73.770103455 159.96430969
 2334.1586914 11.000000000 8.5000000000 1.2999999523 27.171499252 2.5914518833 23.320919037 74.310997009 159.15769958
 2334.3110352 11.000000000 8.5000000000 1.2999999523 28.995199203 2.5927686691 24.684341431 75.797203064 158.63940430
 2334.4636230 11.000000000 8.5000000000 1.2999999523 28.593900681 2.5985677242 24.824968338 76.267898560 158.05790710
 2334.6159668 11.000000000 8.5000000000 1.2999999523 26.355300903 2.6050541401 23.223251343 75.447601318 157.48100281
 2334.7683105 11.000000000 8.5000000000 1.2999999523 28.313999176 2.5957176685 21.628368378 75.322006226 157.56950378
 2334.9206543 11.000000000 8.5000000000 1.2999999523 28.787099838 2.5874841213 21.614828110 76.526199341 158.41659546
 2335.0732422 11.000000000 8.5000000000 1.2999999523 27.017499924 2.5856354237 22.711673737 76.748802185 158.74137878
 2335.2255859 11.000000000 8.5000000000 1.2999999523 25.191200256 2.5921604633 23.756950378 75.594100952 158.11210632
 2335.3779297 11.000000000 8.5000000000 1.2999999523 25.116300583 2.5969851017 24.051496506 73.891601563 156.69538879
 2335.5302734 11.000000000 8.5000000000 1.2999999523 26.620500565 2.5994422436 23.566947937 70.329498291 154.04240417
 2335.6828613 11.000000000 8.5000000000 1.2999999523 24.342199326 2.6031169891 22.581661224 68.117103577 150.90841675
 2335.8352051 11.000000000 8.5000000000 1.2999999523 21.527200699 2.6086742878 21.364702225 68.244201660 149.80029297
 2335.9875488 11.000000000 8.5000000000 1.2999999523 19.460699081 2.6172070503 20.423215866 69.156196594 149.86759949
 2336.1398926 11.000000000 8.5000000000 1.2999999523 20.281799316 2.6163246632 20.031076431 68.906799316 152.05830383
 2336.2922363 11.000000000 8.5000000000 1.2999999523 20.847400665 2.6116077900 20.028104782 69.930496216 155.68730164
 2336.4448242 11.000000000 8.5000000000 1.2999999523 21.490100861 2.6003375053 19.967992783 72.466201782 159.41209412
 2336.5971680 11.000000000 8.5000000000 1.2999999523 21.303300858 2.5928542614 19.935405731 77.732696533 168.22619629
 2336.7495117 11.000000000 8.5000000000 1.2999999523 23.818700790 2.5867462158 21.177011490 80.269096375 171.56120300
 2336.9018555 11.000000000 8.5000000000 1.2999999523 26.775600433 2.5820128918 24.241125107 79.733398438 170.71189880
 2337.0544434 11.000000000 8.5000000000 1.2999999523 30.059799194 2.5745682716 28.113395691 78.653106689 168.49209595
 2337.2067871 11.000000000 8.5000000000 1.2999999523 31.351499557 2.5735201836 30.943937302 76.905899048 165.16020203
 2337.3591309 11.000000000 8.5000000000 1.2999999523 31.929300308 2.5813205242 31.029130936 75.948196411 159.36759949
 2337.5114746 11.000000000 8.5000000000 1.2999999523 27.869199753 2.5944039822 28.298692703 76.829299927 159.65390015
 2337.6640625 11.000000000 8.5000000000 1.2999999523 24.239000320 2.6024355888 24.358228683 79.071098328 167.91929626
 2337.8164063 11.000000000 8.5000000000 1.2999999523 24.658100128 2.5977041721 22.014894485 79.962501526 173.25871277
 2337.9687500 11.000000000 8.5000000000 1.2999999523 30.309099197 2.5774934292 22.924551010 81.174102783 178.55169678
 2338.1210938 11.000000000 8.5000000000 1.2999999523 35.136100769 2.5549433231 26.279233932 80.708297729 181.32139587
 2338.2736816 11.000000000 8.5000000000 1.2999999523 37.564800262 2.5576257706 30.001583099 83.423896790 184.17230225
 2338.4260254 11.000000000 8.5000000000 1.2999999523 36.718898773 2.5629789829 31.941301346 83.277801514 186.36070251
 2338.5783691 11.000000000 8.5000000000 1.2999999523 35.491500854 2.5676946640 32.026943207 83.822692871 186.45790100
 2338.7307129 11.000000000 8.5000000000 1.2999999523 35.087001801 2.5519633293 31.658576965 85.511505127 187.07240295
 2338.8830566 11.000000000 8.5000000000 1.2999999523 36.562301636 2.5472986698 32.173503876 84.817703247 188.85021973
 2339.0356445 11.000000000 8.5000000000 1.2999999523 38.429199219 2.5569915771 33.591850281 83.037597656 190.05450439
 2339.1879883 11.000000000 8.5000000000 1.2999999523 38.820499420 2.5747270584 34.934597015 82.221992493 188.20350647
 2339.3403320 11.000000000 8.5000000000 1.2999999523 39.606300354 2.5850555897 35.562194824 82.106903076 179.59829712
 2339.4926758 11.000000000 8.5000000000 1.2999999523 38.866500854 2.5811035633 35.070587158 82.379402161 169.42399597
 2339.6452637 11.000000000 8.5000000000 1.2999999523 36.583301544 2.5670208931 33.255527496 79.148002625 162.95869446
 2339.7976074 11.000000000 8.5000000000 1.2999999523 31.402900696 2.5650382042 30.688236237 75.039703369 159.27789307
 2339.9499512 11.000000000 8.5000000000 1.2999999523 30.357000351 2.5634360313 28.980264664 72.738899231 161.46040344
 2340.1022949 11.000000000 8.5000000000 1.2999999523 32.340999603 2.5726869106 28.968729019 72.315399170 167.68629456
 2340.2548828 11.000000000 8.5000000000 1.2999999523 36.944301605 2.5978689194 30.358928680 75.335906982 171.53489685
 2340.4072266 11.000000000 8.5000000000 1.2999999523 39.751499176 2.6301250458 32.344631195 76.788902283 173.79389954
 2340.5595703 11.000000000 8.5000000000 1.2999999523 40.535598755 2.6227710247 34.114231110 80.910797119 176.20019531
 2340.7119141 11.000000000 8.5000000000 1.2999999523 41.328201294 2.6021032333 35.311054230 82.069099426 176.11799622
 2340.8642578 11.000000000 8.5000000000 1.2999999523 39.740200043 2.5675389767 35.471950531 82.223297119 176.09820557
 2341.0168457 11.000000000 8.5000000000 1.2999999523 37.791900635 2.5600526333 34.794776917 82.456703186 175.97479248
 2341.1691895 11.000000000 8.5000000000 1.2999999523 34.552200317 2.5607798100 33.829597473 82.061096191 175.78390503
 2341.3215332 11.000000000 8.5000000000 1.2999999523 33.692298889 2.5630486012 32.888225555 82.625099182 175.12420654
 2341.4738770 11.000000000 8.5000000000 1.2999999523 35.041400909 2.5600695610 32.756313324 82.870307922 173.53109741
 2341.6264648 11.000000000 8.5000000000 1.2999999523 38.203399658 2.5507957935 33.737045288 82.840301514 172.55848694
 2341.7788086 11.000000000 8.5000000000 1.2999999523 38.963001251 2.5429625511 34.820423126 82.371498108 170.16189575
 2341.9311523 11.000000000 8.5000000000 1.2999999523 36.739299774 2.5509011745 34.268379211 78.465995789 167.57460022
 2342.0834961 11.000000000 8.5000000000 1.2999999523 34.084899902 2.5636897087 31.821805954 77.717010498 163.60910034
 2342.2360840 11.000000000 8.5000000000 1.2999999523 33.383598328 2.5821828842 29.184043884 77.179702759 163.55009460
 2342.3884277 11.000000000 8.5000000000 1.2999999523 31.022699356 2.5868034363 27.747991562 78.175201416 167.00830078
 2342.5407715 11.000000000 8.5000000000 1.2999999523 29.993799210 2.5844559669 27.574741364 79.586502075 167.58610535
 2342.6931152 11.000000000 8.5000000000 1.2999999523 31.675300598 2.5739400387 28.994749069 80.432098389 167.29379272
 2342.8454590 11.000000000 8.5000000000 1.2999999523 36.149501801 2.5653908253 32.106998444 79.620002747 165.52941895
 2342.9980469 11.000000000 8.5000000000 1.2999999523 37.938499451 2.5629479885 34.358409882 77.357803345 162.63049316
 2343.1503906 11.000000000 8.5000000000 1.2999999523 33.416000366 2.5773916245 33.011451721 74.480606079 159.64010620
 2343.3027344 11.000000000 8.5000000000 1.2999999523 27.957399368 2.5888266563 28.882095337 76.057197571 158.67160034
 2343.4550781 11.000000000 8.5000000000 1.2999999523 23.499399185 2.5896854401 25.470485687 74.901702881 159.76281738
 2343.6076660 11.000000000 8.5000000000 1.2999999523 23.441499710 2.5869626999 24.946830750 77.386001587 162.75997925
 2343.7600098 11.000000000 8.5000000000 1.2999999523 26.184600830 2.5768311024 26.137466431 78.985801697 161.50129700
 2343.9123535 11.000000000 8.5000000000 1.2999999523 30.676599503 2.5715165138 27.634099960 78.101799011 157.70330811
 2344.0646973 11.000000000 8.5000000000 1.2999999523 32.909698486 2.5633840561 29.232414246 73.387496948 156.17230225
