# LAS format log file from PETREL
# Project units are specified as depth units
#==================================================================
~Version information
VERS.   2.0:
WRAP.   NO:
#==================================================================
~Well
STRT .m      1079.9069824 :
STOP .m      2540.5083008 :
STEP .m     0.00000000 :
NULL .        -999.250000 :
COMP.           : COMPANY
WELL.  25/8-9  Krap 2   : WELL
FLD.            : FIELD
LOC.            : LOCATION
SRVC.           : SERVICE COMPANY
DATE.  2018-09-11 14:48:24   : Log Export Date {yyyy-MM-dd HH:mm:ss}
PROV.           : PROVINCE
UWI.   25/8-9   : UNIQUE WELL ID
API.            : API NUMBER
#==================================================================
~Curve
DEPT .m                   : DEPTH
Lithology_geolink ._      : Lithology_geolink
BS .in                    : BS
MUDWEIGHT ._              : MUDWEIGHT
SGR .gAPI                 : SGR
RHOB .g/cm3               : RHOB
GR .gAPI                  : GR
DTC .us/ft                : DTC
DTS .us/ft                : DTS
~Parameter
#==================================================================
~Ascii
# ...
 1173.1757813  -999.250000 8.5000000000 1.3099999428 59.906200409 2.1771988869 55.214878082 134.55799866 328.75189209
 1173.3281250  -999.250000 8.5000000000 1.3099999428 58.902500153 2.1842601299 53.191101074 137.37550354 325.43850708
 1173.4805908  -999.250000 8.5000000000 1.3099999428 59.150299072 2.2054636478 49.374355316 138.12019348 325.58129883
 1173.6329346  -999.250000 8.5000000000 1.3099999428 53.562999725 2.2125551701 44.827400208 137.25120544 314.50115967
 1173.7854004  -999.250000 8.5000000000 1.3099999428 49.030998230 2.2032604218 41.347991943 136.63200378 304.68231201
 1173.9377441  -999.250000 8.5000000000 1.3099999428 45.522899628 2.1967365742 40.213699341 125.12809753 297.96450806
 1174.0902100  -999.250000 8.5000000000 1.3099999428 46.691200256 2.1997849941 41.064289093 109.19899750 292.90881348
 1174.2425537  -999.250000 8.5000000000 1.3099999428 47.809200287 2.2126173973 43.546646118 102.38400269 293.27160645
 1174.3950195  -999.250000 8.5000000000 1.3099999428 50.976898193 2.2170751095 47.601085663 110.34539795 289.61990356
 1174.5473633  -999.250000 8.5000000000 1.3099999428 52.695899963 2.2166028023 51.699401855 112.80799866 290.54360962
 1174.6997070  -999.250000 8.5000000000 1.3099999428 55.943599701 2.2185888290 53.444301605 113.43100739 297.64810181
 1174.8521729  -999.250000 8.5000000000 1.3099999428 54.632499695 2.2132346630 52.217754364 117.64720154 307.54458618
 1175.0045166  -999.250000 8.5000000000 1.3099999428 53.305801392 2.1994884014 50.535198212 118.82530212 320.04690552
 1175.1569824  -999.250000 8.5000000000 1.3099999428 51.637901306 2.1617126465 51.183712006 122.32830048 334.72460938
 1175.3093262  -999.250000 8.5000000000 1.3099999428 54.725700378 2.1482746601 54.070400238 132.86749268 345.97729492
 1175.4617920  -999.250000 8.5000000000 1.3099999428 59.035800934 2.1597259045 57.270961761 124.41269684 348.91519165
 1175.6141357  -999.250000 8.5000000000 1.3099999428 60.183300018 2.1517519951 59.348999023 126.12589264 348.98849487
 1175.7666016  -999.250000 8.5000000000 1.3099999428 59.905498505 2.1401743889 60.118251801 132.05020142 352.62478638
 1175.9189453  -999.250000 8.5000000000 1.3099999428 59.432498932 2.1332385540 60.309200287 133.46319580 356.31698608
 1176.0714111  -999.250000 8.5000000000 1.3099999428 63.496200562 2.1428532600 60.739818573 135.30099487 361.63418579
 1176.2237549  -999.250000 8.5000000000 1.3099999428 64.154800415 2.1440923214 61.889408112 136.59519958 366.02111816
 1176.3762207  -999.250000 8.5000000000 1.3099999428 66.049797058 2.1505634785 63.148487091 137.80459595 372.72628784
 1176.5285645  -999.250000 8.5000000000 1.3099999428 65.641403198 2.1431419849 63.258731842 139.02879333 389.42910767
 1176.6809082  -999.250000 8.5000000000 1.3099999428 68.807601929 2.1422049999 61.800598145 140.23590088 397.19531250
 1176.8333740  -999.250000 8.5000000000 1.3099999428 67.065002441 2.1359403133 59.571903229 140.23069763 395.79080200
 1176.9857178  -999.250000 8.5000000000 1.3099999428 63.507598877 2.1319258213 57.451099396 141.07060242 381.20370483
 1177.1381836  -999.250000 8.5000000000 1.3099999428 58.597000122 2.1264307499 55.781047821 140.33869934 371.18618774
 1177.2905273  -999.250000 8.5000000000 1.3099999428 57.793701172 2.1219253540 54.965900421 139.41059875 362.65750122
 1177.4429932  -999.250000 8.5000000000 1.3099999428 60.158599854 2.1249802113 55.080017090 138.59680176 355.60217285
 1177.5953369  -999.250000 8.5000000000 1.3099999428 60.501201630 2.1290738583 55.850299835 136.89500427 349.91580200
 1177.7478027  -999.250000 8.5000000000 1.3099999428 59.483699799 2.1319813728 56.910148621 135.03599548 350.58151245
 1177.9001465  -999.250000 8.5000000000 1.3099999428 59.372501373 2.1319007874 58.221698761 135.70930481 354.58538818
 1178.0526123  -999.250000 8.5000000000 1.3099999428 61.597599030 2.1249337196 60.233367920 137.97079468 364.32321167
 1178.2049561  -999.250000 8.5000000000 1.3099999428 63.943500519 2.1172492504 63.067001343 138.90769958 373.05099487
 1178.3574219  -999.250000 8.5000000000 1.3099999428 66.088798523 2.1019980907 65.604461670 139.61059570 383.54861450
 1178.5097656  -999.250000 8.5000000000 1.3099999428 66.659301758 2.0965301991 66.052482605 140.29859924 394.20858765
 1178.6622314  -999.250000 8.5000000000 1.3099999428 68.278198242 2.0962014198 63.907623291 141.01069641 398.74270630
 1178.8145752  -999.250000 8.5000000000 1.3099999428 64.448997498 2.0971927643 60.444042206 141.93980408 397.20761108
 1178.9669189  -999.250000 8.5000000000 1.3099999428 61.791198730 2.0965044498 57.878398895 141.16290283 390.02172852
 1179.1193848  -999.250000 8.5000000000 1.3099999428 60.659698486 2.0975937843 57.256931305 139.82879639 378.37078857
 1179.2717285  -999.250000 8.5000000000 1.3099999428 63.394199371 2.1007821560 57.920501709 139.22900391 372.99380493
 1179.4241943  -999.250000 8.5000000000 1.3099999428 64.584701538 2.1010980606 58.756908417 139.08389282 372.04190063
 1179.5765381  -999.250000 8.5000000000 1.3099999428 63.206501007 2.1055712700 59.017101288 138.63749695 371.96701050
 1179.7290039  -999.250000 8.5000000000 1.3099999428 61.833099365 2.1159334183 59.205471039 138.43440247 372.63949585
 1179.8813477  -999.250000 8.5000000000 1.3099999428 61.578098297 2.1269295216 59.667400360 140.08999634 378.87438965
 1180.0338135  -999.250000 8.5000000000 1.3099999428 63.043899536 2.1270000935 60.248031616 140.36109924 380.82080078
 1180.1861572  -999.250000 8.5000000000 1.3099999428 65.999397278 2.1281924248 61.533000946 139.99000549 377.51748657
 1180.3386230  -999.250000 8.5000000000 1.3099999428 67.195297241 2.1210460663 63.310665131 140.09039307 375.97985840
 1180.4909668  -999.250000 8.5000000000 1.3099999428 68.351997375 2.1217954159 64.139739990 140.14289856 387.57708740
 1180.6434326  -999.250000 8.5000000000 1.3099999428 66.059600830 2.1148335934 63.190334320 139.98849487 389.46496582
 1180.7957764  -999.250000 8.5000000000 1.3099999428 65.801101685 2.1165871620 61.735290527 139.26130676 381.93392944
 1180.9481201  -999.250000 8.5000000000 1.3099999428 64.200500488 2.1012988091 61.974601746 138.49949646 375.71920776
 1181.1005859  -999.250000 8.5000000000 1.3099999428 65.380996704 2.1035866737 63.812915802 137.93980408 371.82528687
 1181.2529297  -999.250000 8.5000000000 1.3099999428 64.568000793 2.1061854362 65.079200745 137.59860229 368.46060181
 1181.4053955  -999.250000 8.5000000000 1.3099999428 65.746803284 2.1180238724 64.454788208 137.37809753 361.76269531
 1181.5577393  -999.250000 8.5000000000 1.3099999428 67.883499146 2.1278371811 62.567100525 137.98320007 365.30651855
 1181.7102051  -999.250000 8.5000000000 1.3099999428 70.089698792 2.1291916370 60.282432556 139.27600098 371.64120483
 1181.8625488  -999.250000 8.5000000000 1.3099999428 70.470001221 2.1219468117 58.200599670 140.48840332 381.55130005
 1182.0150146  -999.250000 8.5000000000 1.3099999428 65.098098755 2.1083652973 56.885696411 141.66149902 399.76858521
 1182.1673584  -999.250000 8.5000000000 1.3099999428 62.595798492 2.1036300659 56.379798889 142.72920227 405.15890503
 1182.3198242  -999.250000 8.5000000000 1.3099999428 60.013599396 2.1028048992 56.156475067 143.69529724 402.78048706
 1182.4721680  -999.250000 8.5000000000 1.3099999428 60.743301392 2.1014077663 55.874492645 143.67959595 398.96859741
 1182.6246338  -999.250000 8.5000000000 1.3099999428 60.125400543 2.0997080803 55.743274689 143.33329773 390.24420166
 1182.7769775  -999.250000 8.5000000000 1.3099999428 57.225498199 2.0963244438 55.588237762 142.33270264 378.91806030
 1182.9293213  -999.250000 8.5000000000 1.3099999428 55.038398743 2.0982871056 55.134899139 141.43409729 373.07260132
 1183.0817871  -999.250000 8.5000000000 1.3099999428 53.445598602 2.0893504620 54.739078522 140.90800476 371.12149048
 1183.2341309  -999.250000 8.5000000000 1.3099999428 54.195499420 2.0917859077 54.838699341 140.54389954 369.83938599
 1183.3865967  -999.250000 8.5000000000 1.3099999428 56.291301727 2.0833544731 55.018348694 140.33770752 372.62008667
