# LAS format log file from PETREL
# Project units are specified as depth units
#==================================================================
~Version information
VERS.   2.0:
WRAP.   NO:
#==================================================================
~Well
STRT .m      1079.9069824 :
STOP .m      2540.5083008 :
STEP .m     0.00000000 :
NULL .        -999.250000 :
COMP.           : COMPANY
WELL.  25/8-9  Krap 2   : WELL
FLD.            : FIELD
LOC.            : LOCATION
SRVC.           : SERVICE COMPANY
DATE.  2018-09-11 14:48:24   : Log Export Date {yyyy-MM-dd HH:mm:ss}
PROV.           : PROVINCE
UWI.   25/8-9   : UNIQUE WELL ID
API.            : API NUMBER
#==================================================================
~Curve
DEPT .m                   : DEPTH
Lithology_geolink ._      : Lithology_geolink
BS .in                    : BS
MUDWEIGHT ._              : MUDWEIGHT
SGR .gAPI                 : SGR
RHOB .g/cm3               : RHOB
GR .gAPI                  : GR
DTC .us/ft                : DTC
DTS .us/ft                : DTS
~Parameter
#==================================================================
~Ascii
# ...
 2530.7546387  -999.250000 8.5000000000 1.3099999428 87.334396362 2.4947562218  -999.250000 83.547401428 161.02969360
 2530.9069824  -999.250000 8.5000000000 1.3099999428 87.329101563 2.5083487034  -999.250000 85.299499512 162.46760559
 2531.0595703  -999.250000 8.5000000000 1.3099999428 87.329101563 2.5159337521  -999.250000 87.406997681 164.63989258
 2531.2119141  -999.250000 8.5000000000 1.3099999428 87.329101563 2.5225207806  -999.250000 87.743797302 166.51119995
 2531.3642578  -999.250000 8.5000000000 1.3099999428 87.329101563 2.5226998329  -999.250000 87.707801819 166.75419617
 2531.5166016  -999.250000 8.5000000000 1.3099999428 87.329101563 2.5226998329  -999.250000 87.096298218 167.69569397
 2531.6691895  -999.250000 8.5000000000 1.3099999428 87.329101563 2.5226998329  -999.250000 86.969200134 167.87939453
 2531.8215332  -999.250000 8.5000000000 1.3099999428 87.329101563 2.5226998329  -999.250000 86.869796753 167.93699646
 2531.9738770  -999.250000 8.5000000000 1.3099999428 87.329101563 2.5226998329  -999.250000 88.667098999 167.38961792
 2532.1262207  -999.250000 8.5000000000 1.3099999428 87.329101563 2.5226998329  -999.250000 86.743598938 168.15600586
 2532.2788086  -999.250000 8.5000000000 1.3099999428 87.329101563 2.5226998329  -999.250000 86.066299438 167.46369934
 2532.4311523  -999.250000 8.5000000000 1.3099999428 87.329101563 2.5226998329  -999.250000 84.981796265 167.43879700
 2532.5834961  -999.250000 8.5000000000 1.3099999428 87.329101563 2.5226998329  -999.250000 84.783401489 170.78771973
 2532.7358398  -999.250000 8.5000000000 1.3099999428 87.329101563 2.5226998329  -999.250000 89.274597168 176.06829834
 2532.8881836  -999.250000 8.5000000000 1.3099999428 87.329101563 2.5226998329  -999.250000 91.438796997 181.13520813
 2533.0407715  -999.250000 8.5000000000 1.3099999428 87.329101563 2.5226998329  -999.250000 92.740798950 191.35049438
 2533.1931152  -999.250000 8.5000000000 1.3099999428 87.329101563 2.5226998329  -999.250000 94.282897949 194.09532166
 2533.3454590  -999.250000 8.5000000000 1.3099999428 87.329101563 2.5226998329  -999.250000 97.122299194 199.01431274
 2533.4978027  -999.250000 8.5000000000 1.3099999428 87.329101563 2.5226998329  -999.250000 98.399604797 196.78280640
 2533.6503906  -999.250000 8.5000000000 1.3099999428 87.329101563 2.5226998329  -999.250000 99.211601257 195.36369324
 2533.8027344  -999.250000 8.5000000000 1.3099999428 87.329101563 2.5226998329  -999.250000 98.074096680 192.07249451
 2533.9550781  -999.250000 8.5000000000 1.3099999428 87.329101563 2.5226998329  -999.250000 97.948501587 188.44821167
 2534.1074219  -999.250000 8.5000000000 1.3099999428 87.329101563 2.5226998329  -999.250000 93.496398926 181.97911072
 2534.2600098  -999.250000 8.5000000000 1.3099999428 87.329101563 2.5226998329  -999.250000 91.538299561 175.46830750
 2534.4123535  -999.250000 8.5000000000 1.3099999428 87.329101563 2.5226998329  -999.250000 89.440902710 171.48930359
 2534.5646973  -999.250000 8.5000000000 1.3099999428 87.329101563 2.5226998329  -999.250000 87.786994934 167.60260010
 2534.7170410  -999.250000 8.5000000000 1.3099999428 87.329101563 2.5226998329  -999.250000 87.534797668 167.01782227
 2534.8696289  -999.250000 8.5000000000 1.3099999428 87.329101563 2.5226998329  -999.250000 88.309707642 166.59771729
 2535.0219727  -999.250000 8.5000000000 1.3099999428 87.329101563 2.5226998329  -999.250000 88.742301941 166.91380310
 2535.1743164  -999.250000 8.5000000000 1.3099999428 87.329101563 2.5226998329  -999.250000 89.096092224 166.65609741
 2535.3266602  -999.250000 8.5000000000 1.3099999428 87.329101563 2.5226998329  -999.250000 89.179298401 166.21809387
 2535.4790039  -999.250000 8.5000000000 1.3099999428 87.329101563 2.5226998329  -999.250000 87.495101929 166.82760620
 2535.6315918  -999.250000 8.5000000000 1.3099999428 87.329101563 2.5226998329  -999.250000 87.793800354 166.64799500
 2535.7839355  -999.250000 8.5000000000 1.3099999428 87.329101563 2.5226998329  -999.250000 86.955398560 166.50770569
 2535.9362793  -999.250000 8.5000000000 1.3099999428 87.329101563 2.5226998329  -999.250000 87.779197693 165.92080688
 2536.0886230  -999.250000 8.5000000000 1.3099999428 87.329101563 2.5226998329  -999.250000 88.220596313 165.99638367
 2536.2412109  -999.250000 8.5000000000 1.3099999428 87.329101563 2.5226998329  -999.250000 88.466697693 163.40550232
 2536.3935547  -999.250000 8.5000000000 1.3099999428 87.329101563 2.5226998329  -999.250000 87.011802673 161.89410400
 2536.5458984  -999.250000 8.5000000000 1.3099999428 87.329101563 2.5226998329  -999.250000 85.083595276 159.03689575
 2536.6982422  -999.250000 8.5000000000 1.3099999428 87.329101563 2.5226998329  -999.250000 82.035400391 158.86740112
 2536.8508301  -999.250000 8.5000000000 1.3099999428 87.329101563 2.5226998329  -999.250000 82.202400208 158.95359802
 2537.0031738  -999.250000 8.5000000000 1.3099999428 87.329101563 2.5226998329  -999.250000 82.228500366 159.52420044
 2537.1555176  -999.250000 8.5000000000 1.3099999428 87.329101563 2.5226998329  -999.250000 85.164703369 166.12809753
 2537.3078613  -999.250000 8.5000000000 1.3099999428 87.329101563 2.5226998329  -999.250000 87.501800537 167.87669373
 2537.4602051  -999.250000 8.5000000000 1.3099999428 87.329101563 2.5226998329  -999.250000 87.593498230 168.81120300
 2537.6127930  -999.250000 8.5000000000 1.3099999428 87.329101563 2.5226998329  -999.250000 89.554801941 169.27900696
 2537.7651367  -999.250000 8.5000000000 1.3099999428 87.329101563 2.5226998329  -999.250000 89.004699707 169.25129700
 2537.9174805  -999.250000 8.5000000000 1.3099999428 87.329101563 2.5226998329  -999.250000 88.994300842 168.74391174
 2538.0698242  -999.250000 8.5000000000 1.3099999428 87.329101563 2.5226998329  -999.250000 89.215301514 168.91421509
 2538.2224121  -999.250000 8.5000000000 1.3099999428 87.329101563 2.5226998329  -999.250000 89.202598572 168.41569519
 2538.3747559  -999.250000 8.5000000000 1.3099999428 87.329101563 2.5226998329  -999.250000 88.858703613 168.37469482
 2538.5270996  -999.250000 8.5000000000 1.3099999428 87.329101563 2.5226998329  -999.250000 89.613098145 168.38940430
 2538.6794434  -999.250000 8.5000000000 1.3099999428 87.329101563 2.5226998329  -999.250000 89.603401184 168.39169312
 2538.8320313  -999.250000 8.5000000000 1.3099999428 87.329101563 2.5226998329  -999.250000 89.426002502 167.87080383
 2538.9843750  -999.250000 8.5000000000 1.3099999428 87.329101563 2.5226998329  -999.250000 89.004394531 167.37829590
 2539.1367188  -999.250000 8.5000000000 1.3099999428 87.329101563 2.5226998329  -999.250000 89.026802063 167.30940247
 2539.2890625  -999.250000 8.5000000000 1.3099999428 87.329101563 2.5226998329  -999.250000 89.000602722 167.18530273
 2539.4414063  -999.250000 8.5000000000 1.3099999428 87.329101563 2.5226998329  -999.250000 88.432998657 167.11749268
 2539.5939941  -999.250000 8.5000000000 1.3099999428 87.329101563 2.5226998329  -999.250000 88.098991394 167.12510681
 2539.7463379  -999.250000 8.5000000000 1.3099999428 87.329101563 2.5226998329  -999.250000 88.106201172 167.02021790
 2539.8986816  -999.250000 8.5000000000 1.3099999428 87.329101563 2.5226998329  -999.250000 88.434799194 166.86201477
 2540.0510254  -999.250000 8.5000000000 1.3099999428 87.329101563 2.5226998329  -999.250000 88.329803467 166.81140137
 2540.2036133  -999.250000 8.5000000000 1.3099999428 87.329101563 2.5226998329  -999.250000 88.408203125 166.84669495
 2540.3559570  -999.250000 8.5000000000 1.3099999428 87.329101563  -999.250000  -999.250000 88.443397522 166.84579468
 2540.5083008  -999.250000 8.5000000000 1.3099999428 87.329101563  -999.250000  -999.250000 88.920494080 166.83900452
