# LAS format log file from PETREL
# Project units are specified as depth units
#==================================================================
~Version information
VERS.   2.0:
WRAP.   NO:
#==================================================================
~Well
STRT .m      1079.9069824 :
STOP .m      2540.5083008 :
STEP .m     0.00000000 :
NULL .        -999.250000 :
COMP.           : COMPANY
WELL.  25/8-9  Krap 2   : WELL
FLD.            : FIELD
LOC.            : LOCATION
SRVC.           : SERVICE COMPANY
DATE.  2018-09-11 14:48:24   : Log Export Date {yyyy-MM-dd HH:mm:ss}
PROV.           : PROVINCE
UWI.   25/8-9   : UNIQUE WELL ID
API.            : API NUMBER
#==================================================================
~Curve
DEPT .m                   : DEPTH
Lithology_geolink ._      : Lithology_geolink
BS .in                    : BS
MUDWEIGHT ._              : MUDWEIGHT
SGR .gAPI                 : SGR
RHOB .g/cm3               : RHOB
GR .gAPI                  : GR
DTC .us/ft                : DTC
DTS .us/ft                : DTS
~Parameter
#==================================================================
~Ascii
# ...
 1857.1468506  -999.250000 8.5000000000 1.2899999619 57.846500397 2.3131725788 56.194087982 127.12110138 296.40188599
 1857.2991943  -999.250000 8.5000000000 1.2899999619 58.333801270 2.3150694370 56.219833374 127.28929901 295.90829468
 1857.4516602  -999.250000 8.5000000000 1.2899999619 58.883300781 2.3159849644 55.663192749 126.17340088 295.32150269
 1857.6040039  -999.250000 8.5000000000 1.2899999619 57.028900146 2.3250524998 53.320537567 125.39009857 295.47531128
 1857.7564697  -999.250000 8.5000000000 1.2899999619 53.054500580 2.3468649387 50.247024536 125.45919800 292.40890503
 1857.9088135  -999.250000 8.5000000000 1.2899999619 52.437698364 2.3657975197 48.485229492 125.43920135 289.10189819
 1858.0612793  -999.250000 8.5000000000 1.2899999619 52.760799408 2.3651158810 48.682376862 125.23179626 290.43869019
 1858.2136230  -999.250000 8.5000000000 1.2899999619 54.573398590 2.3459277153 50.121635437 125.40280151 292.16049194
 1858.3660889  -999.250000 8.5000000000 1.2899999619 54.691299438 2.3324041367 51.474334717 125.91780090 296.55749512
 1858.5184326  -999.250000 8.5000000000 1.2899999619 54.585899353 2.3300352097 51.560997009 126.55439758 299.26269531
 1858.6708984  -999.250000 8.5000000000 1.2899999619 54.867099762 2.3400366306 50.790634155 127.29000092 300.24880981
 1858.8232422  -999.250000 8.5000000000 1.2899999619 54.477199554 2.3449192047 50.668895721 127.35569763 300.06219482
 1858.9755859  -999.250000 8.5000000000 1.2899999619 55.101600647 2.3454918861 51.545291901 127.45499420 298.96569824
 1859.1280518  -999.250000 8.5000000000 1.2899999619 56.380100250 2.3358492851 52.425292969 127.19259644 299.96078491
 1859.2803955  -999.250000 8.5000000000 1.2899999619 57.562900543 2.3290090561 52.605667114 127.94249725 300.13638306
 1859.4328613  -999.250000 8.5000000000 1.2899999619 57.203601837 2.3201494217 52.505561829 128.07380676 301.91519165
 1859.5852051  -999.250000 8.5000000000 1.2899999619 57.489898682 2.3119316101 52.337104797 128.13330078 305.13558960
 1859.7376709  -999.250000 8.5000000000 1.2899999619 58.788501740 2.3065805435 51.590297699 128.72599792 307.85211182
 1859.8900146  -999.250000 8.5000000000 1.2899999619 59.651798248 2.2977426052 50.530349731 129.40859985 309.39898682
 1860.0424805  -999.250000 8.5000000000 1.2899999619 59.153701782 2.2923848629 50.188945770 129.79440308 311.06759644
 1860.1948242  -999.250000 8.5000000000 1.2899999619 57.343299866 2.2896451950 51.097610474 130.06059265 312.50628662
 1860.3472900  -999.250000 8.5000000000 1.2899999619 58.334400177 2.2858579159 53.153102875 130.32699585 313.11260986
 1860.4996338  -999.250000 8.5000000000 1.2899999619 59.764598846 2.2843241692 55.768810272 130.42610168 313.83090210
 1860.6520996  -999.250000 8.5000000000 1.2899999619 59.460098267 2.2781991959 57.504028320 130.33509827 319.06408691
 1860.8044434  -999.250000 8.5000000000 1.2899999619 57.258201599 2.2631556988 57.065608978 132.12190247 327.44558716
 1860.9567871  -999.250000 8.5000000000 1.2899999619 53.247200012 2.2472550869 54.690719604 133.87170410 339.62149048
 1861.1092529  -999.250000 8.5000000000 1.2899999619 50.229801178 2.2599990368 52.432716370 135.13780212 351.58480835
 1861.2615967  -999.250000 8.5000000000 1.2899999619 51.148399353 2.2854886055 52.478481293 135.17289734 347.56838989
 1861.4140625  -999.250000 8.5000000000 1.2899999619 56.266399384 2.3083169460 54.861076355 134.14399719 337.62869263
 1861.5664063  -999.250000 8.5000000000 1.2899999619 62.021800995 2.3015170097 57.728607178 131.16929626 329.39016724
 1861.7188721  -999.250000 8.5000000000 1.2899999619 65.464897156 2.2995288372 59.110591888 129.34010315 315.83380127
 1861.8712158  -999.250000 8.5000000000 1.2899999619 64.331901550 2.2857241631 59.135345459 127.16819763 303.42300415
 1862.0236816  -999.250000 8.5000000000 1.2899999619 64.563400269 2.2776279449 58.893489838 126.70819855 294.56430054
 1862.1760254  -999.250000 8.5000000000 1.2899999619 62.810199738 2.2953941822 58.164752960 127.05200195 304.36608887
 1862.3284912  -999.250000 8.5000000000 1.2899999619 62.965499878 2.3307576180 56.876068115 127.35679626 309.99600220
 1862.4808350  -999.250000 8.5000000000 1.2899999619 61.744300842 2.3612132072 56.160816193 127.65129852 311.24038696
 1862.6333008  -999.250000 8.5000000000 1.2899999619 64.641899109 2.3419218063 57.327224731 128.93370056 315.66598511
 1862.7856445  -999.250000 8.5000000000 1.2899999619 66.000000000 2.3050253391 59.545043945 129.18370056 314.44750977
 1862.9381104  -999.250000 8.5000000000 1.2899999619 67.249603271 2.2774174213 60.696163177 128.65939331 311.38238525
 1863.0904541  -999.250000 8.5000000000 1.2899999619 64.105102539 2.2804467678 60.605648041 128.08560181 309.57238770
 1863.2427979  -999.250000 8.5000000000 1.2899999619 64.373802185 2.2858135700 60.344230652 128.09890747 308.29568481
 1863.3952637  -999.250000 8.5000000000 1.2899999619 63.300701141 2.2922906876 60.655498505 127.41709900 301.37826538
 1863.5476074  -999.250000 8.5000000000 1.2899999619 65.272300720 2.3025348186 60.604324341 126.77449799 297.70941162
 1863.7000732  -999.250000 8.5000000000 1.2899999619 65.491600037 2.3215091228 59.279724121 126.54920197 297.13549805
 1863.8524170  -999.250000 8.5000000000 1.2899999619 66.048202515 2.3279008865 57.623683929 127.28610229 297.81622314
 1864.0048828  -999.250000 8.5000000000 1.2899999619 65.479698181 2.3204233646 56.757884979 127.78868866 298.20831299
 1864.1572266  -999.250000 8.5000000000 1.2899999619 64.645103455 2.3046672344 56.622920990 127.65249634 298.99539185
 1864.3096924  -999.250000 8.5000000000 1.2899999619 64.766998291 2.3066649437 55.856628418 128.21229553 299.25366211
 1864.4620361  -999.250000 8.5000000000 1.2899999619 62.748199463 2.3134896755 54.307826996 128.06649780 299.50491333
 1864.6145020  -999.250000 8.5000000000 1.2899999619 61.467601776 2.3199958801 53.369800568 127.90809631 298.46359253
 1864.7668457  -999.250000 8.5000000000 1.2899999619 59.713600159 2.3357326984 53.725341797 126.64900208 297.36538696
 1864.9193115  -999.250000 8.5000000000 1.2899999619 59.307098389 2.3547105789 54.497165680 126.95458984 295.75689697
 1865.0716553  -999.250000 8.5000000000 1.2899999619 58.413200378 2.3649382591 54.740612030 126.55650330 292.92001343
 1865.2239990  -999.250000 8.5000000000 1.2899999619 60.424400330 2.3478803635 54.659496307 127.04859924 291.11511230
 1865.3764648  -999.250000 8.5000000000 1.2899999619 61.037799835 2.3308856487 54.551471710 126.33670044 290.45269775
 1865.5288086  -999.250000 8.5000000000 1.2899999619 61.234901428 2.3373894691 54.245437622 127.45310211 289.87948608
 1865.6812744  -999.250000 8.5000000000 1.2899999619 61.553901672 2.3410453796 53.969142914 127.24030304 289.36248779
 1865.8336182  -999.250000 8.5000000000 1.2899999619 62.293998718 2.3303744793 54.196849823 126.22910309 289.61819458
 1865.9860840  -999.250000 8.5000000000 1.2899999619 64.152000427 2.3151569366 54.811416626 126.93820190 290.41439819
 1866.1384277  -999.250000 8.5000000000 1.2899999619 62.872798920 2.3149983883 55.517204285 126.13600159 289.68301392
 1866.2908936  -999.250000 8.5000000000 1.2899999619 64.397499084 2.3233704567 56.233055115 126.40529633 290.01290894
 1866.4432373  -999.250000 8.5000000000 1.2899999619 61.906700134 2.3180880547 56.846622467 126.35170746 291.97409058
 1866.5957031  -999.250000 8.5000000000 1.2899999619 62.984199524 2.3060939312 56.778011322 125.57199860 292.42498779
 1866.7480469  -999.250000 8.5000000000 1.2899999619 63.418399811 2.2924304008 56.629459381 126.14730072 293.44000244
 1866.9005127  -999.250000 8.5000000000 1.2899999619 67.993400574 2.2926924229 58.085559845 127.77420044 295.61160278
 1867.0528564  -999.250000 8.5000000000 1.2899999619 71.004302979 2.2839424610 60.789463043 128.05690002 296.69110107
 1867.2052002  -999.250000 8.5000000000 1.2899999619 70.600799561 2.2966899872 62.383869171 128.08949280 297.18920898
 1867.3576660  -999.250000 8.5000000000 1.2899999619 67.480003357 2.3158757687 61.100166321 127.75730133 294.84451294
