# LAS format log file from PETREL
# Project units are specified as depth units
#==================================================================
~Version information
VERS.   2.0:
WRAP.   NO:
#==================================================================
~Well
STRT .m      376.26940918 :
STOP .m      2542.6337891 :
STEP .m     0.00000000 :
NULL .        -999.250000 :
COMP.           : COMPANY
WELL.  25/8-1  Forseti   : WELL
FLD.            : FIELD
LOC.            : LOCATION
SRVC.           : SERVICE COMPANY
DATE.  2018-09-11 14:48:23   : Log Export Date {yyyy-MM-dd HH:mm:ss}
PROV.           : PROVINCE
UWI.   25/8-1   : UNIQUE WELL ID
API.            : API NUMBER
#==================================================================
~Curve
DEPT .m                   : DEPTH
Lithology_geolink ._      : Lithology_geolink
DCAL .in                  : DCAL
CALI .in                  : CALI
BS .in                    : BS
MUDWEIGHT ._              : MUDWEIGHT
ROP .m/h                  : ROP
DRHO .g/cm3               : DRHO
RHOB .g/cm3               : RHOB
GR .gAPI                  : GR
DTC .us/ft                : DTC
DTE .us/ft                : DTE
RDEP .ohm.m               : RDEP
SP .mV                    : SP
RSHA .ohm.m               : RSHA
RMIC .ohm.m               : RMIC
RMED .ohm.m               : RMED
~Parameter
#==================================================================
~Ascii
# ...
 1103.6741943  -999.250000 -6.412999630 11.586998940 18.000000000 9.1000003815 3.0923693180  -999.250000  -999.250000 55.476001740 127.12721252 127.12619781 1.4680000544 52.247200012 1.9249999523 2.2911679745 1.9250520468
 1103.8265381  -999.250000 -6.359000206 11.640999794 18.000000000 9.1000003815 3.0802400112  -999.250000  -999.250000 55.464000702 128.01260376 128.01223755 1.4609999657 52.497001648 1.9110000134 2.1877329350 1.9110672474
 1103.9790039  -999.250000 -6.283999920 11.715999603 18.000000000 9.1000003815 3.0800297260  -999.250000  -999.250000 52.127998352 129.08763123 129.08743286 1.4450000525 52.602863312 1.9069999456 2.0626409054 1.9070159197
 1104.1313477  -999.250000 -6.241000175 11.758999825 18.000000000 9.1000003815 3.0684192181  -999.250000  -999.250000 48.821998596 129.38195801 129.38218689 1.4279999733 52.430683136 1.8999999762 2.0004661083 1.9000335932
 1104.2838135  -999.250000 -6.230000019 11.770000458 18.000000000 9.1000003815 3.0562708378  -999.250000  -999.250000 48.763000488 128.95294189 128.95425415 1.4119999409 52.035449982 1.8789999485 2.0454139709 1.8790841103
 1104.4361572  -999.250000 -6.237998962 11.762000084 18.000000000 9.1000003815 3.0324611664  -999.250000  -999.250000 50.939998627 127.99808502 127.99929047 1.4010000229 51.350372314 1.8600000143 2.0351960659 1.8600761890
 1104.5885010  -999.250000 -6.258999825 11.741000175 18.000000000 9.1000003815 2.9491899014  -999.250000  -999.250000 53.124000549 126.98360443 126.98439789 1.4010000229 50.564998627 1.8600000143 1.9262659550 1.8600000143
 1104.7409668  -999.250000 -6.290000916 11.710000038 18.000000000 9.1000003815 1.8984718323  -999.250000  -999.250000 53.259998322 126.49028015 126.49069977 1.4069999456 50.338241577 1.8710000515 1.8273880482 1.8709559441
 1104.8933105  -999.250000 -6.318000317 11.682000160 18.000000000 9.1000003815 1.4876379967  -999.250000  -999.250000 52.895000458 126.45210266 126.45204926 1.4129999876 50.638999939 1.8750000000 1.8031899929 1.8749808073
 1105.0457764  -999.250000 -6.342999935 11.656999588 18.000000000 9.1000003815 1.4717710018  -999.250000  -999.250000 53.634998322 126.55471039 126.55452728 1.4190000296 50.966259003 1.8660000563 1.8363360167 1.8660360575
 1105.1981201  -999.250000 -6.324999809 11.675000191 18.000000000 9.1000003815 1.4717849493  -999.250000  -999.250000 55.659000397 126.68721008 126.68711090 1.4279999733 51.291999817 1.8509999514 1.8282680511 1.8510719538
 1105.3505859  -999.250000 -6.275000572 11.724999428 18.000000000 9.1000003815 1.4730403423  -999.250000  -999.250000 57.355998993 126.57290649 126.57350159 1.4390000105 51.569175720 1.8389999866 1.7742619514 1.8390480280
 1105.5029297  -999.250000 -6.250999451 11.748999596 18.000000000 9.1000003815 1.4721549749  -999.250000  -999.250000 58.009998322 126.07800293 126.07844543 1.4500000477 51.787998199 1.8300000429 1.7349950075 1.8300433159
 1105.6553955  -999.250000 -6.243000031 11.756999969 18.000000000 9.1000003815 1.4724270105  -999.250000  -999.250000 57.277999878 125.54277802 125.54347229 1.4609999657 51.999164581 1.8190000057 1.7109769583 1.8190441132
 1105.8077393  -999.250000 -6.225999832 11.774000168 18.000000000 9.1000003815 1.4724409580  -999.250000  -999.250000 55.561000824 125.00510406 125.00538635 1.4689999819 52.206001282 1.8179999590 1.6904890537 1.8180047274
 1105.9602051  -999.250000 -6.196999073 11.803001404 18.000000000 9.1000003815 1.4727456570  -999.250000  -999.250000 55.193000793 124.60030365 124.60034943 1.4750000238 52.267784119 1.8350000381 1.6858049631 1.8349319696
 1106.1125488  -999.250000 -6.170999527 11.829000473 18.000000000 9.1000003815 1.4611173868  -999.250000  -999.250000 55.798999786 124.59664154 124.59658813 1.4809999466 51.995620728 1.8569999933 1.7271029949 1.8568942547
 1106.2650146  -999.250000 -6.168000221 11.831999779 18.000000000 9.1000003815 1.4253873825  -999.250000  -999.250000 55.651000977 124.65811920 124.65814209 1.4869999886 51.525669098 1.8700000048 1.7998930216 1.8699479103
 1106.4173584  -999.250000 -6.182999611 11.817001343 18.000000000 9.1000003815 1.3534853458  -999.250000  -999.250000 55.166000366 124.54888916 124.54896545 1.4939999580 51.109790802 1.8769999743 1.8369710445 1.8769719601
 1106.5697021  -999.250000 -6.203000069 11.796998978 18.000000000 9.1000003815 1.3152090311  -999.250000  -999.250000 54.847999573 124.40480042 124.40490723 1.5049999952 50.847999573 1.8860000372 1.8106759787 1.8859567642
 1106.7221680  -999.250000 -6.228000164 11.772000313 18.000000000 9.1000003815 1.3020155430  -999.250000  -999.250000 55.263999939 124.47915649 124.47867584 1.5160000324 50.723930359 1.8980000019 1.7888129950 1.8979519606
 1106.8745117  -999.250000 -6.244999886 11.755000114 18.000000000 9.1000003815 1.2901999950  -999.250000  -999.250000 55.265998840 124.80170441 124.80111694 1.5279999971 50.638999939 1.9149999619 1.7994660139 1.9149183035
 1107.0269775  -999.250000 -6.243999958 11.756000519 18.000000000 9.1000003815 1.2896982431  -999.250000  -999.250000 54.512001038 124.95270538 124.95289612 1.5390000343 50.529792786 1.9309999943 1.8014479876 1.9309358597
 1107.1793213  -999.250000 -6.236000538 11.763999939 18.000000000 9.1000003815 1.2900120020  -999.250000  -999.250000 54.855998993 124.82610321 124.82621765 1.5509999990 50.271999359 1.9420000315 1.8314529657 1.9419472218
 1107.3317871  -999.250000 -6.232999802 11.767000198 18.000000000 9.1000003815 1.2784122229  -999.250000  -999.250000 56.837001801 125.05423737 125.05345154 1.5559999943 49.913780212 1.9479999542 1.8986794949 1.9479758739
 1107.4841309  -999.250000 -6.232999802 11.767000198 18.000000000 9.1000003815 1.2898249626  -999.250000  -999.250000 59.895999908 125.59819031 125.59776306 1.5540000200 49.639999390 1.9470000267 1.9230400324 1.9470047951
 1107.6365967  -999.250000 -6.243999958 11.756000519 18.000000000 9.1000003815 1.3963389397  -999.250000  -999.250000 62.219001770 125.68990326 125.69002533 1.5490000248 49.449005127 1.9370000362 1.8980556726 1.9370400906
 1107.7889404  -999.250000 -6.264999390 11.734999657 18.000000000 9.1000003815 1.5422849655  -999.250000  -999.250000 63.006000519 125.82701111 125.82685089 1.5420000553 49.452999115 1.9240000248 1.8651649952 1.9240624905
 1107.9414063  -999.250000 -6.284999847 11.714999199 18.000000000 9.1000003815 1.5960232019  -999.250000  -999.250000 63.213001251 126.45224762 126.45173645 1.5260000229 49.631149292 1.9099999666 1.8486261368 1.9100561142
 1108.0937500  -999.250000 -6.302000046 11.698000908 18.000000000 9.1000003815 1.6336160898  -999.250000  -999.250000 63.266998291 127.02719879 127.02628326 1.5019999743 49.818164825 1.8869999647 1.8449915648 1.8871104717
 1108.2462158  -999.250000 -6.309000492 11.690999031 18.000000000 9.1000003815 1.6587330103  -999.250000  -999.250000 62.346000671 127.77123260 127.76963806 1.4789999723 50.022216797 1.8569999933 1.8258299828 1.8571201563
 1108.3985596  -999.250000 -6.308000088 11.692000389 18.000000000 9.1000003815 1.6600910425  -999.250000  -999.250000 62.096000671 128.81379700 128.81260681 1.4630000591 50.293262482 1.8329999447 1.7982376814 1.8331152201
 1108.5509033  -999.250000 -6.301000595 11.699000359 18.000000000 9.1000003815 1.6601049900  -999.250000  -999.250000 62.812000275 129.68539429 129.68472290 1.4529999495 50.619998932 1.8289999962 1.7766220570 1.8290191889
 1108.7033691  -999.250000 -6.267000198 11.732999802 18.000000000 9.1000003815 1.6604189873  -999.250000  -999.250000 62.166999817 130.18072510 130.18013000 1.4429999590 50.923114777 1.8409999609 1.7751426697 1.8409519196
 1108.8557129  -999.250000 -6.243000031 11.756999969 18.000000000 9.1000003815 1.6604330540  -999.250000  -999.250000 60.469001770 130.32659912 130.32652283 1.4390000105 51.066001892 1.8589999676 1.7996920347 1.8589135408
 1109.0081787  -999.250000 -6.255000114 11.744999886 18.000000000 9.1000003815 1.6607378721  -999.250000  -999.250000 58.763999939 130.32656860 130.32666016 1.4459999800 50.946800232 1.8740071058 1.8062412739 1.8739398718
 1109.1605225  -999.250000 -6.271999836 11.728001595 18.000000000 9.1000003815 1.6491379738  -999.250000  -999.250000 58.095001221 130.29389954 130.29389954 1.4570000172 50.698001862 1.8830000162 1.7792060375 1.8829567432
