# LAS format log file from PETREL
# Project units are specified as depth units
#==================================================================
~Version information
VERS.   2.0:
WRAP.   NO:
#==================================================================
~Well
STRT .m      376.26940918 :
STOP .m      2542.6337891 :
STEP .m     0.00000000 :
NULL .        -999.250000 :
COMP.           : COMPANY
WELL.  25/8-1  Forseti   : WELL
FLD.            : FIELD
LOC.            : LOCATION
SRVC.           : SERVICE COMPANY
DATE.  2018-09-11 14:48:23   : Log Export Date {yyyy-MM-dd HH:mm:ss}
PROV.           : PROVINCE
UWI.   25/8-1   : UNIQUE WELL ID
API.            : API NUMBER
#==================================================================
~Curve
DEPT .m                   : DEPTH
Lithology_geolink ._      : Lithology_geolink
DCAL .in                  : DCAL
CALI .in                  : CALI
BS .in                    : BS
MUDWEIGHT ._              : MUDWEIGHT
ROP .m/h                  : ROP
DRHO .g/cm3               : DRHO
RHOB .g/cm3               : RHOB
GR .gAPI                  : GR
DTC .us/ft                : DTC
DTE .us/ft                : DTE
RDEP .ohm.m               : RDEP
SP .mV                    : SP
RSHA .ohm.m               : RSHA
RMIC .ohm.m               : RMIC
RMED .ohm.m               : RMED
~Parameter
#==================================================================
~Ascii
# ...
 1244.6440430  -999.250000 -5.777999878 12.222000122 18.000000000 9.1000003815 1.7363271713  -999.250000  -999.250000 42.784000397 140.00000000 140.00000000 1.3179999590 62.138999939 1.7920000553 1.5943529606 1.7921177149
 1244.7965088  -999.250000 -6.338000298 11.661999702 18.000000000 9.1000003815 1.7368867397  -999.250000  -999.250000 43.196998596 140.00000000 140.00000000 1.3070000410 61.875823975 1.7719999552 1.6524419785 1.7720961571
 1244.9488525  -999.250000 -7.197999954 10.802000046 18.000000000 9.1000003815 1.7491225004  -999.250000  -999.250000 44.151000977 140.00000000 140.00000000 1.2970000505 61.657993317 1.7569999695 1.6981029510 1.7570840120
 1245.1013184  -999.250000 -7.324999809 10.675000191 18.000000000 9.1000003815 1.7496722937  -999.250000  -999.250000 44.813999176 140.00000000 140.00000000 1.2860000134 61.650150299 1.7589999437 1.7694610357 1.7589902878
 1245.2536621  -999.250000 -6.548999786 11.451000214 18.000000000 9.1000003815 1.7499864101  -999.250000  -999.250000 44.084999084 140.00000000 140.00000000 1.2710000277 61.834300995 1.7719999552 1.7779519558 1.7719271183
 1245.4060059  -999.250000 -5.814000130 12.185999870 18.000000000 9.1000003815 1.7503141165  -999.250000  -999.250000 42.703998566 140.00000000 140.00000000 1.2519999743 62.210998535 1.7730000019 1.7170859575 1.7729943991
 1245.5584717  -999.250000 -5.629000664 12.371000290 18.000000000 9.1000003815 1.7506327629  -999.250000  -999.250000 41.780998230 140.00000000 140.00000000 1.2330000401 62.481029510 1.7660000324 1.7034105062 1.7660392523
 1245.7108154  -999.250000 -5.664000034 12.336000443 18.000000000 9.1000003815 1.7390388250  -999.250000  -999.250000 41.747001648 140.00000000 140.00000000 1.2189999819 62.518001556 1.7699999809 1.7602460384 1.7699775696
 1245.8632813  -999.250000 -5.768000126 12.232000351 18.000000000 9.1000003815 1.7388310432  -999.250000  -999.250000 43.298999786 140.00000000 140.00000000 1.2100000381 62.450874329 1.7819999456 1.8412780762 1.7819327116
 1246.0156250  -999.250000 -5.840000153 12.159998894 18.000000000 9.1000003815 1.7388451099  -999.250000  -999.250000 45.298999786 140.00000000 140.00000000 1.2000000477 62.294998169 1.7829999924 1.8514120579 1.7829943895
 1246.1680908  -999.250000 -5.890999794 12.109000206 18.000000000 9.1000003815 1.7356983423  -999.250000  -999.250000 46.601001740 140.00000000 140.00000000 1.1909999847 61.998748779 1.7710000277 1.8104414940 1.7710577250
 1246.3204346  -999.250000 -5.931000233 12.069001198 18.000000000 9.1000003815 1.7274011374  -999.250000  -999.250000 47.339000702 140.00000000 140.00000000 1.1829999685 61.682998657 1.7549999952 1.7986140251 1.7550896406
 1246.4729004  -999.250000 -5.955999851 12.043999672 18.000000000 9.1000003815 1.7239676714  -999.250000  -999.250000 47.936000824 140.00000000 140.00000000 1.1849999428 61.466907501 1.7369999886 1.8095093966 1.7370865345
 1246.6252441  -999.250000 -5.964000225 12.036000252 18.000000000 9.1000003815 1.4242240191  -999.250000  -999.250000 47.407001495 140.00000000 140.00000000 1.1940000057 61.351001740 1.7259999514 1.8025100231 1.7260615826
 1246.7777100  -999.250000 -5.966000080 12.034000397 18.000000000 9.1000003815 1.1997194290  -999.250000  -999.250000 45.751998901 140.00000000 140.00000000 1.2059999704 61.311889648 1.7300000191 1.7945663929 1.7299808264
 1246.9300537  -999.250000 -5.968999863 12.031000137 18.000000000 9.1000003815 1.1466270685  -999.250000  -999.250000 44.860000610 140.00000000 140.00000000 1.2180000544 61.172843933 1.7480000257 1.7913224697 1.7478991747
 1247.0825195  -999.250000 -5.954999924 12.045000076 18.000000000 9.1000003815 1.1242682934  -999.250000  -999.250000 44.626998901 140.00000000 140.00000000 1.2309999466 60.975925446 1.7719999552 1.7620311975 1.7718845606
 1247.2348633  -999.250000 -5.934000015 12.066000938 18.000000000 9.1000003815 1.1145662069  -999.250000  -999.250000 43.755001068 140.00000000 140.00000000 1.2450000048 60.883060455 1.7949999571 1.7672388554 1.7948710918
 1247.3872070  -999.250000 -5.933000088 12.067000389 18.000000000 9.1000003815 1.1122889519  -999.250000  -999.250000 41.969001770 140.00000000 140.00000000 1.2580000162 60.958999634 1.8120000362 1.8456970453 1.8119046688
 1247.5396729  -999.250000 -5.967000008 12.033000946 18.000000000 9.1000003815 1.1027848721  -999.250000  -999.250000 40.587001801 140.00000000 140.00000000 1.2640000582 61.280338287 1.8220032454 1.9221993685 1.8219439983
 1247.6920166  -999.250000 -6.058000088 11.942000389 18.000000000 9.1000003815 1.1026760340  -999.250000  -999.250000 39.817001343 140.00000000 140.00000000 1.2640000582 61.706001282 1.8259999752 1.9587999582 1.8259775639
 1247.8444824  -999.250000 -5.906000137 12.093999863 18.000000000 9.1000003815 1.1165388823  -999.250000  -999.250000 39.344001770 140.00000000 140.00000000 1.2580000162 62.066352844 1.8239928484 1.9833945036 1.8240112066
 1247.9968262  -999.250000 -5.610000134 12.390000343 18.000000000 9.1000003815 1.1576299667  -999.250000  -999.250000 40.165000916 140.00000000 140.00000000 1.2419999838 62.505996704 1.8150000572 1.9814709425 1.8150504827
 1248.1492920  -999.250000 -5.537000656 12.463000298 18.000000000 9.1000003815 1.2829678059  -999.250000  -999.250000 41.531547546 140.00000000 140.00000000 1.2239999771 62.933929443 1.7979799509 1.9503644705 1.7980952263
 1248.3016357  -999.250000 -5.589000225 12.411000252 18.000000000 9.1000003815 1.4362740517  -999.250000  -999.250000 42.215999603 140.00000000 140.00000000 1.2039999962 62.847003937 1.7730000019 1.9210599661 1.7731401920
 1248.4541016  -999.250000 -5.672999859 12.327000618 18.000000000 9.1000003815 1.5208112001  -999.250000  -999.250000 42.537235260 140.00000000 140.00000000 1.1829999685 62.197635651 1.7379728556 1.8937292099 1.7381683588
 1248.6064453  -999.250000 -5.697999954 12.302000046 18.000000000 9.1000003815 1.5572459698  -999.250000  -999.250000 42.833999634 140.00000000 140.00000000 1.1619999409 61.742000580 1.7039999962 1.8789949417 1.7041634321
 1248.7589111  -999.250000 -5.635999680 12.363999367 18.000000000 9.1000003815 1.5590410233  -999.250000  -999.250000 43.611999512 140.00000000 140.00000000 1.1430000067 61.693000793 1.6779999733 1.8755220175 1.6781249046
 1248.9112549  -999.250000 -5.604000092 12.395999908 18.000000000 9.1000003815 1.5709869862  -999.250000  -999.250000 44.747001648 140.00000000 140.00000000 1.1399999857 61.731998444 1.6529999971 1.8500260115 1.6531201601
 1249.0637207  -999.250000 -5.630999565 12.369001389 18.000000000 9.1000003815 1.5712080002  -999.250000  -999.250000 45.561000824 140.00000000 140.00000000 1.1430000067 61.849998474 1.6390000582 1.7995799780 1.6390672922
 1249.2160645  -999.250000 -5.663000107 12.336999893 18.000000000 9.1000003815 1.5598909855  -999.250000  -999.250000 45.327999115 140.00000000 140.00000000 1.1360000372 61.931999207 1.6360000372 1.7263289690 1.6360144615
 1249.3685303  -999.250000 -5.890999794 12.109000206 18.000000000 9.1000003815 1.5352059603  -999.250000  -999.250000 45.669998169 140.00000000 140.00000000 1.1289999485 61.938999176 1.6419999599 1.6310880184 1.6419711113
 1249.5208740  -999.250000 -6.689999580 11.310000420 18.000000000 9.1000003815 1.4286210537  -999.250000  -999.250000 47.602001190 140.00000000 140.00000000 1.1219999790 61.995998383 1.6469999552 1.5393600464 1.6469758749
 1249.6732178  -999.250000 -8.243000031 9.7569999695 18.000000000 9.1000003815 1.1902780533  -999.250000  -999.250000 49.448001862 140.00000000 140.00000000 1.1150000095 62.079051971 1.6349999905 1.4169150591 1.6350672245
 1249.8256836  -999.250000 -10.11400032 7.8859996796 18.000000000 9.1000003815 1.0739769936  -999.250000  -999.250000 50.719001770 140.00000000 140.00000000 1.1080000401 62.146003723 1.6119999886 1.2320979834 1.6121106148
 1249.9780273  -999.250000 -11.23600006 6.7640004158 18.000000000 9.1000003815 1.0576080084  -999.250000  -999.250000 51.813999176 140.00000000 140.00000000 1.1009999514 62.151908875 1.6009999514 1.1206120253 1.6010528803
 1250.1304932  -999.250000 -11.48200130 6.5180001259 18.000000000 9.1000003815 1.0574009418  -999.250000  -999.250000 52.388000488 140.00000000 140.00000000 1.1059999466 62.039909363 1.6019999981 1.1432260275 1.6019952297
