# LAS format log file from PETREL
# Project units are specified as depth units
#==================================================================
~Version information
VERS.   2.0:
WRAP.   NO:
#==================================================================
~Well
STRT .m      376.26940918 :
STOP .m      2542.6337891 :
STEP .m     0.00000000 :
NULL .        -999.250000 :
COMP.           : COMPANY
WELL.  25/8-1  Forseti   : WELL
FLD.            : FIELD
LOC.            : LOCATION
SRVC.           : SERVICE COMPANY
DATE.  2018-09-11 14:48:23   : Log Export Date {yyyy-MM-dd HH:mm:ss}
PROV.           : PROVINCE
UWI.   25/8-1   : UNIQUE WELL ID
API.            : API NUMBER
#==================================================================
~Curve
DEPT .m                   : DEPTH
Lithology_geolink ._      : Lithology_geolink
DCAL .in                  : DCAL
CALI .in                  : CALI
BS .in                    : BS
MUDWEIGHT ._              : MUDWEIGHT
ROP .m/h                  : ROP
DRHO .g/cm3               : DRHO
RHOB .g/cm3               : RHOB
GR .gAPI                  : GR
DTC .us/ft                : DTC
DTE .us/ft                : DTE
RDEP .ohm.m               : RDEP
SP .mV                    : SP
RSHA .ohm.m               : RSHA
RMIC .ohm.m               : RMIC
RMED .ohm.m               : RMED
~Parameter
#==================================================================
~Ascii
# ...
 1532.2226563  -999.250000 0.6520003676 12.902000427 12.250000954 11.199999809 3.6844563484 -0.006000000 2.0176470280 37.571998596 153.86189270 153.86186218 0.5419999957 68.337959290 0.9499999881 0.8481500745 0.9500432014
 1532.3751221  -999.250000 0.6579999924 12.907999039 12.250000954 11.199999809 3.6724205017 -0.005000000 2.0168209076 37.120998383 153.87112427 153.87129211 0.5320000052 68.287994385 0.9440000057 0.8434125185 0.9440384507
 1532.5274658  -999.250000 0.6639996767 12.913999557 12.250000954 11.199999809 3.6719162464 -0.002000000 2.0143229961 36.974998474 153.65022278 153.65040588 0.5210000277 68.283012390 0.9369999766 0.8316199183 0.9370504022
 1532.6799316  -999.250000 0.6709995270 12.920999527 12.250000954 11.199999809 3.6722490788 -0.001000000 2.0135960579 36.647998810 153.41920471 153.41926575 0.5109999776 68.303153992 0.9340000153 0.8217368126 0.9340192676
 1532.8322754  -999.250000 0.6689996719 12.918997765 12.250000954 11.199999809 3.6841645241 -0.001000000 2.0158309937 36.294998169 153.49940491 153.49905396 0.5000000000 68.397140503 0.9390000105 0.8210589886 0.9389640093
 1532.9847412  -999.250000 0.6520003676 12.902000427 12.250000954 11.199999809 3.6850445271 0.0000000000 2.0351231098 35.481998444 153.74375916 153.74313354 0.4920000136 68.564186096 0.9459999800 0.8166834712 0.9459550977
 1533.1370850  -999.250000 0.6409997940 12.890998840 12.250000954 11.199999809 3.6969594955 0.0040000002 2.0415940285 34.645999908 153.90985107 153.90989685 0.4920000136 68.675964355 0.9559999704 0.8114525080 0.9559279084
 1533.2895508  -999.250000 0.6420001984 12.892001152 12.250000954 11.199999809 3.6990113258 0.0080000004 2.0425310135 36.914001465 153.84323120 153.84364319 0.4990000129 68.630798340 0.9639999866 0.8146501184 0.9639487267
 1533.4418945  -999.250000 0.6440001130 12.894001007 12.250000954 11.199999809 4.6376552582 0.0120000001 2.0398108959 38.740001678 153.61050415 153.61077881 0.4970000088 68.506950378 0.9670000076 0.8257219791 0.9669783711
 1533.5942383  -999.250000 0.6459998488 12.896000862 12.250000954 11.199999809 4.7513518333 0.0120000001 2.0430490971 36.978000641 153.36700439 153.36759949 0.4909999967 68.440994263 0.9629999995 0.8354493976 0.9630288482
 1533.7467041  -999.250000 0.6479998231 12.897998810 12.250000954 11.199999809 4.7549071312 0.0089999996 2.0520160198 35.319000244 153.24971008 153.24961853 0.4889999926 68.434989929 0.9559999704 0.8301699758 0.9560448527
 1533.8990479  -999.250000 0.6490002275 12.899000168 12.250000954 11.199999809 4.7549214363 0.0089999996 2.0578870773 34.273998260 153.38957214 153.38920593 0.4850000143 68.428993225 0.9480000138 0.8141664267 0.9480576515
 1534.0515137  -999.250000 0.6510000825 12.900999069 12.250000954 11.199999809 4.7552351952 0.0109999999 2.0555210114 33.737998962 153.72351074 153.72314453 0.4799999893 68.424079895 0.9380000234 0.8028982282 0.9380640984
 1534.2038574  -999.250000 0.6529998779 12.902999878 12.250000954 11.199999809 4.7552495003 0.0099999998 2.0498290062 34.492000580 154.09558105 154.09486389 0.4779999852 68.517074585 0.9330000281 0.8047624230 0.9330360293
 1534.3563232  -999.250000 0.6459998488 12.896000862 12.250000954 11.199999809 4.7555537224 0.0070000002 2.0460100174 35.752998352 154.31698608 154.31687927 0.4790000021 68.610992432 0.9340000153 0.8082299829 0.9339935780
 1534.5086670  -999.250000 0.6239995956 12.874000549 12.250000954 11.199999809 4.7431054115 0.0030000000 2.0450940132 36.763999939 154.18856812 154.18887329 0.4819999933 68.605049133 0.9430000186 0.7967165709 0.9429351687
 1534.6611328  -999.250000 0.5959997177 12.845999718 12.250000954 11.199999809 3.6627223492 -0.001000000 2.0426061153 37.784000397 153.77014160 153.77139282 0.4839999974 68.663871765 0.9539999962 0.7791885734 0.9539294839
 1534.8134766  -999.250000 0.5679997802 12.818000793 12.250000954 11.199999809 3.5780565739 -0.003000000 2.0422511101 38.617000580 153.29870605 153.29928589 0.4860000014 68.584854126 0.9660000205 0.7834537029 0.9659135342
 1534.9659424  -999.250000 0.5570002198 12.806999207 12.250000954 11.199999809 3.5767571926 -0.003000000 2.0401499271 38.716999054 152.93794250 152.93862915 0.4860000014 68.402801514 0.9729999900 0.8101323247 0.9729551077
 1535.1182861  -999.250000 0.5620002747 12.812001228 12.250000954 11.199999809 3.5767712593 -0.001000000 2.0384860039 38.189998627 152.77868652 152.77876282 0.4860000014 68.280921936 0.9710000157 0.8268004060 0.9710144401
 1535.2707520  -999.250000 0.5690001845 12.819001198 12.250000954 11.199999809 3.5770852566 0.0030000000 2.0409700871 37.430000305 152.75228882 152.75328064 0.4830000103 68.187110901 0.9660000205 0.8264734149 0.9660320878
 1535.4230957  -999.250000 0.5780001283 12.828000069 12.250000954 11.199999809 3.5770909786 0.0060000001 2.0506799221 36.641998291 152.12174988 152.12278748 0.4760000110 68.258003235 0.9610000253 0.8284285069 0.9610360265
 1535.5754395  -999.250000 0.5920000076 12.842000008 12.250000954 11.199999809 3.5657696724 0.0130000003 2.0628809929 35.597000122 151.18832397 151.18969727 0.4690000117 68.257011414 0.9549999833 0.8359584808 0.9550432563
 1535.7279053  -999.250000 0.6009997725 12.850999832 12.250000954 11.199999809 3.5181336403 0.0179999992 2.0777258873 34.268001556 151.84152222 151.83973694 0.4650000036 68.265068054 0.9480000138 0.8438007236 0.9480448961
 1535.8802490  -999.250000 0.5819997787 12.831999779 12.250000954 11.199999809 3.3870697021 0.0130000003 2.0986349583 32.875999451 153.75225830 153.74790955 0.4629999995 68.352989197 0.9419999719 0.8573979139 0.9420431852
 1536.0327148  -999.250000 0.5360003114 12.786000252 12.250000954 11.199999809 3.2754487991 0.0080000004 2.1291549206 31.878999710 155.22409058 155.22406006 0.4650000036 68.347991943 0.9399999976 0.8638526201 0.9400128126
 1536.1850586  -999.250000 0.4860000908 12.736001015 12.250000954 11.199999809 3.1768422127 0.0030000000 2.1685531139 31.600999832 154.46286011 154.47018433 0.4679999948 68.342079163 0.9499999881 0.8475503325 0.9499279261
 1536.3375244  -999.250000 0.4339999855 12.684000969 12.250000954 11.199999809 3.1258249283 0.0020000001 2.2518560886 31.594999313 148.53092957 148.54759216 0.4679999948 68.436119080 0.9700000286 0.8361288309 0.9698718190
 1536.4898682  -999.250000 0.3979997933 12.647999763 12.250000954 11.199999809 3.1120817661 0.0240000002 2.2588799000 32.159999847 139.33332825 139.33837891 0.4659999907 68.584068298 0.9869999886 0.8434090614 0.9868775010
 1536.6423340  -999.250000 0.3970003128 12.646999359 12.250000954 11.199999809 3.1118714809 0.0250000004 2.2282860279 33.348999023 133.76214600 133.76588440 0.4659999907 68.664955139 0.9919999838 0.8528835177 0.9919679165
 1536.7946777  -999.250000 0.4460001290 12.696000099 12.250000954 11.199999809 3.1237964630 0.0109999999 2.1141779423 34.391998291 134.07336426 134.06871033 0.4690000117 68.604003906 0.9909999967 0.8616301417 0.9910072088
 1536.9471436  -999.250000 0.5209999084 12.770999908 12.250000954 11.199999809 3.1243505478 0.0080000004 2.0572090149 35.201999664 137.91279602 137.89700317 0.4749999940 68.612342834 0.9909999967 0.8668695688 0.9909999967
 1537.0994873  -999.250000 0.5799999237 12.829999924 12.250000954 11.199999809 3.1284191608 0.0080000004 2.0569229126 35.712001801 144.46604919 144.46090698 0.4799999893 68.828155518 0.9760000110 0.8625833988 0.9761080742
 1537.2519531  -999.250000 0.6140003204 12.864000320 12.250000954 11.199999809 3.1248452663 0.0070000002 2.0643730164 34.428001404 151.01268005 151.00442505 0.4850000143 69.022117615 0.9620000124 0.8610861301 0.9620897770
 1537.4042969  -999.250000 0.6099997163 12.860000610 12.250000954 11.199999809 3.1249861717 0.0060000001 2.0722579956 33.817001343 153.12001038 153.12016296 0.4959999919 69.091987610 0.9649999738 0.8719620109 0.9649783373
 1537.5567627  -999.250000 0.5799999237 12.829999924 12.250000954 11.199999809 3.1253330708 0.0040000002 2.0812261105 35.229999542 152.01153564 152.01757813 0.5149999857 69.069831848 0.9750000238 0.8807902932 0.9749359488
 1537.7091064  -999.250000 0.5369997025 12.786999702 12.250000954 11.199999809 3.1379253864 0.0010000000 2.0927250385 35.595001221 149.52912903 149.53569031 0.5370000005 68.963890076 0.9990000129 0.8800383210 0.9988270998
