# LAS format log file from PETREL
# Project units are specified as depth units
#==================================================================
~Version information
VERS.   2.0:
WRAP.   NO:
#==================================================================
~Well
STRT .m      1079.9069824 :
STOP .m      2540.5083008 :
STEP .m     0.00000000 :
NULL .        -999.250000 :
COMP.           : COMPANY
WELL.  25/8-9  Krap 2   : WELL
FLD.            : FIELD
LOC.            : LOCATION
SRVC.           : SERVICE COMPANY
DATE.  2018-09-11 14:48:24   : Log Export Date {yyyy-MM-dd HH:mm:ss}
PROV.           : PROVINCE
UWI.   25/8-9   : UNIQUE WELL ID
API.            : API NUMBER
#==================================================================
~Curve
DEPT .m                   : DEPTH
Lithology_geolink ._      : Lithology_geolink
BS .in                    : BS
MUDWEIGHT ._              : MUDWEIGHT
SGR .gAPI                 : SGR
RHOB .g/cm3               : RHOB
GR .gAPI                  : GR
DTC .us/ft                : DTC
DTS .us/ft                : DTS
~Parameter
#==================================================================
~Ascii
# ...
 1753.5147705  -999.250000 8.5000000000 1.2799999714 44.474998474 2.1342194080 41.460025787 146.38969421 448.60140991
 1753.6672363  -999.250000 8.5000000000 1.2799999714 43.919200897 2.1382374763 43.223278046 146.48210144 448.62008667
 1753.8195801  -999.250000 8.5000000000 1.2799999714 42.474700928 2.1407639980 43.480392456 147.58140564 448.64480591
 1753.9719238  -999.250000 8.5000000000 1.2799999714 42.967700958 2.1534054279 42.040668488 147.79460144 444.99411011
 1754.1243896  -999.250000 8.5000000000 1.2799999714 44.562801361 2.1809990406 40.378162384 146.87240601 428.90811157
 1754.2767334  -999.250000 8.5000000000 1.2799999714 45.183399200 2.2115101814 39.713993073 146.11019897 414.76431274
 1754.4291992  -999.250000 8.5000000000 1.2799999714 45.561000824 2.2220525742 39.673660278 145.12989807 409.97879028
 1754.5815430  -999.250000 8.5000000000 1.2799999714 44.459499359 2.2124507427 39.740539551 144.03709412 404.71890259
 1754.7340088  -999.250000 8.5000000000 1.2799999714 45.014801025 2.1881532669 40.110904694 143.47599792 404.52069092
 1754.8863525  -999.250000 8.5000000000 1.2799999714 46.465499878 2.1696944237 40.775402069 143.45770264 410.03860474
 1755.0388184  -999.250000 8.5000000000 1.2799999714 48.748699188 2.1621127129 41.247142792 143.80580139 411.69488525
 1755.1911621  -999.250000 8.5000000000 1.2799999714 51.234401703 2.1655480862 41.773433685 144.63439941 415.48541260
 1755.3436279  -999.250000 8.5000000000 1.2799999714 50.380001068 2.1697394848 43.390506744 145.49699402 419.13821411
 1755.4959717  -999.250000 8.5000000000 1.2799999714 49.684501648 2.1689143181 45.886295319 144.81779480 418.65032959
 1755.6484375  -999.250000 8.5000000000 1.2799999714 48.410900116 2.1680135727 47.556327820 143.82739258 418.24108887
 1755.8007813  -999.250000 8.5000000000 1.2799999714 48.428100586 2.1701683998 47.316490173 143.70739746 416.75100708
 1755.9532471  -999.250000 8.5000000000 1.2799999714 48.074001312 2.1733539104 45.735931396 143.97459412 416.07989502
 1756.1055908  -999.250000 8.5000000000 1.2799999714 47.439800262 2.1778352261 44.003578186 145.93049622 415.67990112
 1756.2579346  -999.250000 8.5000000000 1.2799999714 47.646099091 2.1740624905 42.673496246 146.47099304 419.77349854
 1756.4104004  -999.250000 8.5000000000 1.2799999714 48.061599731 2.1729159355 41.801597595 145.79229736 424.21359253
 1756.5627441  -999.250000 8.5000000000 1.2799999714 47.326999664 2.1696503162 41.790023804 146.30250549 422.24301147
 1756.7152100  -999.250000 8.5000000000 1.2799999714 46.880901337 2.1692056656 42.662399292 146.86480713 421.28610229
 1756.8675537  -999.250000 8.5000000000 1.2799999714 47.817001343 2.1562111378 43.657909393 147.33689880 427.87570190
 1757.0200195  -999.250000 8.5000000000 1.2799999714 50.059101105 2.1523561478 43.998458862 148.48460388 437.01260376
 1757.1723633  -999.250000 8.5000000000 1.2799999714 50.362400055 2.1519057751 43.438049316 149.55979919 442.34777832
 1757.3248291  -999.250000 8.5000000000 1.2799999714 48.232601166 2.1536741257 42.416137695 149.68760681 446.05560303
 1757.4771729  -999.250000 8.5000000000 1.2799999714 44.657398224 2.1526176929 41.411514282 149.49169922 452.68881226
 1757.6296387  -999.250000 8.5000000000 1.2799999714 44.409999847 2.1538801193 40.899715424 149.01019287 455.85620117
 1757.7819824  -999.250000 8.5000000000 1.2799999714 46.077999115 2.1551811695 41.138023376 148.14450073 452.68051147
 1757.9344482  -999.250000 8.5000000000 1.2799999714 46.543300629 2.1493852139 41.870826721 147.29400635 449.34829712
 1758.0867920  -999.250000 8.5000000000 1.2799999714 46.631698608 2.1429922581 42.722034454 147.11079407 445.04730225
 1758.2391357  -999.250000 8.5000000000 1.2799999714 45.718898773 2.1452615261 43.404060364 146.79829407 437.93740845
 1758.3916016  -999.250000 8.5000000000 1.2799999714 46.340000153 2.1431317329 43.877742767 146.55670166 431.62069702
 1758.5439453  -999.250000 8.5000000000 1.2799999714 44.425399780 2.1456604004 44.447631836 146.68310547 427.03689575
 1758.6964111  -999.250000 8.5000000000 1.2799999714 44.514598846 2.1467840672 45.288852692 146.53300476 423.20639038
 1758.8487549  -999.250000 8.5000000000 1.2799999714 45.932300568 2.1546719074 45.725349426 146.22669983 420.85681152
 1759.0012207  -999.250000 8.5000000000 1.2799999714 48.843898773 2.1593298912 45.130458832 145.76699829 417.82409668
 1759.1535645  -999.250000 8.5000000000 1.2799999714 49.807201385 2.1603846550 43.896968842 145.18139648 414.71719360
 1759.3060303  -999.250000 8.5000000000 1.2799999714 48.381500244 2.1585273743 42.751735687 144.78840637 413.24929810
 1759.4583740  -999.250000 8.5000000000 1.2799999714 47.584800720 2.1544656754 41.908824921 144.56860352 413.89419556
 1759.6108398  -999.250000 8.5000000000 1.2799999714 44.431400299 2.1575512886 41.376152039 144.45469666 416.03298950
 1759.7631836  -999.250000 8.5000000000 1.2799999714 43.473899841 2.1600639820 41.413208008 144.56269836 418.10000610
 1759.9156494  -999.250000 8.5000000000 1.2799999714 41.189498901 2.1867108345 41.632450104 144.66220093 414.72576904
 1760.0679932  -999.250000 8.5000000000 1.2799999714 41.354198456 2.2283957005 40.894084930 144.34010315 406.40188599
 1760.2203369  -999.250000 8.5000000000 1.2799999714 42.739101410 2.2515335083 39.151290894 143.46510315 399.38650513
 1760.3728027  -999.250000 8.5000000000 1.2799999714 43.226898193 2.2375106812 37.742355347 142.62480164 393.35049438
 1760.5251465  -999.250000 8.5000000000 1.2799999714 45.326698303 2.2011582851 38.029800415 142.07749939 388.24661255
 1760.6776123  -999.250000 8.5000000000 1.2799999714 45.173801422 2.1823668480 39.955810547 141.56689453 382.56872559
 1760.8299561  -999.250000 8.5000000000 1.2799999714 46.721599579 2.1730470657 41.985519409 141.56880188 388.78094482
 1760.9824219  -999.250000 8.5000000000 1.2799999714 46.067798615 2.1686656475 42.566772461 141.45759583 397.96759033
 1761.1347656  -999.250000 8.5000000000 1.2799999714 45.965400696 2.1773645878 41.575286865 140.88720703 399.15328979
 1761.2872314  -999.250000 8.5000000000 1.2799999714 45.020801544 2.1971130371 40.588279724 139.86630249 392.13800049
 1761.4395752  -999.250000 8.5000000000 1.2799999714 44.451400757 2.2204256058 40.341892242 138.57780457 382.00268555
 1761.5920410  -999.250000 8.5000000000 1.2799999714 45.393901825 2.2251329422 40.170673370 138.35429382 377.19659424
 1761.7443848  -999.250000 8.5000000000 1.2799999714 47.798999786 2.2011520863 39.798397064 138.63749695 375.73159790
 1761.8968506  -999.250000 8.5000000000 1.2799999714 49.207298279 2.1872973442 39.625080109 138.77070618 375.61291504
 1762.0491943  -999.250000 8.5000000000 1.2799999714 49.739498138 2.1840448380 39.672622681 139.45570374 376.83758545
 1762.2015381  -999.250000 8.5000000000 1.2799999714 46.825698853 2.1846888065 39.474376678 140.64669800 381.86764526
 1762.3540039  -999.250000 8.5000000000 1.2799999714 46.596900940 2.1786880493 39.548183441 141.96400452 385.60778809
 1762.5063477  -999.250000 8.5000000000 1.2799999714 45.385799408 2.1744639874 40.282829285 142.76240540 386.48199463
 1762.6588135  -999.250000 8.5000000000 1.2799999714 44.005500793 2.1784408092 40.864768982 143.04849243 387.30380249
 1762.8111572  -999.250000 8.5000000000 1.2799999714 42.397701263 2.1704311371 40.777214050 143.25669861 388.58856201
 1762.9636230  -999.250000 8.5000000000 1.2799999714 40.450199127 2.1727619171 40.562042236 143.48370361 392.18798828
 1763.1159668  -999.250000 8.5000000000 1.2799999714 42.959201813 2.1668913364 40.838733673 143.75579834 395.58996582
 1763.2684326  -999.250000 8.5000000000 1.2799999714 44.110099792 2.1686725616 41.354473114 144.10600281 397.08999634
 1763.4207764  -999.250000 8.5000000000 1.2799999714 46.676399231 2.1623039246 41.534069061 144.46850586 399.44790649
 1763.5732422  -999.250000 8.5000000000 1.2799999714 45.570499420 2.1600334644 41.081924438 145.05079651 402.57931519
 1763.7255859  -999.250000 8.5000000000 1.2799999714 45.026401520 2.1563534737 40.153732300 145.21380615 404.16329956
