# LAS format log file from PETREL
# Project units are specified as depth units
#==================================================================
~Version information
VERS.   2.0:
WRAP.   NO:
#==================================================================
~Well
STRT .m      1079.9069824 :
STOP .m      2540.5083008 :
STEP .m     0.00000000 :
NULL .        -999.250000 :
COMP.           : COMPANY
WELL.  25/8-9  Krap 2   : WELL
FLD.            : FIELD
LOC.            : LOCATION
SRVC.           : SERVICE COMPANY
DATE.  2018-09-11 14:48:24   : Log Export Date {yyyy-MM-dd HH:mm:ss}
PROV.           : PROVINCE
UWI.   25/8-9   : UNIQUE WELL ID
API.            : API NUMBER
#==================================================================
~Curve
DEPT .m                   : DEPTH
Lithology_geolink ._      : Lithology_geolink
BS .in                    : BS
MUDWEIGHT ._              : MUDWEIGHT
SGR .gAPI                 : SGR
RHOB .g/cm3               : RHOB
GR .gAPI                  : GR
DTC .us/ft                : DTC
DTS .us/ft                : DTS
~Parameter
#==================================================================
~Ascii
# ...
 1463.3453369  -999.250000 8.5000000000 1.2799999714 59.172100067 2.0548238754 57.290199280 153.16510010 448.83120728
 1463.4978027  -999.250000 8.5000000000 1.2799999714 60.021198273 2.0526211262 56.092201233 153.32029724 451.90759277
 1463.6501465  -999.250000 8.5000000000 1.2799999714 60.878200531 2.0591366291 55.777599335 153.51539612 450.48031616
 1463.8024902  -999.250000 8.5000000000 1.2799999714 61.891101837 2.0629572868 57.189399719 153.53889465 449.37539673
 1463.9549561  -999.250000 8.5000000000 1.2799999714 61.704700470 2.0664634705 59.332801819 153.63670349 450.32751465
 1464.1072998  -999.250000 8.5000000000 1.2799999714 59.707199097 2.0668959618 60.078300476 153.59759521 449.41067505
 1464.2597656  -999.250000 8.5000000000 1.2799999714 60.861801147 2.0641269684 59.080001831 153.64089966 448.81359863
 1464.4121094  -999.250000 8.5000000000 1.2799999714 60.387401581 2.0700376034 57.713798523 153.62959290 447.69323730
 1464.5645752  -999.250000 8.5000000000 1.2799999714 63.468601227 2.0745532513 57.513698578 153.47270203 445.37051392
 1464.7169189  -999.250000 8.5000000000 1.2799999714 63.852001190 2.0840086937 57.757900238 152.72540283 441.41848755
 1464.8693848  -999.250000 8.5000000000 1.2799999714 63.791400909 2.0864768028 57.595298767 152.05780029 438.94357300
 1465.0217285  -999.250000 8.5000000000 1.2799999714 63.587898254 2.0897681713 57.783500671 151.88621521 448.50793457
 1465.1741943  -999.250000 8.5000000000 1.2799999714 61.038700104 2.0890083313 59.038700104 150.69030762 444.46249390
 1465.3265381  -999.250000 8.5000000000 1.2799999714 61.344299316 2.0963168144 60.621601105 150.05000305 439.31179810
 1465.4790039  -999.250000 8.5000000000 1.2799999714 59.655498505 2.0988759995 61.074298859 150.02351379 435.42239380
 1465.6313477  -999.250000 8.5000000000 1.2799999714 61.873500824 2.1043469906 60.591999054 149.87910461 431.04531860
 1465.7836914  -999.250000 8.5000000000 1.2799999714 60.990600586 2.1049933434 60.555000305 149.39739990 428.86068726
 1465.9361572  -999.250000 8.5000000000 1.2799999714 63.579101563 2.1018333435 61.139301300 148.58120728 425.93820190
 1466.0885010  -999.250000 8.5000000000 1.2799999714 61.962398529 2.1027894020 61.677700043 148.10000610 417.11068726
 1466.2409668  -999.250000 8.5000000000 1.2799999714 62.746101379 2.1044836044 62.000000000 147.70710754 419.95010376
 1466.3933105  -999.250000 8.5000000000 1.2799999714 61.829101563 2.1052916050 62.354801178 147.62699890 417.29400635
 1466.5457764  -999.250000 8.5000000000 1.2799999714 62.912601471 2.1096541882 62.726898193 147.82400513 415.73431396
 1466.6981201  -999.250000 8.5000000000 1.2799999714 64.716903687 2.1171276569 62.659198761 147.14280701 411.78042603
 1466.8505859  -999.250000 8.5000000000 1.2799999714 63.893299103 2.1296789646 62.263999939 147.41290283 413.85879517
 1467.0029297  -999.250000 8.5000000000 1.2799999714 63.873298645 2.1479239464 61.610599518 147.66360474 412.40438843
 1467.1553955  -999.250000 8.5000000000 1.2799999714 62.372100830 2.1492877007 60.848300934 147.91960144 410.51400757
 1467.3077393  -999.250000 8.5000000000 1.2799999714 62.483798981 2.1341714859 60.052700043 148.25900269 409.45138550
 1467.4602051  -999.250000 8.5000000000 1.2799999714 61.769500732 2.1126079559 58.743301392 148.81300354 408.95379639
 1467.6125488  -999.250000 8.5000000000 1.2799999714 61.318199158 2.1077454090 56.760898590 149.10879517 409.48223877
 1467.7650146  -999.250000 8.5000000000 1.2799999714 60.697799683 2.1053192616 54.766498566 149.16709900 409.50900269
 1467.9173584  -999.250000 8.5000000000 1.2799999714 60.035099030 2.1068832874 53.728900909 149.26080322 409.48388672
 1468.0697021  -999.250000 8.5000000000 1.2799999714 60.193000793 2.1095719337 53.860599518 149.44590759 410.49649048
 1468.2221680  -999.250000 8.5000000000 1.2799999714 60.434101105 2.1045491695 54.722698212 149.63639832 412.38549805
 1468.3745117  -999.250000 8.5000000000 1.2799999714 60.113700867 2.1051926613 55.749801636 149.82969666 408.95510864
 1468.5269775  -999.250000 8.5000000000 1.2799999714 59.932598114 2.1016373634 55.929500580 149.90190125 409.92181396
 1468.6793213  -999.250000 8.5000000000 1.2799999714 58.343898773 2.1012039185 54.826999664 149.95399475 409.29519653
 1468.8317871  -999.250000 8.5000000000 1.2799999714 58.296298981 2.0975356102 53.294898987 150.07600403 409.25784302
 1468.9841309  -999.250000 8.5000000000 1.2799999714 58.425899506 2.0938355923 52.504699707 150.14810181 408.25570679
 1469.1365967  -999.250000 8.5000000000 1.2799999714 62.117198944 2.0997376442 52.944000244 149.75959778 407.02951050
 1469.2889404  -999.250000 8.5000000000 1.2799999714 62.530700684 2.1036562920 53.907798767 149.59590149 401.35729980
 1469.4414063  -999.250000 8.5000000000 1.2799999714 62.766300201 2.1057796478 54.720798492 149.23680115 400.94750977
 1469.5937500  -999.250000 8.5000000000 1.2799999714 60.433799744 2.1076817513 55.610099792 148.49060059 400.22940063
 1469.7462158  -999.250000 8.5000000000 1.2799999714 61.027698517 2.1146383286 56.630298615 148.26429749 400.37756348
 1469.8985596  -999.250000 8.5000000000 1.2799999714 60.337898254 2.1139082909 57.317901611 148.23719788 401.01348877
 1470.0509033  -999.250000 8.5000000000 1.2799999714 59.897899628 2.1110303402 57.474601746 148.37199402 401.34170532
 1470.2033691  -999.250000 8.5000000000 1.2799999714 62.062599182 2.1197154522 57.218101501 148.54829407 402.11291504
 1470.3557129  -999.250000 8.5000000000 1.2799999714 60.879199982 2.1188101768 56.364799500 148.81019592 402.36889648
 1470.5081787  -999.250000 8.5000000000 1.2799999714 59.027099609 2.1231541634 55.194301605 148.67720032 403.23791504
 1470.6605225  -999.250000 8.5000000000 1.2799999714 56.058399200 2.1255750656 54.882499695 149.07850647 404.00250244
 1470.8129883  -999.250000 8.5000000000 1.2799999714 53.628299713 2.1256000996 56.004299164 148.99378967 404.30639648
 1470.9653320  -999.250000 8.5000000000 1.2799999714 57.510501862 2.1253027916 57.504798889 149.28309631 403.77648926
 1471.1177979  -999.250000 8.5000000000 1.2799999714 58.373901367 2.1203520298 57.577899933 149.10189819 404.34429932
 1471.2701416  -999.250000 8.5000000000 1.2799999714 62.340400696 2.1202011108 56.714599609 149.17851257 403.74938965
 1471.4226074  -999.250000 8.5000000000 1.2799999714 60.144298553 2.1157433987 56.885501862 148.86218262 403.05590820
 1471.5749512  -999.250000 8.5000000000 1.2799999714 58.323501587 2.1110453606 58.157398224 148.89889526 402.12728882
 1471.7274170  -999.250000 8.5000000000 1.2799999714 57.741199493 2.1135771275 59.232799530 148.75010681 401.29360962
 1471.8797607  -999.250000 8.5000000000 1.2799999714 56.459999084 2.1069695950 58.978500366 148.86999512 401.21667480
 1472.0321045  -999.250000 8.5000000000 1.2799999714 57.114299774 2.1002697945 57.935398102 148.45809937 396.52120972
 1472.1845703  -999.250000 8.5000000000 1.2799999714 58.410099030 2.0942575932 57.701999664 148.49909973 399.89498901
 1472.3369141  -999.250000 8.5000000000 1.2799999714 64.497596741 2.1002366543 58.088001251 148.24850464 409.68231201
 1472.4893799  -999.250000 8.5000000000 1.2799999714 64.235000610 2.1042582989 58.391201019 148.02520752 414.54489136
 1472.6417236  -999.250000 8.5000000000 1.2799999714 64.443000793 2.1099405289 57.995399475 147.44560242 406.31228638
 1472.7941895  -999.250000 8.5000000000 1.2799999714 60.789501190 2.1195077896 56.761199951 147.25289917 404.31008911
 1472.9465332  -999.250000 8.5000000000 1.2799999714 62.216999054 2.1382193565 55.744598389 147.64390564 404.90008545
 1473.0989990  -999.250000 8.5000000000 1.2799999714 59.396099091 2.1463167667 55.512500763 147.35729980 407.88519287
 1473.2513428  -999.250000 8.5000000000 1.2799999714 59.160701752 2.1508493423 55.829601288 147.07739258 403.86511230
 1473.4038086  -999.250000 8.5000000000 1.2799999714 60.315498352 2.1437692642 55.858600616 148.37939453 406.29769897
 1473.5561523  -999.250000 8.5000000000 1.2799999714 60.029701233 2.1451854706 55.057300568 148.62809753 409.94158936
