# LAS format log file from PETREL
# Project units are specified as depth units
#==================================================================
~Version information
VERS.   2.0:
WRAP.   NO:
#==================================================================
~Well
STRT .m      1079.9069824 :
STOP .m      2540.5083008 :
STEP .m     0.00000000 :
NULL .        -999.250000 :
COMP.           : COMPANY
WELL.  25/8-9  Krap 2   : WELL
FLD.            : FIELD
LOC.            : LOCATION
SRVC.           : SERVICE COMPANY
DATE.  2018-09-11 14:48:24   : Log Export Date {yyyy-MM-dd HH:mm:ss}
PROV.           : PROVINCE
UWI.   25/8-9   : UNIQUE WELL ID
API.            : API NUMBER
#==================================================================
~Curve
DEPT .m                   : DEPTH
Lithology_geolink ._      : Lithology_geolink
BS .in                    : BS
MUDWEIGHT ._              : MUDWEIGHT
SGR .gAPI                 : SGR
RHOB .g/cm3               : RHOB
GR .gAPI                  : GR
DTC .us/ft                : DTC
DTS .us/ft                : DTS
~Parameter
#==================================================================
~Ascii
# ...
 2147.3164063 6.0000000000 8.5000000000 1.2999999523 86.031097412 2.3338408470 78.988334656 107.39610291 266.64651489
 2147.4687500 6.0000000000 8.5000000000 1.2999999523 96.243896484 2.3551220894 86.486564636 109.34729767 269.90591431
 2147.6213379 6.0000000000 8.5000000000 1.2999999523 104.19149780 2.3859057426 89.387580872 109.72010040 271.53729248
 2147.7736816 6.0000000000 8.5000000000 1.2999999523 99.330902100 2.3871855736 88.616485596 112.56770325 280.18020630
 2147.9260254 6.0000000000 8.5000000000 1.2999999523 98.653602600 2.3858289719 87.603446960 111.64299774 286.04309082
 2148.0783691 6.0000000000 8.5000000000 1.2999999523 95.054298401 2.3825635910 87.463836670 110.59599304 286.25479126
 2148.2307129 6.0000000000 8.5000000000 1.2999999523 96.993698120 2.3851437569 88.129554749 116.83789825 280.19760132
 2148.3833008 6.0000000000 8.5000000000 1.2999999523 97.050300598 2.3874595165 89.279312134 119.42340088 283.82901001
 2148.5356445 6.0000000000 8.5000000000 1.2999999523 99.693496704 2.3828902245 90.119606018 120.30120087 286.67849731
 2148.6879883 6.0000000000 8.5000000000 1.2999999523 100.36599731 2.3764250278 89.924736023 121.38089752 292.63009644
 2148.8403320 6.0000000000 8.5000000000 1.2999999523 102.11049652 2.3654482365 88.947937012 121.43219757 292.05929565
 2148.9929199 6.0000000000 8.5000000000 1.2999999523 101.06099701 2.3639249802 88.141586304 122.49800110 295.38870239
 2149.1452637 6.0000000000 8.5000000000 1.2999999523 101.12590027 2.3648793697 88.155555725 122.51399994 291.24108887
 2149.2976074 6.0000000000 8.5000000000 1.2999999523 99.730697632 2.3711767197 88.829429626 122.38860321 289.46490479
 2149.4499512 6.0000000000 8.5000000000 1.2999999523 100.92389679 2.3737480640 89.641700745 122.17010498 291.05749512
 2149.6025391 6.0000000000 8.5000000000 1.2999999523 100.78150177 2.3750748634 89.955993652 122.02339172 280.07971191
 2149.7548828 5.0000000000 8.5000000000 1.2999999523 94.882202148 2.3778505325 88.755455017 121.45149994 263.10461426
 2149.9072266 5.0000000000 8.5000000000 1.2999999523 78.659301758 2.3802540302 83.883155823 119.01309967 258.52539063
 2150.0595703 5.0000000000 8.5000000000 1.2999999523 58.499198914 2.3366556168 72.946418762 115.95120239 232.65040588
 2150.2119141 2.0000000000 8.5000000000 1.2999999523 43.831501007 2.2465949059 57.400875092 114.86080170 209.11099243
 2150.3645020 2.0000000000 8.5000000000 1.2999999523 36.581100464 2.1843812466 42.495788574 111.63809967 192.22950745
 2150.5168457 2.0000000000 8.5000000000 1.2999999523 32.410099030 2.1590125561 33.018718719 107.45939636 183.27870178
 2150.6691895 2.0000000000 8.5000000000 1.2999999523 29.753200531 2.1637959480 29.094322205 104.98290253 182.84989929
 2150.8215332 2.0000000000 8.5000000000 1.2999999523 28.888500214 2.1604726315 27.915449142 103.44200134 186.58489990
 2150.9741211 2.0000000000 8.5000000000 1.2999999523 29.181600571 2.1531424522 27.733386993 102.28009796 191.25450134
 2151.1264648 2.0000000000 8.5000000000 1.2999999523 28.980600357 2.1487758160 27.968942642 101.97769928 196.07499695
 2151.2788086 2.0000000000 8.5000000000 1.2999999523 27.840900421 2.1397747993 28.382472992 102.29409790 197.77578735
 2151.4311523 2.0000000000 8.5000000000 1.2999999523 27.778400421 2.1336364746 28.590335846 102.99120331 196.85150146
 2151.5837402 2.0000000000 8.5000000000 1.2999999523 28.374599457 2.1342844963 28.481775284 102.78009796 191.22160339
 2151.7360840 2.0000000000 8.5000000000 1.2999999523 30.017099380 2.1447775364 29.447698593 101.98030090 194.34500122
 2151.8884277 2.0000000000 8.5000000000 1.2999999523 36.699501038 2.1747667789 34.616489410 103.56269836 212.55709839
 2152.0407715 2.0000000000 8.5000000000 1.2999999523 47.253601074 2.2314980030 45.156661987 105.13910675 225.94309998
 2152.1931152 2.0000000000 8.5000000000 1.2999999523 63.899501801 2.3001646996 56.673377991 105.94650269 226.33290100
 2152.3457031 2.0000000000 8.5000000000 1.2999999523 75.164497375 2.3598527908 62.028327942 105.64409637 221.95530701
 2152.4980469 2.0000000000 8.5000000000 1.2999999523 71.503601074 2.3865969181 57.748916626 98.525299072 210.60182190
 2152.6503906 2.0000000000 8.5000000000 1.2999999523 55.823200226 2.4215250015 47.288787842 84.485298157 175.76800537
 2152.8027344 2.0000000000 8.5000000000 1.2999999523 38.947601318 2.4659004211 36.577236176 75.494796753 148.56860352
 2152.9553223 2.0000000000 8.5000000000 1.2999999523 30.177400589 2.5154466629 29.363624573 71.220497131 144.29130554
 2153.1076660 2.0000000000 8.5000000000 1.2999999523 28.563999176 2.5290317535 27.191934586 68.751296997 145.82789612
 2153.2600098 2.0000000000 8.5000000000 1.2999999523 28.061800003 2.5262596607 30.246854782 68.989898682 146.59309387
 2153.4123535 2.0000000000 8.5000000000 1.2999999523 39.819198608 2.5038743019 37.916374207 73.000999451 153.47950745
 2153.5649414 2.0000000000 8.5000000000 1.2999999523 58.194198608 2.4359230995 47.977191925 90.157501221 168.92460632
 2153.7172852 2.0000000000 8.5000000000 1.2999999523 72.987701416 2.3673095703 56.834419250 107.25229645 186.58360291
 2153.8696289 2.0000000000 8.5000000000 1.2999999523 78.748497009 2.3198063374 62.210006714 113.81960297 207.09509277
 2154.0219727 5.0000000000 8.5000000000 1.2999999523 76.867103577 2.3229210377 64.984436035 116.74349976 224.61050415
 2154.1745605 5.0000000000 8.5000000000 1.2999999523 78.144302368 2.3277077675 66.742591858 117.08209991 232.00889587
 2154.3269043 5.0000000000 8.5000000000 1.2999999523 77.264198303 2.3302481174 67.420433044 112.81890106 232.24711609
 2154.4792480 5.0000000000 8.5000000000 1.2999999523 73.039398193 2.3116958141 66.175804138 108.08969879 223.56619263
 2154.6315918 5.0000000000 8.5000000000 1.2999999523 68.036499023 2.2789356709 63.368515015 106.45709991 213.95150757
 2154.7839355 5.0000000000 8.5000000000 1.2999999523 66.311203003 2.2456924915 61.166355133 105.35489655 213.06750488
 2154.9365234 5.0000000000 8.5000000000 1.2999999523 68.829696655 2.2430384159 61.282001495 105.39109802 216.44610596
 2155.0888672 5.0000000000 8.5000000000 1.2999999523 75.552101135 2.2634327412 64.417434692 107.00099945 220.05709839
 2155.2412109 5.0000000000 8.5000000000 1.2999999523 80.904701233 2.3130359650 70.718963623 109.60459900 227.58160400
 2155.3935547 5.0000000000 8.5000000000 1.2999999523 89.057998657 2.3522255421 78.640197754 113.08730316 241.73889160
 2155.5461426 5.0000000000 8.5000000000 1.2999999523 93.638496399 2.3842875957 85.208396912 115.31629944 255.50849915
 2155.6984863 5.0000000000 8.5000000000 1.2999999523 98.501602173 2.3923418522 88.290542603 115.43769836 262.66629028
 2155.8508301 6.0000000000 8.5000000000 1.2999999523 99.362396240 2.3904438019 88.429588318 115.64779663 264.03561401
 2156.0031738 6.0000000000 8.5000000000 1.2999999523 100.73000336 2.3709814548 87.483245850 115.76219940 263.41629028
 2156.1557617 6.0000000000 8.5000000000 1.2999999523 97.090896606 2.3667747974 86.058082581 114.55030060 260.96951294
 2156.3081055 6.0000000000 8.5000000000 1.2999999523 93.700103760 2.3667981625 84.119117737 113.31099701 258.06729126
 2156.4604492 6.0000000000 8.5000000000 1.2999999523 89.032897949 2.3751363754 82.350166321 113.81420135 254.69779968
 2156.6127930 6.0000000000 8.5000000000 1.2999999523 88.840499878 2.3795173168 81.086944580 115.36250305 250.06140137
 2156.7651367 6.0000000000 8.5000000000 1.2999999523 88.409301758 2.3884963989 79.701942444 116.20349884 246.35910034
 2156.9177246 6.0000000000 8.5000000000 1.2999999523 87.448997498 2.3975265026 77.930236816 116.01090240 248.09519958
 2157.0700684 6.0000000000 8.5000000000 1.2999999523 88.492401123 2.4037709236 76.551414490 115.91310120 249.30079651
 2157.2224121 6.0000000000 8.5000000000 1.2999999523 89.767501831 2.4003694057 76.368270874 115.88249969 246.98219299
 2157.3747559 6.0000000000 8.5000000000 1.2999999523 92.870201111 2.3978519440 77.112106323 116.01249695 245.48359680
 2157.5273438 6.0000000000 8.5000000000 1.2999999523 93.019996643 2.3959364891 77.835441589 115.39360046 246.37538147
