# LAS format log file from PETREL
# Project units are specified as depth units
#==================================================================
~Version information
VERS.   2.0:
WRAP.   NO:
#==================================================================
~Well
STRT .m      376.26940918 :
STOP .m      2542.6337891 :
STEP .m     0.00000000 :
NULL .        -999.250000 :
COMP.           : COMPANY
WELL.  25/8-1  Forseti   : WELL
FLD.            : FIELD
LOC.            : LOCATION
SRVC.           : SERVICE COMPANY
DATE.  2018-09-11 14:48:23   : Log Export Date {yyyy-MM-dd HH:mm:ss}
PROV.           : PROVINCE
UWI.   25/8-1   : UNIQUE WELL ID
API.            : API NUMBER
#==================================================================
~Curve
DEPT .m                   : DEPTH
Lithology_geolink ._      : Lithology_geolink
DCAL .in                  : DCAL
CALI .in                  : CALI
BS .in                    : BS
MUDWEIGHT ._              : MUDWEIGHT
ROP .m/h                  : ROP
DRHO .g/cm3               : DRHO
RHOB .g/cm3               : RHOB
GR .gAPI                  : GR
DTC .us/ft                : DTC
DTE .us/ft                : DTE
RDEP .ohm.m               : RDEP
SP .mV                    : SP
RSHA .ohm.m               : RSHA
RMIC .ohm.m               : RMIC
RMED .ohm.m               : RMED
~Parameter
#==================================================================
~Ascii
# ...
 962.70422363  -999.250000 -8.402000427 9.5979995728 18.000000000 9.1000003815 1.5544480085  -999.250000  -999.250000 32.446998596 165.19741821 165.19448853 0.6269999743 19.720045090 0.9810000062 1.2962609529 0.9809639454
 962.85662842  -999.250000 -8.727000237 9.2729997635 18.000000000 9.1000003815 1.5233449936  -999.250000  -999.250000 33.618000031 169.31408691 169.31155396 0.6309999824 19.836101532 0.9800000191 1.3392640352 0.9800040126
 963.00903320  -999.250000 -9.130999565 8.8690004349 18.000000000 9.1000003815 1.2655069828  -999.250000  -999.250000 34.527000427 171.05952454 171.05921936 0.6340000033 20.087120056 0.9750000238 1.4003959894 0.9750200510
 963.16143799  -999.250000 -9.385999680 8.6140003204 18.000000000 9.1000003815 1.1521149874  -999.250000  -999.250000 35.069999695 171.14801025 171.14796448 0.6359999776 20.387117386 0.9729999900 1.4201689959 0.9730079770
 963.31384277  -999.250000 -9.338000298 8.6619997025 18.000000000 9.1000003815 1.1149499416  -999.250000  -999.250000 35.275001526 171.17413330 171.17530823 0.6370000243 20.680046082 0.9720000029 1.3493139744 0.9720039964
 963.46624756  -999.250000 -9.222999573 8.7770004272 18.000000000 9.1000003815 1.1003160477  -999.250000  -999.250000 35.284999847 168.27452087 168.27700806 0.6370000243 20.791969299 0.9720000029 1.2679049969 0.9720000029
 963.61865234  -999.250000 -9.204000473 8.7959995270 18.000000000 9.1000003815 1.0903079510  -999.250000  -999.250000 35.231998444 163.07868958 163.08264160 0.6370000243 20.713968277 0.9789999723 1.2700719833 0.9789719582
 963.77105713  -999.250000 -9.184000015 8.8159999847 18.000000000 9.1000003815 1.0902091265  -999.250000  -999.250000 34.873001099 160.55487061 160.55596924 0.6380000114 20.632009506 0.9829999804 1.3489279747 0.9829839468
 963.92346191  -999.250000 -8.833000183 9.1669998169 18.000000000 9.1000003815 1.0905371904  -999.250000  -999.250000 34.111999512 160.00184631 160.00294495 0.6409999728 20.655105591 0.9800000191 1.4800289869 0.9800108075
 964.07586670  -999.250000 -7.817000389 10.182999611 18.000000000 9.1000003815 1.0908645391  -999.250000  -999.250000 33.036998749 159.07231140 159.07330322 0.6489999890 20.787170410 0.9769999981 1.6224620342 0.9770107865
 964.22827148  -999.250000 -6.626000404 11.373999596 18.000000000 9.1000003815 1.0902426243  -999.250000  -999.250000 32.428001404 158.60130310 158.59957886 0.6549999714 21.000225067 0.9819999933 1.6992709637 0.9819819927
 964.38061523  -999.250000 -6.100999832 11.899001122 18.000000000 9.1000003815 1.0798462629  -999.250000  -999.250000 32.588001251 160.97549438 160.97035217 0.6570000052 21.280176163 0.9850000143 1.7287069559 0.9849879742
 964.53302002  -999.250000 -6.081999302 11.918000221 18.000000000 9.1000003815 1.0680756569  -999.250000  -999.250000 32.569000244 166.67918396 166.67002869 0.6570000052 21.717248917 0.9810000062 1.7423850298 0.9810160398
 964.68542480  -999.250000 -6.100999832 11.899001122 18.000000000 9.1000003815 1.0546666384  -999.250000  -999.250000 32.472000122 171.40650940 171.40267944 0.6570000052 22.340238571 0.9720000029 1.6850450039 0.9720360637
 964.83782959  -999.250000 -6.099999905 11.899999619 18.000000000 9.1000003815 0.9737902880  -999.250000  -999.250000 32.365001678 169.69538879 169.69973755 0.6570000052 22.936204910 0.9639999866 1.5710099936 0.9640320539
 964.99023438  -999.250000 -6.047999859 11.951999664 18.000000000 9.1000003815 0.4863985777  -999.250000  -999.250000 31.384000778 162.39013672 162.39433289 0.6570000052 23.445238113 0.9539999962 1.4699920416 0.9540400505
 965.14263916  -999.250000 -5.934000015 12.066000938 18.000000000 9.1000003815 0.3841307461  -999.250000  -999.250000 29.614999771 156.04197693 156.04469299 0.6570000052 24.039272308 0.9390000105 1.3915259838 0.9390600920
 965.29504395  -999.250000 -5.755000114 12.245000839 18.000000000 9.1000003815 0.3812013566  -999.250000  -999.250000 28.841999054 152.48249817 152.48393250 0.6570000052 24.718259811 0.9219999909 1.3289459944 0.9220680594
 965.44744873  -999.250000 -5.645999908 12.354000092 18.000000000 9.1000003815 0.3696042597  -999.250000  -999.250000 29.113000870 150.45417786 150.45474243 0.6570000052 25.367164612 0.9060000181 1.3593699932 0.9060640931
 965.59985352  -999.250000 -5.669000149 12.331000328 18.000000000 9.1000003815 0.3697232604  -999.250000  -999.250000 28.027000427 150.15586853 150.15542603 0.6570000052 25.774969101 0.8980000019 1.5479450226 0.8980320692
 965.75225830  -999.250000 -5.642000198 12.357999802 18.000000000 9.1000003815 0.3700510263  -999.250000  -999.250000 26.767999649 151.07545471 151.07423401 0.6570000052 25.696832657 0.8920000196 1.9095120430 0.8920240402
 965.90466309  -999.250000 -5.500000000 12.500000000 18.000000000 9.1000003815 0.3351713419  -999.250000  -999.250000 26.673000336 152.44908142 152.44776917 0.6570000052 25.276847839 0.8870000243 2.3916358948 0.8870200515
 966.05706787  -999.250000 -5.339000225 12.661000252 18.000000000 9.1000003815 0.2868001163  -999.250000  -999.250000 26.597999573 153.37712097 153.37667847 0.6570000052 24.895675659 0.8880000114 2.7745590210 0.8879964352
 966.20947266  -999.250000 -5.247000217 12.753000259 18.000000000 9.1000003815 0.2498689443  -999.250000  -999.250000 26.284000397 153.37454224 153.37501526 0.6549999714 24.490501404 0.8920000196 2.8574130535 0.8919855952
 966.36187744  -999.250000 -5.224999905 12.775000572 18.000000000 9.1000003815 0.2250814587  -999.250000  -999.250000 25.917999268 152.93292236 152.93319702 0.6510000229 23.868509293 0.8960000277 2.7050199509 0.8959856033
 966.51422119  -999.250000 -5.214999676 12.784998894 18.000000000 9.1000003815 0.2008128911  -999.250000  -999.250000 25.777000427 152.94915771 152.94842529 0.6470000148 23.255889893 0.8980000019 2.5447649956 0.8979920149
 966.66662598  -999.250000 -5.209000587 12.791000366 18.000000000 9.1000003815 0.1765441149  -999.250000  -999.250000 25.892000198 154.10430908 154.10232544 0.6430000067 22.980987549 0.8989999890 2.4575550556 0.8989959955
 966.81903076  -999.250000 -5.329999924 12.670000076 18.000000000 9.1000003815 0.1758394539  -999.250000  -999.250000 25.857999802 155.84959412 155.84736633 0.6389999986 22.949815750 0.9029999971 2.3905529976 0.9029839635
 966.97143555  -999.250000 -5.560999393 12.439000130 18.000000000 9.1000003815 0.1764817387  -999.250000  -999.250000 26.163000107 156.78462219 156.78430176 0.6349999905 22.487539291 0.9110000134 2.3151860237 0.9109679461
 967.12384033  -999.250000 -5.691999912 12.308000565 18.000000000 9.1000003815 0.1768282801  -999.250000  -999.250000 26.981000900 156.30445862 156.30511475 0.6309999824 21.333475113 0.9190000296 2.2604439259 0.9189679623
 967.27624512  -999.250000 -5.717999935 12.281999588 18.000000000 9.1000003815 0.1887860298  -999.250000  -999.250000 27.288000107 154.98783875 154.98838806 0.6269999743 20.021808624 0.9190000296 2.2260730267 0.9190000296
 967.42864990  -999.250000 -5.716000557 12.283999443 18.000000000 9.1000003815 0.2015721798  -999.250000  -999.250000 27.245000839 154.07409668 154.07405090 0.6230000257 19.544202805 0.9190000296 2.1755340099 0.9190000296
 967.58105469  -999.250000 -5.691000462 12.309000015 18.000000000 9.1000003815 0.2259923071  -999.250000  -999.250000 27.309999466 154.55191040 154.55075073 0.6190000176 20.050292969 0.9279999733 2.1855020523 0.9279639125
 967.73345947  -999.250000 -5.667000294 12.333000183 18.000000000 9.1000003815 0.2389829606  -999.250000  -999.250000 27.061000824 156.07450867 156.07296753 0.6190000176 20.784187317 0.9470000267 2.1741449833 0.9469239116
 967.88586426  -999.250000 -5.665999889 12.333999634 18.000000000 9.1000003815 0.2517644167  -999.250000  -999.250000 26.937000275 157.34452820 157.34400940 0.6230000257 21.252052307 0.9629999995 2.0213930607 0.9629359245
 968.03826904  -999.250000 -5.691000462 12.309000015 18.000000000 9.1000003815 0.2645549178  -999.250000  -999.250000 27.443000793 156.92654419 156.92773438 0.6269999743 21.381017685 0.9710000157 1.9315090179 0.9709711671
 968.19067383  -999.250000 -5.704000473 12.295999527 18.000000000 9.1000003815 0.2654064596  -999.250000  -999.250000 27.482999802 155.25097656 155.25247192 0.6309999824 21.423011780 0.9729999900 1.9507720470 0.9729927778
