# LAS format log file from PETREL
# Project units are specified as depth units
#==================================================================
~Version information
VERS.   2.0:
WRAP.   NO:
#==================================================================
~Well
STRT .m      376.26940918 :
STOP .m      2542.6337891 :
STEP .m     0.00000000 :
NULL .        -999.250000 :
COMP.           : COMPANY
WELL.  25/8-1  Forseti   : WELL
FLD.            : FIELD
LOC.            : LOCATION
SRVC.           : SERVICE COMPANY
DATE.  2018-09-11 14:48:23   : Log Export Date {yyyy-MM-dd HH:mm:ss}
PROV.           : PROVINCE
UWI.   25/8-1   : UNIQUE WELL ID
API.            : API NUMBER
#==================================================================
~Curve
DEPT .m                   : DEPTH
Lithology_geolink ._      : Lithology_geolink
DCAL .in                  : DCAL
CALI .in                  : CALI
BS .in                    : BS
MUDWEIGHT ._              : MUDWEIGHT
ROP .m/h                  : ROP
DRHO .g/cm3               : DRHO
RHOB .g/cm3               : RHOB
GR .gAPI                  : GR
DTC .us/ft                : DTC
DTE .us/ft                : DTE
RDEP .ohm.m               : RDEP
SP .mV                    : SP
RSHA .ohm.m               : RSHA
RMIC .ohm.m               : RMIC
RMED .ohm.m               : RMED
~Parameter
#==================================================================
~Ascii
# ...
 1819.8012695 6.0000000000 1.0470000505 13.296999931 12.250000954 11.199999809 2.1203119755 0.0140000004 2.1247909069 48.410533905 137.08602905 137.08619690 0.5789999962 67.026039124 1.1320031881 0.9851176739 1.1318957806
 1819.9537354 6.0000000000 1.0509999990 13.300999641 12.250000954 11.199999809 2.1489520073 0.0179999992 2.1215560436 47.828395844 134.99366760 135.00186157 0.5749999881 67.076072693 1.1359920502 1.0440560579 1.1359679699
 1820.1060791 6.0000000000 1.0329999924 13.283000946 12.250000954 11.199999809 2.1552612782 0.0170000009 2.1034510136 48.322483063 130.95510864 130.96588135 0.5759999752 67.175071716 1.1259864569 1.2261875868 1.1260801554
 1820.2585449 6.0000000000 1.0160000324 13.265998840 12.250000954 11.199999809 2.1555123329 0.0160000008 2.0987360477 48.925880432 127.95751190 127.96028900 0.5759999752 67.259231567 1.1089839935 1.2915636301 1.1091361046
 1820.4108887 6.0000000000 0.9770002365 13.227001190 12.250000954 11.199999809 2.1558248997 0.0170000009 2.1153550148 48.779258728 127.72252655 127.71878052 0.5740000010 67.545127869 1.0889919996 1.0815780163 1.0891602039
 1820.5633545 6.0000000000 0.9099997878 13.160000801 12.250000954 11.199999809 2.1558399200 0.0219999999 2.1230859756 49.104694366 131.50817871 131.49586487 0.5669999719 67.708709717 1.0790023804 0.9268540740 1.0790801048
 1820.7156982 6.0000000000 0.8690003753 13.119001389 12.250000954 11.199999809 2.1557588577 0.0230000000 2.1212790012 49.968681335 137.46893311 137.45394897 0.5590000153 67.348617554 1.0820047855 0.9311565757 1.0819759369
 1820.8681641 5.0000000000 0.8859997392 13.135999680 12.250000954 11.199999809 2.0544247627 0.0199999996 2.1105010509 49.566432953 141.25688171 141.25289917 0.5559999943 66.874641418 1.0880080462 0.9547656775 1.0879567862
 1821.0205078 5.0000000000 0.9599999785 13.210000038 12.250000954 11.199999809 1.9270325899 0.0149999997 2.0570559502 47.963806152 141.30261230 141.30519104 0.5580000281 66.649978638 1.0930024385 0.9640942216 1.0929600000
 1821.1729736 5.0000000000 1.1870000362 13.437000275 12.250000954 11.199999809 1.9215730429 0.0099999998 2.0366909504 46.476093292 139.18896484 139.19677734 0.5659999847 66.625839233 1.0960079432 0.9563244581 1.0959783792
 1821.3253174 5.0000000000 1.5699999332 13.819999695 12.250000954 11.199999809 1.9215879440 0.0049999999 2.0293490887 46.533958435 136.67257690 136.67962646 0.5749999881 66.525856018 1.1010040045 0.9295696020 1.1009598970
 1821.4777832 5.0000000000 1.9099998474 14.159999847 12.250000954 11.199999809 1.9218984842 0.0010000000 2.0238349438 47.729148865 135.25753784 135.25776672 0.5849999785 66.343681335 1.1060079336 0.9181965590 1.1059639454
 1821.6301270 5.0000000000 2.0069999695 14.256999969 12.250000954 11.199999809 1.9203407764 -0.002000000 2.0202050209 47.820968628 136.22290039 136.21861267 0.5899999738 66.143905640 1.1110007763 0.9591633677 1.1109598875
 1821.7824707 5.0000000000 2.0409998894 14.290999413 12.250000954 11.199999809 1.9102472067 -0.001000000 2.0000979900 46.537158966 139.46104431 139.45188904 0.5870000124 66.027000427 1.1119959354 0.9904218316 1.1119920015
 1821.9349365 5.0000000000 2.1670000553 14.416999817 12.250000954 11.199999809 1.9091413021 0.0199999996 1.9848990440 45.492786407 142.50209045 142.49783325 0.5770000219 66.025924683 1.1069952250 0.9754813313 1.1070400476
 1822.0872803 5.0000000000 2.0320000648 14.281999588 12.250000954 11.199999809 1.8981442451 0.0260000005 1.9702450037 46.472671509 142.73608398 142.73721313 0.5690000057 65.926925659 1.1009958982 0.9770843983 1.1010479927
 1822.2397461 5.0000000000 1.8380000591 14.088000298 12.250000954 11.199999809 1.8860436678 0.0230000000 1.9821829796 48.557731628 140.71534729 140.71871948 0.5699999928 65.827003479 1.0959984064 1.0155762434 1.0960400105
 1822.3920898 5.0000000000 1.8270000219 14.076998711 12.250000954 11.199999809 1.8854801655 0.0149999997 2.0246889591 49.471855164 138.52600098 138.53250122 0.5749999881 65.827003479 1.0940008163 1.0507540703 1.0940159559
 1822.5445557 5.0000000000 1.7650001049 14.015001297 12.250000954 11.199999809 1.8617607355 0.0070000002 2.0659530163 49.288581848 137.65846252 137.65873718 0.5799999833 65.826393127 1.0950056314 1.0382791758 1.0949920416
 1822.6968994 5.0000000000 1.7339999676 13.984000206 12.250000954 11.199999809 1.5660040379 0.0130000003 2.0844120979 48.762363434 138.23193359 138.22962952 0.5820000172 66.321479797 1.1020096540 0.9686394334 1.1019438505
 1822.8493652 5.0000000000 1.8689999580 14.119000435 12.250000954 11.199999809 1.5286431313 0.0160000008 2.0983250141 47.968906403 139.27673340 139.27368164 0.5830000043 66.918373108 1.1140159369 0.9281884432 1.1139134169
 1823.0017090 5.0000000000 2.1170001030 14.366999626 12.250000954 11.199999809 1.5156517029 0.0089999996 2.0964450836 47.286838531 140.61428833 140.60990906 0.5899999738 66.526199341 1.1240071058 0.9875288010 1.1239198446
 1823.1541748 5.0000000000 2.2829999924 14.532999992 12.250000954 11.199999809 1.5154050589 0.0120000001 2.0987639427 47.088661194 142.59757996 142.59201050 0.6050000191 65.528556824 1.1330096722 1.0738567114 1.1329351664
 1823.3065186 5.0000000000 2.1640000343 14.413999557 12.250000954 11.199999809 1.5154201984 0.0209999997 2.1050128937 46.876338959 143.95977783 143.96005249 0.6250000000 64.627677917 1.1390008926 1.0891658068 1.1389520168
 1823.4589844 5.0000000000 2.1210000515 14.371000290 12.250000954 11.199999809 1.5157520771 0.0270000007 2.1081280708 46.053447723 143.18070984 143.18440247 0.6409999728 64.229171753 1.1399935484 1.0276480913 1.1399928331
 1823.6113281 5.0000000000 2.2420001030 14.491999626 12.250000954 11.199999809 1.5276459455 0.0149999997 2.0663290024 46.332965851 141.06628418 141.06797791 0.6430000067 64.338241577 1.1359984875 0.9753230810 1.1360321045
 1823.7636719 5.0000000000 2.1040000916 14.354000092 12.250000954 11.199999809 1.5163024664 0.0060000001 2.0108630657 47.538372040 138.93080139 138.93455505 0.6349999905 64.643226624 1.1339999437 0.9829525352 1.1340159178
 1823.9161377 5.0000000000 1.9329998493 14.182999611 12.250000954 11.199999809 1.5094666481 0.0209999997 2.0485050678 49.254840851 137.32086182 137.32212830 0.6259999871 64.933082581 1.1339991093 1.0214456320 1.1339999437
 1824.0684814 5.0000000000 1.9589998722 14.208999634 12.250000954 11.199999809 1.4916014671 0.0270000007 2.0693120956 50.302680969 137.01179504 137.01159668 0.6190000176 65.036170959 1.1329935789 1.0633906126 1.1330080032
 1824.2209473 5.0000000000 1.9409999847 14.190999031 12.250000954 11.199999809 1.4447174072 0.0309999995 2.0792360306 49.903446198 137.11840820 137.12043762 0.6179999709 65.247268677 1.1249920130 1.0740897655 1.1250640154
 1824.3732910 5.0000000000 1.7680000067 14.017999649 12.250000954 11.199999809 1.4015303850 0.0250000004 2.0709049702 50.459812164 134.51144409 134.52116394 0.6190000176 65.577407837 1.1149920225 1.1238927841 1.1150801182
 1824.5257568 5.0000000000 1.6569998264 13.906999588 12.250000954 11.199999809 1.3933483362 0.0130000003 2.0476880074 51.472282410 130.70625305 130.70982361 0.6159999967 66.080604553 1.1049935818 1.3084098101 1.1050801277
 1824.6781006 5.0000000000 1.6579999924 13.908000946 12.250000954 11.199999809 1.4049525261 0.0120000001 2.0368490219 50.574062347 129.52774048 129.52720642 0.6129999757 66.832550049 1.0970000029 1.3505060673 1.0970641375
 1824.8305664 5.0000000000 1.6709998846 13.920999527 12.250000954 11.199999809 1.4055147171 0.0209999997 2.0375580788 48.153282166 130.82482910 130.82237244 0.6100000143 67.514175415 1.0970064402 1.1208659410 1.0970000029
 1824.9829102 5.0000000000 1.6970000267 13.946999550 12.250000954 11.199999809 1.4089659452 0.0149999997 2.0483689308 46.014183044 134.09959412 134.09439087 0.6050000191 67.731567383 1.1050056219 0.9961428046 1.1049360037
 1825.1353760 5.0000000000 1.6900000572 13.939999580 12.250000954 11.199999809 1.4175781012 0.0070000002 2.0642290115 46.246974945 137.34385681 137.34071350 0.5979999900 67.186592102 1.1119935513 1.0332341194 1.1119495630
 1825.2877197 5.0000000000 1.6540000439 13.904001236 12.250000954 11.199999809 1.4157783985 0.0020000001 2.0591669083 48.103954315 138.50021362 138.49961853 0.5870000124 66.304275513 1.1079912186 1.0732567310 1.1080321074
