# LAS format log file from PETREL
# Project units are specified as depth units
#==================================================================
~Version information
VERS.   2.0:
WRAP.   NO:
#==================================================================
~Well
STRT .m      1079.9069824 :
STOP .m      2540.5083008 :
STEP .m     0.00000000 :
NULL .        -999.250000 :
COMP.           : COMPANY
WELL.  25/8-9  Krap 2   : WELL
FLD.            : FIELD
LOC.            : LOCATION
SRVC.           : SERVICE COMPANY
DATE.  2018-09-11 14:48:24   : Log Export Date {yyyy-MM-dd HH:mm:ss}
PROV.           : PROVINCE
UWI.   25/8-9   : UNIQUE WELL ID
API.            : API NUMBER
#==================================================================
~Curve
DEPT .m                   : DEPTH
Lithology_geolink ._      : Lithology_geolink
BS .in                    : BS
MUDWEIGHT ._              : MUDWEIGHT
SGR .gAPI                 : SGR
RHOB .g/cm3               : RHOB
GR .gAPI                  : GR
DTC .us/ft                : DTC
DTS .us/ft                : DTS
~Parameter
#==================================================================
~Ascii
# ...
 2043.6843262 5.0000000000 8.5000000000 1.2999999523 64.484199524 2.2848801613 60.437358856 114.51059723 234.94871521
 2043.8367920 5.0000000000 8.5000000000 1.2999999523 64.245101929 2.2840113640 61.406547546 114.58039856 233.51440430
 2043.9891357 5.0000000000 8.5000000000 1.2999999523 65.292800903 2.2881157398 64.117393494 114.23719788 232.47349548
 2044.1416016 5.0000000000 8.5000000000 1.2999999523 66.216400146 2.3014512062 65.909103394 114.16561127 233.62789917
 2044.2939453 5.0000000000 8.5000000000 1.2999999523 65.586997986 2.3058226109 65.534523010 114.48320007 234.17160034
 2044.4464111 5.0000000000 8.5000000000 1.2999999523 65.462303162 2.3096301556 64.080001831 114.12709808 234.32890320
 2044.5987549 5.0000000000 8.5000000000 1.2999999523 66.535400391 2.3064634800 62.688060760 114.17359924 235.24470520
 2044.7512207 5.0000000000 8.5000000000 1.2999999523 67.555297852 2.3106172085 61.690391541 113.14340210 235.54570007
 2044.9035645 5.0000000000 8.5000000000 1.2999999523 66.861701965 2.3157057762 61.241832733 113.92780304 235.97909546
 2045.0560303 5.0000000000 8.5000000000 1.2999999523 66.619003296 2.3231618404 61.184135437 114.09750366 236.07940674
 2045.2083740 5.0000000000 8.5000000000 1.2999999523 66.772201538 2.3295769691 61.460712433 113.91979980 237.84269714
 2045.3607178 5.0000000000 8.5000000000 1.2999999523 67.020202637 2.3312680721 61.751865387 113.70330048 236.90600586
 2045.5131836 5.0000000000 8.5000000000 1.2999999523 64.335197449 2.3269810677 61.673454285 113.61889648 235.57420349
 2045.6655273 5.0000000000 8.5000000000 1.2999999523 61.112899780 2.3247423172 60.743492126 113.48589325 235.61610413
 2045.8179932 5.0000000000 8.5000000000 1.2999999523 59.036899567 2.3246018887 59.015953064 113.90399933 235.27360535
 2045.9703369 5.0000000000 8.5000000000 1.2999999523 59.104598999 2.3042161465 57.768894196 115.08940125 245.06359863
 2046.1228027 5.0000000000 8.5000000000 1.2999999523 61.112300873 2.2799482346 58.470001221 116.12940216 247.42590332
 2046.2751465 5.0000000000 8.5000000000 1.2999999523 65.153800964 2.2795979977 61.158966064 116.28440094 249.27769470
 2046.4276123 5.0000000000 8.5000000000 1.2999999523 66.675697327 2.3025691509 63.803546906 115.54799652 251.04319763
 2046.5799561 5.0000000000 8.5000000000 1.2999999523 67.560501099 2.3244619370 64.576637268 115.49349976 251.91119385
 2046.7324219 5.0000000000 8.5000000000 1.2999999523 67.209899902 2.3304903507 63.654529572 115.24330139 254.18870544
 2046.8847656 6.0000000000 8.5000000000 1.2999999523 68.150596619 2.3366856575 63.002586365 113.75160217 249.25930786
 2047.0372314 6.0000000000 8.5000000000 1.2999999523 71.578002930 2.3466160297 64.563034058 114.04630280 246.85450745
 2047.1895752 6.0000000000 8.5000000000 1.2999999523 73.493896484 2.3475847244 68.003356934 115.81970215 245.95849609
 2047.3419189 6.0000000000 8.5000000000 1.2999999523 77.637901306 2.3660237789 71.398719788 116.50039673 247.80718994
 2047.4943848 6.0000000000 8.5000000000 1.2999999523 77.961799622 2.3862273693 73.086013794 116.96909332 247.66920471
 2047.6467285 6.0000000000 8.5000000000 1.2999999523 77.972396851 2.4017040730 72.363243103 116.80010223 247.76879883
 2047.7991943 6.0000000000 8.5000000000 1.2999999523 75.161201477 2.3841354847 70.094261169 116.14450073 247.67630005
 2047.9515381 6.0000000000 8.5000000000 1.2999999523 72.239997864 2.3701779842 67.249916077 116.03399658 250.38609314
 2048.1040039 6.0000000000 8.5000000000 1.2999999523 70.611396790 2.3698999882 64.879280090 115.79989624 260.84970093
 2048.2563477 5.0000000000 8.5000000000 1.2999999523 69.092697144 2.3823962212 63.525730133 115.68840027 257.86801147
 2048.4086914 5.0000000000 8.5000000000 1.2999999523 66.967399597 2.4092361927 61.969188690 114.71469879 262.29800415
 2048.5612793 5.0000000000 8.5000000000 1.2999999523 66.762901306 2.4389288425 60.374450684 114.90869904 268.73120117
 2048.7136230 5.0000000000 8.5000000000 1.2999999523 65.689903259 2.4479346275 59.412082672 114.55889893 274.96359253
 2048.8659668 5.0000000000 8.5000000000 1.2999999523 65.575500488 2.4334864616 58.989646912 114.41369629 272.65969849
 2049.0183105 5.0000000000 8.5000000000 1.2999999523 62.815299988 2.4120154381 58.640518188 114.57140350 269.17529297
 2049.1708984 5.0000000000 8.5000000000 1.2999999523 65.994201660 2.3869028091 58.314224243 115.52580261 271.20129395
 2049.3232422 5.0000000000 8.5000000000 1.2999999523 70.849403381 2.3528037071 59.701744080 119.12290192 274.11740112
 2049.4755859 5.0000000000 8.5000000000 1.2999999523 74.696701050 2.3306860924 62.763168335 118.14630127 275.87478638
 2049.6279297 6.0000000000 8.5000000000 1.2999999523 74.479202271 2.3323564529 66.045478821 120.29489899 273.83969116
 2049.7802734 6.0000000000 8.5000000000 1.2999999523 73.863800049 2.3359248638 69.098220825 121.93779755 274.88461304
 2049.9328613 6.0000000000 8.5000000000 1.2999999523 74.944396973 2.3372750282 71.316551208 122.54309082 281.84710693
 2050.0852051 6.0000000000 8.5000000000 1.2999999523 73.900199890 2.3411312103 72.213531494 120.40440369 273.91000366
 2050.2375488 6.0000000000 8.5000000000 1.2999999523 73.679603577 2.3457117081 71.703048706 119.90139771 270.57940674
 2050.3898926 6.0000000000 8.5000000000 1.2999999523 72.695800781 2.3465845585 69.848861694 118.16619873 269.95181274
 2050.5424805 5.0000000000 8.5000000000 1.2999999523 70.760200500 2.3789198399 66.388145447 116.88619995 269.04458618
 2050.6948242 5.0000000000 8.5000000000 1.2999999523 67.668601990 2.4305832386 62.111408234 116.19780731 262.81741333
 2050.8471680 5.0000000000 8.5000000000 1.2999999523 68.458999634 2.4763944149 59.902557373 116.28430176 264.32070923
 2050.9995117 5.0000000000 8.5000000000 1.2999999523 70.438697815 2.4414987564 61.652851105 117.77829742 262.16839600
 2051.1520996 5.0000000000 8.5000000000 1.2999999523 73.653198242 2.3943099976 65.701606750 118.47879791 260.84219360
 2051.3044434 5.0000000000 8.5000000000 1.2999999523 73.325103760 2.3608384132 68.674476624 121.44989777 269.84341431
 2051.4567871 5.0000000000 8.5000000000 1.2999999523 73.797698975 2.3538248539 69.062881470 123.85859680 261.64160156
 2051.6091309 5.0000000000 8.5000000000 1.2999999523 73.123596191 2.3461480141 67.155731201 121.24790955 270.72720337
 2051.7614746 5.0000000000 8.5000000000 1.2999999523 70.420196533 2.3749327660 64.237159729 120.74299622 259.70779419
 2051.9140625 5.0000000000 8.5000000000 1.2999999523 69.255401611 2.4102761745 62.217453003 116.79869843 254.53327942
 2052.0664063 5.0000000000 8.5000000000 1.2999999523 68.769897461 2.4376206398 61.405391693 116.54160309 253.06379700
 2052.2187500 5.0000000000 8.5000000000 1.2999999523 65.733497620 2.4424226284 59.971103668 112.17800903 247.28269958
 2052.3710938 5.0000000000 8.5000000000 1.2999999523 61.902099609 2.5092837811 57.619945526 108.42520142 247.06990051
 2052.5236816 5.0000000000 8.5000000000 1.2999999523 65.982696533 2.5650343895 58.005069733 110.79959869 253.27209473
 2052.6760254 5.0000000000 8.5000000000 1.2999999523 80.448402405 2.5240249634 64.783737183 112.62619781 266.73440552
 2052.8283691 5.0000000000 8.5000000000 1.2999999523 97.571098328 2.4195327759 75.874610901 114.97369385 268.27029419
 2052.9807129 6.0000000000 8.5000000000 1.2999999523 101.71119690 2.3535540104 84.203231812 116.62670135 273.38598633
 2053.1333008 6.0000000000 8.5000000000 1.2999999523 96.624198914 2.3543629646 85.584228516 123.09059906 286.04000854
 2053.2856445 6.0000000000 8.5000000000 1.2999999523 90.001403809 2.3686444759 82.345405579 122.71949768 285.29580688
 2053.4379883 6.0000000000 8.5000000000 1.2999999523 86.297996521 2.4018094540 79.345214844 122.31809998 285.00518799
 2053.5903320 6.0000000000 8.5000000000 1.2999999523 85.802101135 2.4194931984 78.430404663 121.29640198 284.01480103
 2053.7426758 6.0000000000 8.5000000000 1.2999999523 85.736900330 2.4115746021 78.448127747 121.69239807 279.83520508
 2053.8952637 6.0000000000 8.5000000000 1.2999999523 88.540901184 2.3911962509 78.946495056 122.24520111 287.76760864
