# LAS format log file from PETREL
# Project units are specified as depth units
#==================================================================
~Version information
VERS.   2.0:
WRAP.   NO:
#==================================================================
~Well
STRT .m      1079.9069824 :
STOP .m      2540.5083008 :
STEP .m     0.00000000 :
NULL .        -999.250000 :
COMP.           : COMPANY
WELL.  25/8-9  Krap 2   : WELL
FLD.            : FIELD
LOC.            : LOCATION
SRVC.           : SERVICE COMPANY
DATE.  2018-09-11 14:48:24   : Log Export Date {yyyy-MM-dd HH:mm:ss}
PROV.           : PROVINCE
UWI.   25/8-9   : UNIQUE WELL ID
API.            : API NUMBER
#==================================================================
~Curve
DEPT .m                   : DEPTH
Lithology_geolink ._      : Lithology_geolink
BS .in                    : BS
MUDWEIGHT ._              : MUDWEIGHT
SGR .gAPI                 : SGR
RHOB .g/cm3               : RHOB
GR .gAPI                  : GR
DTC .us/ft                : DTC
DTS .us/ft                : DTS
~Parameter
#==================================================================
~Ascii
# ...
 1950.4156494 19.000000000 8.5000000000 1.2899999619 41.417499542 2.2725520134 44.732414246 119.96790314 251.76359558
 1950.5681152 19.000000000 8.5000000000 1.2899999619 40.630100250 2.2904148102 39.771247864 119.64040375 251.11160278
 1950.7204590 19.000000000 8.5000000000 1.2899999619 39.914501190 2.2861809731 36.861682892 119.10340881 250.39450073
 1950.8729248 19.000000000 8.5000000000 1.2899999619 43.451099396 2.2624847889 38.153514862 118.93379974 250.37780762
 1951.0252686 19.000000000 8.5000000000 1.2899999619 54.049999237 2.2391917706 44.553695679 120.37539673 249.29020691
 1951.1777344 5.0000000000 8.5000000000 1.2899999619 64.247299194 2.2461798191 53.962425232 120.87689972 247.75329590
 1951.3300781 5.0000000000 8.5000000000 1.2899999619 71.633499146 2.2747895718 61.750122070 120.69519806 248.38259888
 1951.4824219 5.0000000000 8.5000000000 1.2899999619 69.034301758 2.3078165054 64.281738281 119.75550079 250.01119995
 1951.6348877 5.0000000000 8.5000000000 1.2899999619 62.919300079 2.2909977436 60.719230652 119.49259949 249.45008850
 1951.7872314 5.0000000000 8.5000000000 1.2899999619 53.014801025 2.2339708805 52.996280670 119.93979645 245.47360229
 1951.9396973 19.000000000 8.5000000000 1.2899999619 46.177299500 2.1841747761 45.462562561 119.57279968 243.14570618
 1952.0920410 19.000000000 8.5000000000 1.2899999619 46.223999023 2.1812369823 42.827117920 119.75039673 243.29229736
 1952.2445068 19.000000000 8.5000000000 1.2899999619 49.247200012 2.2256393433 45.678115845 120.06580353 244.77780151
 1952.3968506 19.000000000 8.5000000000 1.2899999619 52.497100830 2.2846038342 49.620319366 119.65049744 246.37480164
 1952.5493164 19.000000000 8.5000000000 1.2899999619 53.881900787 2.3136432171 50.351741791 119.10549927 250.11651611
 1952.7016602 19.000000000 8.5000000000 1.2899999619 50.460201263 2.3039813042 48.232402802 118.09840393 252.99319458
 1952.8541260 19.000000000 8.5000000000 1.2899999619 49.887500763 2.2922875881 46.988986969 118.02649689 253.66619873
 1953.0064697 19.000000000 8.5000000000 1.2899999619 50.425399780 2.2956397533 47.733303070 119.51259613 251.15620422
 1953.1589355 19.000000000 8.5000000000 1.2899999619 52.805599213 2.3060317039 48.297595978 120.64429474 248.45010376
 1953.3112793 19.000000000 8.5000000000 1.2899999619 51.248500824 2.2797734737 47.162921906 121.39060211 247.64639282
 1953.4636230 19.000000000 8.5000000000 1.2899999619 46.858200073 2.2305743694 44.941444397 121.86799622 243.52380371
 1953.6160889 19.000000000 8.5000000000 1.2899999619 43.588298798 2.1951906681 42.743122101 121.73889923 242.21678162
 1953.7684326 19.000000000 8.5000000000 1.2899999619 40.816699982 2.1982376575 40.548774719 122.35590363 242.45390320
 1953.9208984 19.000000000 8.5000000000 1.2899999619 39.821998596 2.2278702259 38.530731201 121.60749817 244.00329590
 1954.0732422 19.000000000 8.5000000000 1.2899999619 38.229801178 2.2418584824 37.157997131 122.76029968 244.20559692
 1954.2257080 19.000000000 8.5000000000 1.2899999619 37.141601563 2.2404286861 36.700229645 122.64610291 244.77130127
 1954.3780518 19.000000000 8.5000000000 1.2899999619 37.100700378 2.2356808186 36.719451904 120.79989624 242.54429626
 1954.5305176 19.000000000 8.5000000000 1.2899999619 37.910900116 2.2230050564 36.815345764 120.26519012 239.59649658
 1954.6828613 19.000000000 8.5000000000 1.2899999619 39.120399475 2.2116987705 37.869064331 119.45520020 238.18190002
 1954.8353271 19.000000000 8.5000000000 1.2899999619 42.675998688 2.2057929039 40.765655518 120.01730347 241.27510071
 1954.9876709 19.000000000 8.5000000000 1.2899999619 49.655998230 2.2024555206 44.482761383 120.97760010 242.99009705
 1955.1401367 19.000000000 8.5000000000 1.2899999619 53.520999908 2.2027935982 46.732402802 121.79290771 244.82330322
 1955.2924805 19.000000000 8.5000000000 1.2899999619 53.034198761 2.2096767426 47.162418365 123.54798889 252.44439697
 1955.4449463 19.000000000 8.5000000000 1.2899999619 49.542098999 2.2270057201 47.834125519 124.96489716 258.29919434
 1955.5971680 19.000000000 8.5000000000 1.2899999619 48.991401672 2.2489120960 49.160007477 124.72129822 262.98959351
 1955.7495117 19.000000000 8.5000000000 1.2899999619 46.511798859 2.2695369720 48.521163940 125.22190094 264.21969604
 1955.9019775 19.000000000 8.5000000000 1.2899999619 42.984798431 2.2794213295 44.775520325 123.57129669 259.60900879
 1956.0543213 19.000000000 8.5000000000 1.2899999619 40.493000031 2.2780296803 40.138370514 121.62180328 256.83911133
 1956.2067871 19.000000000 8.5000000000 1.2899999619 39.147300720 2.2815365791 37.365543365 122.18109894 252.76989746
 1956.3591309 19.000000000 8.5000000000 1.2899999619 38.479999542 2.2880835533 36.347148895 119.83979797 249.58291626
 1956.5115967 19.000000000 8.5000000000 1.2899999619 35.988498688 2.3003914356 35.395385742 116.98100281 244.52760315
 1956.6639404 19.000000000 8.5000000000 1.2899999619 34.913700104 2.2986366749 34.478042603 116.22250366 236.18530273
 1956.8162842 19.000000000 8.5000000000 1.2899999619 34.543998718 2.2943758965 33.860874176 115.91560364 231.85961914
 1956.9687500 19.000000000 8.5000000000 1.2899999619 34.268901825 2.2827079296 32.894001007 116.16840363 233.76969910
 1957.1210938 19.000000000 8.5000000000 1.2899999619 32.705001831 2.2804369926 31.671918869 117.81919861 233.61430359
 1957.2735596 19.000000000 8.5000000000 1.2899999619 34.134601593 2.2745103836 31.782432556 118.75240326 238.47970581
 1957.4259033 19.000000000 8.5000000000 1.2899999619 36.958099365 2.2794060707 34.109817505 119.39579773 242.93249512
 1957.5783691 19.000000000 8.5000000000 1.2899999619 44.242900848 2.2825453281 37.472015381 119.69419861 243.52549744
 1957.7307129 19.000000000 8.5000000000 1.2899999619 44.872100830 2.2931113243 39.515857697 118.84449768 243.20809937
 1957.8831787 19.000000000 8.5000000000 1.2899999619 42.310501099 2.3003673553 39.077571869 114.32260132 237.63928223
 1958.0355225 19.000000000 8.5000000000 1.2899999619 36.277000427 2.2993221283 37.161754608 112.22319031 224.57942200
 1958.1879883 19.000000000 8.5000000000 1.2899999619 35.840301514 2.2944862843 36.839061737 109.79129791 221.77500916
 1958.3403320 19.000000000 8.5000000000 1.2899999619 46.115600586 2.2853622437 41.838832855 108.92310333 219.50830078
 1958.4927979 19.000000000 8.5000000000 1.2899999619 58.056900024 2.2962028980 50.885040283 108.21080017 215.56129456
 1958.6451416 19.000000000 8.5000000000 1.2899999619 65.634101868 2.3059213161 58.232963562 108.11009979 218.99600220
 1958.7974854 19.000000000 8.5000000000 1.2899999619 63.047500610 2.3144500256 60.096084595 108.12490082 223.07490540
 1958.9499512 19.000000000 8.5000000000 1.2899999619 57.755298615 2.3021235466 57.526374817 109.64700317 230.06370544
 1959.1022949 19.000000000 8.5000000000 1.2899999619 53.189800262 2.2963986397 55.179317474 113.23880005 232.95750427
 1959.2547607 19.000000000 8.5000000000 1.2899999619 54.007198334 2.2939441204 55.499248505 117.55560303 238.17810059
 1959.4071045 19.000000000 8.5000000000 1.2899999619 58.518398285 2.3075330257 57.670917511 118.47209930 244.14999390
 1959.5595703 19.000000000 8.5000000000 1.2899999619 64.845199585 2.3146765232 60.274742126 120.02279663 247.95429993
 1959.7119141 19.000000000 8.5000000000 1.2899999619 69.680496216 2.3103795052 63.539928436 120.50749969 250.59080505
 1959.8643799 19.000000000 8.5000000000 1.2899999619 74.781196594 2.3068642616 68.610107422 120.16139221 249.82460022
 1960.0167236 6.0000000000 8.5000000000 1.2899999619 81.471496582 2.3071925640 73.346328735 122.27529907 247.02560425
 1960.1691895 6.0000000000 8.5000000000 1.2899999619 79.451202393 2.3087718487 73.868179321 121.33910370 245.30859375
 1960.3215332 6.0000000000 8.5000000000 1.2899999619 69.028297424 2.3119435310 68.520187378 117.88729858 236.18539429
 1960.4739990 6.0000000000 8.5000000000 1.2899999619 52.238700867 2.3207430840 58.365825653 117.71269226 232.55760193
 1960.6263428 19.000000000 8.5000000000 1.2899999619 39.169399261 2.3547646999 46.277061462 115.92590332 223.85600281
