# LAS format log file from PETREL
# Project units are specified as depth units
#==================================================================
~Version information
VERS.   2.0:
WRAP.   NO:
#==================================================================
~Well
STRT .m      376.26940918 :
STOP .m      2542.6337891 :
STEP .m     0.00000000 :
NULL .        -999.250000 :
COMP.           : COMPANY
WELL.  25/8-1  Forseti   : WELL
FLD.            : FIELD
LOC.            : LOCATION
SRVC.           : SERVICE COMPANY
DATE.  2018-09-11 14:48:23   : Log Export Date {yyyy-MM-dd HH:mm:ss}
PROV.           : PROVINCE
UWI.   25/8-1   : UNIQUE WELL ID
API.            : API NUMBER
#==================================================================
~Curve
DEPT .m                   : DEPTH
Lithology_geolink ._      : Lithology_geolink
DCAL .in                  : DCAL
CALI .in                  : CALI
BS .in                    : BS
MUDWEIGHT ._              : MUDWEIGHT
ROP .m/h                  : ROP
DRHO .g/cm3               : DRHO
RHOB .g/cm3               : RHOB
GR .gAPI                  : GR
DTC .us/ft                : DTC
DTE .us/ft                : DTE
RDEP .ohm.m               : RDEP
SP .mV                    : SP
RSHA .ohm.m               : RSHA
RMIC .ohm.m               : RMIC
RMED .ohm.m               : RMED
~Parameter
#==================================================================
~Ascii
# ...
 2107.3798828 5.0000000000 3.4690001011 11.968999863 8.5000000000 11.100000381 2.8484029770 -0.034000002 2.2253890038 52.819999695 99.811607361 99.808998108 0.8920000196 12.885999680 2.2109999657  -999.250000 2.2125480175
 2107.5324707 5.0000000000 3.5230000019 12.022999763 8.5000000000 11.100000381 2.9944577217 -0.037000000 2.2003300190 55.995250702 100.75370789 100.75427246 0.9279999733 13.645253181 2.1500818729  -999.250000 2.1505856514
 2107.6848145 6.0000000000 3.6410002708 12.141000748 8.5000000000 11.100000381 3.6160020828 -0.041000001 2.1994190216 59.271125793 100.50525665 100.50794220 0.9679999948 15.679141045 2.2012066841  -999.250000 2.2005095482
 2107.8371582 6.0000000000 3.8090002537 12.309000015 8.5000000000 11.100000381 3.9768469334 -0.016000001 2.2311930656 63.090656281 98.855812073 98.865325928 0.9969999790 20.137647629 2.3301999569  -999.250000 2.3287594318
 2107.9895020 6.0000000000 3.9879999161 12.487999916 8.5000000000 11.100000381 3.9937207699 -0.001000000 2.2861330509 64.748001099 96.660293579 96.667350769 0.9890000224 26.158000946 2.4549999237  -999.250000 2.4537980556
 2108.1418457 6.0000000000 4.0050001144 12.505000114 8.5000000000 11.100000381 3.9947061539 -0.020000000 2.3072519302 61.726001740 94.929710388 94.934333801 0.9269999862 31.521997452 2.5099999905  -999.250000 2.5093839169
 2108.2944336 6.0000000000 3.8570001125 12.357000351 8.5000000000 11.100000381 3.9953792095 -0.028999999 2.2958950996 57.456806183 94.094917297 94.095550537 0.8339999914 33.284458160 2.4116649628  -999.250000 2.4129421711
 2108.4467773 6.0000000000 3.7079999447 12.207999229 8.5000000000 11.100000381 3.9963476658 -0.025000000 2.2613019943 54.211036682 94.555366516 94.551261902 0.7300000191 31.070600510 2.2025663853  -999.250000 2.2050096989
 2108.5991211 5.0000000000 3.5719997883 12.071999550 8.5000000000 11.100000381 3.9973299503 -0.027000001 2.2073919773 49.242000580 96.956550598 96.952774048 0.6380000114 26.454000473 1.9320000410  -999.250000 1.9346058369
 2108.7514648 5.0000000000 3.5060000420 12.005999565 8.5000000000 11.100000381 3.9983141422 -0.032000002 2.1095199585 42.264999390 100.37129974 100.36569977 0.5649999976 20.621999741 1.6210000515  -999.250000 1.6239904165
 2108.9040527 3.0000000000 3.5170001984 12.017000198 8.5000000000 11.100000381 3.9989094734 -0.037000000 2.1073570251 36.968406677 103.06738281 103.06532288 0.5080000162 14.230726242 1.3406666517  -999.250000 1.3436880112
 2109.0563965 3.0000000000 3.5499999523 12.050000191 8.5000000000 11.100000381 3.7535288334 -0.032000002 2.0971760750 33.480159760 104.48806763 104.48638153 0.4650000036 9.6960391998 1.1327612400  -999.250000 1.1349999905
 2109.2087402 3.0000000000 3.5669996738 12.067000389 8.5000000000 11.100000381 2.1364314556 -0.029999999 2.0941669941 31.085786819 104.90851593 104.90792084 0.4280000031 7.8497824669 0.9838224053  -999.250000 0.9854327440
 2109.3610840 3.0000000000 3.5629999638 12.063000679 8.5000000000 11.100000381 1.5632679462 -0.028999999 2.0926508904 30.952999115 104.78980255 104.79045105 0.3930000067 7.0900001526 0.8730000257  -999.250000 0.8740673065
 2109.5136719 3.0000000000 3.5570001602 12.057000160 8.5000000000 11.100000381 1.4332473278 -0.028999999 2.1071927547 31.612800598 104.59407043 104.59394836 0.3589999974 6.9138956070 0.8099423051  -999.250000 0.8106048107
 2109.6660156 3.0000000000 3.5560002327 12.055998802 8.5000000000 11.100000381 1.4290904999 -0.028999999 2.1120800972 31.487644196 104.76257324 104.76110077 0.3339999914 6.2255110741 0.7739262581  -999.250000 0.7743461132
 2109.8183594 3.0000000000 3.5590000153 12.059000969 8.5000000000 11.100000381 1.4300931692 -0.026000001 2.1083920002 31.266525269 105.61956787 105.61625671 0.3140000105 5.9223117828 0.7279103994  -999.250000 0.7284423113
 2109.9707031 3.0000000000 3.5739998817 12.073999405 8.5000000000 11.100000381 1.4426389933 -0.023000000 2.0930540562 31.593999863 106.90889740 106.90679169 0.2949999869 6.7410001755 0.6719999909  -999.250000 0.6725384593
 2110.1230469 3.0000000000 3.5980000496 12.097999573 8.5000000000 11.100000381 1.4898819923 -0.027000001 2.0736980438 31.190999985 107.84149933 107.84004974 0.2779999971 8.1020002365 0.6340000033  -999.250000 0.6344255805
 2110.2756348 3.0000000000 3.6099998951 12.109999657 8.5000000000 11.100000381 1.5390409231 -0.034000002 2.0555760860 29.470533371 108.06134796 108.06174469 0.2689999938 9.6057424545 0.6099695563  -999.250000 0.6102308035
 2110.4279785 3.0000000000 3.6040000916 12.104000092 8.5000000000 11.100000381 1.7103879452 -0.041000001 2.0514590740 27.934406281 107.77788544 107.77987671 0.2669999897 10.691617966 0.5909824371  -999.250000 0.5911827087
 2110.5803223 3.0000000000 3.5940001011 12.093999863 8.5000000000 11.100000381 2.1203989983 -0.043000001 2.0554680824 28.187999725 107.26740265 107.26905823 0.2700000107 11.076999664 0.5799999833  -999.250000 0.5801057816
 2110.7326660 3.0000000000 3.5840001106 12.083999634 8.5000000000 11.100000381 2.3228840828 -0.044000000 2.0608019829 30.642999649 106.75039673 106.75195313 0.2939999998 11.062000275 0.5770000219  -999.250000 0.5770288706
 2110.8852539 3.0000000000 3.6070001125 12.107001305 8.5000000000 11.100000381 2.4231059551 -0.041000001 2.0678060055 33.897933960 106.38105011 106.38220978 0.3280000091 10.775825500 0.5830400586  -999.250000 0.5829424262
 2111.0375977 3.0000000000 3.6639997959 12.163998604 8.5000000000 11.100000381 2.4294478893 -0.039000001 2.0791609287 36.351795197 105.85200500 105.85465240 0.3560000062 10.668358803 0.6080608964  -999.250000 0.6077595949
 2111.1899414 3.0000000000 3.7200000286 12.220000267 8.5000000000 11.100000381 2.4766583443 -0.037000000 2.1298320293 38.723033905 104.41558838 104.42129517 0.3840000033 11.519000053 0.6460896134  -999.250000 0.6456346512
 2111.3422852 3.0000000000 3.7520000935 12.251999855 8.5000000000 11.100000381 2.4326748848 -0.035000000 2.1822710037 42.487998962 102.22440338 102.22798157 0.4120000005 14.015000343 0.7020000219  -999.250000 0.7014615536
 2111.4948730 3.0000000000 3.7439997196 12.244000435 8.5000000000 11.100000381 2.4313881397 -0.033000000 2.2102088928 43.640842438 100.43582153 100.43649292 0.4530000091 18.474134445 0.7830929160  -999.250000 0.7822223902
 2111.6472168 3.0000000000 3.7029998302 12.203000069 8.5000000000 11.100000381 2.4325330257 -0.030999999 2.1834530830 41.043941498 99.891426086 99.890388489 0.4909999967 20.421819687 0.8409935832  -999.250000 0.8404422998
 2111.7995605 3.0000000000 3.6540000439 12.154000282 8.5000000000 11.100000381 2.3388397694 -0.035999998 2.1086421013 37.263500214 100.82238770 100.81578064 0.4979999959 17.188550949 0.8369392157  -999.250000 0.8370384574
 2111.9519043 3.0000000000 3.6229999065 12.123000145 8.5000000000 11.100000381 2.1465170383 -0.041999999 2.0716900826 33.207000732 102.49130249 102.48587799 0.4779999852 13.163999557 0.7990000248  -999.250000 0.7993654013
 2112.1042480 3.0000000000 3.6070001125 12.107001305 8.5000000000 11.100000381 1.9493390322 -0.046999998 2.0728108883 31.313999176 103.41149902 103.40996552 0.4189999998 11.371999741 0.7590000033  -999.250000 0.7594479918
 2112.2568359 3.0000000000 3.5999999046 12.099999428 8.5000000000 11.100000381 1.8466684818 -0.045000002 2.0832879543 30.591899872 103.29491425 103.29608917 0.3389999866 10.590296745 0.7350016236  -999.250000 0.7352308035
 2112.4091797 3.0000000000 3.6009998322 12.100999832 8.5000000000 11.100000381 1.8307067156 -0.037000000 2.0953741074 30.531452179 102.98654938 102.98729706 0.3039999902 9.5273447037 0.7359840274  -999.250000 0.7359904051
 2112.5615234 3.0000000000 3.5959999561 12.095999718 8.5000000000 11.100000381 1.8910931349 -0.030999999 2.0941100121 31.437000275 102.89150238 102.89166260 0.3070000112 8.4940004349 0.7260000110  -999.250000 0.7260961533
 2112.7138672 3.0000000000 3.5859999657 12.086001396 8.5000000000 11.100000381 1.8949679136 -0.028999999 2.0964601040 30.677000046 103.04879761 103.04847717 0.3070000112 7.5219998360 0.6859999895  -999.250000 0.6863846183
 2112.8664551 3.0000000000 3.5750000477 12.074999809 8.5000000000 11.100000381 1.8958777189 -0.033000000 2.0966734886 29.697257996 103.34120941 103.34058380 0.3070000112 7.0465607643 0.6479679346  -999.250000 0.6483647823
