# LAS format log file from PETREL
# Project units are specified as depth units
#==================================================================
~Version information
VERS.   2.0:
WRAP.   NO:
#==================================================================
~Well
STRT .m      376.26940918 :
STOP .m      2542.6337891 :
STEP .m     0.00000000 :
NULL .        -999.250000 :
COMP.           : COMPANY
WELL.  25/8-1  Forseti   : WELL
FLD.            : FIELD
LOC.            : LOCATION
SRVC.           : SERVICE COMPANY
DATE.  2018-09-11 14:48:23   : Log Export Date {yyyy-MM-dd HH:mm:ss}
PROV.           : PROVINCE
UWI.   25/8-1   : UNIQUE WELL ID
API.            : API NUMBER
#==================================================================
~Curve
DEPT .m                   : DEPTH
Lithology_geolink ._      : Lithology_geolink
DCAL .in                  : DCAL
CALI .in                  : CALI
BS .in                    : BS
MUDWEIGHT ._              : MUDWEIGHT
ROP .m/h                  : ROP
DRHO .g/cm3               : DRHO
RHOB .g/cm3               : RHOB
GR .gAPI                  : GR
DTC .us/ft                : DTC
DTE .us/ft                : DTE
RDEP .ohm.m               : RDEP
SP .mV                    : SP
RSHA .ohm.m               : RSHA
RMIC .ohm.m               : RMIC
RMED .ohm.m               : RMED
~Parameter
#==================================================================
~Ascii
# ...
 1678.8312988 6.0000000000 1.1599999666 13.409998894 12.250000954 11.199999809 15.098569870 0.0030000000 2.0865170956 49.568000793 145.51789856 145.51370239 0.6629999876 67.056999207 1.1809999943 1.0957870483 1.1810320616
 1678.9837646 6.0000000000 1.1089999676 13.359000206 12.250000954 11.199999809 15.216920853 0.0030000000 2.0905520916 49.151000977 148.31050110 148.30815125 0.6589999795 67.397003174 1.1829999685 1.0372689962 1.1829839945
 1679.1361084 5.0000000000 1.0570000410 13.307000160 12.250000954 11.199999809 15.510410309 0.0030000000 2.0852029324 47.751998901 150.45179749 150.44914246 0.6570000052 67.433998108 1.1859999895 1.0202300549 1.1859759092
 1679.2885742 5.0000000000 1.0049999952 13.255000114 12.250000954 11.199999809 16.322359085 0.0030000000 2.0790519714 46.299999237 150.72720337 150.72708130 0.6539999843 67.384002686 1.1840000153 1.0180209875 1.1840144396
 1679.4409180 5.0000000000 0.9530000687 13.203000069 12.250000954 11.199999809 18.648899078 0.0089999996 2.0781569481 45.856998444 149.00920105 149.00923157 0.6499999762 67.383003235 1.1770000458 1.0138410330 1.1770560741
 1679.5933838 5.0000000000 0.8999996781 13.150000572 12.250000954 11.199999809 20.723749161 0.0099999998 2.0795099735 45.255001068 146.18209839 146.18318176 0.6460000277 67.413002014 1.1699999571 1.0321880579 1.1700503826
 1679.7457275 5.0000000000 0.8750000000 13.125000000 12.250000954 11.199999809 21.175680161 0.0049999999 2.0836610794 45.009998322 143.84120178 143.84243774 0.6420000196 67.358001709 1.1629999876 1.0497859716 1.1630560160
 1679.8981934 5.0000000000 0.8850002289 13.135000229 12.250000954 11.199999809 21.234260559 0.0010000000 2.0965030193 46.258998871 142.84910583 142.84962463 0.6420000196 67.309997559 1.1569999456 1.0472129583 1.1570432186
 1680.0505371 5.0000000000 0.8870000243 13.137000084 12.250000954 11.199999809 21.236219406 0.0060000001 2.1058518887 47.782001495 143.26150513 143.26155090 0.6470000148 67.205001831 1.1499999762 1.0339729786 1.1500560045
 1680.2030029 6.0000000000 0.8629999161 13.112999916 12.250000954 11.199999809 21.177310944 0.0130000003 2.1207699776 48.925998688 144.06230164 144.06158447 0.6549999714 67.099998474 1.1440000534 1.0147579908 1.1440433264
 1680.3553467 6.0000000000 0.8290004134 13.079000473 12.250000954 11.199999809 21.157930374 0.0160000008 2.1438090801 49.762001038 144.18649292 144.18659973 0.6629999876 67.143997192 1.1460000277 1.0281410217 1.1459840536
 1680.5076904 6.0000000000 0.7950001359 13.044998169 12.250000954 11.199999809 21.065029144 0.0089999996 2.1547689438 50.193000793 144.38330078 144.38265991 0.6710000038 67.152999878 1.1529999971 1.0561159849 1.1529438496
 1680.6601563 5.0000000000 0.7670002580 13.016999245 12.250000954 11.199999809 20.305530548 0.0030000000 2.1821780205 49.542999268 145.13250732 145.13246155 0.6769999862 67.130996704 1.1529999971 1.0363090038 1.1529999971
 1680.8125000 5.0000000000 0.7499999404 13.000000954 12.250000954 11.199999809 19.732309341 0.0109999999 2.2074170113 48.194999695 146.05580139 146.05404663 0.6819999814 66.975997925 1.1469999552 0.9982100129 1.1470479965
 1680.9649658 5.0000000000 0.7379998565 12.987999916 12.250000954 11.199999809 19.521520615 0.0179999992 2.1648290157 46.847999573 146.59069824 146.59039307 0.6909999847 66.737998962 1.1430000067 0.9609581232 1.1430320740
 1681.1173096 5.0000000000 0.7270001769 12.977000237 12.250000954 11.199999809 19.512800217 0.0120000001 2.1172709465 45.501998901 146.69529724 146.69505310 0.7009999752 66.707000732 1.1419999599 0.9276534915 1.1420079470
 1681.2697754 5.0000000000 0.7539997101 13.004000664 12.250000954 11.199999809 19.512800217 0.0049999999 2.0860199928 44.229000092 146.93060303 146.93052673 0.7089999914 66.842002869 1.1469999552 0.9617534876 1.1469599009
 1681.4221191 5.0000000000 0.8179997802 13.068000793 12.250000954 11.199999809 19.453889847 0.0020000001 2.0786209106 43.311000824 146.95370483 146.95370483 0.7099999785 67.044998169 1.1549999714 1.0510790348 1.1549358368
 1681.5745850 5.0000000000 0.8380002975 13.088001251 12.250000954 11.199999809 19.435129166 0.0020000001 2.0748679638 43.074001312 146.83990479 146.83998108 0.7070000172 67.147003174 1.1629999876 1.1143360138 1.1629422903
 1681.7269287 5.0000000000 0.8059998751 13.056000710 12.250000954 11.199999809 19.391460419 0.0040000002 2.0616240501 43.484001160 147.15800476 147.15754700 0.6999999881 67.214996338 1.1670000553 1.1380790472 1.1669679880
 1681.8793945 5.0000000000 0.7580003738 13.008000374 12.250000954 11.199999809 19.373769760 0.0070000002 2.0482239723 43.987998962 147.57800293 147.57783508 0.6880000234 67.385002136 1.1590000391 1.1644669771 1.1590577364
 1682.0317383 5.0000000000 0.7030001283 12.953000069 12.250000954 11.199999809 19.240169525 0.0089999996 2.0547499657 43.919998169 147.95930481 147.95925903 0.6729999781 67.554000854 1.1449999809 1.1792459488 1.1451120377
 1682.1842041 5.0000000000 0.6479998231 12.897998810 12.250000954 11.199999809 18.806829453 0.0099999998 2.0782198906 41.868000031 148.35220337 148.35185242 0.6570000052 67.565002441 1.1319999695 1.1519409418 1.1320936680
 1682.3365479 5.0000000000 0.6009997725 12.850999832 12.250000954 11.199999809 18.524160385 0.0109999999 2.0871419907 39.061000824 148.63940430 148.63920593 0.6409999728 67.302001953 1.1230000257 1.1111420393 1.1230720282
 1682.4888916 5.0000000000 0.5869998932 12.836997986 12.250000954 11.199999809 18.394309998 0.0130000003 2.0853319168 38.231998444 149.05090332 149.04992676 0.6259999871 67.054000854 1.1160000563 1.0641870499 1.1160562038
 1682.6413574 5.0000000000 0.5970001221 12.847000122 12.250000954 11.199999809 18.286319733 0.0140000004 2.0771169662 38.972999573 149.70050049 149.70048523 0.6110000014 67.007003784 1.1080000401 1.0084700584 1.1080640554
 1682.7937012 5.0000000000 0.6070004106 12.857000351 12.250000954 11.199999809 18.281499863 0.0099999998 2.0759210587 40.653999329 150.22979736 150.22894287 0.5970000029 67.000999451 1.1009999514 0.9871286154 1.1010560989
 1682.9461670 5.0000000000 0.6190003753 12.869000435 12.250000954 11.199999809 18.281499863 0.0040000002 2.0626521111 42.384998322 150.24980164 150.24995422 0.5830000043 67.044998169 1.0959999561 0.9993647933 1.0960400105
 1683.0985107 5.0000000000 0.6359996796 12.885999680 12.250000954 11.199999809 18.281499863 -0.003000000 2.0459189415 43.358001709 149.71659851 149.71809387 0.5690000057 67.124000549 1.0950000286 1.0049560070 1.0950080156
 1683.2509766 5.0000000000 0.6540002823 12.904001236 12.250000954 11.199999809 18.281499863 0.0000000000 2.0510909557 43.755001068 148.83691406 148.83731079 0.5580000281 67.217002869 1.0950000286 1.0171920061 1.0950000286
 1683.4033203 5.0000000000 0.6780005097 12.927999496 12.250000954 11.199999809 18.281499863 0.0080000004 2.0582959652 43.533000946 147.86830139 147.86906433 0.5500000119 67.425003052 1.0959999561 1.0516259670 1.0959919691
 1683.5557861 5.0000000000 0.7180004716 12.968000412 12.250000954 11.199999809 18.281499863 0.0130000003 2.0533161163 43.199001312 146.75210571 146.75256348 0.5419999957 67.655998230 1.0980000496 1.0658470392 1.0979856253
 1683.7081299 5.0000000000 0.7679995298 13.017999649 12.250000954 11.199999809 18.281499863 0.0089999996 2.0469489098 43.236999512 145.32029724 145.32153320 0.5370000005 67.928001404 1.1009999514 1.0413559675 1.1009759903
 1683.8605957 5.0000000000 0.8140001297 13.064000130 12.250000954 11.199999809 18.281499863 0.0040000002 2.0489940643 43.409999847 144.05039978 144.05090332 0.5339999795 68.313003540 1.1009999514 1.0238560438 1.1009999514
 1684.0129395 5.0000000000 0.8529995680 13.102999687 12.250000954 11.199999809 18.281499863 0.0000000000 2.0602779388 42.976001740 143.54800415 143.54801941 0.5339999795 68.625000000 1.0970000029 1.0300910473 1.0970320702
 1684.1654053 5.0000000000 0.8920002580 13.142000198 12.250000954 11.199999809 18.281499863 0.0000000000 2.0698950291 42.291999817 143.91720581 143.91647339 0.5370000005 68.742996216 1.0920000076 1.0426110029 1.0920360088
 1684.3177490 5.0000000000 0.9110003114 13.161000252 12.250000954 11.199999809 18.281499863 0.0080000004 2.0815091133 42.953998566 144.78689575 144.78607178 0.5400000215 68.835998535 1.0870000124 1.0554959774 1.0870400667
