# LAS format log file from PETREL
# Project units are specified as depth units
#==================================================================
~Version information
VERS.   2.0:
WRAP.   NO:
#==================================================================
~Well
STRT .m      376.26940918 :
STOP .m      2542.6337891 :
STEP .m     0.00000000 :
NULL .        -999.250000 :
COMP.           : COMPANY
WELL.  25/8-1  Forseti   : WELL
FLD.            : FIELD
LOC.            : LOCATION
SRVC.           : SERVICE COMPANY
DATE.  2018-09-11 14:48:23   : Log Export Date {yyyy-MM-dd HH:mm:ss}
PROV.           : PROVINCE
UWI.   25/8-1   : UNIQUE WELL ID
API.            : API NUMBER
#==================================================================
~Curve
DEPT .m                   : DEPTH
Lithology_geolink ._      : Lithology_geolink
DCAL .in                  : DCAL
CALI .in                  : CALI
BS .in                    : BS
MUDWEIGHT ._              : MUDWEIGHT
ROP .m/h                  : ROP
DRHO .g/cm3               : DRHO
RHOB .g/cm3               : RHOB
GR .gAPI                  : GR
DTC .us/ft                : DTC
DTE .us/ft                : DTE
RDEP .ohm.m               : RDEP
SP .mV                    : SP
RSHA .ohm.m               : RSHA
RMIC .ohm.m               : RMIC
RMED .ohm.m               : RMED
~Parameter
#==================================================================
~Ascii
# ...
 1391.2526855  -999.250000 0.5120000839 12.762001038 12.250000954 10.399999619 2.0452189445 0.0020000001 2.0268299580 38.937000275 150.94490051 150.95152283 0.6420000196 66.884002686 1.1449999809 1.0352079868 1.1450504065
 1391.4051514  -999.250000 0.5080003738 12.758001328 12.250000954 10.399999619 2.1153960228 0.0140000004 2.0330240726 40.196998596 149.37229919 149.36921692 0.6409999728 66.971000671 1.1289999485 1.0266629457 1.1291024685
 1391.5574951  -999.250000 0.5050001144 12.755000114 12.250000954 10.399999619 2.1291029453 0.0109999999 2.0427680016 43.869998932 154.26370239 154.26129150 0.6370000243 67.508003235 1.1130000353 0.9604467154 1.1131153107
 1391.7099609  -999.250000 0.4890002906 12.739000320 12.250000954 10.399999619 2.1295928955 0.0109999999 2.0540120602 46.001998901 158.52560425 158.52229309 0.6290000081 67.818000793 1.1059999466 0.9251793027 1.1060447693
 1391.8623047  -999.250000 0.4630002677 12.713000298 12.250000954 10.399999619 2.1311619282 0.0149999997 2.0578510761 45.067001343 159.05239868 159.05220032 0.6209999919 67.959999084 1.1030000448 0.9309285283 1.1030216217
 1392.0147705  -999.250000 0.4329996109 12.683000565 12.250000954 10.399999619 2.1418979168 0.0060000001 2.0658469200 43.638000488 157.62570190 157.62753296 0.6169999838 68.102996826 1.1059999466 0.9451094270 1.1059807539
 1392.1671143  -999.250000 0.3979997933 12.647999763 12.250000954 10.399999619 2.1423881054 -0.007000000 2.0828640461 43.277999878 154.77070618 154.77178955 0.6129999757 68.250999451 1.1189999580 0.9587147832 1.1189062595
 1392.3194580  -999.250000 0.3730000854 12.623000145 12.250000954 10.399999619 2.1439568996 -0.018999999 2.1224770546 44.444000244 146.53950500 146.55256653 0.6039999723 68.371002197 1.1390000582 1.1617079973 1.1388558149
 1392.4719238  -999.250000 0.4180001915 12.668000221 12.250000954 10.399999619 2.1543800831 -0.016000001 2.1630880833 44.436000824 139.39520264 139.40043640 0.5950000286 68.214996338 1.1560000181 1.3404810429 1.1558910608
 1392.6242676  -999.250000 0.5070000291 12.756999969 12.250000954 10.399999619 2.1551690102 0.0120000001 2.1615939140 42.720001221 140.24130249 140.23744202 0.5910000205 67.884002686 1.1579999924 1.1402280331 1.1579855680
 1392.7767334  -999.250000 0.5830001831 12.832999229 12.250000954 10.399999619 2.1567521095 0.0120000001 2.0862319469 40.972999573 143.78590393 143.78207397 0.5879999995 67.585998535 1.1460000277 0.9565361738 1.1460769176
 1392.9290771  -999.250000 0.6450005174 12.895000458 12.250000954 10.399999619 2.2998559475 0.0080000004 2.0478339195 40.026000977 146.53419495 146.53190613 0.5830000043 67.359001160 1.1280000210 0.9282485843 1.1281297207
 1393.0815430  -999.250000 0.6639996767 12.913999557 12.250000954 10.399999619 3.5679960251 0.0140000004 2.0413620472 39.897998810 149.24040222 149.23730469 0.5740000010 67.300003052 1.1039999723 0.8821195960 1.1041538715
 1393.2338867  -999.250000 0.6459998488 12.896000862 12.250000954 10.399999619 3.7003231049 0.0149999997 2.0393030643 40.911998749 151.94679260 151.94451904 0.5630000234 67.422996521 1.0839999914 0.8641818762 1.0841441154
 1393.3863525  -999.250000 0.5509995818 12.800999641 12.250000954 10.399999619 3.7040538788 0.0189999994 2.0364220142 42.723999023 154.65429688 154.65002441 0.5529999733 67.638000488 1.0720000267 0.8722562790 1.0720769167
 1393.5386963  -999.250000 0.4189997017 12.668999672 12.250000954 10.399999619 3.7040681839 0.0280000009 2.0506670475 43.708999634 157.32949829 157.32826233 0.5460000038 67.903999329 1.0640000105 0.8815137744 1.0640577078
 1393.6911621  -999.250000 0.3400002122 12.590000153 12.250000954 10.399999619 3.7040681839 0.0289999992 2.0353078842 43.710998535 159.53450012 159.53286743 0.5429999828 68.127998352 1.0590000153 0.8835049868 1.0590320826
 1393.8435059  -999.250000 0.2829999924 12.532999039 12.250000954 10.399999619 3.7043817043 0.0160000008 2.0132939816 43.185001373 160.58477783 160.58439636 0.5389999747 68.241996765 1.0529999733 0.8836625218 1.0530432463
 1393.9959717  -999.250000 0.2399997860 12.489999771 12.250000954 10.399999619 3.7043960094 0.0030000000 1.9996980429 42.818000793 160.50848389 160.50904846 0.5350000262 68.268997192 1.0429999828 0.8837903738 1.0430641174
 1394.1483154  -999.250000 0.2399997860 12.489999771 12.250000954 10.399999619 3.7062785625 0.0049999999 2.0117869377 43.012001038 160.24481201 160.24494934 0.5320000052 68.231002808 1.0269999504 0.8929445744 1.0271152258
 1394.3006592  -999.250000 0.2670001984 12.517000198 12.250000954 10.399999619 3.7355358601 0.0109999999 2.0352990627 43.652000427 160.84689331 160.84597778 0.5320000052 68.163002014 1.0110000372 0.9226647019 1.0111154318
 1394.4531250  -999.250000 0.2849997878 12.534999847 12.250000954 10.399999619 3.9078247547 0.0189999994 2.0660400391 43.888999939 162.23448181 162.23274231 0.5360000134 68.040000916 1.0019999743 0.9164959788 1.0020576715
 1394.6054688  -999.250000 0.2899999917 12.539999008 12.250000954 10.399999619 3.9511268139 0.0160000008 2.0954949856 43.132999420 163.24940491 163.24809265 0.5460000038 67.901000977 1.0080000162 0.8687642813 1.0079567432
 1394.7579346  -999.250000 0.2779999077 12.527998924 12.250000954 10.399999619 3.9743993282 -0.002000000 2.1564819813 42.845001221 161.05749512 161.06172180 0.5559999943 67.795997620 1.0260000229 0.8483421206 1.0258846283
 1394.9102783  -999.250000 0.2539997101 12.503999710 12.250000954 10.399999619 3.9873127937 -0.018999999 2.2467010021 42.915000916 153.96209717 153.96784973 0.5590000153 67.724998474 1.0540000200 0.8431863785 1.0537983179
 1395.0627441  -999.250000 0.2299994975 12.479998589 12.250000954 10.399999619 3.9878609180 -0.017999999 2.3363330364 41.900001526 145.54409790 145.55328369 0.5580000281 67.791000366 1.0789999962 0.8375120163 1.0788397789
 1395.2150879  -999.250000 0.2130003124 12.463000298 12.250000954 10.399999619 3.9997801781 0.0030000000 2.2976779938 42.811000824 139.39050293 139.39488220 0.5630000234 67.958000183 1.0889999866 0.8402174711 1.0889279842
 1395.3675537  -999.250000 0.2250003964 12.474999428 12.250000954 10.399999619 4.0003280640 0.0040000002 2.1812479496 44.735000610 136.24530029 136.24864197 0.5699999928 68.166000366 1.0989999771 0.8461872935 1.0989358425
 1395.5198975  -999.250000 0.2620001137 12.512000084 12.250000954 10.399999619 4.0006418228 -0.015000000 2.0827848911 43.046001434 137.25950623 137.25889587 0.5740000010 68.335998535 1.1180000305 0.8447216749 1.1178631783
 1395.6723633  -999.250000 0.2790003121 12.529000282 12.250000954 10.399999619 4.0006561279 -0.009000000 2.0977230072 39.768001556 141.49519348 141.49172974 0.5730000138 68.430999756 1.1239999533 0.8701285720 1.1239614487
 1395.8247070  -999.250000 0.2799997032 12.529998779 12.250000954 10.399999619 4.0006561279 0.0209999997 2.1033248901 37.092998505 145.29200745 145.29045105 0.5630000234 68.474998474 1.1009999514 0.9706382155 1.1011656523
 1395.9771729  -999.250000 0.2759999931 12.526000977 12.250000954 10.399999619 3.8507237434 0.0240000002 2.0848019123 35.615001678 146.94009399 146.93838501 0.5500000119 68.579002380 1.0750000477 0.9901980758 1.0751667023
 1396.1295166  -999.250000 0.2679995894 12.517999649 12.250000954 10.399999619 2.9436099529 0.0060000001 2.0420210361 36.148998260 148.67889404 148.67822266 0.5410000086 68.672996521 1.0599999428 0.8921527863 1.0601080656
 1396.2818604  -999.250000 0.2600001991 12.510000229 12.250000954 10.399999619 2.7990350723 -0.004000000 2.0384860039 37.541999817 153.32879639 153.32131958 0.5289999843 68.584999084 1.0440000296 0.8514102101 1.0441154242
 1396.4343262  -999.250000 0.2530002892 12.503000259 12.250000954 10.399999619 2.7826859951 -0.002000000 2.0234100819 38.772998810 159.92520142 159.91728210 0.5170000196 68.480003357 1.0249999762 0.8474224210 1.0251218081
 1396.5866699  -999.250000 0.2460002899 12.496000290 12.250000954 10.399999619 2.7730560303 -0.003000000 2.0075819492 39.633998871 166.03520203 166.02569580 0.5109999776 68.449996948 1.0130000114 0.8283330202 1.0130864382
 1396.7391357  -999.250000 0.2519999146 12.501998901 12.250000954 10.399999619 2.7701280117 -0.002000000 2.0032401085 40.276000977 169.57359314 169.57060242 0.5080000162 68.444999695 1.0049999952 0.8172820807 1.0050512552
