# LAS format log file from PETREL
# Project units are specified as depth units
#==================================================================
~Version information
VERS.   2.0:
WRAP.   NO:
#==================================================================
~Well
STRT .m      1079.9069824 :
STOP .m      2540.5083008 :
STEP .m     0.00000000 :
NULL .        -999.250000 :
COMP.           : COMPANY
WELL.  25/8-9  Krap 2   : WELL
FLD.            : FIELD
LOC.            : LOCATION
SRVC.           : SERVICE COMPANY
DATE.  2018-09-11 14:48:24   : Log Export Date {yyyy-MM-dd HH:mm:ss}
PROV.           : PROVINCE
UWI.   25/8-9   : UNIQUE WELL ID
API.            : API NUMBER
#==================================================================
~Curve
DEPT .m                   : DEPTH
Lithology_geolink ._      : Lithology_geolink
BS .in                    : BS
MUDWEIGHT ._              : MUDWEIGHT
SGR .gAPI                 : SGR
RHOB .g/cm3               : RHOB
GR .gAPI                  : GR
DTC .us/ft                : DTC
DTS .us/ft                : DTS
~Parameter
#==================================================================
~Ascii
# ...
 1566.9772949  -999.250000 8.5000000000 1.2799999714 51.224899292 2.1181635857 50.159507751 143.45530701 412.45941162
 1567.1296387  -999.250000 8.5000000000 1.2799999714 50.270698547 2.1182000637 49.103145599 143.28179932 415.41699219
 1567.2821045  -999.250000 8.5000000000 1.2799999714 50.437099457 2.1160247326 47.853298187 143.66780090 416.81051636
 1567.4344482  -999.250000 8.5000000000 1.2799999714 53.499599457 2.1183712482 47.515869141 144.44560242 417.34521484
 1567.5869141  -999.250000 8.5000000000 1.2799999714 54.267200470 2.1315507889 48.487720490 146.48519897 423.99951172
 1567.7392578  -999.250000 8.5000000000 1.2799999714 52.968601227 2.1701021194 49.635982513 152.07209778 438.40579224
 1567.8916016  -999.250000 8.5000000000 1.2799999714 51.468601227 2.2624814510 49.271884918 152.84320068 433.47799683
 1568.0440674  -999.250000 8.5000000000 1.2799999714 45.283699036 2.3770213127 46.781993866 149.85029602 431.96578979
 1568.1964111  -999.250000 8.5000000000 1.2799999714 42.193599701 2.3675322533 44.085521698 143.00309753 416.26779175
 1568.3488770  -999.250000 8.5000000000 1.2799999714 42.312900543 2.2594001293 43.609977722 141.77999878 383.35641479
 1568.5012207  -999.250000 8.5000000000 1.2799999714 48.894500732 2.1583936214 45.887645721 143.58760071 379.35000610
 1568.6536865  -999.250000 8.5000000000 1.2799999714 52.464000702 2.1374235153 48.609222412 140.85780334 387.20028687
 1568.8060303  -999.250000 8.5000000000 1.2799999714 53.657699585 2.1297900677 49.494091034 141.06640625 392.76980591
 1568.9584961  -999.250000 8.5000000000 1.2799999714 51.684898376 2.1276218891 48.862205505 143.04060364 400.40060425
 1569.1108398  -999.250000 8.5000000000 1.2799999714 53.356201172 2.1195046902 48.228805542 148.07940674 404.68820190
 1569.2633057  -999.250000 8.5000000000 1.2799999714 53.690101624 2.1196966171 48.652561188 151.18310547 406.08590698
 1569.4156494  -999.250000 8.5000000000 1.2799999714 52.413700104 2.1174275875 49.615230560 150.42970276 400.45999146
 1569.5681152  -999.250000 8.5000000000 1.2799999714 50.815799713 2.1210584641 50.091819763 149.62870789 399.07708740
 1569.7204590  -999.250000 8.5000000000 1.2799999714 49.854698181 2.1197178364 49.862884521 146.77079773 398.62310791
 1569.8728027  -999.250000 8.5000000000 1.2799999714 53.122001648 2.1241459846 49.154537201 144.40029907 399.96090698
 1570.0252686  -999.250000 8.5000000000 1.2799999714 52.555099487 2.1216311455 48.256519318 145.53269958 401.84649658
 1570.1776123  -999.250000 8.5000000000 1.2799999714 52.742500305 2.1231806278 47.480045319 145.47709656 400.74780273
 1570.3300781  -999.250000 8.5000000000 1.2799999714 49.716899872 2.1234962940 47.159954071 145.50970459 401.87368774
 1570.4824219  -999.250000 8.5000000000 1.2799999714 49.170700073 2.1300153732 47.450733185 146.15939331 409.04431152
 1570.6348877  -999.250000 8.5000000000 1.2799999714 48.337699890 2.1341540813 47.680118561 146.24099731 407.87182617
 1570.7872314  -999.250000 8.5000000000 1.2799999714 51.292800903 2.1333107948 47.616149902 146.36219788 402.19140625
 1570.9396973  -999.250000 8.5000000000 1.2799999714 53.104000092 2.1426019669 48.161762238 148.78990173 397.15039063
 1571.0920410  -999.250000 8.5000000000 1.2799999714 52.878601074 2.1432924271 49.380825043 148.02490234 387.74301147
 1571.2445068  -999.250000 8.5000000000 1.2799999714 53.448299408 2.1339066029 50.351520538 147.19859314 390.82931519
 1571.3968506  -999.250000 8.5000000000 1.2799999714 53.116298676 2.1240189075 50.479797363 148.03030396 394.36709595
 1571.5493164  -999.250000 8.5000000000 1.2799999714 57.249401093 2.1221203804 50.483394623 148.96060181 393.75918579
 1571.7016602  -999.250000 8.5000000000 1.2799999714 54.112998962 2.1317746639 51.020568848 147.17039490 394.39950562
 1571.8540039  -999.250000 8.5000000000 1.2799999714 55.801200867 2.1352589130 51.858856201 145.55340576 389.61050415
 1572.0064697  -999.250000 8.5000000000 1.2799999714 53.103401184 2.1349048615 52.533260345 144.48939514 385.73550415
 1572.1588135  -999.250000 8.5000000000 1.2799999714 55.438400269 2.1321337223 52.536396027 144.39059448 384.06176758
 1572.3112793  -999.250000 8.5000000000 1.2799999714 53.561901093 2.1324949265 51.945972443 144.29409790 382.85989380
 1572.4636230  -999.250000 8.5000000000 1.2799999714 53.756599426 2.1389164925 50.874816895 144.09480286 381.06610107
 1572.6160889  -999.250000 8.5000000000 1.2799999714 53.327701569 2.1328697205 49.358211517 144.81440735 379.09500122
 1572.7684326  -999.250000 8.5000000000 1.2799999714 52.439098358 2.1311204433 47.704421997 145.00509644 376.50146484
 1572.9208984  -999.250000 8.5000000000 1.2799999714 50.561000824 2.1281311512 46.811214447 145.07919312 377.93750000
 1573.0732422  -999.250000 8.5000000000 1.2799999714 52.468200684 2.1354053020 47.152324677 145.43179321 379.98629761
 1573.2257080  -999.250000 8.5000000000 1.2799999714 53.418899536 2.1354012489 47.785392761 145.54809570 380.49349976
 1573.3780518  -999.250000 8.5000000000 1.2799999714 55.026901245 2.1388580799 47.992534637 145.82989502 380.32681274
 1573.5305176  -999.250000 8.5000000000 1.2799999714 54.067100525 2.1431517601 48.208026886 145.68960571 379.60620117
 1573.6828613  -999.250000 8.5000000000 1.2799999714 54.064098358 2.1468524933 48.703903198 144.98559570 373.56008911
 1573.8353271  -999.250000 8.5000000000 1.2799999714 51.579101563 2.1447248459 48.770946503 143.63189697 374.39660645
 1573.9876709  -999.250000 8.5000000000 1.2799999714 49.925399780 2.1442060471 48.368324280 143.71049500 376.09106445
 1574.1400146  -999.250000 8.5000000000 1.2799999714 51.822399139 2.1433107853 48.952960968 143.52529907 375.02029419
 1574.2924805  -999.250000 8.5000000000 1.2799999714 54.282699585 2.1445832253 50.993164063 142.60119629 374.98348999
 1574.4448242  -999.250000 8.5000000000 1.2799999714 54.809600830 2.1449947357 52.714942932 142.31509399 374.64419556
 1574.5972900  -999.250000 8.5000000000 1.2799999714 54.120399475 2.1402537823 52.976795197 141.20410156 374.80929565
 1574.7496338  -999.250000 8.5000000000 1.2799999714 54.469600677 2.1432628632 52.448646545 142.55160522 374.51199341
 1574.9020996  -999.250000 8.5000000000 1.2799999714 55.099800110 2.1470603943 52.069900513 143.68510437 373.73849487
 1575.0544434  -999.250000 8.5000000000 1.2799999714 55.376800537 2.1485810280 51.700397491 143.56880188 375.79550171
 1575.2069092  -999.250000 8.5000000000 1.2799999714 52.610401154 2.1439526081 50.921524048 141.13659668 376.68850708
 1575.3592529  -999.250000 8.5000000000 1.2799999714 53.085498810 2.1418249607 50.263725281 140.64799500 375.25268555
 1575.5117188  -999.250000 8.5000000000 1.2799999714 49.989898682 2.1462495327 50.175270081 140.74909973 375.81671143
 1575.6640625  -999.250000 8.5000000000 1.2799999714 51.658500671 2.1427459717 50.437889099 140.85890198 373.95190430
 1575.8165283  -999.250000 8.5000000000 1.2799999714 51.548698425 2.1445786953 50.650928497 140.19729614 374.30920410
 1575.9688721  -999.250000 8.5000000000 1.2799999714 54.122100830 2.1448965073 50.734035492 142.53370667 381.30429077
 1576.1212158  -999.250000 8.5000000000 1.2799999714 58.213298798 2.1466782093 50.942764282 141.97839355 386.80358887
 1576.2736816  -999.250000 8.5000000000 1.2799999714 55.784698486 2.1441333294 51.271938324 144.46049500 389.23919678
 1576.4260254  -999.250000 8.5000000000 1.2799999714 57.336498260 2.1498255730 51.342784882 144.37620544 391.65502930
 1576.5784912  -999.250000 8.5000000000 1.2799999714 52.627498627 2.1487135887 51.072517395 143.08489990 392.94531250
 1576.7308350  -999.250000 8.5000000000 1.2799999714 53.855400085 2.1481070518 50.728153229 142.64689636 380.38650513
 1576.8833008  -999.250000 8.5000000000 1.2799999714 49.050800323 2.1456260681 50.299541473 144.30880737 375.87008667
 1577.0356445  -999.250000 8.5000000000 1.2799999714 50.791900635 2.1389856339 49.699378967 145.13679504 379.87399292
 1577.1881104  -999.250000 8.5000000000 1.2799999714 49.223400116 2.1341538429 49.360172272 144.66789246 387.01681519
