# LAS format log file from PETREL
# Project units are specified as depth units
#==================================================================
~Version information
VERS.   2.0:
WRAP.   NO:
#==================================================================
~Well
STRT .m      1079.9069824 :
STOP .m      2540.5083008 :
STEP .m     0.00000000 :
NULL .        -999.250000 :
COMP.           : COMPANY
WELL.  25/8-9  Krap 2   : WELL
FLD.            : FIELD
LOC.            : LOCATION
SRVC.           : SERVICE COMPANY
DATE.  2018-09-11 14:48:24   : Log Export Date {yyyy-MM-dd HH:mm:ss}
PROV.           : PROVINCE
UWI.   25/8-9   : UNIQUE WELL ID
API.            : API NUMBER
#==================================================================
~Curve
DEPT .m                   : DEPTH
Lithology_geolink ._      : Lithology_geolink
BS .in                    : BS
MUDWEIGHT ._              : MUDWEIGHT
SGR .gAPI                 : SGR
RHOB .g/cm3               : RHOB
GR .gAPI                  : GR
DTC .us/ft                : DTC
DTS .us/ft                : DTS
~Parameter
#==================================================================
~Ascii
# ...
 1276.8078613  -999.250000 8.5000000000 1.3099999428 69.826301575 2.1002755165 65.342926025 144.23829651 391.10629272
 1276.9600830  -999.250000 8.5000000000 1.3099999428 69.781097412 2.1017880440 63.611900330 143.43850708 392.44900513
 1277.1124268  -999.250000 8.5000000000 1.3099999428 68.462799072 2.1099340916 61.972900391 142.78120422 388.01177979
 1277.2648926  -999.250000 8.5000000000 1.3099999428 66.166801453 2.1255993843 60.945598602 142.00230408 371.56921387
 1277.4172363  -999.250000 8.5000000000 1.3099999428 65.296302795 2.1393785477 61.385101318 141.67329407 363.09478760
 1277.5697021  -999.250000 8.5000000000 1.3099999428 64.431396484 2.1422774792 63.237899780 141.58990479 361.72378540
 1277.7220459  -999.250000 8.5000000000 1.3099999428 66.356697083 2.1346616745 65.694297791 142.50619507 358.48519897
 1277.8745117  -999.250000 8.5000000000 1.3099999428 65.288803101 2.1327135563 67.180297852 142.66940308 368.83389282
 1278.0268555  -999.250000 8.5000000000 1.3099999428 66.303596497 2.1244728565 66.923500061 143.21940613 374.40640259
 1278.1793213  -999.250000 8.5000000000 1.3099999428 62.810501099 2.1226129532 65.550201416 143.23719788 368.12609863
 1278.3316650  -999.250000 8.5000000000 1.3099999428 63.709499359 2.1211118698 63.671901703 142.98950195 372.37176514
 1278.4841309  -999.250000 8.5000000000 1.3099999428 63.736301422 2.1276524067 62.247501373 143.18280029 391.73760986
 1278.6364746  -999.250000 8.5000000000 1.3099999428 66.506599426 2.1317639351 62.029701233 143.50840759 378.12838745
 1278.7888184  -999.250000 8.5000000000 1.3099999428 66.668403625 2.1276369095 62.784099579 143.77200317 364.86740112
 1278.9412842  -999.250000 8.5000000000 1.3099999428 62.967601776 2.1265087128 62.709598541 143.07580566 384.36819458
 1279.0936279  -999.250000 8.5000000000 1.3099999428 62.846401215 2.1389992237 59.318599701 142.61349487 352.48611450
 1279.2460938  -999.250000 8.5000000000 1.3099999428 59.896999359 2.1317474842 52.055000305 141.66839600 354.81069946
 1279.3984375  -999.250000 8.5000000000 1.3099999428 53.116699219 2.1140563488 43.377300262 141.97929382 349.71719360
 1279.5509033  -999.250000 8.5000000000 1.3099999428 40.307399750 2.0975322723 36.407398224 142.05960083 347.55718994
 1279.7032471  -999.250000 8.5000000000 1.3099999428 31.752300262 2.0843057632 32.272598267 141.95880127 345.95388794
 1279.8557129  -999.250000 8.5000000000 1.3099999428 28.757200241 2.0829093456 30.354400635 141.39540100 345.06649780
 1280.0080566  -999.250000 8.5000000000 1.3099999428 29.075399399 2.0807192326 30.279800415 141.33709717 344.14569092
 1280.1605225  -999.250000 8.5000000000 1.3099999428 30.762100220 2.0838768482 33.031501770 141.65910339 343.08059692
 1280.3128662  -999.250000 8.5000000000 1.3099999428 37.792701721 2.0940182209 39.243801117 141.04060364 343.33160400
 1280.4653320  -999.250000 8.5000000000 1.3099999428 50.004299164 2.1046235561 47.699600220 140.57209778 352.05938721
 1280.6176758  -999.250000 8.5000000000 1.3099999428 61.946998596 2.1198651791 55.569198608 140.58309937 364.63088989
 1280.7700195  -999.250000 8.5000000000 1.3099999428 68.009597778 2.1353633404 60.841201782 140.46130371 374.53671265
 1280.9224854  -999.250000 8.5000000000 1.3099999428 67.945098877 2.1399641037 63.765098572 140.55979919 382.09930420
 1281.0748291  -999.250000 8.5000000000 1.3099999428 65.702598572 2.1230370998 65.725402832 140.91090393 396.08480835
 1281.2272949  -999.250000 8.5000000000 1.3099999428 63.325298309 2.0960733891 67.366600037 141.43089294 402.81610107
 1281.3796387  -999.250000 8.5000000000 1.3099999428 64.340797424 2.0882678032 67.950500488 142.61099243 401.24066162
 1281.5321045  -999.250000 8.5000000000 1.3099999428 62.500400543 2.0837359428 67.510002136 143.66380310 406.46200562
 1281.6844482  -999.250000 8.5000000000 1.3099999428 65.545501709 2.0848903656 67.162902832 144.53469849 409.67349243
 1281.8369141  -999.250000 8.5000000000 1.3099999428 63.855899811 2.0854957104 67.298500061 145.70889282 409.99929810
 1281.9892578  -999.250000 8.5000000000 1.3099999428 65.777397156 2.0878787041 67.196899414 146.12510681 411.11520386
 1282.1417236  -999.250000 8.5000000000 1.3099999428 65.019401550 2.0823404789 65.788101196 146.27330017 410.93630981
 1282.2940674  -999.250000 8.5000000000 1.3099999428 63.956600189 2.0857717991 63.449699402 146.33959961 409.91799927
 1282.4465332  -999.250000 8.5000000000 1.3099999428 61.735298157 2.0911612511 61.613201141 145.81199646 402.43389893
 1282.5988770  -999.250000 8.5000000000 1.3099999428 61.029800415 2.1053740978 61.307800293 145.20660400 396.22158813
 1282.7513428  -999.250000 8.5000000000 1.3099999428 61.324600220 2.1070871353 62.464298248 144.25259399 389.62271118
 1282.9036865  -999.250000 8.5000000000 1.3099999428 65.815002441 2.0968825817 63.955398560 143.44880676 387.15609741
 1283.0560303  -999.250000 8.5000000000 1.3099999428 69.882598877 2.0879712105 64.880798340 143.77409363 388.56658936
 1283.2084961  -999.250000 8.5000000000 1.3099999428 72.121902466 2.0768713951 65.196601868 144.38389587 393.39941406
 1283.3608398  -999.250000 8.5000000000 1.3099999428 71.721099854 2.0837385654 65.017898560 145.51229858 397.88211060
 1283.5133057  -999.250000 8.5000000000 1.3099999428 70.933601379 2.0851886272 64.029403687 146.52020264 400.64248657
 1283.6656494  -999.250000 8.5000000000 1.3099999428 72.719299316 2.0984926224 62.390800476 146.57429504 399.86419678
 1283.8181152  -999.250000 8.5000000000 1.3099999428 70.421501160 2.0962173939 61.440498352 146.46969604 398.50204468
 1283.9704590  -999.250000 8.5000000000 1.3099999428 66.142196655 2.1009578705 62.196300507 145.78089905 398.17010498
 1284.1229248  -999.250000 8.5000000000 1.3099999428 64.118896484 2.0896823406 63.913898468 145.70790100 398.34585571
 1284.2752686  -999.250000 8.5000000000 1.3099999428 66.597900391 2.0833506584 65.249603271 146.23860168 400.87161255
 1284.4277344  -999.250000 8.5000000000 1.3099999428 68.124198914 2.0761520863 65.506103516 146.36090088 404.83230591
 1284.5800781  -999.250000 8.5000000000 1.3099999428 68.047500610 2.0787761211 64.639396667 146.52969360 406.80889893
 1284.7325439  -999.250000 8.5000000000 1.3099999428 68.523696899 2.0778081417 63.267601013 147.03590393 408.91738892
 1284.8848877  -999.250000 8.5000000000 1.3099999428 65.884201050 2.0880174637 62.360900879 147.38909912 412.67309570
 1285.0372314  -999.250000 8.5000000000 1.3099999428 61.927898407 2.0937542915 62.538299561 147.14089966 414.79974365
 1285.1896973  -999.250000 8.5000000000 1.3099999428 59.609401703 2.0972776413 63.583198547 146.89010620 415.23770142
 1285.3420410  -999.250000 8.5000000000 1.3099999428 62.719398499 2.0877842903 64.794403076 146.98420715 411.64099121
 1285.4945068  -999.250000 8.5000000000 1.3099999428 66.835899353 2.0777800083 65.494102478 147.06979370 407.84173584
 1285.6468506  -999.250000 8.5000000000 1.3099999428 67.502098083 2.0733351707 65.324401855 147.43949890 408.38888550
 1285.7993164  -999.250000 8.5000000000 1.3099999428 68.155296326 2.0803432465 64.700996399 147.82940674 409.75448608
 1285.9516602  -999.250000 8.5000000000 1.3099999428 68.581199646 2.0823824406 64.372802734 148.03649902 409.37829590
 1286.1041260  -999.250000 8.5000000000 1.3099999428 69.261901855 2.0775353909 64.418502808 148.42759705 409.10995483
 1286.2564697  -999.250000 8.5000000000 1.3099999428 69.579803467 2.0782935619 64.224899292 148.54629517 410.04833984
 1286.4089355  -999.250000 8.5000000000 1.3099999428 71.548202515 2.0786972046 64.002197266 148.63650513 411.57110596
 1286.5612793  -999.250000 8.5000000000 1.3099999428 73.360397339 2.0806822777 65.066902161 149.25520325 414.38919067
 1286.7137451  -999.250000 8.5000000000 1.3099999428 74.131599426 2.0772306919 66.914100647 149.87339783 418.11569214
 1286.8660889  -999.250000 8.5000000000 1.3099999428 70.035400391 2.0705535412 67.127601624 150.34941101 420.53469849
 1287.0184326  -999.250000 8.5000000000 1.3099999428 65.752601624 2.0683176517 64.530097961 150.49249268 422.32070923
