# LAS format log file from PETREL
# Project units are specified as depth units
#==================================================================
~Version information
VERS.   2.0:
WRAP.   NO:
#==================================================================
~Well
STRT .m      1079.9069824 :
STOP .m      2540.5083008 :
STEP .m     0.00000000 :
NULL .        -999.250000 :
COMP.           : COMPANY
WELL.  25/8-9  Krap 2   : WELL
FLD.            : FIELD
LOC.            : LOCATION
SRVC.           : SERVICE COMPANY
DATE.  2018-09-11 14:48:24   : Log Export Date {yyyy-MM-dd HH:mm:ss}
PROV.           : PROVINCE
UWI.   25/8-9   : UNIQUE WELL ID
API.            : API NUMBER
#==================================================================
~Curve
DEPT .m                   : DEPTH
Lithology_geolink ._      : Lithology_geolink
BS .in                    : BS
MUDWEIGHT ._              : MUDWEIGHT
SGR .gAPI                 : SGR
RHOB .g/cm3               : RHOB
GR .gAPI                  : GR
DTC .us/ft                : DTC
DTS .us/ft                : DTS
~Parameter
#==================================================================
~Ascii
 1079.9069824  -999.250000 8.5000000000  -999.250000 41.049198151  -999.250000 39.301776886 53.916198730 128.02330017
 1080.0594482  -999.250000 8.5000000000  -999.250000 41.049198151  -999.250000 38.770523071 54.432205200 129.96740723
 1080.2117920  -999.250000 8.5000000000  -999.250000 41.049198151  -999.250000 37.226467133 55.181301117 129.73159790
 1080.3642578  -999.250000 8.5000000000  -999.250000 41.049198151  -999.250000 35.938606262 55.293899536 125.75990295
 1080.5166016  -999.250000 8.5000000000  -999.250000 41.049198151  -999.250000 36.066913605 54.817001343 125.19390106
 1080.6689453  -999.250000 8.5000000000  -999.250000 41.049198151  -999.250000 37.202293396 54.753700256 122.60299683
 1080.8214111  -999.250000 8.5000000000  -999.250000 41.442001343  -999.250000 38.192657471 55.212200165 128.64799500
 1080.9737549  -999.250000 8.5000000000  -999.250000 41.009899139  -999.250000 38.639091492 55.593601227 133.49760437
 1081.1262207  -999.250000 8.5000000000  -999.250000 39.537498474  -999.250000 39.131381989 56.111900330 129.79640198
 1081.2785645  -999.250000 8.5000000000  -999.250000 38.614398956  -999.250000 40.231742859 55.584499359 131.28869629
 1081.4310303  -999.250000 8.5000000000  -999.250000 37.844100952  -999.250000 41.659873962 55.573001862 133.52409363
 1081.5833740  -999.250000 8.5000000000  -999.250000 40.450298309  -999.250000 42.872001648 55.998699188 133.05389404
 1081.7358398  -999.250000 8.5000000000  -999.250000 40.729301453  -999.250000 43.248474121 55.134101868 130.58990479
 1081.8881836  -999.250000 8.5000000000  -999.250000 42.584899902  -999.250000 42.233249664 55.358600616 129.15339661
 1082.0406494  -999.250000 8.5000000000  -999.250000 39.605899811  -999.250000 40.168537140 55.886398315 124.14219666
 1082.1929932  -999.250000 8.5000000000  -999.250000 38.840801239  -999.250000 38.068878174 56.332801819 121.61849976
 1082.3454590  -999.250000 8.5000000000  -999.250000 35.891899109  -999.250000 36.792865753 56.723098755 123.92680359
 1082.4978027  -999.250000 8.5000000000  -999.250000 34.939701080  -999.250000 36.584732056 56.673099518 120.14060211
 1082.6501465  -999.250000 8.5000000000  -999.250000 36.170398712  -999.250000 37.249084473 55.668304443 124.66899872
 1082.8026123  -999.250000 8.5000000000  -999.250000 38.193000793  -999.250000 38.230110168 54.608100891 141.93179321
 1082.9549561  -999.250000 8.5000000000  -999.250000 39.774101257  -999.250000 38.368705750 55.011596680 141.78250122
 1083.1074219  -999.250000 8.5000000000  -999.250000 36.844100952  -999.250000 37.002578735 55.382701874 133.58050537
 1083.2597656  -999.250000 8.5000000000  -999.250000 33.668701172  -999.250000 35.354454041 55.047698975 129.06469727
 1083.4122314  -999.250000 8.5000000000  -999.250000 32.691398621  -999.250000 35.424648285 56.422798157 126.01920319
 1083.5645752  -999.250000 8.5000000000  -999.250000 36.528598785  -999.250000 37.355525970 57.241203308 127.68419647
 1083.7170410  -999.250000 8.5000000000  -999.250000 41.980899811  -999.250000 39.259059906 56.522098541 132.61929321
 1083.8693848  -999.250000 8.5000000000  -999.250000 42.772998810  -999.250000 39.732944489 56.548198700 136.21110535
 1084.0218506  -999.250000 8.5000000000  -999.250000 40.547401428  -999.250000 39.167381287 56.665901184 134.92790222
 1084.1741943  -999.250000 8.5000000000  -999.250000 37.111801147  -999.250000 38.719585419 55.903697968 134.14709473
 1084.3266602  -999.250000 8.5000000000  -999.250000 35.609298706  -999.250000 38.825744629 55.662601471 133.60890198
 1084.4790039  -999.250000 8.5000000000  -999.250000 37.269901276  -999.250000 39.104423523 54.932998657 140.38099670
 1084.6313477  -999.250000 8.5000000000  -999.250000 39.447498322  -999.250000 39.508346558 54.218898773 148.72929382
 1084.7838135  -999.250000 8.5000000000  -999.250000 40.800399780  -999.250000 40.188938141 54.824100494 145.24349976
 1084.9361572  -999.250000 8.5000000000  -999.250000 40.152801514  -999.250000 40.982662201 54.839004517 142.43609619
 1085.0886230  -999.250000 8.5000000000  -999.250000 40.207901001  -999.250000 41.309833527 54.825397491 143.82069397
 1085.2409668  -999.250000 8.5000000000  -999.250000 40.263801575  -999.250000 40.851135254 55.177700043 142.68829346
 1085.3934326  -999.250000 8.5000000000  -999.250000 40.537700653  -999.250000 40.268978119 55.283500671 140.12640381
 1085.5457764  -999.250000 8.5000000000  -999.250000 39.048698425  -999.250000 40.362792969 55.166900635 139.55650330
 1085.6982422  -999.250000 8.5000000000  -999.250000 40.233001709  -999.250000 40.975505829 55.202999115 140.61700439
 1085.8505859  -999.250000 8.5000000000  -999.250000 40.632801056  -999.250000 41.106132507 55.830699921 141.45919800
 1086.0030518  -999.250000 8.5000000000  -999.250000 40.561901093  -999.250000 40.147174835 55.721500397 148.90750122
 1086.1553955  -999.250000 8.5000000000  -999.250000 38.200901031  -999.250000 38.696704865 55.728599548 149.65528870
 1086.3078613  -999.250000 8.5000000000  -999.250000 35.922698975  -999.250000 37.954730988 55.819900513 144.67900085
 1086.4602051  -999.250000 8.5000000000  -999.250000 37.344200134  -999.250000 38.413322449 53.783000946 141.98570251
 1086.6126709  -999.250000 8.5000000000  -999.250000 38.082801819  -999.250000 39.566749573 53.251598358 138.83569336
 1086.7650146  -999.250000 8.5000000000  -999.250000 37.982700348  -999.250000 40.345451355 55.587799072 138.23210144
 1086.9173584  -999.250000 8.5000000000  -999.250000 37.313400269  -999.250000 40.033908844 56.061901093 133.78480530
 1087.0698242  -999.250000 8.5000000000  -999.250000 37.013500214  -999.250000 38.920650482 55.708900452 134.22129822
 1087.2221680  -999.250000 8.5000000000  -999.250000 38.421901703  -999.250000 37.737716675 55.551502228 136.72560120
 1087.3746338  -999.250000 8.5000000000  -999.250000 37.146900177  -999.250000 37.131233215 55.403900146 134.92010498
 1087.5269775  -999.250000 8.5000000000  -999.250000 36.770698547  -999.250000 37.422473907 55.973300934 135.89500427
 1087.6794434  -999.250000 8.5000000000  -999.250000 37.917301178  -999.250000 38.637325287 56.199199677 134.65879822
 1087.8317871  -999.250000 8.5000000000  -999.250000 38.344699860  -999.250000 40.165546417 56.120498657 133.06680298
 1087.9842529  -999.250000 8.5000000000  -999.250000 41.208400726  -999.250000 40.969951630 56.493099213 133.39070129
 1088.1365967  -999.250000 8.5000000000  -999.250000 41.468498230  -999.250000 40.875690460 56.615100861 132.77079773
 1088.2890625  -999.250000 8.5000000000  -999.250000 42.954898834  -999.250000 40.366909027 55.685001373 134.11470032
 1088.4414063  -999.250000 8.5000000000  -999.250000 40.355201721  -999.250000 39.623714447 54.491401672 136.48590088
 1088.5938721  -999.250000 8.5000000000  -999.250000 39.752300262  -999.250000 38.641315460 54.006999969 133.94949341
 1088.7462158  -999.250000 8.5000000000  -999.250000 39.781501770  -999.250000 37.902145386 54.107101440 129.10890198
 1088.8985596  -999.250000 8.5000000000  -999.250000 41.920700073  -999.250000 37.707126617 54.235401154 128.47459412
 1089.0510254  -999.250000 8.5000000000  -999.250000 42.010700226  -999.250000 37.741970062 53.933300018 132.39930725
 1089.2033691  -999.250000 8.5000000000  -999.250000 40.911300659  -999.250000 38.078239441 53.608200073 139.48649597
 1089.3558350  -999.250000 8.5000000000  -999.250000 39.770401001  -999.250000 39.004673004 52.450000763 144.64630127
 1089.5081787  -999.250000 8.5000000000  -999.250000 40.586200714  -999.250000 39.967945099 50.946300507 140.73849487
 1089.6606445  -999.250000 8.5000000000  -999.250000 40.372200012  -999.250000 39.899089813 51.922000885 134.54890442
 1089.8129883  -999.250000 8.5000000000  -999.250000 38.661499023  -999.250000 38.891590118 51.811199188 132.42689514
 1089.9654541  -999.250000 8.5000000000  -999.250000 37.920898438  -999.250000 38.256214142 51.619201660 135.59620667
 1090.1177979  -999.250000 8.5000000000  -999.250000 37.218799591  -999.250000 38.514896393 54.145198822 138.49859619
