# LAS format log file from PETREL
# Project units are specified as depth units
#==================================================================
~Version information
VERS.   2.0:
WRAP.   NO:
#==================================================================
~Well
STRT .m      376.26940918 :
STOP .m      2542.6337891 :
STEP .m     0.00000000 :
NULL .        -999.250000 :
COMP.           : COMPANY
WELL.  25/8-1  Forseti   : WELL
FLD.            : FIELD
LOC.            : LOCATION
SRVC.           : SERVICE COMPANY
DATE.  2018-09-11 14:48:23   : Log Export Date {yyyy-MM-dd HH:mm:ss}
PROV.           : PROVINCE
UWI.   25/8-1   : UNIQUE WELL ID
API.            : API NUMBER
#==================================================================
~Curve
DEPT .m                   : DEPTH
Lithology_geolink ._      : Lithology_geolink
DCAL .in                  : DCAL
CALI .in                  : CALI
BS .in                    : BS
MUDWEIGHT ._              : MUDWEIGHT
ROP .m/h                  : ROP
DRHO .g/cm3               : DRHO
RHOB .g/cm3               : RHOB
GR .gAPI                  : GR
DTC .us/ft                : DTC
DTE .us/ft                : DTE
RDEP .ohm.m               : RDEP
SP .mV                    : SP
RSHA .ohm.m               : RSHA
RMIC .ohm.m               : RMIC
RMED .ohm.m               : RMED
~Parameter
#==================================================================
~Ascii
# ...
 1960.7711182 12.000000000 6.5240001678 15.024001122 8.5000000000 10.800000191 4.0872030258 0.0099999998 2.0446689129 38.168998718 113.02960968 113.02683258 1.0240000486 70.421997070 1.4759999514  -999.250000 1.4761248827
 1960.9235840 12.000000000 6.5190000534 15.019000053 8.5000000000 10.800000191 4.1334919930 0.0010000000 2.0196330547 37.154998779 113.93242645 113.93090057 1.0299999714 70.311996460 1.4819999933  -999.250000 1.4819422960
 1961.0759277 12.000000000 6.5130000114 15.012999535 8.5000000000 10.800000191 4.2388119698 0.0040000002 1.9958779812 38.430999756 113.83866119 113.83847046 1.0399999619 70.122001648 1.5099999905  -999.250000 1.5097308159
 1961.2283936 12.000000000 6.5089998245 15.008999825 8.5000000000 10.800000191 4.3367347717 0.0020000001 1.9859590530 40.173999786 113.92301178 113.92286682 1.0559999943 69.999000549 1.5470000505  -999.250000 1.5466445684
 1961.3807373 12.000000000 6.5079998970 15.008000374 8.5000000000 10.800000191 4.4341759682 -0.007000000 2.0133399963 41.549999237 113.94256592 113.94415283 1.0720000267 70.008003235 1.5720000267  -999.250000 1.5717597008
 1961.5332031 13.000000000 6.5069999695 15.007000923 8.5000000000 10.800000191 4.5319299698 0.0000000000 2.0621240139 43.250999451 111.90129852 111.90930939 1.0909999609 69.983001709 1.5629999638  -999.250000 1.5630863905
 1961.6855469 13.000000000 6.3750000000 14.875000954 8.5000000000 10.800000191 4.5376701355 0.0219999999 2.2043220997 44.537998199 109.53692627 109.54082489 1.1180000305 70.208999634 1.5390000343  -999.250000 1.5392308235
 1961.8380127 13.000000000 6.1700000763 14.669999123 8.5000000000 10.800000191 4.5386691093 0.0450000018 2.2539958954 44.286998749 108.43925476 108.43927765 1.1540000439 70.647003174 1.5449999571  -999.250000 1.5449422598
 1961.9903564 13.000000000 6.0799994469 14.579999924 8.5000000000 10.800000191 4.5399661064 0.0509999990 2.2775239944 43.508998871 108.96807861 108.96633148 1.1909999847 70.873001099 1.5820000172  -999.250000 1.5816442966
 1962.1428223 13.000000000 6.0850000381 14.585000992 8.5000000000 10.800000191 4.5412778854 0.0659999996 2.2987079620 44.341999054 110.43482208 110.43201447 1.2300000191 70.930999756 1.6299999952  -999.250000 1.6295387745
 1962.2951660 13.000000000 6.1369996071 14.637001038 8.5000000000 10.800000191 4.5425910950 0.0619999990 2.2843070030 46.209999084 110.82847595 110.82877350 1.2719999552 71.000000000 1.6829999685  -999.250000 1.6824903488
 1962.4475098 13.000000000 6.2049999237 14.704999924 8.5000000000 10.800000191 4.5439028740 0.0350000001 2.2457520962 47.388999939 110.29309082 110.29527283 1.3079999685 70.968002319 1.7359999418  -999.250000 1.7354482412
 1962.5999756 13.000000000 6.2770004272 14.777000427 8.5000000000 10.800000191 4.5921688080 0.0509999990 2.2581419945 47.289001465 108.65382385 108.65963745 1.3389999866 70.526000977 1.7910000086  -999.250000 1.7904711962
 1962.7523193 13.000000000 6.3259997368 14.826000214 8.5000000000 10.800000191 4.6981000900 0.0309999995 2.2431020737 47.047000885 106.20297241 106.20992279 1.3710000515 69.934997559 1.8309999704  -999.250000 1.8305836916
 1962.9047852 13.000000000 6.3359999657 14.836000443 8.5000000000 10.800000191 4.8408150673 0.0270000007 2.2576320171 48.509998322 104.91526794 104.91805267 1.3940000534 69.400001526 1.8509999514  -999.250000 1.8508076668
 1963.0571289 13.000000000 6.3229999542 14.823000908 8.5000000000 10.800000191 4.9851717949 0.0390000008 2.3021450043 49.411998749 104.00682831 104.00921631 1.4040000439 69.154998779 1.8700000048  -999.250000 1.8698172569
 1963.2095947 13.000000000 6.3090004921 14.809000015 8.5000000000 10.800000191 5.1091818810 0.0419999994 2.2971651554 48.807998657 102.54625702 102.54779816 1.4149999619 69.197998047 1.8930000067  -999.250000 1.8927789927
 1963.3619385 13.000000000 6.3000001907 14.800000191 8.5000000000 10.800000191 5.1608438492 0.0299999993 2.2823319435 48.751998901 102.13327026 102.13221741 1.4320000410 69.091003418 1.9110000134  -999.250000 1.9108269215
 1963.5144043 13.000000000 6.2940001488 14.793998718 8.5000000000 10.800000191 5.1461539268 0.0370000005 2.2849218845 47.895999908 103.98509979 103.97499084 1.4589999914 68.849998474 1.9090000391  -999.250000 1.9090192318
 1963.6667480 13.000000000 6.2880005836 14.788000107 8.5000000000 10.800000191 5.1465940475 0.0350000001 2.2833158970 46.402999878 107.85443878 107.84696198 1.4880000353 68.625999451 1.8940000534  -999.250000 1.8941442966
 1963.8192139 13.000000000 6.2799997330 14.779999733 8.5000000000 10.800000191 5.0430421829 0.0170000009 2.2793838978 46.285999298 111.27690125 111.27410126 1.5010000467 68.616996765 1.8849999905  -999.250000 1.8850864172
 1963.9715576 13.000000000 6.2709999084 14.771000862 8.5000000000 10.800000191 4.8840489388 0.0160000008 2.2766399384 46.407001495 111.21404266 111.21698761 1.4859999418 68.809997559 1.9069999456  -999.250000 1.9067883492
 1964.1240234 13.000000000 6.2490010262 14.749000549 8.5000000000 10.800000191 4.5078959465 0.0250000004 2.2719330788 45.245998383 107.50221252 107.51753235 1.4550000429 69.049003601 1.9370000362  -999.250000 1.9367117882
 1964.2763672 13.000000000 6.2099995613 14.710000038 8.5000000000 10.800000191 4.2222080231 0.0540000014 2.2656519413 44.894001007 102.33713531 102.35078430 1.4199999571 69.151000977 1.9440000057  -999.250000 1.9439326525
 1964.4287109 13.000000000 6.1680002213 14.668000221 8.5000000000 10.800000191 4.0722122192 0.0520000011 2.2559249401 46.208999634 98.266487122 98.273612976 1.3960000277 69.110000610 1.9409999847  -999.250000 1.9410312176
 1964.5811768 13.000000000 6.1269998550 14.626999855 8.5000000000 10.800000191 4.0196018219 0.0379999988 2.2603490353 47.985000610 98.067855835 98.062690735 1.3799999952 69.138000488 1.9129999876  -999.250000 1.9132691622
 1964.7335205 13.000000000 6.0840005875 14.583999634 8.5000000000 10.800000191 3.9713742733 0.0280000009 2.2795660496 50.108001709 102.77134705 102.75315857 1.3639999628 69.266998291 1.8580000401  -999.250000 1.8585724831
 1964.8859863 13.000000000 6.0409994125 14.541000366 8.5000000000 10.800000191 3.9231448174 0.0099999998 2.2512519360 52.087001801 109.32518768 109.30817413 1.3229999542 69.445999146 1.7929999828  -999.250000 1.7936249971
 1965.0383301 13.000000000 5.9959998131 14.495999336 8.5000000000 10.800000191 3.9221842289 0.0040000002 2.2299389839 53.672000885 114.31301117 114.30236053 1.2640000582 69.582000732 1.7339999676  -999.250000 1.7346140146
 1965.1907959 13.000000000 5.9499998093 14.449999809 8.5000000000 10.800000191 3.9234960079 0.0020000001 2.2107911110 55.923999786 116.81369019 116.80941010 1.2089999914 69.716003418 1.6959999800  -999.250000 1.6963653564
 1965.3431396 13.000000000 5.8889999390 14.388999939 8.5000000000 10.800000191 3.9248089790 -0.004000000 2.2140450478 58.540000916 117.54682922 117.54512787 1.1599999666 69.750000000 1.6809999943  -999.250000 1.6811442375
 1965.4956055 13.000000000 5.7890000343 14.288999557 8.5000000000 10.800000191 3.9261207581 -0.002000000 2.2419579029 59.474998474 118.58654022 118.57943726 1.1230000257 69.435997009 1.6759999990  -999.250000 1.6760480404
 1965.6479492 13.000000000 5.5789999962 14.078999519 8.5000000000 10.800000191 3.9556062222 0.0020000001 2.2716560364 60.393001556 121.54484558 121.53829956 1.1009999514 68.775001526 1.6599999666  -999.250000 1.6601538658
 1965.8004150 13.000000000 5.3569998741 13.857000351 8.5000000000 10.800000191 3.9767420292 0.0080000004 2.2760300636 62.303001404 125.22483063 125.21855927 1.0870000124 68.016998291 1.6280000210  -999.250000 1.6283074617
 1965.9527588 13.000000000 5.4489998817 13.948999405 8.5000000000 10.800000191 3.9789419174 0.0149999997 2.2736010551 63.236000061 127.23656464 127.23424530 1.0820000172 67.492996216 1.5839999914  -999.250000 1.5844230652
 1966.1052246 13.000000000 5.6819996834 14.182001114 8.5000000000 10.800000191 3.9542739391 0.0099999998 2.2625629902 62.590000153 127.06729126 127.07025146 1.0839999914 67.647003174 1.5360000134  -999.250000 1.5364612341
 1966.2575684 13.000000000 5.7170004845 14.217000008 8.5000000000 10.800000191 3.9803173542 0.0070000002 2.2660079002 60.890998840 125.80831909 125.81318665 1.0800000429 68.488807678 1.5019999743  -999.250000 1.5023268461
