# LAS format log file from PETREL
# Project units are specified as depth units
#==================================================================
~Version information
VERS.   2.0:
WRAP.   NO:
#==================================================================
~Well
STRT .m      1079.9069824 :
STOP .m      2540.5083008 :
STEP .m     0.00000000 :
NULL .        -999.250000 :
COMP.           : COMPANY
WELL.  25/8-9  Krap 2   : WELL
FLD.            : FIELD
LOC.            : LOCATION
SRVC.           : SERVICE COMPANY
DATE.  2018-09-11 14:48:24   : Log Export Date {yyyy-MM-dd HH:mm:ss}
PROV.           : PROVINCE
UWI.   25/8-9   : UNIQUE WELL ID
API.            : API NUMBER
#==================================================================
~Curve
DEPT .m                   : DEPTH
Lithology_geolink ._      : Lithology_geolink
BS .in                    : BS
MUDWEIGHT ._              : MUDWEIGHT
SGR .gAPI                 : SGR
RHOB .g/cm3               : RHOB
GR .gAPI                  : GR
DTC .us/ft                : DTC
DTS .us/ft                : DTS
~Parameter
#==================================================================
~Ascii
# ...
 2437.4858398 5.0000000000 8.5000000000 1.2999999523 54.061698914 2.3891334534 48.610755920 84.819099426 147.11599731
 2437.6381836 5.0000000000 8.5000000000 1.2999999523 56.063800812 2.4779973030 52.422035217 87.961303711 153.23339844
 2437.7907715 5.0000000000 8.5000000000 1.2999999523 56.884601593 2.4553153515 56.188125610 92.631698608 166.66319275
 2437.9431152 6.0000000000 8.5000000000 1.2999999523 62.578201294 2.3411955833 58.956714630 94.770202637 175.55979919
 2438.0954590 6.0000000000 8.5000000000 1.2999999523 65.059097290 2.2439270020 61.747184753 93.994400024 168.26269531
 2438.2478027 6.0000000000 8.5000000000 1.2999999523 68.888801575 2.2107596397 65.407585144 91.541999817 166.36560059
 2438.4001465 6.0000000000 8.5000000000 1.2999999523 72.164703369 2.2111711502 68.450317383 84.773803711 171.73019409
 2438.5527344 5.0000000000 8.5000000000 1.2999999523 79.992996216 2.2465722561 68.688636780 77.795600891 175.29289246
 2438.7050781 5.0000000000 8.5000000000 1.2999999523 78.595596313 2.3702692986 65.773780823 73.821403503 195.08250427
 2438.8574219 5.0000000000 8.5000000000 1.2999999523 72.854103088 2.5339767933 61.248493195 69.333099365 227.74969482
 2439.0097656 16.000000000 8.5000000000 1.2999999523 62.095600128 2.6782152653 56.968471527 67.554496765 270.41531372
 2439.1623535 16.000000000 8.5000000000 1.2999999523 57.502799988 2.7162537575 53.400909424 72.983802795 297.19338989
 2439.3146973 16.000000000 8.5000000000 1.2999999523 53.349800110 2.7158312798 49.933368683 81.444099426 259.52590942
 2439.4670410 5.0000000000 8.5000000000 1.2999999523 52.457500458 2.6012222767 47.409412384 86.893096924 180.09481812
 2439.6193848 5.0000000000 8.5000000000 1.2999999523 54.650398254 2.4197990894 48.121402740 89.886703491 142.94430542
 2439.7719727 5.0000000000 8.5000000000 1.2999999523 57.949600220 2.2898807526 52.179641724 93.248695374 152.24670410
 2439.9243164 5.0000000000 8.5000000000 1.2999999523 63.759799957 2.2348673344 56.270431519 96.497299194 162.98199463
 2440.0766602 5.0000000000 8.5000000000 1.2999999523 66.578201294 2.2287256718 57.220405579 97.300201416 171.30130005
 2440.2290039 5.0000000000 8.5000000000 1.2999999523 68.724998474 2.2174923420 55.260787964 97.596702576 172.93469238
 2440.3813477 5.0000000000 8.5000000000 1.2999999523 65.825103760 2.2026820183 52.931144714 97.796997070 173.73442078
 2440.5339355 5.0000000000 8.5000000000 1.2999999523 63.125900269 2.1873679161 52.150794983 97.363189697 173.91839600
 2440.6862793 5.0000000000 8.5000000000 1.2999999523 60.653099060 2.1771426201 53.134231567 96.309600830 173.10119629
 2440.8386230 5.0000000000 8.5000000000 1.2999999523 58.790401459 2.1766071320 54.621837616 95.759902954 172.13819885
 2440.9909668 5.0000000000 8.5000000000 1.2999999523 60.458801270 2.1807966232 54.998020172 95.078201294 171.44551086
 2441.1435547 5.0000000000 8.5000000000 1.2999999523 60.614700317 2.1821668148 54.227924347 94.405601501 170.22511292
 2441.2958984 5.0000000000 8.5000000000 1.2999999523 62.163200378 2.1833691597 53.648380280 93.638496399 169.06149292
 2441.4482422 5.0000000000 8.5000000000 1.2999999523 60.100799561 2.1868102551 53.904449463 92.436798096 164.55610657
 2441.6005859 5.0000000000 8.5000000000 1.2999999523 58.178798676 2.2018077374 54.334129333 90.954490662 159.00000000
 2441.7531738 5.0000000000 8.5000000000 1.2999999523 57.944698334 2.2209382057 53.581439972 89.944503784 158.12300110
 2441.9055176 5.0000000000 8.5000000000 1.2999999523 59.083599091 2.2500932217 50.821117401 89.658401489 159.25952148
 2442.0578613 5.0000000000 8.5000000000 1.2999999523 58.447799683 2.2767605782 46.460800171 91.305297852 163.85800171
 2442.2102051 2.0000000000 8.5000000000 1.2999999523 54.036399841 2.2694947720 42.054386139 93.818099976 168.65679932
 2442.3627930 2.0000000000 8.5000000000 1.2999999523 48.248500824 2.2197375298 38.996543884 94.902297974 170.71409607
 2442.5151367 2.0000000000 8.5000000000 1.2999999523 42.665401459 2.1744577885 37.017292023 94.630294800 171.47479248
 2442.6674805 2.0000000000 8.5000000000 1.2999999523 40.040500641 2.1488435268 35.333190918 93.177001953 170.86619568
 2442.8198242 2.0000000000 8.5000000000 1.2999999523 37.465599060 2.1543383598 33.905754089 92.280197144 170.14939880
 2442.9721680 2.0000000000 8.5000000000 1.2999999523 37.764099121 2.1596641541 33.120956421 92.353591919 169.21009827
 2443.1247559 2.0000000000 8.5000000000 1.2999999523 36.782501221 2.1627280712 33.178405762 92.292503357 168.23320007
 2443.2770996 2.0000000000 8.5000000000 1.2999999523 36.283000946 2.1619217396 33.774719238 92.317497253 167.78880310
 2443.4294434 2.0000000000 8.5000000000 1.2999999523 35.729801178 2.1666822433 34.570865631 91.726097107 167.36920166
 2443.5817871 2.0000000000 8.5000000000 1.2999999523 36.070201874 2.1757788658 35.153202057 91.530799866 167.02690125
 2443.7343750 2.0000000000 8.5000000000 1.2999999523 37.106399536 2.1775639057 35.351356506 91.890403748 167.21438599
 2443.8867188 2.0000000000 8.5000000000 1.2999999523 37.281200409 2.1800360680 35.552234650 91.893997192 167.81370544
 2444.0390625 2.0000000000 8.5000000000 1.2999999523 39.061199188 2.1968588829 35.912265778 92.401893616 168.29170227
 2444.1914063 2.0000000000 8.5000000000 1.2999999523 38.389400482 2.2173719406 36.397365570 93.313598633 168.79980469
 2444.3439941 2.0000000000 8.5000000000 1.2999999523 39.785800934 2.2118489742 36.944572449 93.825599670 169.81309509
 2444.4963379 2.0000000000 8.5000000000 1.2999999523 38.676101685 2.1876912117 37.289447784 94.666801453 171.29589844
 2444.6486816 2.0000000000 8.5000000000 1.2999999523 40.481201172 2.1729485989 37.130279541 94.329803467 171.21749878
 2444.8010254 2.0000000000 8.5000000000 1.2999999523 40.536499023 2.1726000309 36.445007324 91.285598755 169.27780151
 2444.9533691 2.0000000000 8.5000000000 1.2999999523 40.589298248 2.1727952957 36.176082611 88.050796509 166.11320496
 2445.1059570 2.0000000000 8.5000000000 1.2999999523 40.089698792 2.1999869347 37.544692993 87.178298950 162.17250061
 2445.2583008 2.0000000000 8.5000000000 1.2999999523 41.907798767 2.2532179356 40.260116577 85.909599304 159.43339539
 2445.4106445 2.0000000000 8.5000000000 1.2999999523 45.833400726 2.3043897152 42.822387695 86.073097229 157.47000122
 2445.5629883 2.0000000000 8.5000000000 1.2999999523 48.902400970 2.3081357479 44.247375488 87.402000427 158.26029968
 2445.7155762 2.0000000000 8.5000000000 1.2999999523 49.232398987 2.2906327248 44.475631714 88.939903259 160.73959351
 2445.8679199 2.0000000000 8.5000000000 1.2999999523 47.759700775 2.2800500393 43.683132172 90.118797302 165.07690430
 2446.0202637 2.0000000000 8.5000000000 1.2999999523 47.114498138 2.2613544464 42.348426819 91.077400208 168.92799377
 2446.1726074 2.0000000000 8.5000000000 1.2999999523 47.106700897 2.2398192883 41.361438751 92.806198120 170.14898682
 2446.3251953 2.0000000000 8.5000000000 1.2999999523 46.774799347 2.2157406807 41.011165619 93.339599609 171.11250305
 2446.4775391 2.0000000000 8.5000000000 1.2999999523 45.171398163 2.1991217136 40.619182587 93.526290894 171.75759888
 2446.6298828 2.0000000000 8.5000000000 1.2999999523 44.385898590 2.1817457676 40.000183105 94.025703430 172.64469910
 2446.7822266 2.0000000000 8.5000000000 1.2999999523 44.295799255 2.1775000095 40.040790558 93.795097351 173.15800476
 2446.9345703 2.0000000000 8.5000000000 1.2999999523 45.316898346 2.1867539883 41.116203308 93.962303162 172.76660156
 2447.0871582 2.0000000000 8.5000000000 1.2999999523 45.922599792 2.1893422604 42.511692047 93.609199524 172.52070618
 2447.2395020 2.0000000000 8.5000000000 1.2999999523 46.903598785 2.1948652267 43.495182037 93.135398865 172.37847900
 2447.3918457 2.0000000000 8.5000000000 1.2999999523 47.000900269 2.1999773979 43.909324646 93.275802612 172.24150085
 2447.5441895 2.0000000000 8.5000000000 1.2999999523 47.403800964 2.1972696781 43.993602753 93.263099670 172.18801880
 2447.6967773 2.0000000000 8.5000000000 1.2999999523 46.023200989 2.1891839504 43.954490662 93.600898743 171.97039795
