# LAS format log file from PETREL
# Project units are specified as depth units
#==================================================================
~Version information
VERS.   2.0:
WRAP.   NO:
#==================================================================
~Well
STRT .m      376.26940918 :
STOP .m      2542.6337891 :
STEP .m     0.00000000 :
NULL .        -999.250000 :
COMP.           : COMPANY
WELL.  25/8-1  Forseti   : WELL
FLD.            : FIELD
LOC.            : LOCATION
SRVC.           : SERVICE COMPANY
DATE.  2018-09-11 14:48:23   : Log Export Date {yyyy-MM-dd HH:mm:ss}
PROV.           : PROVINCE
UWI.   25/8-1   : UNIQUE WELL ID
API.            : API NUMBER
#==================================================================
~Curve
DEPT .m                   : DEPTH
Lithology_geolink ._      : Lithology_geolink
DCAL .in                  : DCAL
CALI .in                  : CALI
BS .in                    : BS
MUDWEIGHT ._              : MUDWEIGHT
ROP .m/h                  : ROP
DRHO .g/cm3               : DRHO
RHOB .g/cm3               : RHOB
GR .gAPI                  : GR
DTC .us/ft                : DTC
DTE .us/ft                : DTE
RDEP .ohm.m               : RDEP
SP .mV                    : SP
RSHA .ohm.m               : RSHA
RMIC .ohm.m               : RMIC
RMED .ohm.m               : RMED
~Parameter
#==================================================================
~Ascii
# ...
 816.09552002  -999.250000 -5.631999969 12.367999077 18.000000000 9.1000003815 0.1515612006  -999.250000  -999.250000 18.687999725 151.99710083 151.99696350 0.6990000010 16.135999680 1.0599999428 2.3399379253 1.0600028038
 816.24792480  -999.250000 -5.663000107 12.336999893 18.000000000 9.1000003815 0.1515748054  -999.250000  -999.250000 18.159000397 151.83489990 151.83496094 0.7030000091 16.334999084 1.0499999523 2.3067409992 1.0500279665
 816.40032959  -999.250000 -5.684000015 12.315999031 18.000000000 9.1000003815 0.1578641981  -999.250000  -999.250000 17.544000626 152.06350708 152.06333923 0.7129999995 16.822999954 1.0390000343 2.3590259552 1.0390309095
 816.55273438  -999.250000 -5.691999912 12.308000565 18.000000000 9.1000003815 0.1641114056  -999.250000  -999.250000 17.018999100 152.12590027 152.12590027 0.7229999900 17.669000626 1.0340000391 2.3974139690 1.0340141058
 816.70513916  -999.250000 -5.697000027 12.303000450 18.000000000 9.1000003815 0.1763197929  -999.250000  -999.250000 16.770999908 151.71859741 151.71894836 0.7329999804 18.341999054 1.0319999456 2.3897190094 1.0320055485
 816.85754395  -999.250000 -5.693000317 12.307000160 18.000000000 9.1000003815 0.1887869984  -999.250000  -999.250000 17.002000809 151.47749329 151.47760010 0.7419999838 18.274999619 1.0279999971 2.3702890873 1.0280112028
 817.00994873  -999.250000 -5.600999832 12.399000168 18.000000000 9.1000003815 0.2066002041  -999.250000  -999.250000 17.110000610 151.75289917 151.75267029 0.7509999871 17.520999908 1.0230000019 2.3879709244 1.0230140686
 817.16235352  -999.250000 -5.382000446 12.618000984 18.000000000 9.1000003815 0.2189843953  -999.250000  -999.250000 16.499000549 152.27740479 152.27700806 0.7599999905 16.767999649 1.0219999552 2.4417219162 1.0220028162
 817.31469727  -999.250000 -5.269999981 12.729999542 18.000000000 9.1000003815 0.2380418032  -999.250000  -999.250000 15.446999550 152.65820313 152.65776062 0.7699999809 16.430000305 1.0299999714 2.4778618813 1.0299743414
 817.46710205  -999.250000 -5.381000042 12.619000435 18.000000000 9.1000003815 0.2391595840  -999.250000  -999.250000 15.170999527 152.71440125 152.71440125 0.7779999971 16.156999588 1.0369999409 2.4652740955 1.0369775295
 817.61950684  -999.250000 -5.548999786 12.450999260 18.000000000 9.1000003815 0.2391732037  -999.250000  -999.250000 16.448999405 152.59260559 152.59268188 0.7860000134 15.829998970 1.0360000134 2.4496519566 1.0360032320
 817.77191162  -999.250000 -5.644000053 12.355998993 18.000000000 9.1000003815 0.2347706854  -999.250000  -999.250000 17.733999252 152.43519592 152.43524170 0.7919999957 15.688000679 1.0279999971 2.3900709152 1.0280256271
 817.92431641  -999.250000 -5.676000595 12.324000359 18.000000000 9.1000003815 0.2232591957  -999.250000  -999.250000 18.124000549 152.30720520 152.30726624 0.7950000167 15.737998962 1.0210000277 2.2979159355 1.0210196972
 818.07672119  -999.250000 -5.699000359 12.300999641 18.000000000 9.1000003815 0.2111337185  -999.250000  -999.250000 18.343999863 152.34489441 152.34478760 0.7950000167 15.837000847 1.0149999857 2.2865629196 1.0150167942
 818.22912598  -999.250000 -5.717999935 12.281999588 18.000000000 9.1000003815 0.1993090957  -999.250000  -999.250000 18.187000275 152.13760376 152.13775635 0.7900000215 15.929000854 1.0110000372 2.3026609421 1.0110112429
 818.38153076  -999.250000 -5.734000206 12.265999794 18.000000000 9.1000003815 0.1796364039  -999.250000  -999.250000 17.815000534 151.63618469 151.63650513 0.7789999843 15.952000618 1.0110000372 2.2796540260 1.0110000372
 818.53393555  -999.250000 -5.751999378 12.248000145 18.000000000 9.1000003815 0.1791201979  -999.250000  -999.250000 18.275999069 151.43530273 151.43536377 0.7649999857 16.056999207 1.0069999695 2.2603530884 1.0070111752
 818.68634033  -999.250000 -5.788000107 12.211998940 18.000000000 9.1000003815 0.1791339070  -999.250000  -999.250000 18.757999420 151.66510010 151.66476440 0.7530000210 16.495000839 0.9990000129 2.2417159081 0.9990224242
 818.83874512  -999.250000 -5.795000553 12.204999924 18.000000000 9.1000003815 0.1674986035  -999.250000  -999.250000 19.173999786 152.11810303 152.11787415 0.7450000048 17.180999756 0.9909999967 2.2106389999 0.9910224080
 818.99114990  -999.250000 -5.728000641 12.272000313 18.000000000 9.1000003815 0.1673091948  -999.250000  -999.250000 19.142999649 152.41731262 152.41719055 0.7369999886 17.674999237 0.9869999886 2.2038331032 0.9870111942
 819.14355469  -999.250000 -5.630999565 12.369001389 18.000000000 9.1000003815 0.1673227996  -999.250000  -999.250000 18.433000565 152.43168640 152.43159485 0.7319999933 17.985000610 0.9850000143 2.2273209095 0.9850056171
 819.29589844  -999.250000 -5.564000130 12.435999870 18.000000000 9.1000003815 0.1676373035  -999.250000  -999.250000 18.232999802 152.25489807 152.25502014 0.7269999981 18.357000351 0.9819999933 2.2180049419 0.9820095897
 819.44830322  -999.250000 -5.585999966 12.413998604 18.000000000 9.1000003815 0.1645061970  -999.250000  -999.250000 18.084999084 151.82780457 151.82807922 0.7220000029 18.400999069 0.9840000272 2.1860520840 0.9839935899
 819.60070801  -999.250000 -5.668000221 12.331998825 18.000000000 9.1000003815 0.1558794975  -999.250000  -999.250000 17.731000900 151.30900574 151.30926514 0.7179999948 17.945999146 0.9919999838 2.1889989376 0.9919743538
 819.75311279  -999.250000 -5.709000111 12.290999413 18.000000000 9.1000003815 0.1558263004  -999.250000  -999.250000 17.686000824 150.88090515 150.88110352 0.7129999995 17.165000916 1.0010000467 2.2154250145 1.0009711981
 819.90551758  -999.250000 -5.693000317 12.307000160 18.000000000 9.1000003815 0.1561543941  -999.250000  -999.250000 17.451000214 150.57940674 150.57957458 0.7080000043 16.594999313 1.0060000420 2.2654199600 1.0059859753
 820.05792236  -999.250000 -5.655000210 12.345001221 18.000000000 9.1000003815 0.1561679989  -999.250000  -999.250000 17.059000015 150.56019592 150.56010437 0.7039999962 16.521999359 1.0110000372 2.3135330677 1.0109859705
 820.21032715  -999.250000 -5.607000351 12.392999649 18.000000000 9.1000003815 0.1564823985  -999.250000  -999.250000 17.061000824 150.87150574 150.87118530 0.6990000010 16.628000259 1.0210000277 2.3120169640 1.0209720135
 820.36273193  -999.250000 -5.640999317 12.358999252 18.000000000 9.1000003815 0.1564960927  -999.250000  -999.250000 17.724000931 151.55859375 151.55816650 0.6959999800 16.804000854 1.0299999714 2.2861139774 1.0299746990
 820.51513672  -999.250000 -5.752999783 12.246998787 18.000000000 9.1000003815 0.1568105072  -999.250000  -999.250000 18.919000626 152.95190430 152.95097351 0.6959999800 17.099000931 1.0299999714 2.2920339108 1.0299999714
 820.66754150  -999.250000 -5.630999565 12.369001389 18.000000000 9.1000003815 0.1568242013  -999.250000  -999.250000 19.344999313 155.01080322 155.00903320 0.6959999800 17.549999237 1.0260000229 2.2731800079 1.0260112286
 820.81994629  -999.250000 -5.289000034 12.711000443 18.000000000 9.1000003815 0.1571386009  -999.250000  -999.250000 18.937000275 157.08479309 157.08355713 0.6959999800 18.131999969 1.0240000486 2.1655340195 1.0240056515
 820.97235107  -999.250000 -5.176000118 12.824000359 18.000000000 9.1000003815 0.1574666947  -999.250000  -999.250000 18.806999207 158.69798279 158.69697571 0.6959999800 18.732999802 1.0269999504 2.0587410927 1.0269914865
 821.12475586  -999.250000 -5.314000130 12.685999870 18.000000000 9.1000003815 0.1574802995  -999.250000  -999.250000 19.877000809 159.27180481 159.27153015 0.6959999800 19.121999741 1.0299999714 1.9979549646 1.0299915075
 821.27716064  -999.250000 -5.423999786 12.576001167 18.000000000 9.1000003815 0.1577948034  -999.250000  -999.250000 21.048000336 158.28340149 158.28405762 0.6959999800 19.378000259 1.0290000439 1.9710509777 1.0290029049
 821.42950439  -999.250000 -5.511000156 12.489000320 18.000000000 9.1000003815 0.1578083932  -999.250000  -999.250000 20.795999527 156.37300110 156.37486267 0.6959999800 19.881999969 1.0240000486 1.9849920273 1.0240160227
 821.58190918  -999.250000 -5.624000549 12.375999451 18.000000000 9.1000003815 0.1581228971  -999.250000  -999.250000 19.868000031 154.47450256 154.47572327 0.6959999800 20.409999847 1.0199999809 1.9983090162 1.0200128555
