# LAS format log file from PETREL
# Project units are specified as depth units
#==================================================================
~Version information
VERS.   2.0:
WRAP.   NO:
#==================================================================
~Well
STRT .m      376.26940918 :
STOP .m      2542.6337891 :
STEP .m     0.00000000 :
NULL .        -999.250000 :
COMP.           : COMPANY
WELL.  25/8-1  Forseti   : WELL
FLD.            : FIELD
LOC.            : LOCATION
SRVC.           : SERVICE COMPANY
DATE.  2018-09-11 14:48:23   : Log Export Date {yyyy-MM-dd HH:mm:ss}
PROV.           : PROVINCE
UWI.   25/8-1   : UNIQUE WELL ID
API.            : API NUMBER
#==================================================================
~Curve
DEPT .m                   : DEPTH
Lithology_geolink ._      : Lithology_geolink
DCAL .in                  : DCAL
CALI .in                  : CALI
BS .in                    : BS
MUDWEIGHT ._              : MUDWEIGHT
ROP .m/h                  : ROP
DRHO .g/cm3               : DRHO
RHOB .g/cm3               : RHOB
GR .gAPI                  : GR
DTC .us/ft                : DTC
DTE .us/ft                : DTE
RDEP .ohm.m               : RDEP
SP .mV                    : SP
RSHA .ohm.m               : RSHA
RMIC .ohm.m               : RMIC
RMED .ohm.m               : RMED
~Parameter
#==================================================================
~Ascii
# ...
 387.54702759  -999.250000 -12.93799973 13.062000275 26.000001907  -999.250000  -999.250000  -999.250000  -999.250000 24.521999359  -999.250000 160.80000305  -999.250000 32.251998901  -999.250000  -999.250000 0.2640024126
 387.69943237  -999.250000 -12.97700024 13.022998810 26.000001907  -999.250000  -999.250000  -999.250000  -999.250000 24.097999573  -999.250000 160.80000305  -999.250000 32.028999329  -999.250000  -999.250000 0.2610017955
 387.85180664  -999.250000 -13.01599979 12.984000206 26.000001907  -999.250000  -999.250000  -999.250000  -999.250000 24.364000320  -999.250000 160.80000305  -999.250000 31.736999512  -999.250000  -999.250000 0.2610000074
 388.00421143  -999.250000 -13.05200005 12.948001862 26.000001907  -999.250000  -999.250000  -999.250000  -999.250000 23.805999756  -999.250000 160.80000305  -999.250000 31.502000809  -999.250000  -999.250000 0.2629984021
 388.15661621  -999.250000 -13.07499886 12.924999237 26.000001907  -999.250000  -999.250000  -999.250000  -999.250000 22.971000671  -999.250000 160.80000305  -999.250000 31.277000427  -999.250000  -999.250000 0.2659975886
 388.30902100  -999.250000 -13.08800125 12.911999702 26.000001907  -999.250000  -999.250000  -999.250000  -999.250000 23.409000397  -999.250000 160.80000305  -999.250000 30.756000519  -999.250000  -999.250000 0.2669991851
 388.46142578  -999.250000 -13.09500122 12.904999733 26.000001907  -999.250000  -999.250000  -999.250000  -999.250000 23.884000778  -999.250000 160.80000305  -999.250000 29.552001953  -999.250000  -999.250000 0.2689988017
 388.61383057  -999.250000 -13.09899998 12.900999069 26.000001907  -999.250000  -999.250000  -999.250000  -999.250000 24.056999207  -999.250000 160.80000305  -999.250000 29.560363770  -999.250000  -999.250000 0.2719982266
 388.76620483  -999.250000 -13.09899998 12.900999069 26.000001907  -999.250000  -999.250000  -999.250000  -999.250000 24.697000504  -999.250000 160.80000305  -999.250000 32.965881348  -999.250000  -999.250000 0.2749975920
 388.91857910  -999.250000 -13.09300137 12.906999588 26.000001907  -999.250000  -999.250000  -999.250000  -999.250000 25.058927536  -999.250000 160.80000305  -999.250000 32.368999481  -999.250000  -999.250000 0.2789960206
 389.07098389  -999.250000 -13.08600044 12.913999557 26.000001907  -999.250000  -999.250000  -999.250000  -999.250000 24.588092804  -999.250000 160.80000305  -999.250000 32.437999725  -999.250000  -999.250000 0.2859930098
 389.22338867  -999.250000 -13.09000015 12.909999847 26.000001907  -999.250000  -999.250000  -999.250000  -999.250000 24.578001022  -999.250000 160.80000305  -999.250000 35.095001221  -999.250000  -999.250000 0.2959899902
 389.37579346  -999.250000 -13.07600021 12.923999786 26.000001907  -999.250000  -999.250000  -999.250000  -999.250000 24.755964279  -999.250000 160.80000305  -999.250000 36.722000122  -999.250000  -999.250000 0.3079879880
 389.52819824  -999.250000 -13.00300121 12.996999741 26.000001907  -999.250000  -999.250000  -999.250000  -999.250000 24.677015305  -999.250000 160.80000305  -999.250000 37.731998444  -999.250000  -999.250000 0.3259855807
 389.68057251  -999.250000 -13.04199982 12.958000183 26.000001907  -999.250000  -999.250000  -999.250000  -999.250000 25.858526230  -999.250000 160.80000305  -999.250000 37.648998260  -999.250000  -999.250000 0.3919339180
 389.83297729  -999.250000 -13.12100029 12.878999710 26.000001907  -999.250000  -999.250000  -999.250000  -999.250000 28.731424332  -999.250000 160.80000305  -999.250000 38.129001617  -999.250000  -999.250000 0.4948968887
 389.98538208  -999.250000 -12.99699974 13.003001213 26.000001907  -999.250000  -999.250000  -999.250000  -999.250000 31.779390335  -999.250000 160.80000305  -999.250000 36.116001129  -999.250000  -999.250000 0.5909038782
 390.13778687  -999.250000 -12.64099979 13.359000206 26.000001907  -999.250000  -999.250000  -999.250000  -999.250000 33.106731415  -999.250000 160.80000305  -999.250000 33.370998383  -999.250000  -999.250000 0.7048858404
 390.29019165  -999.250000 -12.26099968 13.739001274 26.000001907  -999.250000  -999.250000  -999.250000  -999.250000 33.463928223  -999.250000 160.80000305  -999.250000 33.782001495  -999.250000  -999.250000 0.8588458300
 390.44259644  -999.250000 -12.20499992 13.795000076 26.000001907  -999.250000  -999.250000  -999.250000  -999.250000 33.708950043  -999.250000 160.80000305  -999.250000 35.104999542  -999.250000  -999.250000 1.0827757120
 390.59500122  -999.250000 -12.52999878 13.469999313 26.000001907  -999.250000  -999.250000  -999.250000  -999.250000 32.658210754  -999.250000 160.80000305  -999.250000 36.694999695  -999.250000  -999.250000 1.3587788343
 390.74737549  -999.250000 -12.88799953 13.111999512 26.000001907  -999.250000  -999.250000  -999.250000  -999.250000 31.006662369  -999.250000 160.80000305  -999.250000 32.957000732  -999.250000  -999.250000 1.6227357388
 390.89978027  -999.250000 -13.01799965 12.982000351 26.000001907  -999.250000  -999.250000  -999.250000  -999.250000 30.102180481  -999.250000 160.80000305  -999.250000 27.163000107  -999.250000  -999.250000 1.7858368158
 391.05218506  -999.250000 -13.01399994 12.986001015 26.000001907  -999.250000  -999.250000  -999.250000  -999.250000 29.664087296  -999.250000 160.80000305  -999.250000 26.868000031  -999.250000  -999.250000 1.8599258661
 391.20458984  -999.250000 -12.93299961 13.067002296 26.000001907  -999.250000  -999.250000  -999.250000  -999.250000 30.055921555  -999.250000 160.80000305 1.8659921885 25.841999054 1.9449830055 2.1149146557 1.9449149370
 391.35699463  -999.250000 -12.83800030 13.161999702 26.000001907  -999.250000  -999.250000  -999.250000  -999.250000 30.879833221  -999.250000 160.80000305 1.6310471296 24.354999542 1.9919905663 2.4690351486 1.9919528961
 391.50939941  -999.250000 -12.76800060 13.232000351 26.000001907  -999.250000  -999.250000  -999.250000  -999.250000 31.367902756  -999.250000 160.80000305 1.4270409346 22.836999893 1.9989985228 2.5920753479 1.9989929199
 391.66177368  -999.250000 -12.76000023 13.239999771 26.000001907  -999.250000  -999.250000  -999.250000  -999.250000 31.545928955  -999.250000 160.80000305 1.3190432787 21.347999573 2.0159931183 2.7647688389 2.0159831047
 391.81417847  -999.250000 -12.85099983 13.149002075 26.000001907  -999.250000  -999.250000  -999.250000  -999.250000 31.018211365  -999.250000 160.80000305 1.2900115252 19.718999863 2.0319936275 2.8859016895 2.0319840908
 391.96658325  -999.250000 -12.94900036 13.051000595 26.000001907  -999.250000  -999.250000  -999.250000  -999.250000 30.185165405  -999.250000 160.80000305 1.2860008478 17.131000519 2.0489966869 2.8573176861 2.0489830971
 392.11898804  -999.250000 -12.99400043 13.005999565 26.000001907  -999.250000  -999.250000  -999.250000  -999.250000 29.289178848  -999.250000 160.80000305 1.2810009718 18.021999359 2.0649969578 2.7826349735 2.0649840832
 392.27139282  -999.250000 -13.02600002 12.974000931 26.000001907  -999.250000  -999.250000  -999.250000  -999.250000 28.342187881  -999.250000 160.80000305 1.2879985571 20.413999557 2.0789971352 2.7210493088 2.0789859295
 392.42379761  -999.250000 -13.04699993 12.953000069 26.000001907  -999.250000  -999.250000  -999.250000  -999.250000 27.282211304  -999.250000 160.80000305 1.3139947653 19.936000824 2.0929970741 2.7010321617 2.0929858685
 392.57620239  -999.250000 -13.05300045 12.946999550 26.000001907  -999.250000  -999.250000  -999.250000  -999.250000 25.854286194  -999.250000 160.80000305 1.3539919853 19.929000854 2.1059973240 2.7291421890 2.1059894562
 392.72857666  -999.250000 -13.07199860 12.927999496 26.000001907  -999.250000  -999.250000  -999.250000  -999.250000 26.067914963  -999.250000 160.80000305 1.3699935675 23.419000626 2.1199941635 2.7652003765 2.1199858189
 392.88098145  -999.250000 -13.10700035 12.892998695 26.000001907  -999.250000  -999.250000  -999.250000  -999.250000 27.829294205  -999.250000 160.80000305 1.3500080109 25.215999603 2.1329946518 2.7505130768 2.1329867840
 393.03338623  -999.250000 -13.13700008 12.862998962 26.000001907  -999.250000  -999.250000  -999.250000  -999.250000 28.661834717  -999.250000 160.80000305 1.3280043602 20.732999802 2.1419980526 2.6944081783 2.1419909000
