# LAS format log file from PETREL
# Project units are specified as depth units
#==================================================================
~Version information
VERS.   2.0:
WRAP.   NO:
#==================================================================
~Well
STRT .m      376.26940918 :
STOP .m      2542.6337891 :
STEP .m     0.00000000 :
NULL .        -999.250000 :
COMP.           : COMPANY
WELL.  25/8-1  Forseti   : WELL
FLD.            : FIELD
LOC.            : LOCATION
SRVC.           : SERVICE COMPANY
DATE.  2018-09-11 14:48:23   : Log Export Date {yyyy-MM-dd HH:mm:ss}
PROV.           : PROVINCE
UWI.   25/8-1   : UNIQUE WELL ID
API.            : API NUMBER
#==================================================================
~Curve
DEPT .m                   : DEPTH
Lithology_geolink ._      : Lithology_geolink
DCAL .in                  : DCAL
CALI .in                  : CALI
BS .in                    : BS
MUDWEIGHT ._              : MUDWEIGHT
ROP .m/h                  : ROP
DRHO .g/cm3               : DRHO
RHOB .g/cm3               : RHOB
GR .gAPI                  : GR
DTC .us/ft                : DTC
DTE .us/ft                : DTE
RDEP .ohm.m               : RDEP
SP .mV                    : SP
RSHA .ohm.m               : RSHA
RMIC .ohm.m               : RMIC
RMED .ohm.m               : RMED
~Parameter
#==================================================================
~Ascii
# ...
 2535.9284668  -999.250000 6.2729997635 14.772999763 8.5000000000 11.500000000 17.580892563 -0.009000000 2.4828059673  -999.250000 71.215599060 71.216346741 5.6550002098 37.341217041 7.2421250343  -999.250000 7.2412438393
 2536.0810547  -999.250000 6.2490010262 14.749000549 8.5000000000 11.500000000 17.825832367 -0.007000000 2.4691770077  -999.250000 70.729187012 70.731018066 5.7049999237 36.851364136 7.3202528954  -999.250000 7.3191251755
 2536.2333984  -999.250000 6.2460002899 14.746000290 8.5000000000 11.500000000 17.883134842 -0.010000000 2.4521920681  -999.250000 70.153427124 70.154998779 5.8610000610 36.341491699 7.3991298676  -999.250000 7.3981137276
 2536.3857422  -999.250000 6.2470006943 14.746999741 8.5000000000 11.500000000 17.886442184 -0.022000000 2.4395759106  -999.250000 69.491508484  -999.250000 6.1069998741 36.025772095 7.4801588058  -999.250000 7.4790911674
 2536.5380859  -999.250000 6.2470006943 14.746999741 8.5000000000 11.500000000 17.887422562 -0.024000000 2.4491269588  -999.250000 68.810211182  -999.250000 6.4070000648 35.883991241 7.5791907310  -999.250000 7.5777325630
 2536.6906738  -999.250000 6.2449998856 14.745000839 8.5000000000 11.500000000 17.888563156 -0.022000000 2.4595940113  -999.250000 68.503570557  -999.250000 6.7059998512 35.880172729 7.6983776093  -999.250000 7.6966648102
 2536.8430176  -999.250000 6.2389998436 14.739000320 8.5000000000 11.500000000 17.936296463 -0.020000000 2.4692270756  -999.250000 68.655761719  -999.250000 7.0060000420 35.934230804 7.8162016869  -999.250000 7.8146762848
 2536.9953613  -999.250000 6.2319998741 14.732000351 8.5000000000 11.500000000 17.939592361 -0.023000000 2.4939138889  -999.250000 68.772613525  -999.250000 7.3049998283 36.079448700 7.9421825409  -999.250000 7.9405865669
 2537.1477051  -999.250000 6.2220005989 14.722000122 8.5000000000 11.500000000 17.940572739 -0.025000000 2.4913520813  -999.250000 68.663978577  -999.250000 7.6050000191 36.360313416 8.0561408997  -999.250000 8.0545406342
 2537.3002930  -999.250000 6.2150001526 14.715001106 8.5000000000 11.500000000 17.946538925 -0.025000000 2.4839200974  -999.250000 68.591697693  -999.250000 7.9029998779 36.555168152 8.1442432404  -999.250000 8.1430130005
 2537.4526367  -999.250000 6.2150001526 14.715001106 8.5000000000 11.500000000 19.497585297 -0.023000000 2.4728660583  -999.250000 68.753265381  -999.250000 8.1011571884 36.607212067 8.2200832367  -999.250000 8.2191476822
 2537.6049805  -999.250000 6.2289996147 14.729000092 8.5000000000 11.500000000 19.669435501 -0.017000001 2.4706699848  -999.250000 68.976066589  -999.250000 8.1990528107 36.740425110 8.2720022202  -999.250000 8.2714166641
 2537.7573242  -999.250000 6.2600007057 14.759999275 8.5000000000 11.500000000 19.816247940 -0.014000000 2.5025320053  -999.250000 69.246032715  -999.250000 8.2319459915 37.004581451 8.2729015350  -999.250000 8.2729873657
 2537.9096680  -999.250000 6.2890000343 14.789000511 8.5000000000 11.500000000 19.871015549 -0.017999999 2.5014970303  -999.250000 69.608215332  -999.250000 8.1978473663 37.367683411 8.2118721008  -999.250000 8.2127819061
 2538.0622559  -999.250000 6.3109993935 14.810999870 8.5000000000 11.500000000 19.874151230 -0.016000001 2.4964339733  -999.250000 69.785659790  -999.250000 8.1024494171 37.793407440 8.1317920685  -999.250000 8.1328973770
 2538.2145996  -999.250000 6.3330001831 14.833001137 8.5000000000 11.500000000 19.827907562 -0.005000000 2.5176739693  -999.250000 69.788085938  -999.250000 7.9307260513 38.232463837 8.0668992996  -999.250000 8.0677299500
 2538.3669434  -999.250000 6.3550004959 14.854999542 8.5000000000 11.500000000 19.732442856 -0.002000000 2.5295369625  -999.250000 69.782142639  -999.250000 7.7597532272 38.523620605 8.0039167404  -999.250000 8.0047063828
 2538.5192871  -999.250000 6.3750000000 14.875000954 8.5000000000 11.500000000 19.634597778 -0.001000000 2.5174551010  -999.250000 69.776191711  -999.250000 7.6057529449 38.910636902 7.9519424438  -999.250000 7.9526658058
 2538.6718750  -999.250000 6.3860001564 14.885999680 8.5000000000 11.500000000 19.489519119 -0.004000000 2.5070769787  -999.250000 69.770225525  -999.250000 7.4515075684 39.307327271 7.9159197807  -999.250000 7.9164037704
 2538.8242188  -999.250000 6.3920011520 14.892000198 8.5000000000 11.500000000 19.389593124 -0.011000000 2.4843697548  -999.250000 69.764305115  -999.250000 7.2979679108 39.409999847 7.8909678459  -999.250000 7.8912801743
 2538.9765625  -999.250000 6.3969998360 14.897000313 8.5000000000 11.500000000 19.291898727 -0.018999999 2.4774899483  -999.250000 69.758338928  -999.250000 7.2781939507 39.410991669 7.8709726334  -999.250000 7.8712244034
 2539.1289063  -999.250000 6.4029994011 14.902999878 8.5000000000 11.500000000 19.241041183 -0.022000000 2.4739549160  -999.250000  -999.250000  -999.250000 7.3992037773 39.406848907 7.8539762497  -999.250000 7.8542175293
 2539.2814941  -999.250000 6.3639998436 14.863999367 8.5000000000 11.500000000 19.192510605 -0.017000001 2.4820499420  -999.250000  -999.250000  -999.250000 7.5264062881 39.310672760 7.8390130997  -999.250000 7.8391685486
 2539.4338379  -999.250000 6.2529993057 14.753000259 8.5000000000 11.500000000 19.177173615 -0.002000000 2.4875960350  -999.250000  -999.250000  -999.250000 7.6532001495 39.207359314 7.8430433273  -999.250000 7.8429551125
 2539.5861816  -999.250000 6.1269998550 14.626999855 8.5000000000 11.500000000 19.191448212 0.0010000000 2.4688889980  -999.250000  -999.250000  -999.250000 7.7781939507 38.807933807 7.8700656891  -999.250000 7.8696970940
 2539.7385254  -999.250000 6.1630001068 14.663001060 8.5000000000 11.500000000 19.145978928 -0.005000000 2.4565389156  -999.250000  -999.250000  -999.250000 7.8992805481 38.143409729 7.9111008644  -999.250000 7.9104747772
 2539.8908691  -999.250000 6.2839999199 14.784000397 8.5000000000 11.500000000 19.144876480 -0.020000000 2.4501149654  -999.250000  -999.250000  -999.250000 8.0743961334 37.774776459 7.9741234779  -999.250000 7.9731922150
 2540.0434570  -999.250000 6.3239998817 14.824000359 8.5000000000 11.500000000 19.098424911 -0.026000001 2.4549520016  -999.250000  -999.250000  -999.250000 8.3215923309 37.634510040 8.0512495041  -999.250000 8.0501356125
 2540.1958008  -999.250000 6.3290004730 14.829000473 8.5000000000 11.500000000 19.002885818 -0.014000000 2.4718649387  -999.250000  -999.250000  -999.250000 8.5061130524 37.481830597 8.1291103363  -999.250000 8.1281242371
 2540.3481445  -999.250000 6.2259998322 14.725999832 8.5000000000 11.500000000 18.763614655 -0.011000000 2.4795660973  -999.250000  -999.250000  -999.250000 8.5769453049 37.378311157 8.1980466843  -999.250000 8.1972255707
 2540.5004883  -999.250000 5.8289999962 14.329000473 8.5000000000 11.500000000 18.423334122 -0.018999999 2.4733810425  -999.250000  -999.250000  -999.250000 8.5427742004 37.573699951 8.2269439697  -999.250000 8.2266292572
 2540.6530762  -999.250000 5.7179999352 14.218000412 8.5000000000 11.500000000 18.219682693 -0.032000002 2.4555840492  -999.250000  -999.250000  -999.250000 8.4014148712 38.010383606 8.1916513443  -999.250000 8.1923933029
 2540.8054199  -999.250000 6.0989999771 14.598999977 8.5000000000 11.500000000 18.164348602 -0.033000000 2.4490079880  -999.250000  -999.250000  -999.250000 8.2186908722 38.442672729 8.0827312469  -999.250000 8.0842227936
 2540.9577637  -999.250000 6.3200001717 14.819998741 8.5000000000 11.500000000 18.163322449 -0.028999999 2.4489998817  -999.250000  -999.250000  -999.250000 8.0256843567 38.862781525 7.9146857262  -999.250000 7.9168844223
 2541.1101074  -999.250000 6.3769998550 14.876999855 8.5000000000 11.500000000 18.164011002 -0.020000000 2.4693040848  -999.250000  -999.250000  -999.250000 7.8286843300 39.350887299 7.7186679840  -999.250000 7.7215085030
 2541.2626953  -999.250000 6.4010004997 14.901000023 8.5000000000 11.500000000 18.164983749 -0.010000000 2.5037269592  -999.250000  -999.250000  -999.250000 7.6313695908 39.905677795 7.5113410950  -999.250000 7.5143222809
 2541.4150391  -999.250000 6.3769998550 14.876999855 8.5000000000 11.500000000 18.165971756 -0.007000000 2.5044119358  -999.250000  -999.250000  -999.250000 7.4346842766 40.429794312 7.3056683540  -999.250000 7.3083109856
