# LAS format log file from PETREL
# Project units are specified as depth units
#==================================================================
~Version information
VERS.   2.0:
WRAP.   NO:
#==================================================================
~Well
STRT .m      1079.9069824 :
STOP .m      2540.5083008 :
STEP .m     0.00000000 :
NULL .        -999.250000 :
COMP.           : COMPANY
WELL.  25/8-9  Krap 2   : WELL
FLD.            : FIELD
LOC.            : LOCATION
SRVC.           : SERVICE COMPANY
DATE.  2018-09-11 14:48:24   : Log Export Date {yyyy-MM-dd HH:mm:ss}
PROV.           : PROVINCE
UWI.   25/8-9   : UNIQUE WELL ID
API.            : API NUMBER
#==================================================================
~Curve
DEPT .m                   : DEPTH
Lithology_geolink ._      : Lithology_geolink
BS .in                    : BS
MUDWEIGHT ._              : MUDWEIGHT
SGR .gAPI                 : SGR
RHOB .g/cm3               : RHOB
GR .gAPI                  : GR
DTC .us/ft                : DTC
DTS .us/ft                : DTS
~Parameter
#==================================================================
~Ascii
# ...
 1660.2460938  -999.250000 8.5000000000 1.2799999714 51.092098236 2.1708571911 49.422756195 142.62570190 390.81320190
 1660.3984375  -999.250000 8.5000000000 1.2799999714 49.568099976 2.1685330868 48.836238861 142.73880005 389.54681396
 1660.5509033  -999.250000 8.5000000000 1.2799999714 48.590301514 2.1618859768 48.813117981 142.92649841 388.27099609
 1660.7032471  -999.250000 8.5000000000 1.2799999714 49.411998749 2.1714744568 48.976135254 142.77330017 387.06399536
 1660.8557129  -999.250000 8.5000000000 1.2799999714 51.888198853 2.1750552654 48.633872986 142.55560303 383.53448486
 1661.0080566  -999.250000 8.5000000000 1.2799999714 53.533401489 2.1741135120 48.257202148 142.32820129 380.01199341
 1661.1605225  -999.250000 8.5000000000 1.2799999714 51.993598938 2.1737051010 48.561256409 142.16229248 378.19711304
 1661.3128662  -999.250000 8.5000000000 1.2799999714 50.447799683 2.1785373688 49.462478638 142.00030518 377.32379150
 1661.4653320  -999.250000 8.5000000000 1.2799999714 51.894901276 2.1773166656 50.264259338 141.92880249 378.18038940
 1661.6176758  -999.250000 8.5000000000 1.2799999714 52.878200531 2.1811468601 50.280689240 141.88409424 378.34606934
 1661.7701416  -999.250000 8.5000000000 1.2799999714 52.693698883 2.1806080341 49.629322052 142.02589417 380.65908813
 1661.9224854  -999.250000 8.5000000000 1.2799999714 48.740299225 2.1796128750 48.816253662 142.07350159 381.47610474
 1662.0749512  -999.250000 8.5000000000 1.2799999714 48.884799957 2.1840457916 48.163021088 142.15859985 380.04800415
 1662.2272949  -999.250000 8.5000000000 1.2799999714 49.171199799 2.1840999126 47.634021759 142.23069763 380.02517700
 1662.3796387  -999.250000 8.5000000000 1.2799999714 48.968101501 2.1892251968 47.278469086 142.21850586 379.49600220
 1662.5321045  -999.250000 8.5000000000 1.2799999714 50.721801758 2.1961114407 47.461551666 141.91000366 375.16610718
 1662.6844482  -999.250000 8.5000000000 1.2799999714 52.524898529 2.1899807453 48.108364105 141.64160156 371.18710327
 1662.8369141  -999.250000 8.5000000000 1.2799999714 53.295398712 2.1855561733 48.468013763 141.53169250 372.48651123
 1662.9892578  -999.250000 8.5000000000 1.2799999714 52.626399994 2.1759321690 47.783496857 141.56080627 373.47259521
 1663.1417236  -999.250000 8.5000000000 1.2799999714 49.507801056 2.1770832539 46.589557648 141.81579590 373.37600708
 1663.2940674  -999.250000 8.5000000000 1.2799999714 48.947498322 2.1825294495 46.095996857 141.69590759 373.37948608
 1663.4465332  -999.250000 8.5000000000 1.2799999714 46.469600677 2.1920769215 46.425235748 141.51210022 373.36849976
 1663.5988770  -999.250000 8.5000000000 1.2799999714 49.409400940 2.1929891109 46.933090210 141.23410034 369.29360962
 1663.7513428  -999.250000 8.5000000000 1.2799999714 52.482898712 2.1807687283 47.582382202 140.48609924 362.48251343
 1663.9036865  -999.250000 8.5000000000 1.2799999714 54.724601746 2.1690502167 48.896247864 139.39790344 361.58990479
 1664.0561523  -999.250000 8.5000000000 1.2799999714 55.404098511 2.1719627380 50.097339630 138.54589844 359.46139526
 1664.2084961  -999.250000 8.5000000000 1.2799999714 54.411300659 2.1884727478 49.919845581 138.14849854 355.70117188
 1664.3609619  -999.250000 8.5000000000 1.2799999714 54.840900421 2.1991558075 49.146816254 138.01440430 355.70831299
 1664.5133057  -999.250000 8.5000000000 1.2799999714 54.731201172 2.2218074799 49.469242096 138.06970215 354.73678589
 1664.6656494  -999.250000 8.5000000000 1.2799999714 54.639400482 2.2467796803 50.941440582 138.28140259 354.35778809
 1664.8181152  -999.250000 8.5000000000 1.2799999714 55.346801758 2.2432501316 52.244258881 138.97219849 355.99713135
 1664.9704590  -999.250000 8.5000000000 1.2799999714 54.775798798 2.2106490135 52.562091827 139.70410156 361.20159912
 1665.1229248  -999.250000 8.5000000000 1.2799999714 55.582698822 2.1783142090 51.964179993 139.94180298 369.00180054
 1665.2752686  -999.250000 8.5000000000 1.2799999714 52.662998199 2.1795783043 50.798732758 139.53720093 368.85269165
 1665.4277344  -999.250000 8.5000000000 1.2799999714 51.853298187 2.1881885529 49.592666626 139.34109497 369.25949097
 1665.5800781  -999.250000 8.5000000000 1.2799999714 50.390098572 2.1937251091 48.913940430 139.08920288 371.34799194
 1665.7325439  -999.250000 8.5000000000 1.2799999714 52.180599213 2.1848239899 48.446575165 138.61320496 368.09289551
 1665.8848877  -999.250000 8.5000000000 1.2799999714 52.353401184 2.1840090752 47.557212830 138.49969482 368.76229858
 1666.0373535  -999.250000 8.5000000000 1.2799999714 55.577098846 2.1850869656 46.723365784 138.99510193 367.21481323
 1666.1896973  -999.250000 8.5000000000 1.2799999714 54.333400726 2.1865794659 46.496082306 139.53410339 366.54220581
 1666.3421631  -999.250000 8.5000000000 1.2799999714 52.911201477 2.1863040924 46.641983032 140.51480103 369.68521118
 1666.4945068  -999.250000 8.5000000000 1.2799999714 50.345699310 2.1835360527 46.663879395 140.98550415 373.27859497
 1666.6468506  -999.250000 8.5000000000 1.2799999714 49.157501221 2.1869552135 46.706832886 141.19090271 375.32461548
 1666.7993164  -999.250000 8.5000000000 1.2799999714 49.653999329 2.1944038868 47.325702667 141.40699768 379.53988647
 1666.9516602  -999.250000 8.5000000000 1.2799999714 50.928699493 2.1956834793 48.123722076 141.25720215 383.53970337
 1667.1041260  -999.250000 8.5000000000 1.2799999714 54.130500793 2.1902706623 48.696041107 140.61509705 381.70870972
 1667.2564697  -999.250000 8.5000000000 1.2799999714 55.247798920 2.1884231567 49.069400787 140.46919250 380.12765503
 1667.4089355  -999.250000 8.5000000000 1.2799999714 52.513301849 2.1922500134 49.280933380 140.38699341 379.55572510
 1667.5612793  -999.250000 8.5000000000 1.2799999714 51.563899994 2.1945688725 49.532699585 140.17190552 377.21270752
 1667.7137451  -999.250000 8.5000000000 1.2799999714 51.926799774 2.2015047073 49.891914368 139.83459473 371.18011475
 1667.8660889  -999.250000 8.5000000000 1.2799999714 53.189498901 2.2008101940 50.519897461 139.40530396 367.74429321
 1668.0185547  -999.250000 8.5000000000 1.2799999714 54.442600250 2.2026770115 51.173175812 138.46240234 367.62890625
 1668.1708984  -999.250000 8.5000000000 1.2799999714 54.987098694 2.2262749672 51.235050201 136.79429626 359.08630371
 1668.3233643  -999.250000 8.5000000000 1.2799999714 54.253898621 2.2773990631 50.582923889 134.99870300 348.92208862
 1668.4757080  -999.250000 8.5000000000 1.2799999714 51.543701172 2.3095905781 49.781040192 133.39149475 337.90509033
 1668.6280518  -999.250000 8.5000000000 1.2799999714 50.560901642 2.2972655296 49.707416534 131.64129639 335.17230225
 1668.7805176  -999.250000 8.5000000000 1.2799999714 50.417499542 2.2580072880 50.447303772 130.57460022 332.89733887
 1668.9328613  -999.250000 8.5000000000 1.2799999714 51.938098907 2.2496089935 51.049133301 130.02780151 332.61639404
 1669.0853271  -999.250000 8.5000000000 1.2799999714 52.775398254 2.2627282143 50.589168549 129.97259521 333.79980469
 1669.2376709  -999.250000 8.5000000000 1.2799999714 54.320598602 2.2751410007 49.578022003 130.98789978 333.98239136
 1669.3901367  -999.250000 8.5000000000 1.2799999714 54.127601624 2.2682907581 49.601482391 132.60159302 332.07830811
 1669.5424805  -999.250000 8.5000000000 1.2799999714 55.706798553 2.2377204895 51.299236298 133.54209900 328.38259888
 1669.6949463  -999.250000 8.5000000000 1.2799999714 59.327400208 2.2129361629 53.800296783 133.99980164 325.99926758
 1669.8472900  -999.250000 8.5000000000 1.2799999714 61.459300995 2.1961143017 56.061988831 134.58360291 328.95059204
 1669.9997559  -999.250000 8.5000000000 1.2799999714 59.553501129 2.1836490631 57.819091797 135.20509338 335.60101318
 1670.1520996  -999.250000 8.5000000000 1.2799999714 59.081401825 2.1842889786 59.173316956 135.94529724 339.65493774
 1670.3045654  -999.250000 8.5000000000 1.2799999714 59.266899109 2.1708853245 59.944282532 136.56109619 343.05996704
 1670.4569092  -999.250000 8.5000000000 1.2799999714 58.019001007 2.1630001068 59.511547089 137.28050232 348.50381470
