# LAS format log file from PETREL
# Project units are specified as depth units
#==================================================================
~Version information
VERS.   2.0:
WRAP.   NO:
#==================================================================
~Well
STRT .m      376.26940918 :
STOP .m      2542.6337891 :
STEP .m     0.00000000 :
NULL .        -999.250000 :
COMP.           : COMPANY
WELL.  25/8-1  Forseti   : WELL
FLD.            : FIELD
LOC.            : LOCATION
SRVC.           : SERVICE COMPANY
DATE.  2018-09-11 14:48:23   : Log Export Date {yyyy-MM-dd HH:mm:ss}
PROV.           : PROVINCE
UWI.   25/8-1   : UNIQUE WELL ID
API.            : API NUMBER
#==================================================================
~Curve
DEPT .m                   : DEPTH
Lithology_geolink ._      : Lithology_geolink
DCAL .in                  : DCAL
CALI .in                  : CALI
BS .in                    : BS
MUDWEIGHT ._              : MUDWEIGHT
ROP .m/h                  : ROP
DRHO .g/cm3               : DRHO
RHOB .g/cm3               : RHOB
GR .gAPI                  : GR
DTC .us/ft                : DTC
DTE .us/ft                : DTE
RDEP .ohm.m               : RDEP
SP .mV                    : SP
RSHA .ohm.m               : RSHA
RMIC .ohm.m               : RMIC
RMED .ohm.m               : RMED
~Parameter
#==================================================================
~Ascii
# ...
 2248.3498535 5.0000000000 5.4070000648 13.906999588 8.5000000000 11.199999809 0.7456773520 -0.013000000 2.2712399960 57.265998840 97.720520020 97.717918396 1.4620000124 61.116020203 2.1210000515  -999.250000 2.1207981110
 2248.5021973 5.0000000000 5.2369999886 13.737000465 8.5000000000 11.199999809 0.7384810448 0.0020000001 2.2509438992 52.972000122 97.775245667 97.780982971 1.4470000267 61.128437042 2.1300001144  -999.250000 2.1298992634
 2248.6545410 5.0000000000 4.5359997749 13.036000252 8.5000000000 11.199999809 0.7000390291 0.0030000000 2.2370810509 48.625000000 95.266456604 95.269935608 1.4680000544 60.777000427 2.1270000935  -999.250000 2.1270337105
 2248.8068848 5.0000000000 4.2709999084 12.770999908 8.5000000000 11.199999809 0.6991009116 -0.004000000 2.2693910599 46.963001251 92.581153870 92.585762024 1.5199999809 60.110000610 2.1779999733  -999.250000 2.1774277687
 2248.9594727 5.0000000000 4.8249998093 13.324999809 8.5000000000 11.199999809 0.7000866532 -0.008000000 2.2921628952 47.207000732 92.533943176 92.531318665 1.5939999819 58.926319122 2.2990000248  -999.250000 2.2978365421
 2249.1118164 5.0000000000 5.3559999466 13.856000900 8.5000000000 11.199999809 0.7010709643 -0.008000000 2.2853410244 48.365001678 94.114410400 94.110542297 1.6820000410 57.878147125 2.4400000572  -999.250000 2.4384207726
 2249.2641602 5.0000000000 5.2520003319 13.751998901 8.5000000000 11.199999809 0.7020536065 -0.012000000 2.2407400608 49.244998932 94.880371094 94.878562927 1.7330000401 57.345001221 2.5339999199  -999.250000 2.5329453945
 2249.4165039 5.0000000000 4.5110001564 13.010999680 8.5000000000 11.199999809 0.7030379176 -0.015000000 2.1985340118 49.160999298 92.333183289 92.344543457 1.7159999609 56.629001617 2.5969998837  -999.250000 2.5962932110
 2249.5690918 5.0000000000 3.8140001297 12.314000130 8.5000000000 11.199999809 0.7043364048 -0.026000001 2.2411360741 47.504001617 86.442359924 86.459632874 1.6749999523 55.576744080 2.7100000381  -999.250000 2.7089135647
 2249.7214355 5.0000000000 3.5089998245 12.008999825 8.5000000000 11.199999809 0.7053360343 -0.024000000 2.3081140518 44.782001495 82.344779968 82.346366882 1.6349999905 53.541946411 2.8810000420  -999.250000 2.8790848255
 2249.8737793 5.0000000000 3.4460000992 11.946000099 8.5000000000 11.199999809 0.7063202262 -0.017999999 2.3361220360 42.580001831 82.429786682 82.426734924 1.5850000381 50.387271881 3.0729999542  -999.250000 3.0708460808
 2250.0261230 5.0000000000 3.4539999962 11.954000473 8.5000000000 11.199999809 0.7073029280 -0.020000000 2.3535969257 43.200000763 84.111656189 84.108718872 1.5269999504 47.438999176 3.1050000191  -999.250000 3.1046409607
 2250.1787109 5.0000000000 3.4549999237 11.955000877 8.5000000000 11.199999809 0.7082130909 -0.021000000 2.3488149643 46.570999146 85.617240906 85.614074707 1.4809999466 45.396347046 2.9500000477  -999.250000 2.9514904022
 2250.3310547 5.0000000000 3.5799999237 12.079998970 8.5000000000 11.199999809 0.6618995070 -0.018999999 2.3323879242 49.493999481 87.590255737 87.584022522 1.4490000010 44.367237091 2.7799999714  -999.250000 2.7816345692
 2250.4833984 5.0000000000 3.9229998589 12.423000336 8.5000000000 11.199999809 0.5661212802 -0.013000000 2.3151168823 51.497001648 91.418235779 91.401351929 1.4199999571 44.517753601 2.6670000553  -999.250000 2.6682655811
 2250.6357422 5.0000000000 4.2369999886 12.737001419 8.5000000000 11.199999809 0.4681809843 -0.003000000 2.2851190567 53.241001129 95.257476807 95.246345520 1.3839999437 46.236999512 2.6800000668  -999.250000 2.6798541546
 2250.7880859 5.0000000000 4.0300002098 12.529998779 8.5000000000 11.199999809 0.4645208418 -0.005000000 2.2488269806 51.464000702 96.136230469 96.135971069 1.3459999561 47.758998871 2.7869999409  -999.250000 2.7857995033
 2250.9406738 5.0000000000 3.5549998283 12.055000305 8.5000000000 11.199999809 0.4655437171 -0.023000000 2.2131578922 45.155998230 93.288986206 93.306541443 1.3140000105 46.589214325 2.9719998837  -999.250000 2.9702210426
 2251.0930176 3.0000000000 3.3900001049 11.890000343 8.5000000000 11.199999809 0.4896714985 -0.039999999 2.1992299557 38.726001740 87.124366760 87.155830383 1.3159999847 42.977199554 3.2219998837  -999.250000 3.2191998959
 2251.2453613 3.0000000000 3.4099998474 11.909999847 8.5000000000 11.199999809 0.5158300996 -0.046999998 2.2587809563 36.277000427 81.647735596 81.661323547 1.3539999723 38.109001160 3.4579999447  -999.250000 3.4553525448
 2251.3977051 3.0000000000 3.4319999218 11.932000160 8.5000000000 11.199999809 0.5179985166 -0.028000001 2.3120710850 37.257999420 80.321960449 80.324798584 1.4040000439 34.596000671 3.5499999523  -999.250000 3.5489678383
 2251.5502930 3.0000000000 3.4470000267 11.947000504 8.5000000000 11.199999809 0.5190599561 -0.016000001 2.3369081020 38.805000305 81.611511230 81.608551025 1.4529999495 33.797847748 3.4779999256  -999.250000 3.4786922932
 2251.7026367 3.0000000000 3.4539999962 11.954000473 8.5000000000 11.199999809 0.5671908259 -0.011000000 2.3497200012 40.708000183 83.480560303 83.477714539 1.4910000563 34.327434540 3.3699998856  -999.250000 3.3712093830
 2251.8549805 3.0000000000 3.4609999657 11.961000443 8.5000000000 11.199999809 0.5704179406 -0.015000000 2.3370389938 42.648998260 85.212249756 85.206428528 1.4960000515 35.221031189 3.2590000629  -999.250000 3.2602453232
 2252.0073242 3.0000000000 3.4650001526 11.965000153 8.5000000000 11.199999809 0.5242577195 -0.023000000 2.3277289867 42.598999023 86.299163818 86.296203613 1.4869999886 35.863998413 3.1240000725  -999.250000 3.1255145073
 2252.1599121 3.0000000000 3.4799997807 11.979999542 8.5000000000 11.199999809 0.5229213238 -0.020000000 2.3225579262 41.108001709 86.777282715 86.776397705 1.4869999886 36.792598724 2.9700000286  -999.250000 2.9714808464
 2252.3122559 3.0000000000 3.5549998283 12.055000305 8.5000000000 11.199999809 0.5239812732 -0.016000001 2.3220870495 40.840999603 86.993125916 86.991722107 1.4869999886 38.416362762 2.8159999847  -999.250000 2.8174808025
 2252.4645996 3.0000000000 3.6769995689 12.177000046 8.5000000000 11.199999809 0.5720364451 -0.013000000 2.3239579201 42.215000153 87.702743530 87.699256897 1.4800000191 41.139747620 2.6619999409  -999.250000 2.6637246609
 2252.6169434 3.0000000000 3.9800000191 12.479998589 8.5000000000 11.199999809 0.5281947255 -0.011000000 2.3277339935 44.254001617 88.315567017 88.314056396 1.4689999819 44.726001740 2.5079998970  -999.250000 2.5097274780
 2252.7692871 3.0000000000 4.4219999313 12.922000885 8.5000000000 11.199999809 0.5268567801 -0.008000000 2.3101189137 45.194000244 87.921920776 87.922546387 1.4559999704 48.169998169 2.3550000191  -999.250000 2.3567163944
 2252.9218750 3.0000000000 4.8280000687 13.327999115 8.5000000000 11.199999809 0.5278425217 -0.007000000 2.2957880497 44.812999725 89.214401245 89.206451416 1.4429999590 51.104614258 2.2249999046  -999.250000 2.2262499332
 2253.0742188 3.0000000000 5.2760000229 13.776000023 8.5000000000 11.199999809 0.5289024115 -0.002000000 2.2619650364 45.596000671 94.148056030 94.129302979 1.4199999571 53.357856750 2.1310000420  -999.250000 2.1320528984
 2253.2265625 3.0000000000 5.7670006752 14.267000198 8.5000000000 11.199999809 0.5770279765 0.0109999999 2.2083408833 47.282001495 100.37860107 100.36374664 1.3839999437 55.140998840 2.0109999180  -999.250000 2.0123460293
 2253.3789063 3.0000000000 5.8179998398 14.317999840 8.5000000000 11.199999809 0.5803344250 0.0000000000 2.1662950516 48.367000580 104.20189667 104.19248199 1.3380000591 56.495998383 1.8890000582  -999.250000 1.8903687000
 2253.5314941 3.0000000000 5.5609993935 14.060998917 8.5000000000 11.199999809 1.0578535795 -0.004000000 2.1520259380 49.416999817 103.94239807 103.94992828 1.2999999523 57.405189514 1.8200000525  -999.250000 1.8206635714
 2253.6838379 3.0000000000 5.6409993172 14.140999794 8.5000000000 11.199999809 3.7685892582 -0.003000000 2.1608870029 50.710998535 101.32313538 101.33012390 1.2949999571 58.148002625 1.7819999456  -999.250000 1.7824255228
 2253.8361816 5.0000000000 5.9559998512 14.456000328 8.5000000000 11.199999809 3.9959740639 0.0040000002 2.1926660538 51.917999268 100.09857178 100.09662628 1.3179999590 58.774684906 1.7649999857  -999.250000 1.7651907206
