# LAS format log file from PETREL
# Project units are specified as depth units
#==================================================================
~Version information
VERS.   2.0:
WRAP.   NO:
#==================================================================
~Well
STRT .m      376.26940918 :
STOP .m      2542.6337891 :
STEP .m     0.00000000 :
NULL .        -999.250000 :
COMP.           : COMPANY
WELL.  25/8-1  Forseti   : WELL
FLD.            : FIELD
LOC.            : LOCATION
SRVC.           : SERVICE COMPANY
DATE.  2018-09-11 14:48:23   : Log Export Date {yyyy-MM-dd HH:mm:ss}
PROV.           : PROVINCE
UWI.   25/8-1   : UNIQUE WELL ID
API.            : API NUMBER
#==================================================================
~Curve
DEPT .m                   : DEPTH
Lithology_geolink ._      : Lithology_geolink
DCAL .in                  : DCAL
CALI .in                  : CALI
BS .in                    : BS
MUDWEIGHT ._              : MUDWEIGHT
ROP .m/h                  : ROP
DRHO .g/cm3               : DRHO
RHOB .g/cm3               : RHOB
GR .gAPI                  : GR
DTC .us/ft                : DTC
DTE .us/ft                : DTE
RDEP .ohm.m               : RDEP
SP .mV                    : SP
RSHA .ohm.m               : RSHA
RMIC .ohm.m               : RMIC
RMED .ohm.m               : RMED
~Parameter
#==================================================================
~Ascii
# ...
 2394.9584961 5.0000000000 6.5099997520 15.010000229 8.5000000000 11.800000191 8.3550491333 -0.012000000 2.2386050224 42.932998657 77.712593079 77.714393616 3.1480000019 37.801998138 4.2100000381  -999.250000 4.2096748352
 2395.1110840 5.0000000000 6.5089998245 15.008999825 8.5000000000 11.800000191 8.3289842606 -0.010000000 2.2347340584 42.001678467 77.157646179 77.159362793 3.1579999924 37.699871063 4.2390480042  -999.250000 4.2387208939
 2395.2634277 5.0000000000 6.5069999695 15.007000923 8.5000000000 11.800000191 8.3280410767 -0.005000000 2.2645120621 41.802906036 76.605583191 76.607337952 3.1570000648 37.619838715 4.2690463066  -999.250000 4.2686638832
 2395.4157715 5.0000000000 6.5060000420 15.005998611 8.5000000000 11.800000191 8.3091573715 0.0000000000 2.2681949139 42.996566772 76.053581238 76.055702209 3.1570000648 37.518795013 4.2980461121  -999.250000 4.2976746559
 2395.5681152 5.0000000000 6.5040001869 15.003998756 8.5000000000 11.800000191 7.4263200760 0.0030000000 2.2614159584 45.846000671 75.536735535 75.537559509 3.1570000648 37.389999390 4.3270001411  -999.250000 4.3266749382
 2395.7207031 5.0000000000 6.5020003319 15.001998901 8.5000000000 11.800000191 6.2397966385 0.0030000000 2.2525451183 47.610034943 75.158935547 75.159111023 3.1459999084 37.288848877 4.3540272713  -999.250000 4.3537406921
 2395.8730469 5.0000000000 6.5009999275 15.001000404 8.5000000000 11.800000191 6.1524543762 0.0010000000 2.2527029514 46.383014679 75.049186707 75.048767090 3.1259999275 37.192947388 4.3709998131  -999.250000 4.3708362579
 2396.0253906 5.0000000000 6.4990000725 14.998999596 8.5000000000 11.800000191 6.1515645981 -0.003000000 2.2591369152 43.896026611 75.283821106 75.282180786 3.0989999771 37.160087585 4.3709836006  -999.250000 4.3709998131
 2396.1777344 5.0000000000 6.4970002174 14.997000694 8.5000000000 11.800000191 6.1643958092 -0.005000000 2.2704200745 41.416000366 75.801681519 75.799911499 3.0610001087 37.215000153 4.3610000610  -999.250000 4.3611121178
 2396.3300781 5.0000000000 6.4959998131 14.996000290 8.5000000000 11.800000191 6.2003622055 -0.007000000 2.2692749500 40.603000641 76.379928589 76.378150940 3.0320000648 37.043998718 4.3470001221  -999.250000 4.3471570015
 2396.4826660 5.0000000000 6.4939999580 14.994001389 8.5000000000 11.800000191 6.2124805450 -0.008000000 2.2606010437 41.830856323 76.732559204 76.732650757 3.0039999485 36.638561249 4.3309836388  -999.250000 4.3311538696
 2396.6350098 5.0000000000 6.4930005074 14.993000031 8.5000000000 11.800000191 6.2507915497 -0.008000000 2.2502040863 42.988388062 76.620399475 76.621536255 2.9779999256 36.365631104 4.3209986687  -999.250000 4.3211121559
 2396.7873535 5.0000000000 6.4910001755 14.991000175 8.5000000000 11.800000191 6.2679471970 -0.003000000 2.2354569435 43.229999542 76.280326843 76.280929565 2.9690001011 36.133998871 4.3200001717  -999.250000 4.3200116158
 2396.9396973 5.0000000000 6.4890003204 14.989000320 8.5000000000 11.800000191 8.2637596130 0.0010000000 2.2253320217 42.513000488 76.308555603 76.308166504 2.9679999352 35.904998779 4.3260002136  -999.250000 4.3259329796
 2397.0922852 5.0000000000 6.4880003929 14.987999916 8.5000000000 11.800000191 15.485795975 -0.004000000 2.2241499424 41.489700317 76.575782776 76.575897217 2.9659681320 35.703517914 4.3410305977  -999.250000 4.3408560753
 2397.2446289 5.0000000000 6.4860000610 14.986000061 8.5000000000 11.800000191 17.937551498 -0.014000000 2.2165210247 41.928836823 76.539680481 76.540847778 2.9459519386 35.402542114 4.3600306511  -999.250000 4.3597874641
 2397.3969727 5.0000000000 6.4850001335 14.984999657 8.5000000000 11.800000191 17.994098663 -0.011000000 2.2123839855 43.698562622 75.821586609 75.826263428 2.9159407616 35.116539001 4.3790307045  -999.250000 4.3787870407
 2397.5493164 5.0000000000 6.4830002785 14.982999802 8.5000000000 11.800000191 17.992420197 -0.010000000 2.2191529274 44.048000336 73.974067688 73.984344482 2.8789999485 34.827999115 4.3979997635  -999.250000 4.3977866173
 2397.7019043 5.0000000000 6.4809999466 14.980999947 8.5000000000 11.800000191 17.992771149 -0.015000000 2.2265639305 43.857414246 71.721572876 71.727035522 2.8239228725 34.421504974 4.4130015373  -999.250000 4.4128561020
 2397.8542480 5.0000000000 6.4800000191 14.979998589 8.5000000000 11.800000191 17.993410110 -0.022000000 2.2360639572 44.114940643 71.022354126 71.018943787 2.7759470940 34.112659454 4.4139661789  -999.250000 4.4139904976
 2398.0065918 5.0000000000 6.4780001640 14.977999687 8.5000000000 11.800000191 17.993751526 -0.021000000 2.2453598976 43.452171326 72.405899048 72.396972656 2.7429585457 33.901359558 4.3929390907  -999.250000 4.3932352066
 2398.1589355 5.0000000000 6.4770002365 14.977000237 8.5000000000 11.800000191 17.994390488 -0.014000000 2.2427949905 42.311000824 75.118309021 75.108879089 2.7170000076 33.500999451 4.3550000191  -999.250000 4.3554263115
 2398.3112793 5.0000000000 6.4749999046 14.975000381 8.5000000000 11.800000191 17.947519302 -0.014000000 2.2325661182 41.611999512 78.402343750 78.394737244 2.6930000782 32.897998810 4.3260002136  -999.250000 4.3263254166
 2398.4638672 5.0000000000 6.4730000496 14.972999573 8.5000000000 11.800000191 17.945615768 -0.016000001 2.2098720074 41.423759460 79.847282410 79.851539612 2.6840319633 32.188022614 4.3290786743  -999.250000 4.3289713860
 2398.6162109 5.0000000000 6.4720005989 14.972001076 8.5000000000 11.800000191 17.793340683 -0.021000000 2.2040989399 41.274253845 78.551109314 78.557640076 2.7040719986 31.578195572 4.3781228065  -999.250000 4.3774509430
 2398.7685547 5.0000000000 6.4699997902 14.970000267 8.5000000000 11.800000191 10.623820305 -0.028999999 2.2014191151 41.432998657 77.190078735 77.194084167 2.7490000725 31.076999664 4.4549999237  -999.250000 4.4541363716
 2398.9208984 5.0000000000 6.4689998627 14.968999863 8.5000000000 11.800000191 10.271309853 -0.027000001 2.2112140656 41.784999847 76.986862183 76.986328125 2.8159999847 30.590999603 4.5349998474  -999.250000 4.5341024399
 2399.0734863 5.0000000000 6.4670000076 14.967000008 8.5000000000 11.800000191 10.271874428 -0.021000000 2.2280530930 41.119800568 77.388282776 77.385276794 2.8991570473 30.298809052 4.6412048340  -999.250000 4.6399807930
 2399.2258301 5.0000000000 6.4660000801 14.965999603 8.5000000000 11.800000191 10.225001335 -0.016000001 2.2494919300 40.373832703 78.000396729 77.999229431 2.9971570969 30.179870605 4.7691893578  -999.250000 4.7675666809
 2399.3781738 5.0000000000 6.4660000801 14.965999603 8.5000000000 11.800000191 10.176051140 -0.017000001 2.2736248970 40.892765045 78.152160645 78.152656555 3.0951488018 30.099061966 4.8871455193  -999.250000 4.8856763840
 2399.5305176 5.0000000000 6.4660000801 14.965999603 8.5000000000 11.800000191 10.126930237 -0.017000001 2.2837300301 40.744998932 77.565353394 77.567619324 3.1879999638 30.136999130 4.9780001640  -999.250000 4.9769792557
 2399.6831055 5.0000000000 6.4650001526 14.965000153 8.5000000000 11.800000191 10.125149727 -0.013000000 2.2853040695 39.567413330 76.652130127 76.654739380 3.2911810875 30.339368820 5.0501270294  -999.250000 5.0493078232
 2399.8354492 5.0000000000 6.4650001526 14.965000153 8.5000000000 11.800000191 10.029368401 -0.008000000 2.2960939407 39.825271606 75.820106506 75.821624756 3.4042179585 30.569854736 5.1291379929  -999.250000 5.1282405853
 2399.9877930 5.0000000000 6.4650001526 14.965000153 8.5000000000 11.800000191 8.7503299713 -0.009000000 2.3135080338 41.240692139 74.840599060 74.845680237 3.5402016640 31.103286743 5.2151122093  -999.250000 5.2140369415
 2400.1401367 5.0000000000 6.4650001526 14.965000153 8.5000000000 11.800000191 7.9346456528 -0.011000000 2.3365719318 41.671001434 73.303329468 73.311592102 3.6659998894 31.906999588 5.2849998474  -999.250000 5.2842144966
 2400.2924805 5.0000000000 6.4650001526 14.965000153 8.5000000000 11.800000191 7.8986067772 -0.012000000 2.3458819389 40.678001404 71.392585754 71.402061462 3.7639999390 32.812000275 5.3299999237  -999.250000 5.3294949532
 2400.4450684 5.0000000000 6.4650001526 14.965000153 8.5000000000 11.800000191 7.8992495537 -0.013000000 2.3377211094 39.139087677 69.342102051 69.350952148 3.8169181347 33.718223572 5.3499646187  -999.250000 5.3498077393
