# LAS format log file from PETREL
# Project units are specified as depth units
#==================================================================
~Version information
VERS.   2.0:
WRAP.   NO:
#==================================================================
~Well
STRT .m      698.82189941 :
STOP .m      3687.3850098 :
STEP .m     0.00000000 :
NULL .        -999.250000 :
COMP.           : COMPANY
WELL.  26/4-1   : WELL
FLD.            : FIELD
LOC.            : LOCATION
SRVC.           : SERVICE COMPANY
DATE.  2018-09-11 14:48:25   : Log Export Date {yyyy-MM-dd HH:mm:ss}
PROV.           : PROVINCE
UWI.   26/4-1   : UNIQUE WELL ID
API.            : API NUMBER
#==================================================================
~Curve
DEPT .m                   : DEPTH
Lithology_geolink ._      : Lithology_geolink
CALI .in                  : CALI
DRHO .g/cm3               : DRHO
NPHI .m3/m3               : NPHI
RHOB .g/cm3               : RHOB
PEF .b/e                  : PEF
GR .gAPI                  : GR
DTC .us/ft                : DTC
DTE .us/ft                : DTE
RDEP .ohm.m               : RDEP
SP .mV                    : SP
RSHA .ohm.m               : RSHA
RMED .ohm.m               : RMED
~Parameter
#==================================================================
~Ascii
# ...
 1094.4522705  -999.250000 17.968000412  -999.250000  -999.250000 2.3069999218  -999.250000 63.027149200 131.51617432 127.55709839 1.1560792923 22.099599838 0.7580120564 0.9169999957
 1094.6046143  -999.250000 17.961999893  -999.250000  -999.250000 2.3069999218  -999.250000 64.046180725 131.73695374 127.80280304 1.2550584078 21.848398209 0.7730112076 0.9449999928
 1094.7570801  -999.250000 17.952999115  -999.250000  -999.250000 2.3069999218  -999.250000 62.859951019 132.94941711 128.97685242 1.3280440569 20.847595215 0.7870007753 1.0019999743
 1094.9094238  -999.250000 17.944000244  -999.250000  -999.250000 2.3069999218  -999.250000 63.093814850 133.00444031 129.03903198 1.3830200434 19.347801208 0.7880007625 1.0770000219
 1095.0617676  -999.250000 17.936000824  -999.250000  -999.250000 2.3069999218  -999.250000 62.376152039 131.18103027 127.23503876 1.4079999924 18.600400925 0.7889999747 1.1330000162
 1095.2142334  -999.250000 17.933000565  -999.250000  -999.250000 2.3069999218  -999.250000 62.748699188 129.05154419 125.11239624 1.3879920244 19.102001190 0.7910007834 1.1549999714
 1095.3665771  -999.250000 17.933000565  -999.250000  -999.250000 2.3069999218  -999.250000 65.370796204 128.39402771 124.49608612 1.3780000210 20.350400925 0.7919999957 1.1160000563
 1095.5190430  -999.250000 17.934000015  -999.250000  -999.250000 2.3069999218  -999.250000 66.436141968 129.12774658 125.23272705 1.4220360518 20.850000381 0.7929999828 1.0870000124
 1095.6713867  -999.250000 17.934000015  -999.250000  -999.250000 2.3069999218  -999.250000 64.658851624 129.51104736 125.58559418 1.4670000076 20.850801468 0.7929999828 1.1799999475
 1095.8238525  -999.250000 17.913999557  -999.250000  -999.250000 2.3069999218  -999.250000 61.534503937 128.70660400 124.70939636 1.4880048037 21.350801468 0.7899976373 1.3259999752
 1095.9761963  -999.250000 17.888999939  -999.250000  -999.250000 2.3069999218  -999.250000 61.219253540 126.95852661 122.95772552 1.4939999580 21.851202011 0.7870000005 1.3519999981
 1096.1286621  -999.250000 17.836999893  -999.250000  -999.250000 2.3069999218  -999.250000 62.062324524 125.06121826 121.14186859 1.4409239292 22.602403641 0.7839975953 1.2999999523
 1096.2810059  -999.250000 17.802999496  -999.250000  -999.250000 2.3069999218  -999.250000 64.248245239 124.33502197 120.41896820 1.3459999561 24.100801468 0.7810000181 1.2680000067
 1096.4334717  -999.250000 17.778999329  -999.250000  -999.250000 2.3069999218  -999.250000 65.500000000 125.45850372 121.50550842 1.2749702930 24.597997665 0.7779976130 1.2009999752
 1096.5858154  -999.250000 17.778999329  -999.250000  -999.250000 2.3069999218  -999.250000 61.362319946 127.85243225 123.88371277 1.2380040884 23.350400925 0.7749975920 1.0720000267
 1096.7382813  -999.250000 17.797000885  -999.250000  -999.250000 2.3069999218  -999.250000 54.927154541 130.35235596 126.32328033 1.2430417538 23.601602554 0.7720016241 0.9480000138
 1096.8906250  -999.250000 17.843000412  -999.250000  -999.250000 2.3069999218  -999.250000 53.409214020 131.54928589 127.56307220 1.2950383425 24.599599838 0.7740015984 0.9129999876
 1097.0429688  -999.250000 17.896999359  -999.250000  -999.250000 2.3069999218  -999.250000 57.681144714 130.22119141 126.26929474 1.3430000544 24.349399567 0.7760000229 0.9760000110
 1097.1954346  -999.250000 17.910999298  -999.250000  -999.250000 2.3069999218  -999.250000 59.983161926 126.53470612 122.55902100 1.3279447556 23.598798752 0.7780016065 1.0800000429
 1097.3477783  -999.250000 17.923999786  -999.250000  -999.250000 2.3069999218  -999.250000 58.377578735 122.69914246 118.77780151 1.2589999437 22.850000381 0.7799999714 1.1430000067
 1097.5002441  -999.250000 17.937999725  -999.250000  -999.250000 2.3069999218  -999.250000 56.579437256 121.03451538 117.12619019 1.2320568562 22.850400925 0.7830016017 1.1430000067
 1097.6525879  -999.250000 17.951999664  -999.250000  -999.250000 2.3069999218  -999.250000 55.673450470 121.55081940 117.64556885 1.3029999733 23.100000381 0.7850000262 1.1330000162
 1097.8050537  -999.250000 17.957000732  -999.250000  -999.250000 2.3069999218  -999.250000 58.760524750 123.12998962 119.12539673 1.4070895910 23.099199295 0.7900096178 1.1519999504
 1097.9573975  -999.250000 17.937000275  -999.250000  -999.250000 2.3069999218  -999.250000 65.244804382 124.84867096 120.84143829 1.5190000534 22.598798752 0.8019999862 1.1380000114
 1098.1098633  -999.250000 17.892999649  -999.250000  -999.250000 2.3069999218  -999.250000 70.213027954 126.08473206 122.15027618 1.6470607519 21.850000381 0.8140096068 1.1069999933
 1098.2622070  -999.250000 17.841999054  -999.250000  -999.250000 2.3069999218  -999.250000 70.468803406 126.47437286 122.53423309 1.7230000496 21.850801468 0.8259999752 1.2589999437
 1098.4146729  -999.250000 17.799999237  -999.250000  -999.250000 2.3069999218  -999.250000 67.097702026 126.04003143 122.11374664 1.7350015640 22.350801468 0.8330032229 1.5709999800
 1098.5670166  -999.250000 17.785999298  -999.250000  -999.250000 2.3069999218  -999.250000 64.596008301 124.75129700 120.84625244 1.7369999886 22.850400925 0.8370000124 1.6779999733
 1098.7194824  -999.250000 17.785999298  -999.250000  -999.250000 2.3069999218  -999.250000 63.906547546 123.60079956 119.67493439 1.7039535046 23.101203918 0.8410032392 1.5460000038
 1098.8718262  -999.250000 17.808000565  -999.250000  -999.250000 2.3069999218  -999.250000 63.703163147 123.81978607 119.79974365 1.6459952593 23.852199554 0.8450032473 1.4349999428
 1099.0242920  -999.250000 17.857000351  -999.250000  -999.250000 2.3069999218  -999.250000 65.232772827 124.77449799 120.74973297 1.6399879456 24.597999573 0.8490031958 1.3880000114
 1099.1766357  -999.250000 17.885999680  -999.250000  -999.250000 2.3069999218  -999.250000 65.781555176 126.35495758 122.37320709 1.6249448061 23.350196838 0.8529983759 1.3250000477
 1099.3289795  -999.250000 17.856000900  -999.250000  -999.250000 2.3069999218  -999.250000 60.851909637 129.00122070 125.06948853 1.5559999943 22.850601196 0.8510000110 1.2100000381
 1099.4814453  -999.250000 17.826999664  -999.250000  -999.250000 2.3069999218  -999.250000 54.242294312 132.03306580 128.10235596 1.5129952431 23.600000381 0.8459967971 1.0980000496
 1099.6337891  -999.250000 17.813999176  -999.250000  -999.250000 2.3069999218  -999.250000 49.866012573 134.00920105 130.07366943 1.5069999695 23.600200653 0.8420000076 1.0369999409
 1099.7862549  -999.250000 17.820999146  -999.250000  -999.250000 2.3069999218  -999.250000 51.246887207 134.02091980 130.04649353 1.4809663296 23.849199295 0.8369960189 1.0379999876
 1099.9385986  -999.250000 17.840000153  -999.250000  -999.250000 2.3069999218  -999.250000 54.919055939 131.94046021 127.95198822 1.4390000105 23.347600937 0.8320000172 1.0889999866
 1100.0910645  -999.250000 17.850000381  -999.250000  -999.250000 2.3069999218  -999.250000 56.389999390 128.71221924 124.74695587 1.3759431839 21.849395752 0.8279967904 1.1710000038
 1100.2434082  -999.250000 17.850999832  -999.250000  -999.250000 2.3069999218  -999.250000 56.405986786 125.62883759 121.64974213 1.3049999475 20.849599838 0.8240000010 1.2259999514
 1100.3958740  -999.250000 17.850999832  -999.250000  -999.250000 2.3069999218  -999.250000 55.610000610 123.32953644 119.39866638 1.2860432863 20.599599838 0.8250015974 1.2439999580
 1100.5482178  -999.250000 17.850999832  -999.250000  -999.250000 2.3069999218  -999.250000 56.827022552 122.09643555 118.19272614 1.3400000334 20.349199295 0.8270000219 1.2469999790
 1100.7006836  -999.250000 17.850999832  -999.250000  -999.250000 2.3069999218  -999.250000 58.344001770 121.64349365 117.70048523 1.4200432301 19.849599838 0.8290023804 1.2669999599
 1100.8530273  -999.250000 17.851999283  -999.250000  -999.250000 2.3069999218  -999.250000 60.265457153 121.71783447 117.69948578 1.4740327597 19.599599838 0.8320016265 1.2829999924
 1101.0054932  -999.250000 17.851999283  -999.250000  -999.250000 2.3069999218  -999.250000 61.484001160 122.26490784 118.26438904 1.5149999857 19.349599838 0.8340016007 1.2569999695
