# LAS format log file from PETREL
# Project units are specified as depth units
#==================================================================
~Version information
VERS.   2.0:
WRAP.   NO:
#==================================================================
~Well
STRT .m      698.82189941 :
STOP .m      3687.3850098 :
STEP .m     0.00000000 :
NULL .        -999.250000 :
COMP.           : COMPANY
WELL.  26/4-1   : WELL
FLD.            : FIELD
LOC.            : LOCATION
SRVC.           : SERVICE COMPANY
DATE.  2018-09-11 14:48:25   : Log Export Date {yyyy-MM-dd HH:mm:ss}
PROV.           : PROVINCE
UWI.   26/4-1   : UNIQUE WELL ID
API.            : API NUMBER
#==================================================================
~Curve
DEPT .m                   : DEPTH
Lithology_geolink ._      : Lithology_geolink
CALI .in                  : CALI
DRHO .g/cm3               : DRHO
NPHI .m3/m3               : NPHI
RHOB .g/cm3               : RHOB
PEF .b/e                  : PEF
GR .gAPI                  : GR
DTC .us/ft                : DTC
DTE .us/ft                : DTE
RDEP .ohm.m               : RDEP
SP .mV                    : SP
RSHA .ohm.m               : RSHA
RMED .ohm.m               : RMED
~Parameter
#==================================================================
~Ascii
# ...
 2288.0485840 5.0000000000 15.047999382 0.0902740434 0.1928294748 2.3061223030 11.081788063 42.886722565 71.457336426 68.524353027 3.2799999714 82.972000122 1.5299999714 2.3359999657
 2288.2009277 5.0000000000 15.107000351 0.0342692323 0.1912978292 2.3061223030 10.161471367 44.963672638 75.287033081 72.383865356 2.7170000076 82.963996887 1.5160000324 1.9800000191
 2288.3532715 5.0000000000 15.395998955 0.0101536000 0.2062734812 2.3061223030 9.9935340881 46.076217651 79.768226624 76.772529602 2.2909998894 83.197998047 1.4190000296 1.6189999580
 2288.5058594 5.0000000000 15.536999702 0.0000480769 0.2344841808 2.3061223030 10.507175446 44.952999115 83.993103027 80.972053528 2.0020000935 83.182998657 1.2949999571 1.3559999466
 2288.6582031 5.0000000000 15.602999687 -0.000995192 0.2526827455 2.3061223030 10.958276749 45.296451569 86.939132690 84.021835327 1.7910000086 83.416999817 1.1710000038 1.2039999962
 2288.8105469 5.0000000000 15.711000443 -0.002990385 0.2635877430 2.3061223030 11.030884743 47.434570313 88.433586121 85.577384949 1.6319999695 83.652000427 1.0779999495 1.1119999886
 2288.9628906 5.0000000000 15.815999985 -0.009966346 0.2732834220 2.3061223030 10.345202446 51.030231476 89.144195557 86.275169373 1.5110000372 83.917999268 1.0740000010 1.0420000553
 2289.1154785 5.0000000000 16.076000214 -0.010995200 0.2991952300 2.3061223030 9.9146871567 51.905998230 89.564979553 86.701881409 1.4229999781 85.932998657 1.0679999590 0.9959999919
 2289.2678223 5.0000000000 16.235000610 -0.015975961 0.3036689758 2.3061223030 9.9778966904 49.890998840 89.928466797 86.916572571 1.3689999580 85.916999817 1.0449999571 0.9819999933
 2289.4201660 5.0000000000 16.389999390 -0.015004807 0.3061481416 2.3061223030 10.259548187 47.925151825 89.955429077 86.955230713 1.3519999981 83.932998657 1.0210000277 0.9819999933
 2289.5725098 5.0000000000 16.482999802 -0.019975960 0.2875001431 2.3061223030 10.639780998 45.411033630 89.723678589 86.937103271 1.3630000353 83.486999512 0.9969999790 0.9789999723
 2289.7250977 5.0000000000 16.503000259 -0.018009599 0.2830609977 2.3061223030 10.954496384 42.890998840 89.803482056 86.972358704 1.3899999857 83.268997192 0.9729999900 0.9769999981
 2289.8774414 5.0000000000 16.621999741 -0.019990385 0.2724113464 2.3061223030 11.285470009 40.905998230 89.917007446 87.002037048 1.4199999571 83.268997192 0.9530000091 0.9840000272
 2290.0297852 5.0000000000 16.606000900 -0.021990385 0.2777240574 2.3061223030 11.433762550 43.698524475 89.841598511 86.970352173 1.4459999800 83.518997192 0.9589999914 0.9919999838
 2290.1821289 5.0000000000 16.444000244 -0.018019229 0.2796209753 2.3061223030 11.418025970 46.075191498 89.848396301 87.008148193 1.4639999866 84.011001587 0.9670000076 0.9919999838
 2290.3344727 2.0000000000 16.570999146 -0.020980800 0.2744831443 2.3061223030 11.823697090 47.123325348 90.166206360 87.181495667 1.4730000496 83.791999817 0.9739999771 0.9850000143
 2290.4870605 2.0000000000 16.393999100 -0.018014422 0.2706085742 2.3061223030 15.247507095 48.000000000 90.518981934 87.491600037 1.4769999981 83.331001282 0.9689999819 0.9779999852
 2290.6394043 2.0000000000 16.358999252 -0.021980770 0.2705004513 2.3061223030 22.249769211 50.012771606 90.882461548 87.974380493 1.4869999886 83.331001282 0.9520000219 0.9729999900
 2290.7917480 2.0000000000 16.315000534 -0.017024040 0.2701218128 2.3061223030 29.391553879 51.154170990 91.282417297 88.435920715 1.5010000467 82.550003052 0.9269999862 0.9789999723
 2290.9440918 2.0000000000 16.351999283 -0.026951924 0.2741803825 2.3061223030 32.036544800 50.783599854 91.516540527 88.636940002 1.5010000467 83.772003174 0.9010000229 0.9990000129
 2291.0966797 2.0000000000 14.685999870 -0.019038400 0.2686567307 2.3061223030 27.942584991 50.000000000 91.461524963 88.610679626 1.4930000305 85.018997192 0.9020000100 1.0219999552
 2291.2490234 2.0000000000 13.618000031 -0.015019231 0.2661121786 2.3061223030 25.052629471 47.202999115 91.223014832 88.283157349 1.4930000305 84.018997192 0.9049999714 1.0249999762
 2291.4013672 2.0000000000 13.585999489 -0.005048077 0.2632139325 2.3061223030 25.875671387 43.552848816 90.784072876 87.774208069 1.4780000448 83.761001587 0.9049999714 1.0279999971
 2291.5537109 2.0000000000 13.560999870 -0.006990385 0.2615977526 2.3061223030 30.211086273 42.311985016 90.438652039 87.537384033 1.4620000124 83.502998352 0.8930000067 1.0290000439
 2291.7062988 2.0000000000 13.493999481 -0.000033600 0.2752640545 2.3061223030 31.846399307 45.937999725 90.393997192 87.533737183 1.4780000448 83.252998352 0.8809999824 1.0010000467
 2291.8586426 2.0000000000 14.152999878 0.0149278846 0.2656268775 2.3061223030 27.990192413 49.359001160 90.269020081 87.364082336 1.4950000048 84.495002747 0.8750000000 0.9789999723
 2292.0109863 2.0000000000 14.970999718 0.0667500049 0.2737704217 2.3061223030 26.765954971 51.013347626 89.830337524 86.964218140 1.5140000582 86.486999512 0.8780000210 0.9950000048
 2292.1633301 2.0000000000 15.487998962 0.0878990367 0.2554088831 2.3061223030 26.684127808 50.143398285 89.610084534 86.605400085 1.5420000553 85.732002258 0.8809999824 1.0240000486
 2292.3156738 2.0000000000 15.760001183 0.0770704001 0.2567706406 2.3061223030 23.404527664 48.361858368 89.553901672 86.511886597 1.5410000086 83.963996887 0.8780000210 1.0390000343
 2292.4682617 2.0000000000 15.766999245 0.0471442305 0.2349952459 2.3061223030 17.433567047 45.000000000 89.515205383 86.608894348 1.5119999647 82.956001282 0.8709999919 1.0219999552
 2292.6206055 2.0000000000 15.809000015 0.0420240387 0.2334569246 2.3061223030 14.485715866 40.756801605 89.633285522 86.743041992 1.4980000257 84.697998047 0.8650000095 0.9919999838
 2292.7729492 2.0000000000 16.056999207 0.0370240398 0.2134764791 2.3061223030 13.095224380 38.409755707 89.603424072 86.750839233 1.5039999485 86.182998657 0.8590000272 0.9800000191
 2292.9252930 2.0000000000 16.063999176 0.0190865379 0.2151116282 2.3061223030 11.440305710 38.985069275 89.485374451 86.574600220 1.5130000114 84.416000366 0.8519999981 0.9929999709
 2293.0778809 2.0000000000 15.383999825 0.0040720003 0.2296797782 2.3061223030 10.072187424 42.875000000 89.315017700 86.418411255 1.5130000114 83.682998657 0.8460000157 1.0140000582
 2293.2302246 2.0000000000 12.866000175 0.0199230760 0.2538834214 2.3061223030 9.5358572006 48.437999725 89.326484680 86.395294189 1.5019999743 83.697998047 0.8389999866 1.0199999809
 2293.3825684 5.0000000000 12.407000542 0.0259711538 0.2600408196 2.3061223030 9.8784484863 51.603927612 89.489707947 86.552719116 1.4769999981 82.722000122 0.8330000043 1.0060000420
 2293.5349121 5.0000000000 12.392999649 0.0220192298 0.2575521469 2.3061223030 10.566792488 52.559474945 89.609970093 86.802459717 1.4450000525 85.509002686 0.8259999752 0.9860000014
 2293.6875000 5.0000000000 12.482999802 -0.003875200 0.2644864917 2.3061223030 11.253900528 51.390998840 89.678497314 86.864776611 1.4110000134 86.245002747 0.8199999928 0.9689999819
 2293.8398438 5.0000000000 12.492000580 -0.014947115 0.2655450702 2.3061223030 10.875609398 48.719001770 89.678497314 86.805145264 1.3810000420 83.236999512 0.8119999766 0.9539999962
 2293.9921875 5.0000000000 12.492000580 -0.015995193 0.2628729343 2.3061223030 9.2126684189 45.333423615 89.727996826 86.831420898 1.3569999933 82.980003357 0.8040000200 0.9449999928
 2294.1445313 5.0000000000 12.499000549 -0.020975960 0.2464691848 2.3061223030 8.8336048126 40.495754242 89.848281860 86.847801208 1.3320000172 81.972999573 0.7950000167 0.9470000267
 2294.2968750 5.0000000000 12.453000069 -0.013051201 0.2639966011 2.3061223030 9.8925981522 40.188480377 89.667800903 86.709266663 1.3150000572 83.713996887 0.7870000005 0.9530000091
 2294.4494629 5.0000000000 12.385000229 -0.012004808 0.2589250207 2.3061223030 11.062128067 42.484001160 89.315017700 86.481094360 1.3200000525 84.986999512 0.7779999971 0.9589999914
 2294.6018066 5.0000000000 12.395000458 -0.016975962 0.2576759160 2.3061223030 10.698586464 44.918098450 89.201499939 86.317657471 1.3300000429 83.768997192 0.7699999809 0.9950000048
