# LAS format log file from PETREL
# Project units are specified as depth units
#==================================================================
~Version information
VERS.   2.0:
WRAP.   NO:
#==================================================================
~Well
STRT .m      698.82189941 :
STOP .m      3687.3850098 :
STEP .m     0.00000000 :
NULL .        -999.250000 :
COMP.           : COMPANY
WELL.  26/4-1   : WELL
FLD.            : FIELD
LOC.            : LOCATION
SRVC.           : SERVICE COMPANY
DATE.  2018-09-11 14:48:25   : Log Export Date {yyyy-MM-dd HH:mm:ss}
PROV.           : PROVINCE
UWI.   26/4-1   : UNIQUE WELL ID
API.            : API NUMBER
#==================================================================
~Curve
DEPT .m                   : DEPTH
Lithology_geolink ._      : Lithology_geolink
CALI .in                  : CALI
DRHO .g/cm3               : DRHO
NPHI .m3/m3               : NPHI
RHOB .g/cm3               : RHOB
PEF .b/e                  : PEF
GR .gAPI                  : GR
DTC .us/ft                : DTC
DTE .us/ft                : DTE
RDEP .ohm.m               : RDEP
SP .mV                    : SP
RSHA .ohm.m               : RSHA
RMED .ohm.m               : RMED
~Parameter
#==================================================================
~Ascii
# ...
 899.98986816  -999.250000 17.684000015  -999.250000  -999.250000 2.3069999218  -999.250000 57.027427673 145.83596802 144.87892151 1.4140421152 13.600000381 0.8429995775 0.9760000110
 900.14227295  -999.250000 17.697000504  -999.250000  -999.250000 2.3069999218  -999.250000 61.743331909 146.77656555 145.81732178 1.5190228224 13.601602554 0.8420004249 1.0180000067
 900.29467773  -999.250000 17.711000443  -999.250000  -999.250000 2.3069999218  -999.250000 64.559745789 146.48440552 145.53184509 1.5759931803 14.601202011 0.8429999948 1.0659999847
 900.44708252  -999.250000 17.724000931  -999.250000  -999.250000 2.3069999218  -999.250000 65.405319214 146.86819458 145.90412903 1.5589859486 15.350000381 0.8429999948 1.0690000057
 900.59948730  -999.250000 17.736000061  -999.250000  -999.250000 2.3069999218  -999.250000 63.064876556 149.30709839 148.34439087 1.5240015984 15.349599838 0.8429999948 1.0010000467
 900.75189209  -999.250000 17.721000671  -999.250000  -999.250000 2.3069999218  -999.250000 59.160129547 152.35916138 151.39627075 1.5280103683 15.099599838 0.8430007696 0.9340000153
 900.90429688  -999.250000 17.697999954  -999.250000  -999.250000 2.3069999218  -999.250000 56.174392700 154.12712097 153.17817688 1.5539991856 14.849599838 0.8450016379 0.9549999833
 901.05670166  -999.250000 17.691999435  -999.250000  -999.250000 2.3069999218  -999.250000 56.811489105 153.57699585 152.63281250 1.5519791842 14.600000381 0.8490007520 1.0449999571
 901.20910645  -999.250000 17.735000610  -999.250000  -999.250000 2.3069999218  -999.250000 59.309997559 150.47271729 149.48121643 1.5259511471 14.600400925 0.8499984145 1.1009999514
 901.36151123  -999.250000 17.764999390  -999.250000  -999.250000 2.3069999218  -999.250000 61.264434814 147.43388367 146.44631958 1.4649302959 14.850000381 0.8479992151 1.0829999447
 901.51385498  -999.250000 17.795000076  -999.250000  -999.250000 2.3069999218  -999.250000 61.062244415 147.60215759 146.64997864 1.3779947758 14.849699974 0.8469992280 1.0429999828
 901.66625977  -999.250000 17.749000549  -999.250000  -999.250000 2.3069999218  -999.250000 61.844058990 150.19046021 149.24984741 1.3650220633 14.600300789 0.8449996114 0.9969999790
 901.81866455  -999.250000 17.687000275  -999.250000  -999.250000 2.3069999218  -999.250000 62.562137604 152.22581482 151.27108765 1.4200091362 14.850601196 0.8439992070 0.9520000219
 901.97106934  -999.250000 17.621999741  -999.250000  -999.250000 2.3069999218  -999.250000 61.906787872 152.13417053 151.16897583 1.4429967403 15.350901604 0.8419995904 0.9559999704
 902.12347412  -999.250000 17.618999481  -999.250000  -999.250000 2.3069999218  -999.250000 59.800533295 149.90628052 148.93983459 1.4349879026 16.100601196 0.8409996033 1.0249999762
 902.27587891  -999.250000 17.618999481  -999.250000  -999.250000 2.3069999218  -999.250000 57.159172058 146.24420166 145.27755737 1.4049746990 16.599599838 0.8399995565 1.0679999590
 902.42828369  -999.250000 17.618999481  -999.250000  -999.250000 2.3069999218  -999.250000 59.575057983 143.19885254 142.24778748 1.3419911861 16.348798752 0.8389992118 1.0399999619
 902.58068848  -999.250000 17.618999481  -999.250000  -999.250000 2.3069999218  -999.250000 63.745658875 142.24362183 141.30407715 1.3200109005 15.599199295 0.8369995952 0.9980000257
 902.73309326  -999.250000 17.618999481  -999.250000  -999.250000 2.3069999218  -999.250000 65.873298645 142.80584717 141.84609985 1.3470067978 15.100000381 0.8359996080 0.9829999804
 902.88549805  -999.250000 17.618999481  -999.250000  -999.250000 2.3069999218  -999.250000 64.049461365 144.19522095 143.24409485 1.3640059233 15.101602554 0.8349983692 0.9950000048
 903.03790283  -999.250000 17.618999481  -999.250000  -999.250000 2.3069999218  -999.250000 61.471069336 145.73529053 144.78234863 1.3790115118 16.101602554 0.8309955597 1.0169999599
 903.19030762  -999.250000 17.617000580  -999.250000  -999.250000 2.3069999218  -999.250000 59.876277924 146.66709900 145.65972900 1.4080271721 17.100400925 0.8199911714 1.0540000200
 903.34271240  -999.250000 17.613000870  -999.250000  -999.250000 2.3069999218  -999.250000 61.170963287 147.17208862 146.18853760 1.4420168400 17.350801468 0.8089911938 1.0909999609
 903.49511719  -999.250000 17.610000610  -999.250000  -999.250000 2.3069999218  -999.250000 63.389221191 147.33445740 146.39178467 1.4630080462 17.850801468 0.7979911566 1.1019999981
 903.64746094  -999.250000 17.606000900  -999.250000  -999.250000 2.3069999218  -999.250000 62.501071930 146.96424866 146.02507019 1.4730020761 18.350601196 0.7869955897 1.0909999609
 903.79986572  -999.250000 17.603000641  -999.250000  -999.250000 2.3069999218  -999.250000 59.723342896 147.09043884 146.13586426 1.4780008793 18.851800919 0.7759932280 1.0829999447
 903.95227051  -999.250000 17.600000381  -999.250000  -999.250000 2.3069999218  -999.250000 57.971103668 148.24192810 147.29402161 1.4799947739 20.352304459 0.7589927912 1.0820000172
 904.10467529  -999.250000 17.600000381  -999.250000  -999.250000 2.3069999218  -999.250000 58.796005249 149.48094177 148.54382324 1.4669799805 23.102006912 0.7409927845 1.0720000267
 904.25708008  -999.250000 17.600000381  -999.250000  -999.250000 2.3069999218  -999.250000 59.202510834 150.24308777 149.28570557 1.4169715643 25.600801468 0.7229927778 1.0479999781
 904.40948486  -999.250000 17.600999832  -999.250000  -999.250000 2.3069999218  -999.250000 56.425228119 150.40281677 149.45381165 1.3459699154 26.100000381 0.7049939632 1.0010000467
 904.56188965  -999.250000 17.600999832  -999.250000  -999.250000 2.3069999218  -999.250000 50.537719727 150.00404358 149.06042480 1.2709684372 26.102003098 0.6899967790 0.9229999781
 904.71429443  -999.250000 17.604000092  -999.250000  -999.250000 2.3069999218  -999.250000 43.897315979 149.81639099 148.85925293 1.1919667721 27.351202011 0.6819967628 0.8349999785
 904.86669922  -999.250000 17.618999481  -999.250000  -999.250000 2.3069999218  -999.250000 38.552280426 150.15260315 149.19636536 1.1089690924 28.099500656 0.6739968061 0.7599999905
 905.01910400  -999.250000 17.614999771  -999.250000  -999.250000 2.3069999218  -999.250000 36.220867157 150.53512573 149.54832458 1.0319722891 27.850500107 0.6659972072 0.6980000138
 905.17150879  -999.250000 17.607999802  -999.250000  -999.250000 2.3069999218  -999.250000 34.689224243 150.80143738 149.82698059 0.9629471302 28.102502823 0.6589935422 0.6439999938
 905.32391357  -999.250000 17.601999283  -999.250000  -999.250000 2.3069999218  -999.250000 34.422214508 151.03984070 150.08384705 0.8969559669 29.352003098 0.6509935856 0.5970000029
 905.47631836  -999.250000 17.608999252  -999.250000  -999.250000 2.3069999218  -999.250000 38.497734070 151.24736023 150.29846191 0.8419647813 30.351501465 0.6429935694 0.5609999895
 905.62866211  -999.250000 17.614999771  -999.250000  -999.250000 2.3069999218  -999.250000 41.527359009 151.48880005 150.54940796 0.7979871631 31.100400925 0.6349971890 0.5370000005
 905.78106689  -999.250000 17.621000290  -999.250000  -999.250000 2.3069999218  -999.250000 42.186210632 151.69223022 150.74313354 0.7659919858 31.349201202 0.6279968023 0.5220000148
 905.93347168  -999.250000 17.618000031  -999.250000  -999.250000 2.3069999218  -999.250000 41.283088684 151.74870300 150.81298828 0.7459976077 30.849500656 0.6199967861 0.5109999776
 906.08587646  -999.250000 17.614000320  -999.250000  -999.250000 2.3069999218  -999.250000 40.562866211 151.68586731 150.75682068 0.7400023937 30.601001740 0.6119987965 0.5070000291
 906.23828125  -999.250000 17.611000061  -999.250000  -999.250000 2.3069999218  -999.250000 39.424369812 151.62939453 150.68695068 0.7460051775 31.102502823 0.6089988351 0.5080000162
 906.39068604  -999.250000 17.607000351  -999.250000  -999.250000 2.3069999218  -999.250000 36.816135406 151.59806824 150.63290405 0.7590060234 32.350997925 0.6059983969 0.5120000243
 906.54309082  -999.250000 17.604000092  -999.250000  -999.250000 2.3069999218  -999.250000 37.998050690 151.35005188 150.39543152 0.7740064263 32.847496033 0.6019988060 0.5199999809
