# LAS format log file from PETREL
# Project units are specified as depth units
#==================================================================
~Version information
VERS.   2.0:
WRAP.   NO:
#==================================================================
~Well
STRT .m      698.82189941 :
STOP .m      3687.3850098 :
STEP .m     0.00000000 :
NULL .        -999.250000 :
COMP.           : COMPANY
WELL.  26/4-1   : WELL
FLD.            : FIELD
LOC.            : LOCATION
SRVC.           : SERVICE COMPANY
DATE.  2018-09-11 14:48:25   : Log Export Date {yyyy-MM-dd HH:mm:ss}
PROV.           : PROVINCE
UWI.   26/4-1   : UNIQUE WELL ID
API.            : API NUMBER
#==================================================================
~Curve
DEPT .m                   : DEPTH
Lithology_geolink ._      : Lithology_geolink
CALI .in                  : CALI
DRHO .g/cm3               : DRHO
NPHI .m3/m3               : NPHI
RHOB .g/cm3               : RHOB
PEF .b/e                  : PEF
GR .gAPI                  : GR
DTC .us/ft                : DTC
DTE .us/ft                : DTE
RDEP .ohm.m               : RDEP
SP .mV                    : SP
RSHA .ohm.m               : RSHA
RMED .ohm.m               : RMED
~Parameter
#==================================================================
~Ascii
# ...
 2690.3845215 7.0000000000 8.6879997253 -0.014000000 0.4097355604 2.4777481556 5.6086730957 186.17720032 117.63086700 114.23754883 0.9089999795 53.150001526 1.5700000525 1.0870000124
 2690.5368652 7.0000000000 8.6879997253 -0.014000000 0.3987526596 2.4632573128 5.1367564201 186.05619812 118.68471527 115.21800995 1.0620000362 52.027999878 1.9420000315 1.2599999905
 2690.6892090 7.0000000000 8.6879997253 -0.011014423 0.3957642019 2.4561288357 4.5508780479 185.93638611 118.38109589 114.91503143 1.0939999819 54.015998840 2.1740000248 1.3789999485
 2690.8417969 7.0000000000 8.6879997253 -0.005019231 0.4118183255 2.4546136856 4.3173718452 185.81520081 115.23904419 111.79634857 0.9900000095 55.528999329 2.2330000401 1.3940000534
 2690.9941406 7.0000000000 8.6879997253 -0.000016026 0.4349856675 2.4508621693 4.5486278534 185.69419861 109.70471954 106.24022675 0.7689999938 54.025001526 1.9859999418 1.2480000257
 2691.1464844 7.0000000000 8.6879997253 0.0000000000 0.4533113241 2.4454140663 5.2518715858 185.57319641 104.36624908 100.82895660 0.5569999814 53.900001526 1.6139999628 1.0080000162
 2691.2988281 7.0000000000 8.6879997253 -0.004976000 0.4413977563 2.4817018509 6.5848622322 185.45219421 101.82089996 98.319808960 0.4589999914 54.525001526 1.2419999838 0.7440000176
 2691.4514160 7.0000000000 8.6879997253 -0.004003205 0.3982585371 2.5497233868 7.6482992172 185.33119202 102.74016571 99.309989929 0.4379999936 56.025001526 0.8700000048 0.5019999743
 2691.6037598 7.0000000000 8.7309999466 -0.004000000 0.3662823737 2.6216447353 7.7598237991 185.21020508 104.40084839 101.02915192 0.4339999855 56.147998810 0.6169999838 0.4090000093
 2691.7561035 7.0000000000 8.8240003586 -0.006990385 0.3735164106 2.6966032982 5.7172789574 185.08920288 105.23793793 101.78281403 0.4359999895 54.525001526 0.6669999957 0.4930000007
 2691.9084473 7.0000000000 8.8789997101 -0.009985600 0.4007487893 2.6995809078 4.6137661934 184.96820068 106.53193665 102.99429321 0.4420000017 53.401000977 0.7779999971 0.6090000272
 2692.0607910 7.0000000000 8.8360004425 -0.011990385 0.4103542268 2.6480152607 4.3159503937 184.84738159 107.82640076 104.35837555 0.4729999900 55.019001007 0.8880000114 0.6990000010
 2692.2133789 7.0000000000 8.7889995575 -0.005022436 0.4028542638 2.5947573185 4.0833721161 184.72619629 107.94163513 104.48992920 0.6669999957 55.650001526 1.1549999714 0.8450000286
 2692.3657227 7.0000000000 8.7889995575 -0.002009616 0.3909083307 2.5403623581 3.8853173256 184.60499573 107.22296143 103.66928864 1.0230000019 54.150001526 1.5509999990 1.1109999418
 2692.5180664 7.0000000000 8.7889995575 -0.002000000 0.3789673746 2.5047078133 3.7891538143 184.48500061 106.97578430 103.47876740 1.3990000486 54.150001526 1.9470000267 1.4379999638
 2692.6704102 7.0000000000 8.7889995575 -0.004985577 0.3633252978 2.4832539558 4.0710945129 217.73100281 108.08630371 104.66918945 1.8380000591 56.025001526 2.2630000114 1.7159999609
 2692.8229980 7.0000000000 8.7889995575 -0.008987179 0.3554949462 2.4554896355 4.5322613716 201.27900696 108.65656281 105.25658417 2.3220000267 56.400001526 2.3450000286 1.8500000238
 2692.9753418 7.0000000000 8.7889995575 -0.009996795 0.3632549644 2.4230041504 4.9313607216 173.81300354 107.93794250 104.43498230 2.5520000458 55.025001526 2.4230000973 1.9720000029
 2693.1276855 7.0000000000 8.8439998627 0.0029583334 0.3933832049 2.3760294914 5.1626300812 137.25000000 106.81774902 103.28459167 2.5510001183 54.651000977 2.6059999466 2.7290000916
 2693.2800293 7.0000000000 9.1330003738 0.0497744009 0.4350992441 2.3180761337 4.8749246597 109.59400177 105.63699341 102.13411713 2.5899999142 54.275001526 2.8259999752 3.5899999142
 2693.4326172 6.0000000000 9.0039997101 0.0848878250 0.4331170321 2.3158054352 4.5664935112 104.62500000 104.43149567 100.98091888 2.7060000896 55.146999359 3.0460000038 3.5510001183
 2693.5849609 6.0000000000 8.6520004272 0.0590833351 0.3579117656 2.3558914661 4.6428766251 116.18800354 103.41381073 99.996528625 2.8169999123 56.525001526 3.2660000324 3.2609999180
 2693.7373047 6.0000000000 8.6250000000 0.0181314088 0.2732215226 2.3751022816 5.0792994499 129.34399414 102.19480896 98.607406616 3.0769999027 56.900001526 3.4869999886 3.3650000095
 2693.8896484 6.0000000000 8.6210002899 0.0060576000 0.2652471662 2.3784952164 5.2387452126 128.95300293 99.867851257 96.405441284 3.3239998817 57.775001526 3.5910000801 3.6519999504
 2694.0419922 6.0000000000 8.6990003586 0.0358557664 0.3196669221 2.3788688183 5.2190637589 122.93399811 98.877052307 95.473617554 3.2850000858 58.400001526 3.6549999714 3.6280000210
 2694.1945801 6.0000000000 8.7150001526 0.0509519204 0.3416900039 2.3769361973 5.9058976173 124.44499969 100.00910187 96.605606079 3.0950000286 57.397998810 3.5739998817 3.1879999638
 2694.3469238 6.0000000000 8.6479997635 0.0519967973 0.3147867322 2.4096136093 5.6244535446 138.84399414 102.31132507 98.872192383 2.8919999599 55.775001526 3.4230000973 2.8169999123
 2694.4992676 6.0000000000 8.6909999847 0.0490143970 0.3083506525 2.4685142040 5.0309519768 156.37500000 104.49909210 100.99378204 2.7709999084 54.651000977 3.4130001068 2.7850000858
 2694.6516113 6.0000000000 8.7150001526 0.0350673087 0.3530538976 2.4750123024 4.3581566811 163.50000000 104.05998993 100.58955383 2.7009999752 53.902000427 3.4130001068 2.8629999161
 2694.8041992 6.0000000000 8.6409997940 0.0260288473 0.4087615907 2.4414889812 4.2940001488 166.68800354 102.57411194 99.114059448 2.6199998856 54.396999359 3.4119999409 2.8469998837
 2694.9565430 7.0000000000 8.6560001373 0.0040705130 0.4288958311 2.4196162224 4.3920001984 172.87500000 103.24130249 99.757369995 2.5450000763 55.400001526 3.4119999409 2.7100000381
 2695.1088867 7.0000000000 8.6879997253 -0.004956800 0.4255564213 2.4065310955 4.6659998894 180.44700623 105.97441864 102.57519531 2.5309998989 54.525001526 3.3480000496 2.6029999256
 2695.2612305 7.0000000000 8.6879997253 -0.008980769 0.4275005162 2.3688235283 5.2290000916 184.81700134 109.18636322 105.75962067 2.4690001011 53.150001526 3.1840000153 2.6189999580
 2695.4138184 7.0000000000 8.6879997253 -0.003019231 0.4286961854 2.3122458458 5.2649998665 186.68899536 111.04204559 107.64359283 2.3640000820 53.650001526 3.0889999866 2.6340000629
 2695.5661621 7.0000000000 8.7069997787 0.0179326907 0.4333650172 2.2862448692 4.9409999847 186.24699402 111.78836060 108.41462708 2.2869999409 54.525001526 3.0199999809 2.5000000000
 2695.7185059 7.0000000000 8.7069997787 0.0289647430 0.4387029111 2.2833449841 3.9649999142 183.06300354 112.62602234 109.24280548 2.1470000744 54.025001526 2.9609999657 2.2899999619
 2695.8708496 7.0000000000 8.6879997253 0.0180527996 0.4367793500 2.3139011860 3.9379999638 177.81300354 114.05041504 110.63883209 1.9930000305 55.768001556 2.9270000458 2.1329998970
 2696.0231934 7.0000000000 8.6879997253 0.0000865385 0.4302116930 2.3698091507 4.2010002136 175.62500000 115.08480072 111.61580658 1.9179999828 57.402000427 2.8940000534 1.9620000124
 2696.1757813 7.0000000000 8.6879997253 -0.009967948 0.4153277278 2.3797996044 3.9719998837 172.68800354 115.22689819 111.75045013 1.8750000000 55.275001526 2.6310000420 1.8559999466
 2696.3281250 7.0000000000 8.6879997253 -0.009003204 0.4033583403 2.3548386097 3.8099999428 165.81300354 115.84922028 112.46894836 1.8020000458 54.900001526 2.3789999485 1.8509999514
 2696.4804688 6.0000000000 8.7069997787 -0.004024000 0.3853367269 2.3107769489 3.4379999638 157.85899353 116.61392975 113.21566772 1.7269999981 55.525001526 2.2269999981 1.7589999437
 2696.6328125 6.0000000000 8.7889995575 0.0069471155 0.3645798862 2.2522416115 3.7709999084 153.43899536 116.59449768 113.21717072 1.6849999428 54.150001526 2.2469999790 1.6540000439
 2696.7854004 6.0000000000 8.9569997787 0.0139775649 0.3598847687 2.2203931808 4.4200000763 156.82200623 116.79277039 113.40874481 1.6380000114 55.650001526 2.0620000362 1.6670000553
 2696.9377441 6.0000000000 9.1330003738 0.0110096149 0.3695987165 2.2089314461 4.6199998856 161.68800354 117.00589752 113.63031769 1.5479999781 56.650001526 1.9739999771 1.6809999943
