# LAS format log file from PETREL
# Project units are specified as depth units
#==================================================================
~Version information
VERS.   2.0:
WRAP.   NO:
#==================================================================
~Well
STRT .m      698.82189941 :
STOP .m      3687.3850098 :
STEP .m     0.00000000 :
NULL .        -999.250000 :
COMP.           : COMPANY
WELL.  26/4-1   : WELL
FLD.            : FIELD
LOC.            : LOCATION
SRVC.           : SERVICE COMPANY
DATE.  2018-09-11 14:48:25   : Log Export Date {yyyy-MM-dd HH:mm:ss}
PROV.           : PROVINCE
UWI.   26/4-1   : UNIQUE WELL ID
API.            : API NUMBER
#==================================================================
~Curve
DEPT .m                   : DEPTH
Lithology_geolink ._      : Lithology_geolink
CALI .in                  : CALI
DRHO .g/cm3               : DRHO
NPHI .m3/m3               : NPHI
RHOB .g/cm3               : RHOB
PEF .b/e                  : PEF
GR .gAPI                  : GR
DTC .us/ft                : DTC
DTE .us/ft                : DTE
RDEP .ohm.m               : RDEP
SP .mV                    : SP
RSHA .ohm.m               : RSHA
RMED .ohm.m               : RMED
~Parameter
#==================================================================
~Ascii
# ...
 2093.5864258 6.0000000000 13.404999733 0.0009775641 0.3822524548 2.3342728615 7.7500000000 67.125000000 107.82780457 109.46327972 1.6810159683 40.454353333 1.5179920197 1.4790272713
 2093.7387695 6.0000000000 13.406000137 0.0029904000 0.3527226448 2.3207848072 6.3801951408 73.367996216 106.09806061 107.80355835 1.6909967661 39.425193787 1.5129952431 1.4961104393
 2093.8911133 6.0000000000 13.406000137 0.0030000000 0.3685826957 2.3110079765 5.2448191643 75.000000000 102.82959747 104.35220337 1.6890000105 38.299999237 1.5099999905 1.5650000572
 2094.0437012 6.0000000000 13.381999969 -0.002980769 0.3420854509 2.3040137291 5.2329998016 73.969001770 100.37461090 101.81719971 1.6689776182 39.706302643 1.5160032511 1.6079535484
 2094.1960449 6.0000000000 13.314000130 -0.003996795 0.3431563079 2.3052866459 5.8309998512 74.875000000 100.44679260 101.89353180 1.6549919844 39.891395569 1.5179791451 1.5788925886
 2094.3483887 6.0000000000 13.312999725 -0.004996795 0.3405484259 2.3127744198 6.7095918655 76.905998230 102.91382599 104.39699554 1.6500096321 38.267749786 1.5049792528 1.5119519234
 2094.5007324 6.0000000000 13.312999725 -0.008980799 0.3477253616 2.3128542900 7.4108767509 77.433998108 106.21497345 107.74893951 1.6560000181 37.486999512 1.4919999838 1.4819999933
 2094.6530762 6.0000000000 13.312999725 -0.007009616 0.3811785579 2.3073570728 7.4199872017 72.438003540 108.14858246 109.68647003 1.6660000086 39.362998962 1.4850000143 1.5030000210
 2094.8056641 6.0000000000 13.310000420 -0.007996796 0.3921951056 2.3141126633 6.5110001564 68.530998230 108.14500427 109.83030701 1.6579679251 40.361045837 1.5200705528 1.5159759521
 2094.9580078 6.0000000000 13.203999519 -0.005009615 0.3868273795 2.3301076889 5.2310514450 66.375000000 107.83937836 109.37333679 1.6379792690 39.144451141 1.5640543699 1.5009888411
 2095.1103516 6.0000000000 13.123999596 -0.008980799 0.3640398383 2.3338508606 4.5530848503 65.561996460 106.46134949 108.02480316 1.6250000000 39.424999237 1.5980000496 1.4939999580
 2095.2626953 6.0000000000 12.991000175 -0.008004808 0.3500868678 2.3283705711 4.6518397331 64.844001770 104.05654907 105.64058685 1.6280000210 39.549999237 1.5269999504 1.5149999857
 2095.4150391 6.0000000000 12.814000130 -0.008000000 0.3554736376 2.3336861134 5.0054326057 67.745353699 101.78701782 103.21752930 1.6430000067 39.174999237 1.5629999638 1.5509999990
 2095.5673828 6.0000000000 12.689998627 -0.005014423 0.3624762893 2.3471820354 5.1198172569 70.714241028 99.403739929 100.78034210 1.6670000553 39.394001007 1.6050000191 1.5729999542
 2095.7197266 6.0000000000 12.680000305 -0.007980800 0.3568862379 2.3586835861 5.0193233490 70.437446594 97.890899658 99.288772583 1.7159999609 39.862998962 1.6239999533 1.5850000381
 2095.8723145 6.0000000000 12.670999527 -0.010985577 0.3471668065 2.3686900139 4.9730739594 68.375000000 98.549072266 99.973289490 1.7730000019 40.737998962 1.6230000257 1.6289999485
 2096.0246582 6.0000000000 12.609999657 -0.005028846 0.3356354833 2.3681714535 5.2235975266 69.373397827 99.957183838 101.44844818 1.7819999456 41.581001282 1.5579999685 1.6740000248
 2096.1770020 6.0000000000 12.586000443 -0.005000000 0.3505277932 2.3596894741 5.5974006653 74.055488586 101.15999603 102.74175262 1.7419999838 40.674999237 1.5590000153 1.6710000038
 2096.3293457 6.0000000000 12.586000443 0.0009711539 0.3656174541 2.3580138683 5.7973599434 74.936599731 102.87683105 104.32039642 1.6799999475 39.924999237 1.5970000029 1.6579999924
 2096.4819336 6.0000000000 12.586999893 0.0000048000 0.3777717352 2.3615014553 5.8339424133 71.401000977 104.28465271 105.81794739 1.6280000210 39.080001831 1.6100000143 1.6310000420
 2096.6342773 6.0000000000 12.633000374 0.0000000000 0.3634096682 2.3550183773 6.0157079697 66.188003540 105.82929993 107.44523621 1.6039999723 40.112998962 1.5700000525 1.5490000248
 2096.7866211 6.0000000000 12.678999901 -0.007961539 0.3708636463 2.3410334587 6.8057327271 62.677627563 108.09883118 109.73365021 1.5950000286 41.081001282 1.5290000439 1.4700000286
 2096.9389648 6.0000000000 12.680999756 -0.000038462 0.3713378608 2.3435370922 8.2204627991 59.333358765 107.90065002 109.57170868 1.6250000000 39.799999237 1.4880000353 1.4539999962
 2097.0915527 6.0000000000 12.727001190 0.0019904000 0.3814213574 2.3585586548 9.6027879715 53.741001129 101.39517212 102.91378784 1.6870000362 39.018001556 1.5110000372 1.5149999857
 2097.2438965 16.000000000 12.812001228 0.0069759618 0.3319591880 2.4125998020 9.4552402496 45.969001770 90.595848083 91.890289307 1.7309999466 38.769001007 1.5570000410 1.6729999781
 2097.3962402 16.000000000 12.888999939 -0.000961539 0.2674504817 2.4960329533 7.7058076859 39.151924133 82.526344299 83.644760132 1.7159999609 38.799999237 1.6729999781 1.8240000010
 2097.5485840 16.000000000 12.890998840 -0.005975962 0.2310344279 2.5168557167 6.2902679443 36.956504822 81.633460999 82.849098206 1.6729999781 38.674999237 1.7790000439 1.7560000420
 2097.7009277 16.000000000 12.932999611 -0.006993600 0.2808679044 2.4902360439 6.1723709106 41.720348358 87.610633850 88.992736816 1.6610000134 39.330001831 1.7699999809 1.5379999876
 2097.8535156 16.000000000 13.100000381 -0.005009615 0.3475693464 2.4417686462 6.6981554031 49.140998840 97.074447632 98.441017151 1.6970000267 39.581001282 1.7170000076 1.3899999857
 2098.0058594 5.0000000000 13.180999756 -0.004004808 0.3764122128 2.3769292831 7.1462817192 55.411952972 104.46704865 105.82806396 1.7419999838 39.549999237 1.5700000525 1.3719999790
 2098.1582031 5.0000000000 13.317999840 -0.004995192 0.3875966072 2.3421602249 7.2568235397 59.025215149 106.22702789 107.77983093 1.7400000095 38.769001007 1.4769999981 1.4229999781
 2098.3105469 5.0000000000 13.374999046 -0.007985577 0.3968356252 2.3301770687 7.4214720726 59.998447418 104.45042419 106.02429199 1.6540000439 39.019001007 1.4769999981 1.4670000076
 2098.4631348 5.0000000000 13.430000305 -0.004019200 0.4227054417 2.3292834759 7.4579424858 60.280998230 102.68308258 104.22968292 1.5290000439 40.895000458 1.4769999981 1.4689999819
 2098.6154785 5.0000000000 13.505999565 -0.004000000 0.4048369229 2.3367717266 6.9378347397 59.437999725 102.45574951 104.05197144 1.4490000010 40.362998962 1.4659999609 1.4620000124
 2098.7678223 5.0000000000 13.491000175 0.0009759616 0.3859806657 2.3448393345 6.3000221252 59.515872955 103.66983795 105.18341827 1.4170000553 39.519001007 1.4309999943 1.4370000362
 2098.9201660 5.0000000000 13.442998886 0.0029903846 0.3750324547 2.3533458710 6.1823744774 61.715473175 104.87616730 106.43453217 1.3999999762 39.581001282 1.3949999809 1.3799999952
 2099.0727539 5.0000000000 13.312000275 0.0030000000 0.3852404952 2.3478875160 6.2059612274 64.044998169 105.58956909 107.08076477 1.3990000486 38.611000061 1.3159999847 1.3389999866
 2099.2250977 5.0000000000 13.150000572 -0.002971154 0.3751091659 2.3318924904 6.1840353012 65.313003540 105.64693451 107.13877869 1.4229999781 39.737998962 1.2719999552 1.3259999752
 2099.3774414 5.0000000000 13.093000412 -0.004990384 0.3671880364 2.3210029602 5.6987786293 66.373298645 105.04554749 106.56626129 1.4340000153 42.112998962 1.2680000067 1.3229999542
 2099.5297852 5.0000000000 13.005999565 -0.008980769 0.3383889496 2.3139822483 5.0829868317 67.685897827 104.45520020 106.08272552 1.4099999666 41.581001282 1.2560000420 1.3179999590
 2099.6823730 5.0000000000 12.819001198 -0.010990400 0.3462613523 2.3098404408 4.9512100220 70.932998657 104.85231781 106.40531921 1.3849999905 39.675998688 1.2640000582 1.3179999590
 2099.8347168 5.0000000000 12.559000015 -0.011995193 0.3385972083 2.3078858852 5.2285547256 74.875000000 105.54488373 107.07344055 1.3689999580 39.894001007 1.3079999685 1.3059999943
 2099.9870605 6.0000000000 12.516000748 -0.004038462 0.3388286829 2.3215382099 5.4526410103 79.866996765 106.15833282 107.71874237 1.3609999418 40.612998962 1.3519999981 1.2760000229
 2100.1394043 6.0000000000 12.500000000 -0.001014423 0.3572808504 2.3470165730 5.0176987648 83.712844849 106.73723602 108.31545258 1.3680000305 40.737998962 1.3170000315 1.2530000210
