# LAS format log file from PETREL
# Project units are specified as depth units
#==================================================================
~Version information
VERS.   2.0:
WRAP.   NO:
#==================================================================
~Well
STRT .m      698.82189941 :
STOP .m      3687.3850098 :
STEP .m     0.00000000 :
NULL .        -999.250000 :
COMP.           : COMPANY
WELL.  26/4-1   : WELL
FLD.            : FIELD
LOC.            : LOCATION
SRVC.           : SERVICE COMPANY
DATE.  2018-09-11 14:48:25   : Log Export Date {yyyy-MM-dd HH:mm:ss}
PROV.           : PROVINCE
UWI.   26/4-1   : UNIQUE WELL ID
API.            : API NUMBER
#==================================================================
~Curve
DEPT .m                   : DEPTH
Lithology_geolink ._      : Lithology_geolink
CALI .in                  : CALI
DRHO .g/cm3               : DRHO
NPHI .m3/m3               : NPHI
RHOB .g/cm3               : RHOB
PEF .b/e                  : PEF
GR .gAPI                  : GR
DTC .us/ft                : DTC
DTE .us/ft                : DTE
RDEP .ohm.m               : RDEP
SP .mV                    : SP
RSHA .ohm.m               : RSHA
RMED .ohm.m               : RMED
~Parameter
#==================================================================
~Ascii
# ...
 1295.6201172  -999.250000 18.447999954  -999.250000  -999.250000 2.3069999218  -999.250000 58.324371338 142.51637268 138.56401062 1.2890321016 6.8495993614 0.8929936290 1.0950000286
 1295.7725830  -999.250000 18.457000732  -999.250000  -999.250000 2.3069999218  -999.250000 60.201496124 142.75250244 138.82962036 1.3290184736 6.6004004478 0.8849935532 1.0299999714
 1295.9249268  -999.250000 18.486999512  -999.250000  -999.250000 2.3069999218  -999.250000 61.950195313 142.99085999 139.09495544 1.3519943953 6.8512020111 0.8769935966 1.0440000296
 1296.0773926  -999.250000 18.523000717  -999.250000  -999.250000 2.3069999218  -999.250000 59.377067566 143.29452515 139.32962036 1.3449655771 7.5982007980 0.8689928055 1.0559999943
 1296.2297363  -999.250000 18.496000290  -999.250000  -999.250000 2.3069999218  -999.250000 55.101856232 143.02203369 139.05285645 1.3019360304 6.8485941887 0.8599951863 1.0290000439
 1296.3822021  -999.250000 18.475000381  -999.250000  -999.250000 2.3069999218  -999.250000 55.140960693 141.81175232 137.89305115 1.2219399214 5.3487987518 0.8539967537 1.0069999695
 1296.5345459  -999.250000 18.533000946  -999.250000  -999.250000 2.3069999218  -999.250000 59.791267395 140.70321655 136.78222656 1.1469719410 4.8508009911 0.8499968052 1.0149999857
 1296.6870117  -999.250000 18.622999191  -999.250000  -999.250000 2.3069999218  -999.250000 63.247234344 139.79206848 135.85934448 1.1119959354 5.3536005020 0.8459967971 1.0069999695
 1296.8393555  -999.250000 18.711000443  -999.250000  -999.250000 2.3069999218  -999.250000 59.491012573 137.90928650 133.98706055 1.1070111990 6.8490014076 0.8420023918 0.9679999948
 1296.9918213  -999.250000 18.742000580  -999.250000  -999.250000 2.3069999218  -999.250000 54.254192352 135.78994751 131.89047241 1.1210064888 6.8481984138 0.8450128436 0.9480000138
 1297.1441650  -999.250000 18.715999603  -999.250000  -999.250000 2.3069999218  -999.250000 53.813350677 135.50241089 131.50267029 1.1250103712 6.0999999046 0.8530064225 0.9829999804
 1297.2966309  -999.250000 18.670999527  -999.250000  -999.250000 2.3069999218  -999.250000 55.812397003 137.64588928 133.61840820 1.1379872561 6.0975980759 0.8610112071 1.0190000534
 1297.4489746  -999.250000 18.618000031  -999.250000  -999.250000 2.3069999218  -999.250000 57.670513153 140.79997253 136.85083008 1.1299631596 5.0967965126 0.8680007458 1.0210000277
 1297.6014404  -999.250000 18.566999435  -999.250000  -999.250000 2.3069999218  -999.250000 58.826076508 142.58575439 138.66357422 1.0839967728 3.1009976864 0.8689904213 1.0399999619
 1297.7537842  -999.250000 18.521999359  -999.250000  -999.250000 2.3069999218  -999.250000 60.498661041 143.05377197 139.15773010 1.0820192099 3.1016025543 0.8629951477 1.0290000439
 1297.9061279  -999.250000 18.440000534  -999.250000  -999.250000 2.3069999218  -999.250000 60.407150269 143.53686523 139.60746765 1.1060070992 4.0999999046 0.8569992185 1.0010000467
 1298.0585938  -999.250000 18.452999115  -999.250000  -999.250000 2.3069999218  -999.250000 58.423591614 143.57070923 139.61779785 1.1150176525 4.1006002426 0.8560000062 1.0290000439
 1298.2109375  -999.250000 18.493000031  -999.250000  -999.250000 2.3069999218  -999.250000 57.049201965 143.34226990 139.31767273 1.1370279789 4.3508009911 0.8560000062 1.0729999542
 1298.3634033  -999.250000 18.523000717  -999.250000  -999.250000 2.3069999218  -999.250000 55.798004150 143.46818542 139.44390869 1.1720032692 4.8499999046 0.8560000062 1.0779999495
 1298.5157471  -999.250000 18.500999451  -999.250000  -999.250000 2.3069999218  -999.250000 54.487102509 143.83390808 139.91027832 1.1760032177 4.8499999046 0.8560000062 1.0789999962
 1298.6682129  -999.250000 18.461999893  -999.250000  -999.250000 2.3069999218  -999.250000 53.781562805 144.05799866 140.13410950 1.1800191402 4.8499999046 0.8560000062 1.0859999657
 1298.8205566  -999.250000 18.433000565  -999.250000  -999.250000 2.3069999218  -999.250000 53.905899048 143.86978149 139.92248535 1.2040079832 4.8491988182 0.8559967875 1.0750000477
 1298.9730225  -999.250000 18.451999664  -999.250000  -999.250000 2.3069999218  -999.250000 53.594249725 143.57464600 139.61248779 1.2139872313 4.3487987518 0.8519920111 1.0870000124
 1299.1253662  -999.250000 18.506999969  -999.250000  -999.250000 2.3069999218  -999.250000 55.217700958 143.02485657 138.99380493 1.2059839964 3.8495993614 0.8469951749 1.0900000334
 1299.2778320  -999.250000 18.458000183  -999.250000  -999.250000 2.3069999218  -999.250000 60.575710297 142.18652344 138.18302917 1.1859583855 3.5993993282 0.8409904242 1.0599999428
 1299.4301758  -999.250000 18.511999130  -999.250000  -999.250000 2.3069999218  -999.250000 62.982074738 142.23155212 138.28944397 1.1599575281 3.3495993614 0.8349992037 1.0290000439
 1299.5826416  -999.250000 18.514999390  -999.250000  -999.250000 2.3069999218  -999.250000 60.940635681 143.32035828 139.37084961 1.1069135666 3.1006004810 0.8340048194 1.0099999905
 1299.7349854  -999.250000 18.549999237  -999.250000  -999.250000 2.3069999218  -999.250000 57.393840790 144.00151062 140.03839111 1.0529743433 3.3512017727 0.8370016217 0.9869999886
 1299.8873291  -999.250000 18.579999924  -999.250000  -999.250000 2.3069999218  -999.250000 55.487052917 143.61888123 139.63798523 1.0209856033 4.1012020111 0.8390023708 0.9070000052
 1300.0397949  -999.250000 18.563999176  -999.250000  -999.250000 2.3069999218  -999.250000 55.250186920 143.22557068 139.29519653 1.0029903650 4.8506002426 0.8420016170 0.8360000253
 1300.1921387  -999.250000 18.518999100  -999.250000  -999.250000 2.3069999218  -999.250000 53.675525665 143.97633362 140.07527161 0.9910344481 5.1004004478 0.8440023661 0.8429999948
 1300.3446045  -999.250000 18.464000702  -999.250000  -999.250000 2.3069999218  -999.250000 54.702175140 144.90533447 140.93750000 1.0340385437 5.3499999046 0.8470016122 0.8429999948
 1300.4969482  -999.250000 18.396999359  -999.250000  -999.250000 2.3069999218  -999.250000 59.584171295 144.25442505 140.30598450 1.0819808245 5.3495993614 0.8490007520 0.8920000196
 1300.6494141  -999.250000 18.329999924  -999.250000  -999.250000 2.3069999218  -999.250000 63.949504852 142.52000427 138.63285828 1.0579967499 5.0987987518 0.8500000238 1.0970000029
 1300.8017578  -999.250000 18.295999527  -999.250000  -999.250000 2.3069999218  -999.250000 64.719383240 140.35557556 136.43411255 1.0540080070 4.5987977982 0.8500007987 1.2020000219
 1300.9542236  -999.250000 18.278999329  -999.250000  -999.250000 2.3069999218  -999.250000 60.644264221 138.60357666 134.67503357 1.0639392138 3.8499999046 0.8510016203 1.1180000305
 1301.1065674  -999.250000 18.261999130  -999.250000  -999.250000 2.3069999218  -999.250000 57.752315521 139.60534668 135.67999268 1.0260215998 3.8499999046 0.8520007730 1.0049999952
 1301.2590332  -999.250000 18.336999893  -999.250000  -999.250000 2.3069999218  -999.250000 57.500198364 142.34033203 138.34936523 1.0531585217 3.8499999046 0.8530015945 0.8859999776
 1301.4113770  -999.250000 18.413999557  -999.250000  -999.250000 2.3069999218  -999.250000 57.281173706 143.95756531 139.98768616 1.1520191431 3.8495993614 0.8540007472 0.8399999738
 1301.5638428  -999.250000 18.415000916  -999.250000  -999.250000 2.3069999218  -999.250000 57.983436584 144.54949951 140.60563660 1.1759663820 3.5993993282 0.8550000191 0.9499999881
 1301.7161865  -999.250000 18.415000916  -999.250000  -999.250000 2.3069999218  -999.250000 61.310333252 144.64794922 140.67517090 1.1549919844 3.3504004478 0.8550007939 1.0499999523
 1301.8685303  -999.250000 18.415000916  -999.250000  -999.250000 2.3069999218  -999.250000 65.866699219 144.03317261 140.08395386 1.1449567080 3.5999999046 0.8560000062 1.0210000277
 1302.0209961  -999.250000 18.415000916  -999.250000  -999.250000 2.3069999218  -999.250000 67.998298645 143.14410400 139.22705078 1.0909670591 3.6008012295 0.8559983969 0.9980000257
 1302.1733398  -999.250000 18.413999557  -999.250000  -999.250000 2.3069999218  -999.250000 66.114021301 142.43486023 138.50793457 1.0500215292 4.1004004478 0.8539991975 1.0440000296
