# LAS format log file from PETREL
# Project units are specified as depth units
#==================================================================
~Version information
VERS.   2.0:
WRAP.   NO:
#==================================================================
~Well
STRT .m      698.82189941 :
STOP .m      3687.3850098 :
STEP .m     0.00000000 :
NULL .        -999.250000 :
COMP.           : COMPANY
WELL.  26/4-1   : WELL
FLD.            : FIELD
LOC.            : LOCATION
SRVC.           : SERVICE COMPANY
DATE.  2018-09-11 14:48:25   : Log Export Date {yyyy-MM-dd HH:mm:ss}
PROV.           : PROVINCE
UWI.   26/4-1   : UNIQUE WELL ID
API.            : API NUMBER
#==================================================================
~Curve
DEPT .m                   : DEPTH
Lithology_geolink ._      : Lithology_geolink
CALI .in                  : CALI
DRHO .g/cm3               : DRHO
NPHI .m3/m3               : NPHI
RHOB .g/cm3               : RHOB
PEF .b/e                  : PEF
GR .gAPI                  : GR
DTC .us/ft                : DTC
DTE .us/ft                : DTE
RDEP .ohm.m               : RDEP
SP .mV                    : SP
RSHA .ohm.m               : RSHA
RMED .ohm.m               : RMED
~Parameter
#==================================================================
~Ascii
# ...
 3682.8129883  -999.250000 9.0939998627 0.2540000081 0.6489299536 2.7140078545 3.6050000191  -999.250000  -999.250000  -999.250000 2.7639999390 95.283798218  -999.250000 5.5450000763
 3682.9653320  -999.250000 9.0939998627 0.2520000041 0.6489299536 2.7174618244 3.4660000801  -999.250000  -999.250000  -999.250000 2.7769999504 96.140617371  -999.250000 6.2480001450
 3683.1176758  -999.250000 9.0939998627 0.2399999946 0.6489299536 2.7118971348 3.3450000286  -999.250000  -999.250000  -999.250000 2.7909998894 97.023590088  -999.250000 6.6069998741
 3683.2700195  -999.250000 9.0939998627 0.2249999940 0.6489299536 2.6994090080 3.3699998856  -999.250000  -999.250000  -999.250000 2.8039999008 94.657600403  -999.250000 6.6840000153
 3683.4226074  -999.250000 9.0939998627 0.2109999955 0.6489299536 2.6905856133 3.2780001163  -999.250000  -999.250000  -999.250000 2.7490000725 94.650001526  -999.250000 6.6970000267
 3683.5749512  -999.250000 9.0939998627 0.2060000002 0.6489299536 2.6845929623 3.3210000992  -999.250000  -999.250000  -999.250000 2.6860001087 95.773200989  -999.250000 6.7480001450
 3683.7272949  -999.250000 9.0939998627 0.2090000063 0.6489299536 2.6865301132 3.3239998817  -999.250000  -999.250000  -999.250000 2.6789999008 96.775398254  -999.250000 6.7909998894
 3683.8796387  -999.250000 9.0939998627 0.2150000036 0.6489299536 2.6945159435 3.6270000935  -999.250000  -999.250000  -999.250000 2.6670000553 96.026206970  -999.250000 6.7849998474
 3684.0319824  -999.250000 9.0939998627 0.2169999927 0.6489299536 2.6988356113 3.6289999485  -999.250000  -999.250000  -999.250000 2.6570000648 95.275405884  -999.250000 6.7709999084
 3684.1845703  -999.250000 9.0939998627 0.2199999988 0.6489299536 2.7003438473 3.5980000496  -999.250000  -999.250000  -999.250000 2.6579999924 96.272399902  -999.250000 6.8159999847
 3684.3369141  -999.250000 9.0939998627 0.2230000049 0.6489299536 2.7001481056 3.4769999981  -999.250000  -999.250000  -999.250000 2.6559998989 97.023796082  -999.250000 6.8420000076
 3684.4892578  -999.250000 9.0939998627 0.2160000056 0.6489299536 2.6986548901 3.4349999428  -999.250000  -999.250000  -999.250000 2.6470000744 95.901802063  -999.250000 6.7789998055
 3684.6416016  -999.250000 9.0939998627 0.2119999975 0.6489299536 2.6988534927 3.4790000916  -999.250000  -999.250000  -999.250000 2.6440000534 94.280204773  -999.250000 6.7230000496
 3684.7941895  -999.250000 9.0939998627 0.2099999934 0.6489299536 2.7003536224 3.5069999695  -999.250000  -999.250000  -999.250000 2.6429998875 96.271797180  -999.250000 6.7170000076
 3684.9465332  -999.250000 9.0939998627 0.2080000043 0.6489299536 2.7010011673 3.5920000076  -999.250000  -999.250000  -999.250000 2.6380000114 97.023796082  -999.250000 6.6929998398
 3685.0988770  -999.250000 9.1330003738 0.2060000002 0.6484400034 2.7010004520 3.6150000095  -999.250000  -999.250000  -999.250000 2.6180000305 96.402999878  -999.250000 6.7049999237
 3685.2512207  -999.250000 7.4800000191 0.2099999934 0.6657700539 2.7046811581 3.6289999485  -999.250000  -999.250000  -999.250000 2.6019999981 95.901611328  -999.250000 6.7129998207
 3685.4038086  -999.250000 4.3619999886 0.2199999988 0.6967800260 2.7111988068 3.3810000420  -999.250000  -999.250000  -999.250000 6.6799998283 95.522605896  -999.250000 6.6890001297
 3685.5561523  -999.250000 2.9360001087 0.2199999988 0.7099600434 2.7145786285 3.3389999866  -999.250000  -999.250000  -999.250000 10.758000374 96.149993896  -999.250000 6.6680002213
 3685.7084961  -999.250000 2.9360001087 0.2119999975 0.7099600434 2.7155730724 3.2669999599  -999.250000  -999.250000  -999.250000 10.753999710 98.021995544  -999.250000 6.6840000153
 3685.8608398  -999.250000 2.9360001087 0.2029999942 0.7099600434 2.7162902355 3.2709999084  -999.250000  -999.250000  -999.250000 10.753999710 97.650604248  -999.250000 6.6859998703
 3686.0131836  -999.250000 2.9360001087 0.1949999928 0.7099600434 2.7167944908 3.2699999809  -999.250000  -999.250000  -999.250000 10.758000374 95.158004761  -999.250000 6.6430001259
 3686.1657715  -999.250000 2.9360001087 0.1889999956 0.7099600434 2.7195637226 3.2030000687  -999.250000  -999.250000  -999.250000 10.753999710 93.652404785  -999.250000 6.5920000076
 3686.3181152  -999.250000 2.9360001087 0.1899999976 0.7099600434 2.7240591049 3.3139998913  -999.250000  -999.250000  -999.250000 10.753999710 94.897994995  -999.250000 6.5549998283
 3686.4704590  -999.250000 2.9360001087 0.1920000017 0.7099600434 2.7268409729 3.2760000229  -999.250000  -999.250000  -999.250000 10.762000084 96.771995544  -999.250000 6.5549998283
 3686.6228027  -999.250000 2.9360001087 0.1829999983 0.7099600434 2.7283077240 3.2829999924  -999.250000  -999.250000  -999.250000 10.762000084 96.523811340  -999.250000 6.5549998283
 3686.7753906  -999.250000 2.9360001087 0.1609999985 0.7099600434 2.7196073532 3.2829999924  -999.250000  -999.250000  -999.250000 10.762000084 96.775596619  -999.250000 6.5549998283
 3686.9277344  -999.250000 2.9360001087 0.1449999958 0.7099600434 2.7031481266 3.2829999924  -999.250000  -999.250000  -999.250000 10.765999794 96.400604248  -999.250000 6.5549998283
 3687.0800781  -999.250000 2.9360001087 0.1389999986 0.7099600434 2.6940200329 3.2829999924  -999.250000  -999.250000  -999.250000  -999.250000  -999.250000  -999.250000  -999.250000
 3687.2324219  -999.250000 2.9360001087 0.1389999986 0.7099600434 2.6905200481 3.2829999924  -999.250000  -999.250000  -999.250000  -999.250000  -999.250000  -999.250000  -999.250000
 3687.3850098  -999.250000 2.9360001087 0.1389999986 0.7099600434  -999.250000 3.2829999924  -999.250000  -999.250000  -999.250000  -999.250000  -999.250000  -999.250000  -999.250000
