# LAS format log file from PETREL
# Project units are specified as depth units
#==================================================================
~Version information
VERS.   2.0:
WRAP.   NO:
#==================================================================
~Well
STRT .m      698.82189941 :
STOP .m      3687.3850098 :
STEP .m     0.00000000 :
NULL .        -999.250000 :
COMP.           : COMPANY
WELL.  26/4-1   : WELL
FLD.            : FIELD
LOC.            : LOCATION
SRVC.           : SERVICE COMPANY
DATE.  2018-09-11 14:48:25   : Log Export Date {yyyy-MM-dd HH:mm:ss}
PROV.           : PROVINCE
UWI.   26/4-1   : UNIQUE WELL ID
API.            : API NUMBER
#==================================================================
~Curve
DEPT .m                   : DEPTH
Lithology_geolink ._      : Lithology_geolink
CALI .in                  : CALI
DRHO .g/cm3               : DRHO
NPHI .m3/m3               : NPHI
RHOB .g/cm3               : RHOB
PEF .b/e                  : PEF
GR .gAPI                  : GR
DTC .us/ft                : DTC
DTE .us/ft                : DTE
RDEP .ohm.m               : RDEP
SP .mV                    : SP
RSHA .ohm.m               : RSHA
RMED .ohm.m               : RMED
~Parameter
#==================================================================
~Ascii
 698.82189941  -999.250000 19.346000671  -999.250000  -999.250000  -999.250000  -999.250000 40.204105377 155.08770752 154.16239929 2.1929907799 20.381921768 2.1929907799 2000.0000000
 698.97430420  -999.250000 19.385000229  -999.250000  -999.250000  -999.250000  -999.250000 40.358814240 155.08758545 154.16239929 2.1699628830 21.146980286 2.1699628830 2000.0000000
 699.12670898  -999.250000 19.381000519  -999.250000  -999.250000  -999.250000  -999.250000 40.374980927 155.08639526 154.16239929 2.0769598484 21.130363464 2.0769598484 2000.0000000
 699.27911377  -999.250000 19.370000839  -999.250000  -999.250000  -999.250000  -999.250000 38.564178467 155.08639526 154.16239929 1.9769784212 20.600000381 1.9769784212 2000.0000000
 699.43151855  -999.250000 19.358999252  -999.250000  -999.250000  -999.250000  -999.250000 37.360446930 155.08639526 154.16239929 1.9229923487 20.600000381 1.9229923487 2000.0000000
 699.58392334  -999.250000 19.349000931  -999.250000  -999.250000  -999.250000  -999.250000 37.436939240 155.11779785 154.16239929 1.9039928913 20.601202011 1.9039928913 2000.0000000
 699.73632813  -999.250000 19.350000381  -999.250000  -999.250000  -999.250000  -999.250000 36.750549316 155.11457825 154.16239929 1.8859767914 21.349199295 1.8859767914 2000.0000000
 699.88873291  -999.250000 19.356000900  -999.250000  -999.250000  -999.250000  -999.250000 37.045764923 155.08639526 154.16239929 1.8279695511 20.846796036 1.8279695511 2000.0000000
 700.04113770  -999.250000 19.361999512  -999.250000  -999.250000  -999.250000  -999.250000 38.451873779 155.08639526 154.16239929 1.7519915104 18.849199295 1.7519915104 2000.0000000
 700.19354248  -999.250000 19.370000839  -999.250000  -999.250000  -999.250000  -999.250000 40.450397491 155.08639526 154.16239929 1.7309947014 18.349199295 1.7309947014 2000.0000000
 700.34594727  -999.250000 19.377000809  -999.250000  -999.250000  -999.250000  -999.250000 42.061710358 155.08639526 154.16239929 1.7179272175 17.848798752 1.7179272175 2000.0000000
 700.49835205  -999.250000 19.360000610  -999.250000  -999.250000  -999.250000  -999.250000 42.202888489 155.08639526 154.16239929 1.6269590855 17.101202011 1.6269590855 2000.0000000
 700.65075684  -999.250000 19.333999634  -999.250000  -999.250000  -999.250000  -999.250000 41.204799652 155.08770752 154.16239929 1.5760191679 17.852804184 1.5760191679 2000.0000000
 700.80310059  -999.250000 19.297000885  -999.250000  -999.250000  -999.250000  -999.250000 40.126296997 155.08758545 154.16239929 1.6000024080 19.601202011 1.6000024080 2000.0000000
 700.95550537  -999.250000 19.259000778  -999.250000  -999.250000  -999.250000  -999.250000 41.747051239 155.08639526 154.16239929 1.6060103178 20.599700928 1.6060103178 2000.0000000
 701.10791016  -999.250000 19.273000717  -999.250000  -999.250000  -999.250000  -999.250000 42.607967377 155.08639526 154.16239929 1.6320099831 20.349700928 1.6320099831 2000.0000000
 701.26031494  -999.250000 19.261999130  -999.250000  -999.250000  -999.250000  -999.250000 41.094818115 155.08639526 154.16239929 1.6570075750 20.100000381 1.6570075750 2000.0000000
 701.41271973  -999.250000 19.299999237  -999.250000  -999.250000  -999.250000  -999.250000 39.190288544 155.08639526 154.16239929 1.6759964228 20.100000381 1.6759964228 2000.0000000
 701.56512451  -999.250000 19.288000107  -999.250000  -999.250000  -999.250000  -999.250000 41.449279785 155.11911011 154.16239929 1.6669952869 20.100801468 1.6669952869 2000.0000000
 701.71752930  -999.250000 19.273000717  -999.250000  -999.250000  -999.250000  -999.250000 44.872257233 155.11576843 154.16239929 1.6549940109 20.597999573 1.6549940109 2000.0000000
 701.86993408  -999.250000 19.259000778  -999.250000  -999.250000  -999.250000  -999.250000 45.218727112 155.08639526 154.16239929 1.6399979591 19.347393036 1.6399979591 2000.0000000
 702.02233887  -999.250000 19.256000519  -999.250000  -999.250000  -999.250000  -999.250000 44.594501495 155.08639526 154.16239929 1.6350040436 17.100000381 1.6350040436 2000.0000000
 702.17474365  -999.250000 19.274999619  -999.250000  -999.250000  -999.250000  -999.250000 44.375175476 155.08639526 154.16239929 1.6450384855 17.102003098 1.6450384855 2000.0000000
 702.32714844  -999.250000 19.284999847  -999.250000  -999.250000  -999.250000  -999.250000 44.593826294 155.08639526 154.16239929 1.7411017418 18.101001740 1.7411017418 2000.0000000
 702.47955322  -999.250000 19.284000397  -999.250000  -999.250000  -999.250000  -999.250000 43.594802856 155.08639526 154.16239929 1.8681017160 18.597997665 1.8681017160 2000.0000000
 702.63195801  -999.250000 19.281999588  -999.250000  -999.250000  -999.250000  -999.250000 42.001277924 155.08770752 154.16239929 1.9950721264 17.598499298 1.9950721264 2000.0000000
 702.78430176  -999.250000 19.291000366  -999.250000  -999.250000  -999.250000  -999.250000 40.579708099 155.08758545 154.16239929 2.0850093365 16.850801468 2.0850093365 2000.0000000
 702.93670654  -999.250000 19.315999985  -999.250000  -999.250000  -999.250000  -999.250000 39.064819336 155.08639526 154.16239929 2.1080093384 17.350000381 2.1080093384 2000.0000000
 703.08911133  -999.250000 19.354000092  -999.250000  -999.250000  -999.250000  -999.250000 38.484695435 155.08639526 154.16239929 2.1310093403 17.350000381 2.1310093403 2000.0000000
 703.24151611  -999.250000 19.357000351  -999.250000  -999.250000  -999.250000  -999.250000 38.952434540 155.08639526 154.16239929 2.1540040970 17.352502823 2.1540040970 2000.0000000
 703.39392090  -999.250000 19.336999893  -999.250000  -999.250000  -999.250000  -999.250000 39.249641418 155.11778259 154.16239929 2.1640036106 18.602502823 2.1640036106 2000.0000000
 703.54632568  -999.250000 19.301000595  -999.250000  -999.250000  -999.250000  -999.250000 39.343887329 155.11460876 154.16239929 2.1729919910 19.852003098 2.1729919910 2000.0000000
 703.69873047  -999.250000 19.284000397  -999.250000  -999.250000  -999.250000  -999.250000 40.124374390 155.08639526 154.16239929 2.1529901028 20.850000381 2.1529901028 2000.0000000
 703.85113525  -999.250000 19.316999435  -999.250000  -999.250000  -999.250000  -999.250000 41.482913971 155.08639526 154.16239929 2.1279904842 20.843996048 2.1279904842 2000.0000000
 704.00354004  -999.250000 19.330999374  -999.250000  -999.250000  -999.250000  -999.250000 40.750587463 155.08639526 154.16239929 2.1040012836 17.846992493 2.1040012836 2000.0000000
 704.15594482  -999.250000 19.346000671  -999.250000  -999.250000  -999.250000  -999.250000 39.485015869 155.08639526 154.16239929 2.1070094109 15.850501060 2.1070094109 2000.0000000
 704.30834961  -999.250000 19.351999283  -999.250000  -999.250000  -999.250000  -999.250000 39.281162262 155.08639526 154.16239929 2.1299870014 16.099500656 2.1299870014 2000.0000000
 704.46075439  -999.250000 19.354000092  -999.250000  -999.250000  -999.250000  -999.250000 39.702659607 155.08639526 154.16239929 2.0967605114 15.850501060 2.0967605114 2000.0000000
 704.61315918  -999.250000 19.357000351  -999.250000  -999.250000  -999.250000  -999.250000 40.483375549 155.08770752 154.16239929 1.7979928255 16.103004456 1.7979928255 2000.0000000
 704.76556396  -999.250000 19.358999252  -999.250000  -999.250000  -999.250000  -999.250000 40.780761719 155.08758545 154.16239929 1.7891610861 17.603004456 1.7891610861 2000.0000000
 704.91790771  -999.250000 19.361999512  -999.250000  -999.250000  -999.250000  -999.250000 40.453392029 155.08639526 154.16239929 1.9900624752 19.100801468 1.9900624752 2000.0000000
 705.07031250  -999.250000 19.364999771  -999.250000  -999.250000  -999.250000  -999.250000 40.031505585 155.08639526 154.16239929 2.1458680630 19.599599838 2.1458680630 2000.0000000
 705.22271729  -999.250000 19.368000031  -999.250000  -999.250000  -999.250000  -999.250000 40.296680450 155.08639526 154.16239929 1.8169611692 19.350000381 1.8169611692 2000.0000000
 705.37512207  -999.250000 19.371000290  -999.250000  -999.250000  -999.250000  -999.250000 40.655567169 155.11778259 154.16239929 1.7200737000 19.352003098 1.7200737000 2000.0000000
