# LAS format log file from PETREL
# Project units are specified as depth units
#==================================================================
~Version information
VERS.   2.0:
WRAP.   NO:
#==================================================================
~Well
STRT .m      698.82189941 :
STOP .m      3687.3850098 :
STEP .m     0.00000000 :
NULL .        -999.250000 :
COMP.           : COMPANY
WELL.  26/4-1   : WELL
FLD.            : FIELD
LOC.            : LOCATION
SRVC.           : SERVICE COMPANY
DATE.  2018-09-11 14:48:25   : Log Export Date {yyyy-MM-dd HH:mm:ss}
PROV.           : PROVINCE
UWI.   26/4-1   : UNIQUE WELL ID
API.            : API NUMBER
#==================================================================
~Curve
DEPT .m                   : DEPTH
Lithology_geolink ._      : Lithology_geolink
CALI .in                  : CALI
DRHO .g/cm3               : DRHO
NPHI .m3/m3               : NPHI
RHOB .g/cm3               : RHOB
PEF .b/e                  : PEF
GR .gAPI                  : GR
DTC .us/ft                : DTC
DTE .us/ft                : DTE
RDEP .ohm.m               : RDEP
SP .mV                    : SP
RSHA .ohm.m               : RSHA
RMED .ohm.m               : RMED
~Parameter
#==================================================================
~Ascii
# ...
 3086.0148926 6.0000000000 9.1020002365 -0.026961539 0.3711017668 2.3857965469 7.0170001984 106.46900177 96.264160156 92.799613953 2.3150000572 61.402000427 3.5539999008 2.5079998970
 3086.1672363 6.0000000000 9.1479997635 -0.019012820 0.3708503842 2.3257460594 7.7439999580 109.68800354 97.082504272 93.569145203 2.2809998989 61.771999359 3.5480000973 2.4049999714
 3086.3195801 6.0000000000 9.1909999847 0.0239310898 0.3667066395 2.2720491886 7.2270002365 109.28099823 97.683357239 94.229568481 2.2599999905 62.152000427 3.5429999828 2.3129999638
 3086.4719238 6.0000000000 9.1949996948 0.0977631956 0.3688929677 2.2231669426 6.8709998131 108.71900177 97.944534302 94.431983948 2.2539999485 61.400001526 3.5369999409 2.2980000973
 3086.6245117 6.0000000000 9.1949996948 0.1678878218 0.3754794598 2.2315490246 6.4130001068 108.25000000 97.577514648 94.225677490 2.2349998951 63.150005341 3.5309998989 2.3229999542
 3086.7768555 6.0000000000 9.1949996948 0.2029439062 0.3759692311 2.2834606171 6.5700001717 106.78099823 97.559898376 94.166885376 2.1970000267 64.525001526 3.5260000229 2.3099999428
 3086.9291992 6.0000000000 9.2580003738 0.2059951872 0.3740231395 2.2725195885 6.9910001755 107.84700012 97.912101746 94.460952759 2.1779999733 62.400001526 3.5199999809 2.2760000229
 3087.0815430 6.0000000000 9.3479995728 0.1700576991 0.3808690012 2.2139523029 7.5159997940 108.27899933 98.192550659 94.688430786 2.1830000877 61.025001526 3.5139999390 2.3210000992
 3087.2338867 6.0000000000 9.2729997635 0.1042112038 0.3815877438 2.1414849758 7.9959998131 109.87500000 98.055023193 94.542877197 2.1900000572 61.275001526 3.5090000629 2.3510000706
 3087.3864746 6.0000000000 9.1210002899 0.0361089744 0.3660249710 2.0582823753 6.4559998512 109.78099823 97.663101196 94.173576355 2.2330000401 61.897998810 3.4990000725 2.4110000134
 3087.5388184 6.0000000000 8.9799995422 -0.006931090 0.3454929292 2.0953843594 4.5799999237 109.25000000 97.300399780 93.792549133 2.2679998875 61.777000427 3.4440000057 2.4800000191
 3087.6911621 6.0000000000 8.8909997940 -0.016983975 0.3376625180 2.2235455513 3.5160000324 109.31300354 97.072196960 93.615646362 2.2479999065 61.150001526 3.3870000839 2.4600000381
 3087.8435059 6.0000000000 8.8979997635 -0.011019200 0.3425143659 2.3567118645 3.3469998837 107.34400177 97.115318298 93.673294067 2.2500000000 61.150001526 3.3819999695 2.3929998875
 3087.9960938 6.0000000000 8.9490003586 -0.005009615 0.3474022150 2.4939150810 3.4830000401 107.84600067 97.236335754 93.707038879 2.2479999065 60.650001526 3.3910000324 2.3350000381
 3088.1484375 6.0000000000 8.9919996262 -0.001006410 0.3437359035 2.5413980484 4.6909999847 108.43699646 97.061897278 93.561828613 2.2030000687 61.650001526 3.3989999294 2.2599999905
 3088.3007813 6.0000000000 8.9919996262 0.0039919876 0.3378993869 2.5210621357 5.6599998474 107.99900055 96.833702087 93.325027466 2.1949999332 62.525005341 3.4000000954 1.9960000515
 3088.4531250 6.0000000000 9.0469999313 0.0279232003 0.3447280228 2.4244873524 6.7389998436 106.80999756 96.628959656 93.209716797 2.2260000706 62.778003693 3.3499999046 1.9179999828
 3088.6057129 6.0000000000 9.2729997635 0.0639423132 0.3632503152 2.2695167065 7.2950000763 104.09400177 96.645973206 93.274055481 2.2520000935 63.775001526 3.3039999008 2.2119998932
 3088.7580566 6.0000000000 9.3090000153 0.0839679465 0.3842463791 2.1903791428 7.5300002098 104.18800354 96.709098816 93.289611816 2.2420001030 62.653995514 3.2599999905 2.4079999924
 3088.9104004 6.0000000000 9.1330003738 0.0580416657 0.3964604437 2.1685163975 7.2449998856 102.62500000 96.595199585 93.081077576 2.2630000114 61.400001526 3.2149999142 2.4100000858
 3089.0627441 6.0000000000 9.0939998627 0.0130721154 0.4059947729 2.1982889175 7.1810002327 101.12500000 96.390670776 92.932945251 2.2609999180 61.650001526 3.1710000038 2.5190000534
 3089.2150879 6.0000000000 9.0659999847 -0.003945600 0.4067376852 2.2671878338 5.8239998817 100.78099823 96.407028198 93.038177490 2.1710000038 61.150001526 3.1259999275 2.7170000076
 3089.3676758 6.0000000000 9.0159997940 -0.005996795 0.3891881704 2.3615713120 4.3270001411 100.88300323 96.470596313 93.021820068 2.1170001030 60.525001526 2.8580000401 2.6470000744
 3089.5200195 6.0000000000 8.9919996262 -0.006000000 0.3588786125 2.4750711918 4.9650001526 102.34100342 96.481101990 93.019073486 2.0880000591 61.275001526 2.3680000305 2.3259999752
 3089.6723633 6.0000000000 8.9919996262 -0.014985576 0.3357171118 2.4709541798 5.5269999504 102.84799957 96.967857361 93.519401550 2.0199999809 61.900001526 2.1760001183 2.1099998951
 3089.8247070 6.0000000000 8.9919996262 -0.014003200 0.3279049695 2.3777132034 6.5149998665 102.28099823 97.353614807 93.912712097 2.0090000629 63.150005341 2.0940001011 1.9869999886
 3089.9772949 6.0000000000 9.0930004120 0.0119583337 0.3373447955 2.3001277447 6.2760000229 101.03099823 97.100845337 93.742698669 2.0520000458 64.525001526 2.0120000839 1.8730000257
 3090.1296387 6.0000000000 9.0430002213 0.0619198717 0.3644565344 2.2346682549 6.3379998207 100.25000000 96.709297180 93.257789612 2.0460000038 63.404003143 1.8489999771 1.9299999475
 3090.2819824 6.0000000000 8.8909997940 0.1179102585 0.3883916438 2.2592000961 5.9580001831 101.21900177 95.849838257 92.259948730 1.9910000563 62.523998260 1.5859999657 2.2230000496
 3090.4343262 6.0000000000 8.8909997940 0.1588687897 0.3959757686 2.3519229889 6.2170000076 104.37500000 94.712745667 91.307594299 1.9720000029 60.900001526 1.3819999695 2.3359999657
 3090.5869141 6.0000000000 8.8909997940 0.1889519244 0.3874636889 2.3999624252 5.3670001030 108.25000000 94.625640869 91.205513000 1.9600000381 60.775001526 1.2020000219 2.2590000629
 3090.7392578 6.0000000000 8.8909997940 0.1949903816 0.3718550205 2.4138822556 5.5960001945 112.28399658 95.174804688 91.744171143 1.8969999552 61.900001526 1.0369999409 2.2490000725
 3090.8916016 6.0000000000 8.8629999161 0.1480753273 0.3642721176 2.3960652351 5.8810000420 112.90599823 95.900260925 92.428810120 1.9129999876 60.400001526 0.9689999819 2.1199998856
 3091.0439453 6.0000000000 8.9379997253 0.0990785286 0.3735450804 2.3541996479 6.6329998970 110.86900330 96.152374268 92.695564270 2.0350000858 60.026000977 0.9350000024 1.9969999790
 3091.1962891 6.0000000000 8.9879999161 0.0521504022 0.3815643191 2.3038725853 6.3169999123 110.18800354 95.920288086 92.425491333 2.1289999485 61.900001526 0.9200000167 2.1050000191
 3091.3488770 6.0000000000 8.8629999161 0.0160576925 0.3730836511 2.2470009327 5.0960001945 113.87500000 95.381248474 91.937492371 2.2219998837 62.776996613 0.9150000215 2.3580000401
 3091.5012207 6.0000000000 8.7889995575 0.0000256410 0.3533017337 2.2824583054 3.9440000057 118.12500000 94.925598145 91.447822571 2.3099999428 62.772994995 0.9150000215 2.5460000038
 3091.6535645 6.0000000000 8.7889995575 -0.017971152 0.3503447175 2.3878083229 3.5269999504 117.00000000 94.677154541 91.154273987 2.3029999733 62.527999878 0.9150000215 2.5539999008
 3091.8059082 6.0000000000 8.7889995575 -0.017999999 0.3720004857 2.4820790291 3.4140000343 112.37500000 94.617919922 91.121109009 2.2999999523 60.900001526 0.9139999747 2.4630000591
 3091.9584961 6.0000000000 8.7889995575 -0.016003206 0.3803566992 2.5680365562 3.6489999294 110.90699768 94.603851318 91.183288574 2.3310000896 61.275001526 0.8709999919 2.4270000458
 3092.1108398 6.0000000000 8.7889995575 -0.013004808 0.3752481937 2.6075813770 4.3090000153 113.19400024 94.697395325 91.273963928 2.3359999657 63.524997711 0.8109999895 2.4479999542
 3092.2631836 6.0000000000 8.7889995575 -0.011003205 0.3608131409 2.6120615005 4.5879998207 114.62300110 94.677154541 91.228111267 2.3450000286 63.275001526 0.7749999762 2.4470000267
 3092.4155273 6.0000000000 8.7889995575 -0.016980801 0.3384217918 2.5692319870 4.5359997749 110.70800018 94.741981506 91.287521362 2.3150000572 61.523998260 0.7409999967 2.4300000668
 3092.5681152 6.0000000000 8.7889995575 -0.014004808 0.3179028332 2.4901924133 5.1989998817 102.78099823 95.839073181 92.417320251 2.2060000896 61.025001526 0.7419999838 2.2060000896
