# LAS format log file from PETREL
# Project units are specified as depth units
#==================================================================
~Version information
VERS.   2.0:
WRAP.   NO:
#==================================================================
~Well
STRT .m      698.82189941 :
STOP .m      3687.3850098 :
STEP .m     0.00000000 :
NULL .        -999.250000 :
COMP.           : COMPANY
WELL.  26/4-1   : WELL
FLD.            : FIELD
LOC.            : LOCATION
SRVC.           : SERVICE COMPANY
DATE.  2018-09-11 14:48:25   : Log Export Date {yyyy-MM-dd HH:mm:ss}
PROV.           : PROVINCE
UWI.   26/4-1   : UNIQUE WELL ID
API.            : API NUMBER
#==================================================================
~Curve
DEPT .m                   : DEPTH
Lithology_geolink ._      : Lithology_geolink
CALI .in                  : CALI
DRHO .g/cm3               : DRHO
NPHI .m3/m3               : NPHI
RHOB .g/cm3               : RHOB
PEF .b/e                  : PEF
GR .gAPI                  : GR
DTC .us/ft                : DTC
DTE .us/ft                : DTE
RDEP .ohm.m               : RDEP
SP .mV                    : SP
RSHA .ohm.m               : RSHA
RMED .ohm.m               : RMED
~Parameter
#==================================================================
~Ascii
# ...
 3481.6450195 6.0000000000 9.2030000687 -0.003000000 0.3661500216 2.5986986160 3.3540000916 104.62500000 70.549453735 68.990234375 10.612999916 68.525001526 4.9270000458 4.8299999237
 3481.7976074 6.0000000000 9.5120000839 0.0160000008 0.4003900290 2.5612330437 2.9000000954 104.09400177 71.483924866 69.900321960 11.765999794 70.393997192 4.9439997673 4.9650001526
 3481.9499512 6.0000000000 10.012000084 0.0240000002 0.4245600104 2.5634813309 2.6310000420 101.50000000 71.407600403 69.886428833 13.270000458 69.900001526 4.9609999657 9.7600002289
 3482.1022949 6.0000000000 9.9219999313 0.0130000003 0.4235800207 2.5959737301 2.9270000458 101.62500000 70.178634644 68.680374146 14.147999763 67.275001526 4.9780001640 30.011999130
 3482.2546387 6.0000000000 9.6049995422 -0.004000000 0.3977099955 2.6355249882 3.0810000896 104.97899628 68.387649536 66.840881348 13.939999580 68.275001526 4.9949998856 34.188999176
 3482.4069824 6.0000000000 9.3669996262 -0.006000000 0.3742400110 2.6804955006 3.2690000534 110.19400024 66.890419006 65.303764343 12.486000061 70.150001526 5.0120000839 18.812000275
 3482.5595703 6.0000000000 9.1250000000 -0.007000000 0.3515200019 2.6502220631 3.8699998856 112.43800354 65.821128845 64.390495300 12.286999702 71.150001526 5.0289998055 14.246999741
 3482.7119141 6.0000000000 10.788999557 -0.010000000 0.2470700145 2.5624325275 2.9330000877 112.09400177 65.371978760 64.029457092 14.934000015 69.025001526 5.0500001907 13.612999916
 3482.8642578 6.0000000000 12.484000206 -0.010000000 0.1567399949 2.4730231762 2.7369999886 109.65599823 65.556442261 64.030052185 18.382999420 67.148002625 5.1329998970 14.234000206
 3483.0166016 6.0000000000 12.484000206 -0.009000000 0.1589400023 2.3823704720 2.6010000706 109.03099823 65.842086792 64.253273010 24.297000885 67.651000977 5.2309999466 14.940999985
 3483.1691895 6.0000000000 12.425999641 -0.008000000 0.1596699953 2.3482725620 2.7750000954 111.21900177 66.087120056 64.609558105 32.047000885 67.649002075 5.3280000687 16.034999847
 3483.3215332 6.0000000000 12.319999695 -0.005000000 0.1567399949 2.3575658798 2.7599999905 111.87500000 66.390983582 64.979751587 33.827999115 68.525001526 5.4250001907 18.000000000
 3483.4738770 6.0000000000 10.734000206 -0.010000000 0.2421900034 2.4600245953 3.1170001030 109.18800354 66.754768372 65.234298706 30.452999115 67.400001526 5.5229997635 20.132999420
 3483.6262207 6.0000000000 9.1949996948 -0.012000000 0.3325199783 2.6335415840 3.1059999466 105.46399689 66.916458130 65.312500000 27.770999908 66.275001526 5.6209998131 20.740999222
 3483.7788086 6.0000000000 9.1949996948 -0.006000000 0.3227100074 2.6970143318 3.0060000420 106.28800201 66.795730591 65.333030701 26.615999222 67.275001526 5.7179999352 21.104000092
 3483.9311523 6.0000000000 9.1949996948 -0.007000000 0.2982999980 2.6760647297 2.7090001106 109.94200134 66.995544434 65.448867798 26.962999344 66.898002625 5.8150000572 23.003999710
 3484.0834961 6.0000000000 9.1949996948 -0.011000000 0.2790499926 2.6584999561 2.7320001125 111.03099823 67.292335510 65.768714905 27.937999725 65.025001526 5.9130001068 25.351999283
 3484.2358398 6.0000000000 9.1949996948 -0.017000001 0.2685600221 2.6435167789 2.7990000248 110.37500000 67.775764465 66.353614807 28.632999420 65.394996643 6.0100002289 26.327999115
 3484.3881836 6.0000000000 9.1949996948 -0.017000001 0.2609900236 2.6403901577 3.1530001163 107.84400177 68.490188599 67.088470459 29.483999252 67.523002625 6.1209998131 25.766000748
 3484.5407715 6.0000000000 9.1949996948 -0.014000000 0.2543900013 2.6463758945 3.1010000706 103.81300354 69.157730103 67.707138062 30.273000717 67.776000977 6.2360000610 24.319999695
 3484.6931152 6.0000000000 9.1949996948 -0.014000000 0.2565900087 2.6438734531 3.2279999256 99.905998230 69.501098633 67.955566406 31.398000717 66.025001526 6.3499999046 23.555000305
 3484.8454590 6.0000000000 9.1949996948 -0.018999999 0.2617200017 2.6349046230 3.0450000763 96.371002197 69.251411438 67.778518677 32.470001221 66.400001526 6.4650001526 24.681999207
 3484.9978027 6.0000000000 9.1949996948 -0.020000000 0.2695499957 2.6349680424 3.0769999027 96.723999023 68.954666138 67.569938660 33.298999786 66.900001526 6.5570001602 25.334999084
 3485.1503906 6.0000000000 9.1949996948 -0.016000001 0.2739199996 2.6419768333 2.9630000591 99.315002441 69.210693359 67.652801514 33.734001160 64.275001526 6.5770001411 23.823999405
 3485.3027344 6.0000000000 9.1949996948 -0.011000000 0.2761400044 2.6447200775 3.1540000439 101.47299957 69.376068115 67.820686340 34.597000122 65.156997681 6.5910000801 23.197000504
 3485.4550781 6.0000000000 9.1949996948 -0.011000000 0.2739299834 2.6442179680 3.4670000076 102.75000000 69.261398315 67.829719543 36.172000885 67.400001526 6.6050000191 23.805000305
 3485.6074219 6.0000000000 9.1949996948 -0.014000000 0.2768300176 2.6380600929 3.4270000458 103.18800354 69.069526672 67.598526001 36.937999725 66.527999878 6.6180000305 20.444999695
 3485.7600098 6.0000000000 9.1949996948 -0.016000001 0.2880899906 2.6275432110 3.2009999752 102.81300354 69.085464478 67.521415710 37.452999115 66.148002625 6.6680002213 18.242000580
 3485.9123535 6.0000000000 9.1949996948 -0.016000001 0.2980999947 2.6241405010 3.2769999504 100.09400177 69.136169434 67.639816284 38.047000885 65.525001526 6.7500000000 22.937999725
 3486.0646973 6.0000000000 9.1949996948 -0.013000000 0.2995599806 2.6261508465 3.5260000229 93.500000000 68.271690369 66.906272888 38.780998230 64.525001526 6.8330001831 26.569999695
 3486.2170410 6.0000000000 9.1949996948 -0.012000000 0.2919899821 2.6272909641 3.7449998856 83.013000488 66.460365295 64.889823914 40.174999237 64.900001526 6.9159998894 25.614000320
 3486.3693848 3.0000000000 9.1949996948 -0.010000000 0.2900399864 2.6277630329 3.4270000458 72.328002930 63.731437683 62.135856628 43.319999695 66.275001526 6.9889998436 24.694999695
 3486.5219727 3.0000000000 9.1949996948 -0.014000000 0.3044900000 2.6271395683 3.1370000839 65.085998535 61.117790222 59.692195892 46.268001556 67.275001526 6.9650001526 24.781000137
 3486.6743164 3.0000000000 9.1949996948 -0.020000000 0.2999899983 2.6256792545 3.3299999237 60.775001526 59.979141235 58.584518433 49.790000916 66.147003174 6.9149999619 24.812999725
 3486.8266602 3.0000000000 9.1949996948 -0.022000000 0.2434099913 2.6428709030 3.7929999828 59.581001282 60.168922424 58.663223267 55.854000092 65.025001526 6.8169999123 25.587999344
 3486.9790039 3.0000000000 9.1949996948 -0.021000000 0.1623499990 2.6743814945 4.5630002022 60.030998230 60.939994812 59.399120331 59.172000885 67.142997742 6.6250000000 27.055000305
 3487.1315918 3.0000000000 9.1949996948 -0.020000000 0.1054700017 2.6962661743 4.2800002098 64.171997070 61.906013489 60.403102875 55.077999115 66.285003662 6.4299998283 24.211000443
 3487.2839355 3.0000000000 9.1949996948 -0.017999999 0.0991199985 2.7107198238 3.9849998951 70.030998230 63.055976868 61.557689667 45.109001160 64.400001526 6.1859998703 21.007999420
 3487.4362793 3.0000000000 9.1990003586 -0.012000000 0.1184099987 2.7155773640 3.9920001030 71.250000000 64.878936768 63.298053741 33.952999115 65.775001526 5.9239997864 20.913999557
 3487.5886230 3.0000000000 9.2340002060 -0.010000000 0.1438000053 2.7130680084 4.3470001221 68.022003174 67.205307007 65.632987976 25.412000656 65.775001526 5.6609997749 18.059000015
 3487.7412109 3.0000000000 9.2729997635 -0.011000000 0.1653099954 2.7076933384 4.3210000992 63.103000641 69.488945007 68.000007629 20.031999588 66.775001526 5.3990001678 12.741000175
 3487.8935547 3.0000000000 9.2889995575 -0.014000000 0.1774999946 2.7001404762 3.6359999180 58.444000244 71.454803467 69.829368591 16.440999985 66.521003723 5.1370000839 8.9379997253
 3488.0458984 3.0000000000 9.2969999313 -0.015000000 0.1816399992 2.6690702438 2.9630000591 52.077999115 72.507369995 70.918762207 13.574000359 67.150001526 4.8750000000 7.8790001869
 3488.1982422 3.0000000000 9.2969999313 -0.015000000 0.1740999967 2.6200633049 2.6229999065 44.922000885 73.047195435 71.548271179 10.565999985 66.657997131 4.6119999886 7.5489997864
