# LAS format log file from PETREL
# Project units are specified as depth units
#==================================================================
~Version information
VERS.   2.0:
WRAP.   NO:
#==================================================================
~Well
STRT .m      698.82189941 :
STOP .m      3687.3850098 :
STEP .m     0.00000000 :
NULL .        -999.250000 :
COMP.           : COMPANY
WELL.  26/4-1   : WELL
FLD.            : FIELD
LOC.            : LOCATION
SRVC.           : SERVICE COMPANY
DATE.  2018-09-11 14:48:25   : Log Export Date {yyyy-MM-dd HH:mm:ss}
PROV.           : PROVINCE
UWI.   26/4-1   : UNIQUE WELL ID
API.            : API NUMBER
#==================================================================
~Curve
DEPT .m                   : DEPTH
Lithology_geolink ._      : Lithology_geolink
CALI .in                  : CALI
DRHO .g/cm3               : DRHO
NPHI .m3/m3               : NPHI
RHOB .g/cm3               : RHOB
PEF .b/e                  : PEF
GR .gAPI                  : GR
DTC .us/ft                : DTC
DTE .us/ft                : DTE
RDEP .ohm.m               : RDEP
SP .mV                    : SP
RSHA .ohm.m               : RSHA
RMED .ohm.m               : RMED
~Parameter
#==================================================================
~Ascii
# ...
 2884.8469238 6.0000000000 8.9919996262 -0.013003205 0.3349537253 2.6543507576 3.7520000935 102.62500000 87.941665649 84.284721375 5.1879310608 57.022598267 5.0409998894 5.4470224380
 2884.9992676 6.0000000000 8.9919996262 -0.015990401 0.3315708637 2.6094095707 3.6400001049 105.96900177 87.759696960 84.314575195 5.1449341774 55.525997162 5.0170001984 5.4610691071
 2885.1518555 6.0000000000 8.9919996262 -0.018995192 0.3288643360 2.5851397514 3.5380001068 104.84400177 87.656883240 84.255393982 5.1039423943 55.530384064 5.0520000458 5.5041890144
 2885.3041992 6.0000000000 8.9919996262 -0.020996794 0.3293492496 2.5766601563 3.3980000019 99.125000000 87.572052002 84.175315857 5.0859808922 57.520008087 5.0890002251 5.5630836487
 2885.4565430 6.0000000000 8.9490003586 -0.020001601 0.3349509835 2.5741398335 3.4370000362 94.905998230 87.465148926 84.092346191 5.0740656853 57.522998810 5.1409997940 5.6150527000
 2885.6088867 6.0000000000 8.9020004272 -0.019003199 0.3476193249 2.5761351585 3.6280000210 96.790000916 86.908897400 83.489181519 5.1151247025 56.274398804 5.1979999542 5.6481232643
 2885.7614746 6.0000000000 8.8950004578 -0.018999999 0.3596208096 2.5815918446 3.8429999352 99.907997131 85.339485168 81.845977783 5.1931376457 55.896400452 5.2560000420 5.7256240845
 2885.9138184 6.0000000000 8.8909997940 -0.016004808 0.3608181179 2.5896658897 4.4019999504 96.769996643 83.681396484 80.235687256 5.2360191345 54.779022217 5.3140001297 5.9202070236
 2886.0661621 6.0000000000 8.8400001526 -0.019993590 0.3444762230 2.6249442101 4.1269998550 91.588996887 83.429168701 79.993904114 5.2479777336 57.285587311 5.3239998817 6.0488300323
 2886.2185059 6.0000000000 8.8129997253 -0.023987200 0.3274445832 2.6808366776 3.6140000820 93.594001770 84.637817383 81.128463745 5.2339539528 58.270198822 5.2680001259 5.9426774979
 2886.3710938 6.0000000000 8.8629999161 -0.026995193 0.3300756812 2.6947746277 3.3180000782 99.155998230 86.510246277 82.991851807 5.2048687935 55.276584625 5.2109999657 5.7415328026
 2886.5234375 6.0000000000 8.8909997940 -0.024004808 0.3449461460 2.6767640114 3.2400000095 100.62500000 87.906845093 84.467468262 5.1639151573 54.528205872 5.1360001564 5.5958142281
 2886.6757813 6.0000000000 8.8909997940 -0.017011220 0.3549639881 2.6462757587 3.1140000820 97.530998230 88.422721863 85.001983643 5.1108622551 57.150402069 5.0580000877 5.4797372818
 2886.8281250 6.0000000000 8.8909997940 -0.017000001 0.3561980128 2.6063325405 3.0429999828 98.469001770 88.282829285 84.829055786 5.0247774124 57.399799347 4.9790000916 5.3156876564
 2886.9804688 6.0000000000 8.8909997940 -0.016003201 0.3423345387 2.5853571892 2.8770000935 102.72100067 87.635101318 84.143569946 4.8857378960 57.277999878 4.9310002327 5.1207151413
 2887.1330566 6.0000000000 8.8909997940 -0.016000001 0.3293607235 2.5788388252 3.1649999619 106.16500092 87.043434143 83.550079346 4.7217373848 59.147998810 4.8889999390 4.9427275658
 2887.2854004 6.0000000000 8.8590002060 -0.015001602 0.3295995593 2.5805733204 3.3750000000 107.37000275 86.993156433 83.553840637 4.5577564240 57.896995544 4.8280000687 4.7727370262
 2887.4377441 6.0000000000 8.8090000153 -0.012004808 0.3390947580 2.5885534286 3.4360001087 105.75000000 87.351577759 83.953338623 4.4057998657 56.023601532 4.7589998245 4.6087727547
 2887.5900879 6.0000000000 8.7889995575 -0.008012800 0.3505333066 2.5911526680 3.1989998817 104.15599823 88.030296326 84.546691895 4.2808847427 55.152393341 4.7020001411 4.4668493271
 2887.7426758 6.0000000000 8.7889995575 -0.006003205 0.3574090302 2.5896456242 3.1059999466 101.93800354 88.235931396 84.814605713 4.2089071274 56.027404785 4.7150001526 4.3729138374
 2887.8950195 6.0000000000 8.7889995575 -0.003004808 0.3637598157 2.5907032490 3.1300001144 102.34400177 87.633956909 84.167564392 4.1799902916 58.023807526 4.7280001640 4.3460626602
 2888.0473633 6.0000000000 8.7889995575 -0.002001603 0.3664556742 2.5937023163 3.4379999638 101.37500000 86.597389221 83.157058716 4.1740398407 59.147197723 4.7420001030 4.3851442337
 2888.1997070 6.0000000000 8.8009996414 -0.001003200 0.3620740771 2.6097640991 3.4570000172 96.969001770 85.910484314 82.459487915 4.1991038322 57.397796631 4.8000001907 4.4752192497
 2888.3522949 6.0000000000 8.8520002365 -0.000001603 0.3547317684 2.6358304024 3.7739999294 91.897003174 85.487442017 81.963493347 4.2642941475 56.031002045 4.8759999275 4.6125597954
 2888.5046387 6.0000000000 8.8909997940 0.0000000000 0.3449756205 2.6441812515 3.5079998970 90.160003662 85.146888733 81.632736206 4.3561873436 57.902004242 4.9520001411 4.7872595787
 2888.6569824 6.0000000000 8.8909997940 -0.001996795 0.3364236951 2.6391398907 3.4309999943 92.472999573 85.200157166 81.622901917 4.4731907845 59.150203705 5.0269999504 4.9492497444
 2888.8093262 6.0000000000 8.8909997940 -0.001001603 0.3354515433 2.6421315670 3.3519999981 95.969001770 85.195510864 81.754112244 4.5921540260 59.271408081 5.0689997673 5.1052389145
 2888.9619141 6.0000000000 8.8909997940 -0.001998400 0.3371572495 2.6512243748 3.5139999390 99.219001770 85.271873474 81.810165405 4.6880993843 57.026172638 5.0700001717 5.2542753220
 2889.1142578 6.0000000000 8.8909997940 -0.002000000 0.3364311755 2.6644666195 3.7290000916 100.21900177 85.510383606 82.020561218 4.7189054489 54.902397156 5.0700001717 5.3399343491
 2889.2666016 6.0000000000 8.8909997940 -0.003996795 0.3327658772 2.6808638573 3.4159998894 98.875000000 86.176025391 82.646041870 4.6598186493 57.019012451 5.0149998665 5.2986888885
 2889.4189453 6.0000000000 8.8909997940 -0.009990385 0.3381213844 2.6643443108 3.4059998989 95.250000000 86.999740601 83.547431946 4.5467996597 57.023597717 4.8940000534 5.1045737267
 2889.5712891 6.0000000000 8.8909997940 -0.013987200 0.3439712226 2.6228826046 2.9900000095 96.010002136 87.791801453 84.376121521 4.4218106270 56.151805878 4.7729997635 4.8386220932
 2889.7238770 6.0000000000 8.8909997940 -0.016995193 0.3496309519 2.5987007618 2.9820001125 101.47699738 88.247398376 84.779296875 4.3036575317 57.278202057 4.6970000267 4.6024818420
 2889.8762207 6.0000000000 8.8909997940 -0.011009615 0.3549614549 2.5877294540 2.9579999447 104.72100067 87.872451782 84.426383972 4.1968526840 58.274593353 4.6719999313 4.4408445358
 2890.0285645 6.0000000000 8.8909997940 -0.002014423 0.3508366346 2.5963814259 3.3780000210 101.76899719 86.711097717 83.354545593 4.1048717499 58.018203735 4.6729998589 4.3438987732
 2890.1809082 6.0000000000 8.8909997940 -0.001003200 0.3447495103 2.6199026108 4.2750000954 95.625000000 85.785888672 82.366134644 4.0248847008 56.277595520 4.6820001602 4.2809214592
 2890.3334961 6.0000000000 8.9060001373 -0.007988783 0.3418047130 2.6408548355 4.1599998474 93.875000000 85.498916626 82.040161133 3.9527888298 57.896636963 4.6919999123 4.2317757607
 2890.4858398 6.0000000000 8.9569997787 -0.014988782 0.3464325666 2.6597940922 3.7899999619 96.844001770 85.510383606 81.996780396 3.8868958950 59.026390076 4.7020001411 4.1618685722
 2890.6381836 6.0000000000 8.9919996262 -0.015000000 0.3513121903 2.6597263813 3.2330000401 98.688003540 85.427597046 81.952842712 3.8219342232 57.399398804 4.7049999237 4.0798716545
 2890.7905273 6.0000000000 8.9919996262 -0.010016000 0.3462064266 2.6452562809 3.2780001163 98.875000000 85.444717407 81.953437805 3.7810063362 57.023399353 4.6430001259 3.9998493195
 2890.9431152 6.0000000000 8.9919996262 -0.013993590 0.3327815235 2.6438417435 3.4739999771 100.25199890 85.498916626 81.993927002 3.7851088047 56.028202057 4.5767889023 3.9057855606
 2891.0954590 6.0000000000 8.9919996262 -0.018991986 0.3188423514 2.6523604393 3.6889998913 105.01300049 85.635360718 82.178581238 3.8190753460 57.027805328 4.5109152794 3.8390176296
 2891.2478027 6.0000000000 8.9919996262 -0.018999999 0.3115416765 2.6557343006 3.5120000839 108.15399933 85.540794373 82.145606995 3.8660719395 58.773597717 4.4580144882 3.8501729965
 2891.4001465 6.0000000000 9.0200004578 -0.014008014 0.3132272959 2.6552350521 3.4430000782 106.37500000 84.696258545 81.303062439 3.9110417366 57.898200989 4.4670462608 3.9583044052
