# LAS format log file from PETREL
# Project units are specified as depth units
#==================================================================
~Version information
VERS.   2.0:
WRAP.   NO:
#==================================================================
~Well
STRT .m      698.82189941 :
STOP .m      3687.3850098 :
STEP .m     0.00000000 :
NULL .        -999.250000 :
COMP.           : COMPANY
WELL.  26/4-1   : WELL
FLD.            : FIELD
LOC.            : LOCATION
SRVC.           : SERVICE COMPANY
DATE.  2018-09-11 14:48:25   : Log Export Date {yyyy-MM-dd HH:mm:ss}
PROV.           : PROVINCE
UWI.   26/4-1   : UNIQUE WELL ID
API.            : API NUMBER
#==================================================================
~Curve
DEPT .m                   : DEPTH
Lithology_geolink ._      : Lithology_geolink
CALI .in                  : CALI
DRHO .g/cm3               : DRHO
NPHI .m3/m3               : NPHI
RHOB .g/cm3               : RHOB
PEF .b/e                  : PEF
GR .gAPI                  : GR
DTC .us/ft                : DTC
DTE .us/ft                : DTE
RDEP .ohm.m               : RDEP
SP .mV                    : SP
RSHA .ohm.m               : RSHA
RMED .ohm.m               : RMED
~Parameter
#==================================================================
~Ascii
# ...
 1892.4184570  -999.250000 13.680000305 0.0139759816 0.4181354344 2.2739849091 4.1616916656 51.234001160 127.71705627 129.56671143 0.6320144534 15.423572540 0.6030039787 0.6629879475
 1892.5708008  -999.250000 13.680000305 0.0149951922 0.4024560452 2.2809455395 4.7665152550 52.139999390 126.79137421 128.65196228 0.6500119567 13.643575668 0.6080039740 0.6479855776
 1892.7232666  -999.250000 13.680000305 0.0090288231 0.3702849150 2.2459547520 5.9920182228 53.515998840 125.92036438 127.80630493 0.6649976373 14.363202095 0.6129959822 0.6299911737
 1892.8756104  -999.250000 13.680000305 0.0149711538 0.3625764847 2.1795787811 7.6806468964 53.344001770 127.51815796 129.33728027 0.6619831920 15.861626625 0.6079895496 0.6189647317
 1893.0280762  -999.250000 13.687000275 0.0358991176 0.3967050910 2.1302158833 7.9697690010 49.969001770 132.54183960 134.45341492 0.6409679651 15.395648956 0.5949792266 0.5749039054
 1893.1804199  -999.250000 14.057999611 0.0479423068 0.4346176386 2.0936698914 5.1962242126 48.014999390 138.60249329 140.67657471 0.6210064292 16.424501419 0.5819888115 0.5149895549
 1893.3328857  -999.250000 14.445000648 0.0271008816 0.4396764636 2.0945765972 4.4855675697 49.390998840 142.13256836 144.22476196 0.6290336251 17.048149109 0.5680448413 0.5021072626
 1893.4852295  -999.250000 14.694999695 0.0080913464 0.4195871651 2.1235454082 4.4840011597 51.421001434 141.23539734 143.25732422 0.6499967575 15.894373894 0.5960216522 0.5690825582
 1893.6376953  -999.250000 14.465999603 0.0109855887 0.4067813456 2.1284759045 5.9698095322 52.827999115 137.63569641 139.63725281 0.6459327936 16.367002487 0.6229920387 0.6720256209
 1893.7900391  -999.250000 14.651000023 0.0299086533 0.4208218753 2.1153874397 9.2153987885 54.811000824 134.58694458 136.61619568 0.6039655209 19.486726761 0.6179943681 0.6879374981
 1893.9423828  -999.250000 15.748999596 0.0508823059 0.4291534126 2.0438756943 14.377724648 56.655998230 134.50321960 136.46702576 0.5609759688 20.392797470 0.6109936237 0.6099455953
 1894.0948486  -999.250000 15.701000214 0.0430384614 0.4500294030 1.9284335375 23.026071548 57.500000000 138.11405945 140.16261292 0.5309895873 18.893774033 0.6029951572 0.5419623256
 1894.2471924  -999.250000 14.817999840 0.0221009608 0.4769006670 1.8367761374 18.043003082 55.293998718 143.98500061 146.16471863 0.5180088282 18.611875534 0.5969976187 0.4949535728
 1894.3996582  -999.250000 14.430000305 0.0080672540 0.4860365391 1.7628368139 12.550397873 52.469001770 149.48280334 151.72161865 0.5290079713 18.455974579 0.5939975977 0.4369759560
 1894.5520020  -999.250000 15.093000412 0.0109855765 0.4800292253 1.7935965061 9.7554759979 51.298000336 152.81864929 155.03298950 0.5389935970 18.427326202 0.5909976363 0.4070368409
 1894.7044678  -999.250000 15.305000305 0.0318991207 0.4501242340 1.9029603004 7.0531635284 49.094001770 152.77175903 154.96876526 0.5309960246 21.332324982 0.5879999995 0.4530593157
 1894.8568115  -999.250000 14.430999756 0.0409567319 0.4394707978 1.9704321623 5.5182294846 48.655998230 149.49082947 151.67112732 0.5259863734 22.984098434 0.5879999995 0.5270184278
 1895.0092773  -999.250000 14.022999763 0.0310480371 0.4406938553 2.0065648556 5.5150012970 50.140998840 146.14497375 148.24992371 0.5089407563 20.610597610 0.5879999995 0.5499663949
 1895.1616211  -999.250000 14.354999542 0.0230384618 0.4561851919 2.0245876312 7.1267070770 52.062000275 144.82550049 146.94172668 0.4719927907 19.737073898 0.5879999995 0.5289783478
 1895.3140869  -999.250000 15.053999901 0.0239951964 0.4970630407 2.0290467739 10.939945221 51.875000000 144.59333801 146.73403931 0.4630448222 19.830799103 0.5879871845 0.5019455552
 1895.4664307  -999.250000 15.270000458 0.0299711525 0.5416853428 2.0163717270 12.553709030 51.562000275 145.35086060 147.47624207 0.4910224378 19.707601547 0.5799903870 0.4679943919
 1895.6188965  -999.250000 14.708000183 0.0409471579 0.5653368235 1.9908226728 13.325383186 54.937999725 146.83749390 148.95942688 0.5190368295 21.708351135 0.5679792166 0.4610336125
 1895.7712402  -999.250000 14.796000481 0.0529423058 0.5346189141 1.9604965448 11.721286774 59.296001434 145.82708740 147.99766541 0.5420128107 23.173320770 0.5549904108 0.4820136130
 1895.9235840  -999.250000 15.253999710 0.0609551631 0.5140152574 1.9265706539 12.935051918 60.202999115 142.42054749 144.50061035 0.5579912066 21.079822540 0.5429903865 0.4989928007
 1896.0760498  -999.250000 14.762999535 0.0480624996 0.5279819965 1.8920345306 14.955381393 58.015998840 141.66184998 143.69262695 0.5469791293 19.611497879 0.5309976339 0.4899839759
 1896.2283936  -999.250000 14.254000664 0.0300865378 0.5399724245 1.8570880890 20.420238495 56.812999725 144.20121765 146.34925842 0.5209960341 18.987600327 0.5279976130 0.4699927866
 1896.3808594  -999.250000 14.562000275 0.0299999993 0.5012272596 1.8415013552 19.815492630 57.969001770 146.22990417 148.42727661 0.5160064101 19.738201141 0.5249975920 0.4610008001
 1896.5332031  -999.250000 14.718999863 0.0309951920 0.4691341221 1.8404902220 14.791057587 59.671001434 146.74417114 148.93034363 0.5240007639 21.237298965 0.5219984055 0.4620016217
 1896.6856689  -999.250000 15.244999886 0.0339855887 0.4736176133 1.8460260630 13.902706146 59.344001770 147.11405945 149.30406189 0.5249975920 21.611698151 0.5199983716 0.4640136063
 1896.8380127  -999.250000 16.198999405 0.0320096165 0.4697388411 1.8564759493 14.926178932 55.673999786 147.77340698 149.95344543 0.5219976306 21.236097336 0.5179992318 0.4810256362
 1896.9904785  -999.250000 15.520999908 0.0240384303 0.4808761179 1.8435078859 21.169996262 52.077999115 147.61181641 149.82756042 0.5189823508 20.113550186 0.5169968009 0.5130144358
 1897.1428223  -999.250000 14.399000168 0.0170336552 0.5071732402 1.8130109310 18.128442764 50.640998840 146.47023010 148.66448975 0.5079951882 21.080953598 0.5149983764 0.5219735503
 1897.2952881  -999.250000 14.515000343 0.0110288234 0.5441918969 1.7985260487 13.951345444 50.405998230 145.72274780 147.86740112 0.5020079613 22.267198563 0.5129984021 0.4889375567
 1897.4476318  -999.250000 15.494001389 0.0279182699 0.5222169757 1.7960593700 10.303921700 51.030998230 145.29466248 147.41149902 0.5070120692 21.144424438 0.5120064616 0.4500047863
 1897.6000977  -999.250000 16.242000580 0.0608414747 0.4678319991 1.8333072662 12.710069656 51.905998230 143.69416809 145.78948975 0.5220400691 20.425199509 0.5200288296 0.4560800791
 1897.7524414  -999.250000 15.937998772 0.0739374980 0.4325790405 1.9002611637 16.301122665 53.592998505 141.07090759 143.16369629 0.5470064282 20.549423218 0.5380007625 0.5060464740
 1897.9047852  -999.250000 15.765000343 0.0541120917 0.4233410954 1.8892980814 18.961736679 55.250000000 140.33157349 142.44793701 0.5549855828 19.831024170 0.5389975905 0.5639871955
 1898.0572510  -999.250000 15.267999649 0.0231490377 0.4415518045 1.8198144436 16.397060394 54.984001160 143.22157288 145.27522278 0.5369983912 19.864080429 0.5359984040 0.5479446650
 1898.2095947  -999.250000 14.788000107 0.0289711524 0.4503777921 1.8120762110 14.767610550 55.047000885 145.87214661 147.97207642 0.5350168347 22.458898544 0.5339983702 0.4789887965
 1898.3620605  -999.250000 14.493000031 0.0548750982 0.4691297114 1.8506578207 15.763199806 56.172000885 146.63803101 148.79476929 0.5560079813 23.580121994 0.5319983959 0.4650328457
 1898.5144043  -999.250000 14.225999832 0.0540048108 0.4699863195 1.8822596073 18.386795044 57.405998230 146.67028809 148.77493286 0.5660095811 22.486700058 0.5299983621 0.5060111880
 1898.6668701  -999.250000 14.286000252 0.0331008807 0.4524944723 1.9086685181 16.915182114 58.077999115 142.93653870 144.97583008 0.5779895782 22.111373901 0.5279983878 0.5199967623
 1898.8192139  -999.250000 14.755999565 0.0200624987 0.4269529879 1.9048154354 20.866830826 56.735000610 136.32339478 138.25732422 0.5649647117 21.331548691 0.5260104537 0.5160160065
 1898.9716797  -999.250000 16.049999237 0.0299519617 0.4225705862 1.8782496452 22.888381958 55.625000000 132.71142578 134.65521240 0.5209664106 20.770349503 0.5390063524 0.5360048413
