# LAS format log file from PETREL
# Project units are specified as depth units
#==================================================================
~Version information
VERS.   2.0:
WRAP.   NO:
#==================================================================
~Well
STRT .m      698.82189941 :
STOP .m      3687.3850098 :
STEP .m     0.00000000 :
NULL .        -999.250000 :
COMP.           : COMPANY
WELL.  26/4-1   : WELL
FLD.            : FIELD
LOC.            : LOCATION
SRVC.           : SERVICE COMPANY
DATE.  2018-09-11 14:48:25   : Log Export Date {yyyy-MM-dd HH:mm:ss}
PROV.           : PROVINCE
UWI.   26/4-1   : UNIQUE WELL ID
API.            : API NUMBER
#==================================================================
~Curve
DEPT .m                   : DEPTH
Lithology_geolink ._      : Lithology_geolink
CALI .in                  : CALI
DRHO .g/cm3               : DRHO
NPHI .m3/m3               : NPHI
RHOB .g/cm3               : RHOB
PEF .b/e                  : PEF
GR .gAPI                  : GR
DTC .us/ft                : DTC
DTE .us/ft                : DTE
RDEP .ohm.m               : RDEP
SP .mV                    : SP
RSHA .ohm.m               : RSHA
RMED .ohm.m               : RMED
~Parameter
#==================================================================
~Ascii
# ...
 2489.2165527 11.000000000 12.319999695 -0.004987179 0.0802982077 2.6400015354 6.0837392807 28.796213150 63.378299713 60.549816132 14.796999931 43.081001282 2.6579999924 8.0209999084
 2489.3688965 11.000000000 12.319999695 -0.005995200 0.0921127349 2.6364886761 6.2806844711 30.405418396 63.530395508 60.542453766 12.848999977 42.831001282 2.7400000095 7.5729999542
 2489.5212402 11.000000000 12.319999695 -0.006000000 0.0985690877 2.6290073395 6.2250895500 32.208110809 64.293601990 61.317329407 11.270000458 42.847000122 2.7579998970 7.0780000687
 2489.6738281 11.000000000 12.319999695 -0.006996795 0.1031553596 2.6185016632 5.9609999657 30.968999863 65.010246277 62.131618500 11.434000015 42.862998962 2.7769999504 7.3540000916
 2489.8261719 11.000000000 12.319999695 -0.007000000 0.0934213400 2.6154289246 5.8470001221 27.882999420 65.046440125 62.200187683 11.996000290 44.362998962 2.7950000763 7.6680002213
 2489.9785156 11.000000000 12.321000099 -0.004014400 0.0889514014 2.6179389954 5.7221999168 24.999622345 64.325172424 61.451816559 11.864000320 46.629001617 2.7990000248 7.5060000420
 2490.1308594 11.000000000 12.358999252 -0.003004808 0.0875168294 2.6218595505 5.9136924744 26.349824905 63.919799805 60.975383759 11.406000137 46.112998962 2.7699999809 7.3689999580
 2490.2834473 11.000000000 12.397999763 -0.002003205 0.0907994211 2.6268570423 6.2300000191 31.523000717 64.169761658 61.138462067 11.246000290 44.581001282 2.7400000095 7.3909997940
 2490.4357910 11.000000000 12.397999763 -0.003993590 0.0937704816 2.6250174046 6.5279998779 35.015998840 64.396797180 61.386421204 10.987999916 44.331001282 2.6700000763 7.0159997940
 2490.5881348 11.000000000 12.397999763 -0.003003205 0.0978070498 2.6180365086 6.4171772003 34.441921234 64.895927429 62.051937103 10.137999535 44.082000732 2.5789999962 6.6760001183
 2490.7404785 11.000000000 12.397999763 0.0009808000 0.1087472960 2.6102068424 5.9926810265 31.449800491 66.098403931 63.209594727 9.3629999161 44.597000122 2.5009999275 6.4409999847
 2490.8928223 11.000000000 12.399000168 0.0049807690 0.1152388975 2.6017339230 5.6775050163 30.821001053 67.280258179 64.365798950 8.9340000153 46.112998962 2.4279999733 5.7810001373
 2491.0454102 11.000000000 12.428999901 0.0109807691 0.1225466058 2.6046192646 5.6939997673 32.422000885 67.985862732 65.116775513 8.3339996338 45.862998962 2.3550000191 5.2849998474
 2491.1977539 11.000000000 12.428999901 0.0070128208 0.1087843180 2.6160788536 6.0274653435 34.075347900 68.030899048 65.075675964 7.7659997940 45.377998352 2.2880001068 5.4060001373
 2491.3500977 11.000000000 12.392000198 0.0070000002 0.1100039110 2.6210136414 6.4523191452 34.671047211 67.548179626 64.554748535 7.3819999695 46.144001007 2.2339999676 5.4239997864
 2491.5024414 11.000000000 12.400000572 0.0050096153 0.1180710569 2.6210041046 6.6257228851 35.639446259 66.885047913 63.995372772 6.8200001717 45.909000397 2.1789999008 5.0720000267
 2491.6550293 11.000000000 12.457999229 0.0020096155 0.1232734025 2.6187198162 6.3509998322 35.859001160 66.418319702 63.635047913 6.3709998131 44.674999237 2.1250000000 4.7849998474
 2491.8073730 11.000000000 12.400000572 0.0010032052 0.1176481396 2.6147229671 6.2059998512 33.827999115 66.374023438 63.554470062 6.2769999504 44.691001892 2.1150000095 4.8299999237
 2491.9597168 11.000000000 12.397999763 0.0019952001 0.1106436998 2.6135537624 6.3817181587 31.971973419 66.118217468 63.265106201 6.2870001793 45.721000671 2.1380000114 5.0780000687
 2492.1120605 11.000000000 12.397999763 0.0059807692 0.1157451868 2.6145274639 6.4568796158 31.983974457 66.077003479 63.172554016 6.1890001297 45.722000122 2.1549999714 5.0159997940
 2492.2646484 11.000000000 12.397999763 0.0030096155 0.1228771508 2.6106867790 6.1240000725 33.827999115 67.054756165 64.031730652 5.9710001945 45.956001282 2.1240000725 4.8239998817
 2492.4169922 11.000000000 12.397999763 0.0030000000 0.1241160855 2.6032192707 5.6880002022 34.859001160 68.427787781 65.513961792 5.9390001297 44.972000122 2.0829999447 4.7659997940
 2492.5693359 11.000000000 12.400000572 0.0030000000 0.1294329166 2.6019930840 5.6570496559 35.170501709 69.862815857 67.095603943 6.1329998970 44.969001770 2.0420000553 4.5980000496
 2492.7216797 11.000000000 12.489999771 0.0039952002 0.1369239539 2.6054964066 5.8986124992 36.248271942 70.971755981 68.103157043 6.3159999847 47.206001282 2.0020000935 4.3590002060
 2492.8740234 11.000000000 12.492000580 0.0000192308 0.1335265785 2.6109819412 5.9039916992 36.640373230 71.188896179 68.320510864 6.3889999390 47.722000122 1.9730000496 4.2969999313
 2493.0266113 11.000000000 12.494000435 0.0049839742 0.1385338455 2.6179811954 5.9180002213 36.530998230 71.074996948 68.258476257 6.4380002022 47.002998352 1.9479999542 4.4099998474
 2493.1789551 11.000000000 12.550999641 0.0089871790 0.1383406669 2.6192886829 6.1336541176 35.143222809 71.015357971 68.062629700 6.5430002213 45.752998352 1.9359999895 4.3340001106
 2493.3312988 11.000000000 12.454001427 0.0099951997 0.1446794271 2.6162919998 6.2578010559 33.174160004 71.020736694 68.022804260 6.7170000076 44.221000671 1.9240000248 4.0669999123
 2493.4836426 11.000000000 12.400000572 0.0020384616 0.1370967776 2.6053285599 5.9644713402 32.781623840 71.324203491 68.372932434 6.8750000000 45.456001282 1.9029999971 4.0500001907
 2493.6362305 11.000000000 12.397999763 0.0020000001 0.1440176368 2.5883014202 5.3959999084 33.515998840 71.926948547 69.016441345 6.8379998207 47.441001892 1.8480000496 4.2680001259
 2493.7885742 13.000000000 12.399000168 0.0289134607 0.1713123024 2.5949647427 5.0580000877 36.265998840 73.205215454 70.338272095 6.4920001030 45.441001892 1.7920000553 4.3070001602
 2493.9409180 13.000000000 12.414999962 0.0528847985 0.1992456913 2.6194417477 5.0510110855 40.770782471 75.366836548 72.514060974 5.8990001678 42.660999298 1.7369999886 3.8399999142
 2494.0932617 13.000000000 12.491000175 0.0400624983 0.2128051519 2.6225886345 5.1957678795 45.944705963 78.554267883 75.535545349 5.3010001183 43.394001007 1.6820000410 3.2000000477
 2494.2458496 13.000000000 12.506999969 0.0130865388 0.2250508517 2.6095519066 5.2690000534 50.140998840 81.876548767 78.851196289 4.9819998741 44.424999237 1.6740000248 2.8489999771
 2494.3981934 13.000000000 12.492000580 0.0130000003 0.2364335209 2.6053965092 5.3109998703 51.500000000 83.044227600 80.126068115 4.9019999504 46.644001007 1.6870000362 2.7639999390
 2494.5505371 13.000000000 12.494000435 0.0249615386 0.2524585724 2.6079111099 5.6055278778 49.569095612 80.756912231 77.876731873 4.8150000572 47.631000519 1.7079999447 2.8280000687
 2494.7028809 13.000000000 12.574000359 0.0240048002 0.2271921188 2.6115503311 5.9424595833 46.286262512 76.400047302 73.585411072 4.6560001373 44.644001007 1.7369999886 3.1150000095
 2494.8554688 11.000000000 12.447999001 0.0289839730 0.2037250549 2.6160488129 6.0380001068 43.140998840 72.175811768 69.393218994 4.5349998474 44.377998352 1.7660000324 3.4479999542
 2495.0078125 11.000000000 12.430998802 0.0270064101 0.1826674789 2.6191160679 5.9400000572 40.952999115 69.859512329 66.987457275 4.5120000839 47.862998962 1.7990000248 3.5480000973
 2495.1601563 11.000000000 12.491000175 0.0349743590 0.2014294565 2.6211111546 5.8751039505 39.658073425 69.846382141 66.869705200 4.6020002365 47.862998962 1.8500000238 3.4649999142
 2495.3125000 11.000000000 12.493000031 0.0111151999 0.2131139338 2.6225302219 5.7991213799 36.524028778 70.180976868 67.205688477 5.0009999275 45.127998352 1.9019999504 3.5550000668
 2495.4648438 11.000000000 12.506999969 0.0060240384 0.1936940849 2.6235127449 5.7261166573 32.810951233 69.373298645 66.437026978 5.7290000916 45.144001007 1.9550000429 3.9930000305
 2495.6174316 11.000000000 12.493000031 -0.000977564 0.1846089065 2.6250827312 5.6250000000 30.391000748 67.940002441 65.051391602 6.4380002022 45.191001892 1.9680000544 4.6040000916
 2495.7697754 11.000000000 12.492000580 0.0019903847 0.1772535592 2.6270921230 5.4752397537 31.100862503 67.327285767 64.412612915 6.9219999313 43.956001282 1.9680000544 4.9879999161
