# LAS format log file from PETREL
# Project units are specified as depth units
#==================================================================
~Version information
VERS.   2.0:
WRAP.   NO:
#==================================================================
~Well
STRT .m      698.82189941 :
STOP .m      3687.3850098 :
STEP .m     0.00000000 :
NULL .        -999.250000 :
COMP.           : COMPANY
WELL.  26/4-1   : WELL
FLD.            : FIELD
LOC.            : LOCATION
SRVC.           : SERVICE COMPANY
DATE.  2018-09-11 14:48:25   : Log Export Date {yyyy-MM-dd HH:mm:ss}
PROV.           : PROVINCE
UWI.   26/4-1   : UNIQUE WELL ID
API.            : API NUMBER
#==================================================================
~Curve
DEPT .m                   : DEPTH
Lithology_geolink ._      : Lithology_geolink
CALI .in                  : CALI
DRHO .g/cm3               : DRHO
NPHI .m3/m3               : NPHI
RHOB .g/cm3               : RHOB
PEF .b/e                  : PEF
GR .gAPI                  : GR
DTC .us/ft                : DTC
DTE .us/ft                : DTE
RDEP .ohm.m               : RDEP
SP .mV                    : SP
RSHA .ohm.m               : RSHA
RMED .ohm.m               : RMED
~Parameter
#==================================================================
~Ascii
# ...
 1691.2504883  -999.250000 12.371999741 -0.011016827 0.3290909827 2.0785684586 3.5630977154 48.845516205 116.74900055 112.74533844 0.6480007768 54.861808777 0.4869943857 0.5749999881
 1691.4028320  -999.250000 12.397999763 -0.008019215 0.3412517905 2.0795664787 3.4302129745 47.221603394 116.62373352 112.64927673 0.6489992142 53.379211426 0.4799951911 0.5789999962
 1691.5552979  -999.250000 12.397999763 -0.008000000 0.3486884832 2.0765714645 3.7787203789 46.422637939 116.44779205 112.53448486 0.6479983926 54.894214630 0.4740016162 0.5789999962
 1691.7076416  -999.250000 12.397999763 -0.011974379 0.3502899408 2.0705785751 3.6312370300 46.172401428 116.32859039 112.41754150 0.6459984183 55.158809662 0.4760016203 0.5789999962
 1691.8601074  -999.250000 12.369999886 -0.015977565 0.3387451768 2.0651473999 3.7968668938 46.141025543 116.14658356 112.20780945 0.6439976096 53.674411774 0.4780023992 0.5789999962
 1692.0124512  -999.250000 12.331998825 -0.017987190 0.3276113570 2.0601460934 3.4552738667 48.514095306 116.10981750 112.16037750 0.6409983635 52.941989899 0.4809992015 0.5780000091
 1692.1649170  -999.250000 12.357000351 -0.017999999 0.3356244266 2.0577189922 3.9296197891 50.107727051 116.35320282 112.39842224 0.6389967799 54.177173615 0.4799887836 0.5759999752
 1692.3172607  -999.250000 12.395000458 -0.018994391 0.3489451110 2.0572242737 3.9569783211 50.405761719 116.64925385 112.66610718 0.6369992495 54.908023834 0.4729943871 0.5749999881
 1692.4697266  -999.250000 12.397999763 -0.020988790 0.3563784957 2.0587239265 4.8902521133 49.829460144 116.93585205 112.97699738 0.6359967589 53.689575195 0.4659887850 0.5759999752
 1692.6220703  -999.250000 12.397999763 -0.021994391 0.3475997448 2.0617160797 4.5163002014 49.719089508 117.23320007 113.32178497 0.6339976192 53.425373077 0.4590016007 0.5780000091
 1692.7745361  -999.250000 12.390000343 -0.024983186 0.3343046606 2.0621416569 4.7108440399 51.513561249 117.41991425 113.48966980 0.6309936047 53.892627716 0.4610144198 0.5780000091
 1692.9268799  -999.250000 12.390999794 -0.025994392 0.3326787353 2.0606436729 4.4731907845 50.406887054 117.54029083 113.57072449 0.6269967556 53.658386230 0.4700047970 0.5770000219
 1693.0792236  -999.250000 12.397999763 -0.025006406 0.3521345556 2.0611433983 4.7645320892 48.113677979 117.72085571 113.75133514 0.6229976416 52.893787384 0.4759952128 0.5740000010
 1693.2316895  -999.250000 12.397999763 -0.020028044 0.3683691323 2.0631432533 4.5551681519 47.625389099 118.01032257 114.03621674 0.6199976206 52.627609253 0.4699935913 0.5720000267
 1693.3840332  -999.250000 12.397999763 -0.016025621 0.3681023121 2.0631451607 4.6558384895 48.544525146 118.43052673 114.41267395 0.6169959903 52.143814087 0.4619960189 0.5699999928
 1693.5364990  -999.250000 12.397999763 -0.018983172 0.3517422676 2.0616478920 4.5081186295 49.593162537 118.78236389 114.82328796 0.6119943857 51.908786774 0.4570007920 0.5699999928
 1693.6888428  -999.250000 12.397999763 -0.024961570 0.3461057246 2.0578670502 4.8784060478 47.847801208 119.02076721 115.12844849 0.6049911976 51.644351959 0.4580008090 0.5680000186
 1693.8413086  -999.250000 12.397999763 -0.025994392 0.3562625051 2.0523674488 5.2616930008 46.220306396 119.25936127 115.35396576 0.5939927697 52.082378387 0.4590007961 0.5659999847
 1693.9936523  -999.250000 12.397999763 -0.022025621 0.3621623516 2.0514347553 4.6095232964 46.390861511 119.51004791 115.60924530 0.5849959850 53.800197601 0.4600000083 0.5630000234
 1694.1461182  -999.250000 12.423000336 -0.018022435 0.3573573530 2.0539276600 4.0664348602 47.436161041 119.74752045 115.86306763 0.5799951553 54.046199799 0.4600000083 0.5600000024
 1694.2984619  -999.250000 12.420998573 -0.016011219 0.3577575982 2.0535681248 3.4964568615 48.483161926 119.92433929 116.03993225 0.5769992471 52.300601959 0.4600000083 0.5569999814
 1694.4509277  -999.250000 12.397999763 -0.014011210 0.3710451424 2.0510678291 3.5039935112 47.782562256 120.09309387 116.14411926 0.5759999752 53.053825378 0.4600000083 0.5540000200
 1694.6032715  -999.250000 12.397999763 -0.013005610 0.3721044362 2.0488555431 3.3611147404 48.577362061 120.08329773 116.13964844 0.5759983659 54.815612793 0.4600000083 0.5550000072
 1694.7557373  -999.250000 12.397999763 -0.011011209 0.3646520078 2.0468564034 3.6207919121 51.496662140 119.91709900 115.97384644 0.5739983916 54.330398560 0.4599983990 0.5590000153
 1694.9080811  -999.250000 12.397999763 -0.008016828 0.3554914296 2.0448591709 3.7498965263 52.779972076 119.73657227 115.79492188 0.5730000138 53.330398560 0.4589943886 0.5609999895
 1695.0604248  -999.250000 12.397999763 -0.008000000 0.3443117440 2.0428624153 4.1243996620 51.907001495 119.62216949 115.71364594 0.5730000138 52.580600739 0.4519943893 0.5559999943
 1695.2128906  -999.250000 12.397999763 -0.012971955 0.3325360417 2.0400080681 3.7582938671 48.312999725 119.54839325 115.64597321 0.5730007887 52.081001282 0.4449935853 0.5469999909
 1695.3652344  -999.250000 12.397999763 -0.016974380 0.3224148154 2.0365130901 3.5473377705 45.202999115 119.55445862 115.55889130 0.5740007758 52.082214355 0.4370024204 0.5410000086
 1695.5177002  -999.250000 12.397999763 -0.015011217 0.3363709152 2.0375781059 3.6838903427 45.344001770 119.54839325 115.52924347 0.5750015974 53.597213745 0.4400039911 0.5370000005
 1695.6700439  -999.250000 12.397999763 -0.011025621 0.3557356596 2.0420696735 4.1831994057 45.734001160 119.56669617 115.59539795 0.5770000219 53.861995697 0.4450047910 0.5320000052
 1695.8225098  -999.250000 12.373999596 -0.012988782 0.3499930501 2.0428543091 5.2221674919 45.780998230 119.67256165 115.73251343 0.5769968033 52.611812592 0.4509935975 0.5270000100
 1695.9748535  -999.250000 12.335000992 -0.020948758 0.3362682760 2.0408511162 5.4767966270 45.922000885 119.79408264 115.89779663 0.5729960203 52.378410339 0.4429959953 0.5210000277
 1696.1273193  -999.250000 12.319999695 -0.029949518 0.3298159242 2.0391366482 5.0163688660 48.358001709 119.92326355 116.00539398 0.5679944158 52.895416260 0.4380064011 0.5149999857
 1696.2796631  -999.250000 12.319999695 -0.029999999 0.3331880271 2.0376410484 4.3635230064 50.172000885 119.96880341 116.02431488 0.5609951615 54.659812927 0.4459952116 0.5090000033
 1696.4321289  -999.250000 12.319999695 -0.027016828 0.3353479207 2.0372865200 3.9303467274 49.203998566 120.09416962 116.07733917 0.5549967885 55.672622681 0.4399887919 0.5009999871
 1696.5844727  -999.250000 12.319999695 -0.021033654 0.3254061341 2.0377874374 4.0389127731 48.219001770 120.28193665 116.30186462 0.5529991984 54.189987183 0.4330047965 0.4930000007
 1696.7369385  -999.250000 12.319999695 -0.017022420 0.3237490356 2.0400066376 4.0549869537 49.608001709 120.45085144 116.55458069 0.5519967675 52.924171448 0.4390144348 0.4900000095
 1696.8892822  -999.250000 12.319999695 -0.014016828 0.3270413876 2.0435101986 4.0310192108 50.312999725 120.56619263 116.65418243 0.5499992371 52.407787323 0.4480048120 0.4920000136
 1697.0417480  -999.250000 12.319999695 -0.011016813 0.3290189803 2.0444326401 3.7012641430 47.970001221 120.63848114 116.70656586 0.5490000248 50.897377014 0.4539839923 0.4950000048
 1697.1940918  -999.250000 12.319999695 -0.012988782 0.3302133083 2.0434198380 3.4961643219 47.625000000 120.69617462 116.72956848 0.5490016341 52.379611969 0.4439952075 0.4959999919
 1697.3464355  -999.250000 12.319999695 -0.014987189 0.3329524100 2.0412774086 3.2993154526 47.687999725 120.63247681 116.67501831 0.5510016084 54.393013000 0.4380039871 0.4970000088
 1697.4989014  -999.250000 12.319999695 -0.014005610 0.3330694139 2.0382847786 3.1890881062 48.484001160 120.61592865 116.64761353 0.5530031919 53.158210754 0.4430024028 0.4990000129
 1697.6512451  -999.250000 12.319999695 -0.012012810 0.3286187053 2.0375733376 3.1800143719 48.890998840 120.62287903 116.63560486 0.5570032001 52.174987793 0.4459952116 0.5009999871
 1697.8037109  -999.250000 12.340999603 -0.012000000 0.3222955167 2.0385720730 3.4178092480 49.048000336 120.51311493 116.56769562 0.5610023737 52.161766052 0.4399983883 0.5030000210
