# LAS format log file from PETREL
# Project units are specified as depth units
#==================================================================
~Version information
VERS.   2.0:
WRAP.   NO:
#==================================================================
~Well
STRT .m      698.82189941 :
STOP .m      3687.3850098 :
STEP .m     0.00000000 :
NULL .        -999.250000 :
COMP.           : COMPANY
WELL.  26/4-1   : WELL
FLD.            : FIELD
LOC.            : LOCATION
SRVC.           : SERVICE COMPANY
DATE.  2018-09-11 14:48:25   : Log Export Date {yyyy-MM-dd HH:mm:ss}
PROV.           : PROVINCE
UWI.   26/4-1   : UNIQUE WELL ID
API.            : API NUMBER
#==================================================================
~Curve
DEPT .m                   : DEPTH
Lithology_geolink ._      : Lithology_geolink
CALI .in                  : CALI
DRHO .g/cm3               : DRHO
NPHI .m3/m3               : NPHI
RHOB .g/cm3               : RHOB
PEF .b/e                  : PEF
GR .gAPI                  : GR
DTC .us/ft                : DTC
DTE .us/ft                : DTE
RDEP .ohm.m               : RDEP
SP .mV                    : SP
RSHA .ohm.m               : RSHA
RMED .ohm.m               : RMED
~Parameter
#==================================================================
~Ascii
# ...
 3287.1826172 6.0000000000 11.555000305 -0.014990385 0.3948306739 2.5596921444 4.9281635284 113.50580597 92.905586243 89.433296204 2.7550001144 67.902000427 1.1940000057 3.3489999771
 3287.3349609 6.0000000000 11.555000305 -0.013003205 0.3852652907 2.5661919117 4.1762070656 111.65895081 92.670295715 89.255920410 2.8180000782 66.028999329 1.1859999895 3.1619999409
 3287.4873047 6.0000000000 11.555000305 -0.012003200 0.3920681179 2.5752272606 3.8141584396 115.95520020 92.972709656 89.457656860 2.8399999142 66.400001526 1.1679999828 3.1180000305
 3287.6398926 6.0000000000 11.555000305 -0.012000000 0.4033020139 2.5862274170 3.6003413200 120.77328491 93.520401001 89.965515137 2.8829998970 67.150001526 1.1490000486 3.0899999142
 3287.7922363 6.0000000000 11.555000305 -0.010003204 0.3921079934 2.5966672897 3.7936890125 118.77622223 93.831626892 90.353530884 2.9839999676 65.650001526 1.1440000534 3.0420000553
 3287.9445801 6.0000000000 11.687998772 -0.010000000 0.3767246604 2.6066935062 3.8678815365 114.93915558 93.742958069 90.277206421 2.9939999580 65.900001526 1.1519999504 3.0320000648
 3288.0969238 6.0000000000 11.942000389 -0.005016000 0.3649975657 2.6149961948 3.7723071575 111.87880707 93.588081360 90.078857422 2.9289999008 65.775001526 1.1569999456 3.0940001011
 3288.2495117 6.0000000000 12.066000938 -0.004001603 0.3593889475 2.6219866276 3.8548669815 108.25579834 93.538917542 90.111267090 2.8770000935 65.775001526 1.1390000582 3.0759999752
 3288.4018555 6.0000000000 11.965000153 -0.004000000 0.3637529612 2.6247134209 3.7791218758 104.59986115 93.169479370 89.884918213 2.8540000916 67.274002075 1.1180000305 3.0020000935
 3288.5541992 6.0000000000 11.706999779 -0.004000000 0.3844867349 2.6241972446 3.8728492260 104.12575531 92.271522522 88.849739075 2.8020000458 67.027000427 1.1039999723 2.9300000668
 3288.7065430 6.0000000000 11.555000305 -0.006995193 0.3993861377 2.6200206280 4.0197644234 108.39913940 90.746673584 87.347267151 2.6879999638 66.026000977 1.1310000420 2.7960000038
 3288.8588867 6.0000000000 11.555000305 -0.009990400 0.3908973336 2.6130340099 4.6968269348 108.09500122 88.998298645 85.548896790 2.6129999161 65.650001526 1.1560000181 2.6359999180
 3289.0114746 6.0000000000 11.555000305 -0.012995193 0.3723397255 2.6241633892 4.0859842300 102.44706726 86.889251709 83.404594421 2.5980000496 65.525001526 1.1440000534 2.5999999046
 3289.1638184 6.0000000000 11.527001381 -0.016993592 0.3710919917 2.6491293907 3.4160737991 96.466583252 85.946624756 82.414749146 2.5320000648 64.650001526 1.1599999666 2.6789999008
 3289.3161621 6.0000000000 11.680000305 -0.021991987 0.3771602511 2.6523103714 2.9617276192 93.443840027 86.551353455 83.079544067 2.4760000706 64.400001526 1.1870000362 2.5269999504
 3289.4685059 6.0000000000 11.706999779 -0.024990400 0.3762429953 2.6387667656 3.1553759575 95.716690063 87.572441101 84.248268127 2.5239999294 65.652000427 1.2130000591 2.2609999180
 3289.6210938 6.0000000000 11.555000305 -0.023003206 0.3737839162 2.6275327206 3.3966138363 101.86514282 89.070892334 85.616020203 2.5590000153 67.525001526 1.2350000143 2.4270000458
 3289.7734375 6.0000000000 11.555000305 -0.017009616 0.3905131519 2.6180982590 3.5657291412 108.70803070 90.072868347 86.606918335 2.5529999733 68.152000427 1.2109999657 3.1930000782
 3289.9257813 6.0000000000 11.555000305 -0.013006411 0.4115861952 2.6131489277 3.5719904900 113.64808655 90.507049561 87.057327271 2.6259999275 67.152000427 1.1849999428 3.5650000572
 3290.0781250 6.0000000000 11.555000305 -0.011006400 0.4160059392 2.6116428375 3.5002303123 116.24169922 90.862152100 87.403541565 2.6340000629 65.777999878 1.2089999914 3.2699999809
 3290.2307129 6.0000000000 11.586000443 -0.013995193 0.4067548811 2.6090064049 3.4790337086 116.68730164 90.900665283 87.377571106 2.6010000706 66.650001526 1.2369999886 2.9879999161
 3290.3830566 6.0000000000 11.491999626 -0.014998397 0.3896773756 2.6055121422 3.5129454136 117.03044891 90.580299377 87.071800232 2.7530000210 68.275001526 1.2640000582 2.9149999619
 3290.5354004 6.0000000000 11.359000206 -0.011006410 0.3837794065 2.6062674522 3.6238222122 116.81234741 90.302162170 86.809204102 2.9500000477 67.400001526 1.3090000153 3.0350000858
 3290.6877441 6.0000000000 11.352000237 -0.008004808 0.3703615069 2.6102643013 3.5501184464 116.18699646 90.132003784 86.652923584 3.0789999962 66.275001526 1.3630000353 3.1040000916
 3290.8400879 6.0000000000 11.352000237 -0.008000000 0.3574414253 2.6145474911 3.3845312595 116.00159454 89.941528320 86.574920654 3.2149999142 66.652000427 1.3810000420 3.1770000458
 3290.9926758 6.0000000000 11.352000237 -0.010995192 0.3484044373 2.6190578938 3.5766906738 115.81330109 90.073188782 86.544204712 3.3080000877 66.775001526 1.3739999533 3.3129999638
 3291.1450195 6.0000000000 11.352000237 -0.013995193 0.3464331329 2.6218540668 3.6938126087 114.53305054 90.181213379 86.617774963 3.3080000877 66.025001526 1.3660000563 3.4660000801
 3291.2973633 6.0000000000 11.390999794 -0.014000000 0.3418074250 2.6233482361 3.8647260666 111.13045502 90.312431335 86.748962402 3.2709999084 66.772003174 1.3589999676 3.5060000420
 3291.4497070 6.0000000000 11.440999985 -0.011009600 0.3264691830 2.6254148483 3.9527184963 110.34650421 90.421218872 86.965354919 3.2630000114 67.150001526 1.3509999514 3.4560000896
 3291.6022949 6.0000000000 11.453000069 -0.007006411 0.3227558732 2.6279251575 3.9669775963 113.18344879 90.678344727 87.244819641 3.2349998951 67.900001526 1.3539999723 3.3900001049
 3291.7546387 6.0000000000 11.402000427 -0.005003205 0.3507849872 2.6301360130 4.0828142166 115.15583801 91.102386475 87.607650757 3.2130000591 67.650001526 1.3639999628 3.2560000420
 3291.9069824 6.0000000000 11.352000237 -0.006996795 0.3862131834 2.6321215630 3.8893108368 115.18495941 91.764808655 88.346946716 3.2209999561 65.900001526 1.3750000000 3.1040000916
 3292.0593262 6.0000000000 11.352000237 -0.011984000 0.4066944122 2.6259238720 4.0275549889 114.84609222 92.471153259 88.998641968 3.1830000877 67.275001526 1.3849999905 3.0000000000
 3292.2119141 6.0000000000 11.352000237 -0.015993591 0.3952185512 2.6134238243 4.0539584160 114.40370941 92.329147339 88.860038757 3.1140000820 66.642997742 1.3949999809 2.9670000076
 3292.3642578 6.0000000000 11.362999916 -0.014003205 0.3808829486 2.5998024940 3.9651424885 111.68636322 91.903976440 88.400878906 3.0810000896 66.025001526 1.4060000181 2.9930000305
 3292.5166016 6.0000000000 11.437999725 -0.007011218 0.3718444705 2.5853104591 3.7423574924 107.85015106 91.741386414 88.259117126 3.0829999447 66.777999878 1.4160000086 3.0360000134
 3292.6689453 6.0000000000 11.569999695 -0.002008013 0.3645117581 2.5753402710 3.4884068966 106.90750122 91.822357178 88.361221313 3.0690000057 65.402000427 1.4299999475 3.0239999294
 3292.8212891 6.0000000000 11.734000206 -0.000006400 0.3671813905 2.5688414574 3.5049457550 107.37349701 91.534172058 88.100433350 3.1329998970 66.650001526 1.5019999743 2.9489998817
 3292.9738770 6.0000000000 11.843999863 -0.000998397 0.3742586374 2.5685913563 3.4391057491 105.31630707 89.811920166 86.488998413 3.2939999104 69.150001526 1.5920000076 2.9660000801
 3293.1262207 6.0000000000 11.972999573 -0.000001603 0.3784133494 2.5731256008 3.5578093529 98.211395264 86.698570251 83.235763550 3.3959999084 68.900001526 1.6200000048 3.5920000076
 3293.2785645 6.0000000000 11.953000069 0.0009983975 0.3676772416 2.5926048756 4.1949777603 91.632545471 83.475738525 80.008834839 3.4430000782 67.525001526 1.6139999628 4.2420001030
 3293.4309082 6.0000000000 11.529999733 -0.001990400 0.3540237546 2.6235575676 4.8897728920 91.909080505 81.527374268 78.023208618 3.3800001144 67.150001526 1.6000000238 4.0780000687
 3293.5834961 6.0000000000 11.253999710 -0.004995192 0.3398626745 2.6673109531 4.9369277954 99.207290649 80.128265381 76.565582275 3.2709999084 67.025001526 1.5449999571 3.6340000629
 3293.7358398 6.0000000000 11.421998978 -0.008993589 0.3279191554 2.7207405567 4.1302952766 108.07978058 80.019836426 76.446693420 3.3910000324 65.528999329 1.4919999838 3.2990000248
