# LAS format log file from PETREL
# Project units are specified as depth units
#==================================================================
~Version information
VERS.   2.0:
WRAP.   NO:
#==================================================================
~Well
STRT .m      698.82189941 :
STOP .m      3687.3850098 :
STEP .m     0.00000000 :
NULL .        -999.250000 :
COMP.           : COMPANY
WELL.  26/4-1   : WELL
FLD.            : FIELD
LOC.            : LOCATION
SRVC.           : SERVICE COMPANY
DATE.  2018-09-11 14:48:25   : Log Export Date {yyyy-MM-dd HH:mm:ss}
PROV.           : PROVINCE
UWI.   26/4-1   : UNIQUE WELL ID
API.            : API NUMBER
#==================================================================
~Curve
DEPT .m                   : DEPTH
Lithology_geolink ._      : Lithology_geolink
CALI .in                  : CALI
DRHO .g/cm3               : DRHO
NPHI .m3/m3               : NPHI
RHOB .g/cm3               : RHOB
PEF .b/e                  : PEF
GR .gAPI                  : GR
DTC .us/ft                : DTC
DTE .us/ft                : DTE
RDEP .ohm.m               : RDEP
SP .mV                    : SP
RSHA .ohm.m               : RSHA
RMED .ohm.m               : RMED
~Parameter
#==================================================================
~Ascii
# ...
 1496.7880859  -999.250000 18.152999878  -999.250000  -999.250000 2.3069999218  -999.250000 55.032951355 143.70019531 139.72984314 1.0030056238 5.8520016670 0.7969959974 1.0210000277
 1496.9405518  -999.250000 18.152999878  -999.250000  -999.250000 2.3069999218  -999.250000 56.981437683 143.70019531 139.75505066 1.0100040436 7.1008038521 0.7919951677 1.0219999552
 1497.0928955  -999.250000 18.152999878  -999.250000  -999.250000 2.3069999218  -999.250000 58.949844360 143.76075745 139.78028870 1.0150079727 7.8491988182 0.7859951854 0.9940000176
 1497.2453613  -999.250000 18.149000168  -999.250000  -999.250000 2.3069999218  -999.250000 61.963584900 143.75704956 139.80554199 1.0250120163 7.3518013954 0.7799959779 0.9549999833
 1497.3977051  -999.250000 18.125000000  -999.250000  -999.250000 2.3069999218  -999.250000 62.687419891 143.76271057 139.83079529 1.0400023460 8.1008014679 0.7749959826 0.9449999928
 1497.5501709  -999.250000 18.082000732  -999.250000  -999.250000 2.3069999218  -999.250000 58.894039154 143.81970215 139.85610962 1.0429903269 8.6012010574 0.7700111866 0.9789999723
 1497.7025146  -999.250000 18.021999359  -999.250000  -999.250000 2.3069999218  -999.250000 53.391410828 143.81930542 139.88133240 1.0369983912 9.1004009247 0.7770072222 1.0130000114
 1497.8549805  -999.250000 18.055000305  -999.250000  -999.250000 2.3069999218  -999.250000 48.160186768 143.81761169 139.90660095 1.0349935293 9.3476009369 0.7860128284 1.0140000582
 1498.0073242  -999.250000 18.108999252  -999.250000  -999.250000 2.3069999218  -999.250000 50.558074951 143.88211060 139.93183899 1.0309920311 8.3505973816 0.7940016389 1.0049999952
 1498.1597900  -999.250000 18.159999847  -999.250000  -999.250000 2.3069999218  -999.250000 55.823780060 143.93870544 139.95710754 1.0209760666 8.1030006409 0.7959951758 1.0000000000
 1498.3121338  -999.250000 18.153999329  -999.250000  -999.250000 2.3069999218  -999.250000 59.339183807 144.00135803 139.98217773 1.0059880018 9.3498029709 0.7929975986 0.9800000191
 1498.4644775  -999.250000 18.142999649  -999.250000  -999.250000 2.3069999218  -999.250000 60.170673370 143.99539185 140.00665283 0.9909920096 9.8491992950 0.7899984121 0.9419999719
 1498.6169434  -999.250000 18.187999725  -999.250000  -999.250000 2.3069999218  -999.250000 57.659015656 143.93870544 140.03034973 0.9809992313 9.3487987518 0.7879976034 0.9179999828
 1498.7692871  -999.250000 18.247999191  -999.250000  -999.250000 2.3069999218  -999.250000 57.827724457 144.00135803 140.05363464 0.9800016284 8.5987987518 0.7849984169 0.9100000262
 1498.9217529  -999.250000 18.351999283  -999.250000  -999.250000 2.3069999218  -999.250000 59.638545990 144.05799866 140.07695007 0.9819959998 7.8512010574 0.7830016017 0.8970000148
 1499.0740967  -999.250000 18.412000656  -999.250000  -999.250000 2.3069999218  -999.250000 61.590873718 144.05595398 140.10023499 0.9770023823 8.3516025543 0.7850024104 0.9039999843
 1499.2265625  -999.250000 18.367000580  -999.250000  -999.250000 2.3069999218  -999.250000 60.347000122 144.05813599 140.11843872 0.9800144434 9.3512010574 0.7880023718 0.9359999895
 1499.3789063  -999.250000 18.319000244  -999.250000  -999.250000 2.3069999218  -999.250000 56.269268036 143.86973572 139.85005188 0.9980128407 9.8504009247 0.7910032272 0.9689999819
 1499.5313721  -999.250000 18.339000702  -999.250000  -999.250000 2.3069999218  -999.250000 56.000213623 143.01145935 138.97183228 1.0140056610 10.100601196 0.7950007915 0.9819999933
 1499.6837158  -999.250000 18.375000000  -999.250000  -999.250000 2.3069999218  -999.250000 57.046161652 141.94937134 138.00527954 1.0210047960 10.350000381 0.7959992290 0.9750000238
 1499.8361816  -999.250000 18.405000687  -999.250000  -999.250000 2.3069999218  -999.250000 57.921298981 141.42553711 137.48634338 1.0270031691 10.350000381 0.7949984074 0.9689999819
 1499.9885254  -999.250000 18.381000519  -999.250000  -999.250000 2.3069999218  -999.250000 58.093864441 141.18994141 137.25596619 1.0290008783 10.347996712 0.7939992547 0.9670000076
 1500.1409912  -999.250000 18.353000641  -999.250000  -999.250000 2.3069999218  -999.250000 58.499675751 141.32737732 137.43569946 1.0299999714 9.0963973999 0.7929983735 0.9530000091
 1500.2933350  -999.250000 18.379999161  -999.250000  -999.250000 2.3069999218  -999.250000 59.686050415 142.30523682 138.38624573 1.0299919844 7.6028041840 0.7919992208 0.9039999843
 1500.4458008  -999.250000 18.431999207  -999.250000  -999.250000 2.3069999218  -999.250000 61.154823303 143.73689270 139.71807861 1.0199872255 9.3536033630 0.7909983993 0.8659999967
 1500.5981445  -999.250000 18.420000076  -999.250000  -999.250000 2.3069999218  -999.250000 61.453758240 144.41386414 140.43234253 1.0119951963 10.847195625 0.7899992466 0.8830000162
 1500.7504883  -999.250000 18.426000595  -999.250000  -999.250000 2.3069999218  -999.250000 59.284477234 144.22830200 140.33433533 1.0059847832 9.0975961685 0.7889943719 0.9219999909
 1500.9029541  -999.250000 18.479999542  -999.250000  -999.250000 2.3069999218  -999.250000 57.954063416 143.68139648 139.73799133 0.9869887829 7.5993995667 0.7819944024 0.9390000105
 1501.0552979  -999.250000 18.534000397  -999.250000  -999.250000 2.3069999218  -999.250000 58.140697479 142.71403503 138.77793884 0.9729983807 7.3487977982 0.7749951482 0.9060000181
 1501.2077637  -999.250000 18.507999420  -999.250000  -999.250000 2.3069999218  -999.250000 59.498912811 141.77380371 137.85372925 0.9709967971 6.5999999046 0.7690007687 0.8870000243
 1501.3601074  -999.250000 18.436000824  -999.250000  -999.250000 2.3069999218  -999.250000 60.420524597 141.37179565 137.46226501 0.9669927955 6.6012020111 0.7700023651 0.9259999990
 1501.5125732  -999.250000 18.402999878  -999.250000  -999.250000 2.3069999218  -999.250000 62.545299530 141.62858582 137.66833496 0.9579976201 7.3518013954 0.7730032206 0.9319999814
 1501.6649170  -999.250000 18.395999908  -999.250000  -999.250000 2.3069999218  -999.250000 65.528610229 141.72348022 137.73789978 0.9550055861 8.1012020111 0.7770023942 0.8740000129
 1501.8173828  -999.250000 18.422000885  -999.250000  -999.250000 2.3069999218  -999.250000 64.406898499 141.55360413 137.58763123 0.9620096087 8.8506011963 0.7800047994 0.8439999819
 1501.9697266  -999.250000 18.471000671  -999.250000  -999.250000 2.3069999218  -999.250000 62.876228333 141.80418396 137.84788513 0.9680072069 9.1004009247 0.7830023766 0.8799999952
 1502.1221924  -999.250000 18.472000122  -999.250000  -999.250000 2.3069999218  -999.250000 61.890998840 141.96800232 138.01582336 0.9770224094 9.3500003815 0.7860032320 0.9190000296
 1502.2745361  -999.250000 18.405000687  -999.250000  -999.250000 2.3069999218  -999.250000 61.327999115 141.53561401 137.59712219 0.9909992218 9.3500003815 0.7879992127 0.9240000248
 1502.4270020  -999.250000 18.347000122  -999.250000  -999.250000 2.3069999218  -999.250000 60.905998230 141.07054138 137.13798523 0.9900000095 9.3512010574 0.7869967818 0.9319999814
 1502.5793457  -999.250000 18.298000336  -999.250000  -999.250000 2.3069999218  -999.250000 59.452999115 140.82872009 136.86254883 0.9900120497 9.8479967117 0.7849992514 0.9499999881
 1502.7316895  -999.250000 18.291000366  -999.250000  -999.250000 2.3069999218  -999.250000 59.327999115 140.46903992 136.43762207 1.0049976110 8.5971956253 0.7839992046 0.9470000267
 1502.8841553  -999.250000 18.267000198  -999.250000  -999.250000 2.3069999218  -999.250000 60.779998779 140.05331421 136.04444885 1.0019967556 6.8493995667 0.7829983830 0.9330000281
 1503.0364990  -999.250000 18.222000122  -999.250000  -999.250000 2.3069999218  -999.250000 61.702999115 139.94338989 135.99180603 0.9980064034 6.5999999046 0.7810000181 0.9359999895
 1503.1889648  -999.250000 18.225000381  -999.250000  -999.250000 2.3069999218  -999.250000 62.437999725 140.00340271 136.07258606 1.0059832335 6.5993995667 0.7810000181 0.9330000281
 1503.3413086  -999.250000 18.264999390  -999.250000  -999.250000 2.3069999218  -999.250000 62.655998230 140.06600952 136.12902832 0.9849696159 6.3491988182 0.7809960246 0.9110000134
