# LAS format log file from PETREL
# Project units are specified as depth units
#==================================================================
~Version information
VERS.   2.0:
WRAP.   NO:
#==================================================================
~Well
STRT .m      695.27014160 :
STOP .m      4438.8237305 :
STEP .m     0.00000000 :
NULL .        -999.250000 :
COMP.           : COMPANY
WELL.  29/3-1   : WELL
FLD.            : FIELD
LOC.            : LOCATION
SRVC.           : SERVICE COMPANY
DATE.  2018-09-11 14:48:25   : Log Export Date {yyyy-MM-dd HH:mm:ss}
PROV.           : PROVINCE
UWI.   29/3-1   : UNIQUE WELL ID
API.            : API NUMBER
#==================================================================
~Curve
DEPT .m                   : DEPTH
Lithology_geolink ._      : Lithology_geolink
CALI .in                  : CALI
DRHO .g/cm3               : DRHO
NPHI .m3/m3               : NPHI
RHOB .g/cm3               : RHOB
PEF .b/e                  : PEF
GR .gAPI                  : GR
DTC .us/ft                : DTC
RDEP .ohm.m               : RDEP
SP .mV                    : SP
RMED .ohm.m               : RMED
~Parameter
#==================================================================
~Ascii
# ...
 2047.6677246 6.0000000000 17.388999939  -999.250000  -999.250000  -999.250000  -999.250000 48.625999451 116.56220245 1.1539791822 58.285575867 1.2100552320
 2047.8201904 6.0000000000 17.409999847  -999.250000  -999.250000  -999.250000  -999.250000 49.548999786 118.10160828 1.1279871464 58.314975739 1.1890336275
 2047.9725342 6.0000000000 17.499000549  -999.250000  -999.250000  -999.250000  -999.250000 51.819000244 119.45932007 1.1119879484 58.634742737 1.1760312319
 2048.1250000 6.0000000000 17.607000351  -999.250000  -999.250000  -999.250000  -999.250000 54.202999115 119.90200806 1.0969791412 59.080001831 1.1680128574
 2048.2773438 6.0000000000 17.594999313  -999.250000  -999.250000  -999.250000  -999.250000 53.903999329 119.09931183 1.0839920044 59.509311676 1.1610112190
 2048.4296875 6.0000000000 17.547000885  -999.250000  -999.250000  -999.250000  -999.250000 52.381999969 117.55300140 1.0789999962 59.325298309 1.1699711084
 2048.5822754 6.0000000000 17.572999954  -999.250000  -999.250000  -999.250000  -999.250000 51.636001587 116.44374084 1.0940208435 59.049999237 1.1699999571
 2048.7346191 6.0000000000 17.628999710  -999.250000  -999.250000  -999.250000  -999.250000 54.243999481 116.19836426 1.1070159674 58.840000153 1.1709984541
 2048.8869629 6.0000000000 17.673000336  -999.250000  -999.250000  -999.250000  -999.250000 53.761001587 116.13500214 1.1170319319 58.745151520 1.1819823980
 2049.0393066 6.0000000000 17.627000809  -999.250000  -999.250000  -999.250000  -999.250000 52.889999390 115.97309875 1.1369999647 59.009574890 1.2019679546
 2049.1916504 6.0000000000 17.552000046  -999.250000  -999.250000  -999.250000  -999.250000 49.261001587 115.62808228 1.1579999924 58.755409241 1.2189456224
 2049.3442383 6.0000000000 17.523000717  -999.250000  -999.250000  -999.250000  -999.250000 49.113998413 114.75232697 1.1790273190 58.494998932 1.2319791317
 2049.4965820 6.0000000000 17.534000397  -999.250000  -999.250000  -999.250000  -999.250000 47.125999451 113.73452759 1.1960207224 58.829463959 1.2449791431
 2049.6489258 6.0000000000 17.607999802  -999.250000  -999.250000  -999.250000  -999.250000 49.470001221 113.47396088 1.2089999914 58.700210571 1.2519887686
 2049.8012695 6.0000000000 17.665000916  -999.250000  -999.250000  -999.250000  -999.250000 51.027999878 114.46552277 1.2120000124 58.355552673 1.2569839954
 2049.9538574 5.0000000000 17.680999756  -999.250000  -999.250000  -999.250000  -999.250000 49.865001678 116.40972900 1.2059711218 58.299999237 1.2569999695
 2050.1062012 5.0000000000 17.695999146  -999.250000  -999.250000  -999.250000  -999.250000 47.861999512 118.38762665 1.1879663467 58.369998932 1.2510097027
 2050.2585449 5.0000000000 17.712999344  -999.250000  -999.250000  -999.250000  -999.250000 45.855998993 119.67337036 1.1669681072 58.774353027 1.2280368805
 2050.4108887 5.0000000000 17.822999954  -999.250000  -999.250000  -999.250000  -999.250000 44.028999329 119.66378784 1.1469999552 59.189334869 1.2080639601
 2050.5634766 5.0000000000 17.923000336  -999.250000  -999.250000  -999.250000  -999.250000 43.646999359 118.12576294 1.1360080242 59.299999237 1.2010111809
 2050.7158203 5.0000000000 17.893999100  -999.250000  -999.250000  -999.250000  -999.250000 46.460998535 116.10620880 1.1410320997 58.459999084 1.2109839916
 2050.8681641 5.0000000000 17.850000381  -999.250000  -999.250000  -999.250000  -999.250000 46.639999390 114.65053558 1.1610480547 57.801055908 1.2419502735
 2051.0205078 5.0000000000 17.731000900  -999.250000  -999.250000  -999.250000  -999.250000 46.825000763 113.76431274 1.1909999847 57.660224915 1.2729502916
 2051.1728516 5.0000000000 17.684999466  -999.250000  -999.250000  -999.250000  -999.250000 45.741001129 113.32098389 1.2220000029 57.829730988 1.2969232798
 2051.3254395 5.0000000000 17.770000458  -999.250000  -999.250000  -999.250000  -999.250000 46.779998779 113.36106873 1.2419840097 58.400001526 1.3019920588
 2051.4777832 5.0000000000 17.777999878  -999.250000  -999.250000  -999.250000  -999.250000 47.242000580 113.80420685 1.2319648266 58.744445801 1.2820320129
 2051.6301270 5.0000000000 17.732000351  -999.250000  -999.250000  -999.250000  -999.250000 47.214000702 114.66578674 1.2100000381 58.799911499 1.2510497570
 2051.7824707 5.0000000000 17.659000397  -999.250000  -999.250000  -999.250000  -999.250000 49.612998962 116.13447571 1.1729999781 58.730110168 1.2240864038
 2051.9350586 6.0000000000 17.694999695  -999.250000  -999.250000  -999.250000  -999.250000 49.824001312 118.01503754 1.1399502754 58.604999542 1.2020353079
 2052.0874023 6.0000000000 17.618000031  -999.250000  -999.250000  -999.250000  -999.250000 51.528999329 119.41955566 1.1089534760 58.200000763 1.1870241165
 2052.2397461 6.0000000000 17.413999557  -999.250000  -999.250000  -999.250000  -999.250000 48.610000610 119.75872803 1.0799744129 58.414657593 1.1710256338
 2052.3920898 6.0000000000 17.378999710  -999.250000  -999.250000  -999.250000  -999.250000 46.430999756 119.41186523 1.0640000105 58.031612396 1.1660159826
 2052.5446777 6.0000000000 17.423000336  -999.250000  -999.250000  -999.250000  -999.250000 45.715000153 118.90470123 1.0810384750 57.916000366 1.1669985056
 2052.6970215 6.0000000000 17.420000076  -999.250000  -999.250000  -999.250000  -999.250000 47.669998169 118.34194946 1.1050336361 58.090000153 1.1779823303
 2052.8493652 6.0000000000 17.423999786  -999.250000  -999.250000  -999.250000  -999.250000 51.619998932 117.33727264 1.1260224581 58.065036774 1.1889823675
 2053.0017090 6.0000000000 17.489999771  -999.250000  -999.250000  -999.250000  -999.250000 52.196998596 115.38209534 1.1399999857 57.825386047 1.1979855299
 2053.1540527 6.0000000000 17.548999786  -999.250000  -999.250000  -999.250000  -999.250000 50.551998138 112.82498169 1.1490000486 57.550441742 1.1970032454
 2053.3066406 6.0000000000 17.552999496  -999.250000  -999.250000  -999.250000  -999.250000 51.803001404 110.37657166 1.1540048122 57.619998932 1.1979984045
 2053.4589844 6.0000000000 17.503999710  -999.250000  -999.250000  -999.250000  -999.250000 51.620998383 108.91443634 1.1570271254 58.164127350 1.2019935846
 2053.6113281 6.0000000000 17.486000061  -999.250000  -999.250000  -999.250000  -999.250000 50.723999023 109.26157379 1.1740000248 58.898822784 1.2079902887
 2053.7636719 6.0000000000 17.474000931  -999.250000  -999.250000  -999.250000  -999.250000 47.091999054 110.29383087 1.1909999847 58.684345245 1.2239488363
 2053.9162598 6.0000000000 17.461999893  -999.250000  -999.250000  -999.250000  -999.250000 46.076999664 110.47142792 1.2090432644 58.090000153 1.2429696321
 2054.0686035 6.0000000000 17.495000839  -999.250000  -999.250000  -999.250000  -999.250000 51.418998718 109.86571503 1.2360496521 57.504001617 1.2729519606
 2054.2209473 6.0000000000 17.566999435  -999.250000  -999.250000  -999.250000  -999.250000 52.212001801 108.83946991 1.2670607567 57.245414734 1.3039503098
 2054.3732910 6.0000000000 17.513999939  -999.250000  -999.250000  -999.250000  -999.250000 50.028999329 107.93648529 1.3049999475 57.230022430 1.3339040279
 2054.5258789 6.0000000000 17.481000900  -999.250000  -999.250000  -999.250000  -999.250000 47.848999023 107.96324158 1.3240128756 57.596000671 1.3479776382
 2054.6782227 6.0000000000 17.524000168  -999.250000  -999.250000  -999.250000  -999.250000 50.972999573 108.88810730 1.3319823742 58.205001831 1.3480000496
 2054.8305664 6.0000000000 17.488000870  -999.250000  -999.250000  -999.250000  -999.250000 56.039001465 110.10784912 1.3209519386 58.424648285 1.3470015526
 2054.9829102 6.0000000000 17.452999115  -999.250000  -999.250000  -999.250000  -999.250000 55.090999603 111.15377045 1.2910000086 58.005672455 1.3370159864
 2055.1352539 6.0000000000 17.444000244  -999.250000  -999.250000  -999.250000  -999.250000 50.611999512 111.94978333 1.2560000420 57.605640411 1.3190288544
 2055.2878418 6.0000000000 17.420000076  -999.250000  -999.250000  -999.250000  -999.250000 48.379001617 112.64109802 1.2279583216 57.549999237 1.3020000458
