# LAS format log file from PETREL
# Project units are specified as depth units
#==================================================================
~Version information
VERS.   2.0:
WRAP.   NO:
#==================================================================
~Well
STRT .m      695.27014160 :
STOP .m      4438.8237305 :
STEP .m     0.00000000 :
NULL .        -999.250000 :
COMP.           : COMPANY
WELL.  29/3-1   : WELL
FLD.            : FIELD
LOC.            : LOCATION
SRVC.           : SERVICE COMPANY
DATE.  2018-09-11 14:48:25   : Log Export Date {yyyy-MM-dd HH:mm:ss}
PROV.           : PROVINCE
UWI.   29/3-1   : UNIQUE WELL ID
API.            : API NUMBER
#==================================================================
~Curve
DEPT .m                   : DEPTH
Lithology_geolink ._      : Lithology_geolink
CALI .in                  : CALI
DRHO .g/cm3               : DRHO
NPHI .m3/m3               : NPHI
RHOB .g/cm3               : RHOB
PEF .b/e                  : PEF
GR .gAPI                  : GR
DTC .us/ft                : DTC
RDEP .ohm.m               : RDEP
SP .mV                    : SP
RMED .ohm.m               : RMED
~Parameter
#==================================================================
~Ascii
# ...
 3470.0168457 5.0000000000 13.487999916 0.0810000002 0.3727999926 2.5010175705 395.56787109 59.069484711 100.25506592 2.1870000362  -999.250000 2.2243380547
 3470.1691895 5.0000000000 13.528000832 0.1080000028 0.3402399719 2.5589070320 67.789825439 59.808811188 99.162338257 2.4149999619  -999.250000 2.4536330700
 3470.3215332 5.0000000000 13.284000397 0.1040000021 0.3418899775 2.6088399887 39.232986450 60.758953094 96.748939514 2.5780000687  -999.250000 2.5307536125
 3470.4741211 5.0000000000 12.668000221 0.0839999989 0.3458900154 2.6469392776 18.088794708 62.618019104 93.790962219 2.6919999123  -999.250000 2.6098732948
 3470.6264648 5.0000000000 12.173000336 0.0410000011 0.3760599792 2.6400113106 15.202578545 63.103225708 91.718673706 2.7809998989  -999.250000 2.7198238373
 3470.7788086 5.0000000000 12.027000427 0.0320000015 0.3752799928 2.6439936161 11.508921623 64.432861328 91.208343506 2.8259999752  -999.250000 2.8328187466
 3470.9311523 5.0000000000 12.048000336 0.0209999997 0.3671200275 2.6210737228 10.249025345 64.911476135 91.570228577 2.8580000401  -999.250000 2.9147374630
 3471.0837402 5.0000000000 12.105999947 0.0170000009 0.3528099954 2.5940432549 9.0329456329 65.155609131 91.873382568 2.9070000648  -999.250000 2.9729070663
 3471.2360840 5.0000000000 12.083999634 0.0070000002 0.3429900110 2.5570592880 9.7658205032 64.512031555 92.083732605 2.9570000172  -999.250000 3.0239181519
 3471.3884277 5.0000000000 12.067000389 0.0089999996 0.3547399938 2.5300431252 11.995422363 65.735031128 92.304695129 3.0060000420  -999.250000 3.0679295063
 3471.5407715 5.0000000000 12.029000282 0.0160000008 0.3648199737 2.5230112076 11.813298225 68.523529053 92.464218140 3.0469999313  -999.250000 3.0999486446
 3471.6931152 5.0000000000 11.918000221 0.0230000000 0.3681399822 2.5209999084 12.003388405 69.862709045 92.765785217 3.0699999332  -999.250000 3.1209328175
 3471.8457031 5.0000000000 11.876999855 0.0189999994 0.3680099845 2.5260000229 10.380605698 68.632980347 93.393318176 3.0789999962  -999.250000 3.1419663429
 3471.9980469 6.0000000000 11.908999443 0.0109999999 0.3556199968 2.5120000839 11.836658478 67.116432190 94.216323853 3.0820000172  -999.250000 3.1639647484
 3472.1503906 6.0000000000 11.963000298 0.0149999997 0.3750999868 2.5099999905 12.360163689 66.680694580 94.933784485 3.0850000381  -999.250000 3.1789758205
 3472.3027344 6.0000000000 11.968000412 0.0199999996 0.3947899938 2.5160000324 12.575312614 66.264335632 95.338470459 3.0969998837  -999.250000 3.1869745255
 3472.4553223 6.0000000000 11.909999847 0.0140000004 0.4133100212 2.5150001049 12.670846939 65.372428894 95.385894775 3.1229999065  -999.250000 3.1979823112
 3472.6076660 6.0000000000 11.878000259 0.0199999996 0.3909500241 2.5280001163 12.955543518 66.769760132 95.091621399 3.1530001163  -999.250000 3.2229599953
 3472.7600098 6.0000000000 11.855999947 0.0289999992 0.3668899834 2.5260000229 13.882513046 68.589088440 94.503425598 3.1860001087  -999.250000 3.2679278851
 3472.9123535 6.0000000000 11.859999657 0.0450000018 0.3462400138 2.5399999619 12.383815765 70.265632629 93.927589417 3.2230000496  -999.250000 3.3188366890
 3473.0649414 6.0000000000 11.946000099 0.0309999995 0.3447299898 2.5299999714 10.801531792 70.109260559 93.692245483 3.2630000114  -999.250000 3.3629293442
 3473.2172852 6.0000000000 12.012000084 0.0179999992 0.3506799936 2.5280001163 8.9100313187 69.867385864 93.524414063 3.2980000973  -999.250000 3.3999407291
 3473.3696289 6.0000000000 12.006999969 0.0140000004 0.3725400269 2.5320000648 8.1651906967 69.690284729 93.111251831 3.3320000172  -999.250000 3.4409341812
 3473.5219727 5.0000000000 12.015999794 0.0170000009 0.3752099872 2.5439999104 7.8604874611 69.195793152 92.448707581 3.3740000725  -999.250000 3.4909198284
 3473.6743164 5.0000000000 12.036000252 0.0260000005 0.3605599999 2.5559999943 8.2746686935 67.315032959 91.553497314 3.4149999619  -999.250000 3.5468206406
 3473.8269043 5.0000000000 12.036999702 0.0289999992 0.3510999978 2.5599999428 9.9053850174 65.144470215 90.551681519 3.4470000267  -999.250000 3.5889327526
 3473.9792480 5.0000000000 12.019000053 0.0309999995 0.3515299857 2.5569999218 11.386626244 65.042160034 89.567604065 3.4719998837  -999.250000 3.6149582863
 3474.1315918 5.0000000000 11.977999687 0.0120000001 0.3591199815 2.5350000858 12.961475372 66.720306396 88.766410828 3.4939999580  -999.250000 3.6329710484
 3474.2839355 6.0000000000 11.963000298 0.0089999996 0.3458700180 2.5260000229 14.105336189 69.416358948 88.472496033 3.5160000324  -999.250000 3.6479520798
 3474.4365234 6.0000000000 11.970000267 0.0149999997 0.3284299970 2.5450000763 15.021534920 69.327163696 88.602142334 3.5439999104  -999.250000 3.6659710407
 3474.5888672 6.0000000000 11.935000420 0.0199999996 0.3206000030 2.5690000057 14.953112602 67.506919861 88.722679138 3.5690000057  -999.250000 3.6819741726
 3474.7412109 6.0000000000 11.904000282 0.0160000008 0.3177300096 2.5789999962 12.903289795 65.197700500 88.919036865 3.5769999027  -999.250000 3.6879904270
 3474.8935547 6.0000000000 12.003000259 0.0049999999 0.3188299835 2.5559999943 12.918938637 64.816215515 89.657241821 3.5659999847  -999.250000 3.6860065460
 3475.0461426 6.0000000000 12.265000343 0.0060000001 0.3151400089 2.5390000343 12.470720291 66.592147827 91.080520630 3.5409998894  -999.250000 3.6680288315
 3475.1984863 6.0000000000 12.350999832 0.0089999996 0.3411000073 2.5220000744 13.754937172 66.944435120 92.618270874 3.5190000534  -999.250000 3.6270658970
 3475.3508301 6.0000000000 12.194000244 0.0109999999 0.3684299886 2.5209999084 14.140384674 65.300636292 93.481468201 3.5139999390  -999.250000 3.5720882416
 3475.5031738 6.0000000000 12.130000114 0.0099999998 0.3921400011 2.5199999809 14.495430946 63.523849487 93.509719849 3.5280001163  -999.250000 3.5340607166
 3475.6555176 6.0000000000 12.119000435 0.0130000003 0.3974000216 2.5380001068 11.741841316 63.000671387 92.952255249 3.5639998913  -999.250000 3.5449647903
 3475.8081055 6.0000000000 12.116999626 0.0149999997 0.4010200202 2.5420000553 12.744377136 64.017364502 92.190505981 3.6180000305  -999.250000 3.6228749752
 3475.9604492 6.0000000000 12.079998970 0.0219999999 0.3953699768 2.5429999828 15.237001419 64.595077515 92.442092896 3.6710000038  -999.250000 3.7557868958
 3476.1127930 6.0000000000 11.970000267 0.0240000002 0.3747799993 2.5199999809 20.138139725 63.530708313 94.000610352 3.7060000896  -999.250000 3.8638269901
 3476.2651367 6.0000000000 11.887999535 0.0189999994 0.3600600064 2.5030000210 19.541940689 62.227180481 94.826835632 3.7279999256  -999.250000 3.9028754234
 3476.4177246 6.0000000000 11.802000046 0.0179999992 0.3626399934 2.5030000210 17.694961548 61.841609955 94.936080933 3.7369999886  -999.250000 3.8990063667
 3476.5700684 6.0000000000 11.743000031 0.0109999999 0.3744699955 2.5050001144 14.962381363 62.427059174 95.651451111 3.7279999256  -999.250000 3.8620593548
 3476.7224121 6.0000000000 11.791000366 0.0149999997 0.3862499893 2.5260000229 11.533496857 62.916217804 95.897911072 3.6819999218  -999.250000 3.7801313400
 3476.8747559 6.0000000000 11.904999733 0.0099999998 0.3866499960 2.5559999943 9.1316919327 61.542411804 95.593597412 3.5850000381  -999.250000 3.6434383392
 3477.0273438 5.0000000000 12.039000511 0.0020000001 0.3748300076 2.5859999657 7.3638253212 60.038406372 95.763404846 3.4769999981  -999.250000 3.4682803154
 3477.1796875 5.0000000000 12.112999916 -0.004000000 0.3650199771 2.5840001106 7.6115975380 58.771030426 96.017059326 3.4010000229  -999.250000 3.3262274265
 3477.3320313 5.0000000000 12.137000084 0.0109999999 0.3601399958 2.5880000591 7.6908731461 59.354061127 95.311508179 3.3550000191  -999.250000 3.2670946121
 3477.4843750 5.0000000000 12.159999847 0.0280000009 0.3658500016 2.6050000191 7.9136428833 59.808269501 93.503684998 3.3210000992  -999.250000 3.2679982185
 3477.6369629 5.0000000000 12.158000946 0.0280000009 0.3684899807 2.6440000534 7.8790559769 59.589351654 92.573295593 3.2999999523  -999.250000 3.3059391975
