# LAS format log file from PETREL
# Project units are specified as depth units
#==================================================================
~Version information
VERS.   2.0:
WRAP.   NO:
#==================================================================
~Well
STRT .m      695.27014160 :
STOP .m      4438.8237305 :
STEP .m     0.00000000 :
NULL .        -999.250000 :
COMP.           : COMPANY
WELL.  29/3-1   : WELL
FLD.            : FIELD
LOC.            : LOCATION
SRVC.           : SERVICE COMPANY
DATE.  2018-09-11 14:48:25   : Log Export Date {yyyy-MM-dd HH:mm:ss}
PROV.           : PROVINCE
UWI.   29/3-1   : UNIQUE WELL ID
API.            : API NUMBER
#==================================================================
~Curve
DEPT .m                   : DEPTH
Lithology_geolink ._      : Lithology_geolink
CALI .in                  : CALI
DRHO .g/cm3               : DRHO
NPHI .m3/m3               : NPHI
RHOB .g/cm3               : RHOB
PEF .b/e                  : PEF
GR .gAPI                  : GR
DTC .us/ft                : DTC
RDEP .ohm.m               : RDEP
SP .mV                    : SP
RMED .ohm.m               : RMED
~Parameter
#==================================================================
~Ascii
# ...
 4239.4843750 5.0000000000 8.4490003586 0.0480000004 0.2646499872 2.8340001106 7.7579998970 71.036712646 75.064697266 6.1030001640  -999.250000 6.5260000229
 4239.6367188 5.0000000000 8.4409999847 0.0439999998 0.2534199953 2.8340001106 8.2659997940 66.815521240 74.551200867 6.2800002098  -999.250000 6.7309999466
 4239.7890625 5.0000000000 8.4289999008 0.0199999996 0.2646499872 2.7990000248 8.3979997635 65.401504517 74.158081055 6.4840002060  -999.250000 6.9559998512
 4239.9418945 5.0000000000 8.4259996414 0.0170000009 0.2583000064 2.7730000019 8.9770002365 64.549003601 73.755828857 6.7039999962  -999.250000 7.1649999619
 4240.0942383 5.0000000000 8.4250001907 0.0149999997 0.2705100179 2.7599999905 9.2189998627 65.522003174 73.285911560 6.8720002174  -999.250000 7.2789998055
 4240.2465820 5.0000000000 8.4090003967 0.0080000004 0.2651399970 2.7460000515 8.8979997635 66.757003784 72.711364746 6.9429998398  -999.250000 7.3039999008
 4240.3989258 5.0000000000 8.4029998779 0.0040000002 0.2597700059 2.7660000324 8.4379997253 66.829765320 72.297935486 6.9229998589  -999.250000 7.2839999199
 4240.5512695 6.0000000000 8.4110002518 0.0030000000 0.2495100051 2.7790000439 8.5159997940 65.052711487 72.346519470 6.7750000954  -999.250000 7.1960000992
 4240.7036133 6.0000000000 8.4230003357 0.0010000000 0.2509799898 2.7790000439 8.3360004425 64.823715210 72.868988037 6.5139999390  -999.250000 6.9670000076
 4240.8559570 6.0000000000 8.4250001907 0.0000000000 0.2670899928 2.7679998875 7.3480000496 67.415664673 73.396514893 6.2930002213  -999.250000 6.5970001221
 4241.0083008 6.0000000000 8.4169998169 0.0040000002 0.2705100179 2.7500000000 6.0159997940 70.177146912 73.295989990 6.2049999237  -999.250000 6.2500000000
 4241.1606445 6.0000000000 8.4049997330 0.0070000002 0.2646499872 2.7269999981 5.3829998970 71.871582031 72.812820435 6.2140002251  -999.250000 6.0799999237
 4241.3134766 5.0000000000 8.3979997635 0.0099999998 0.2529299855 2.7009999752 5.4219999313 70.333000183 72.739448547 6.2600002289  -999.250000 6.1630001068
 4241.4658203 5.0000000000 8.4029998779 0.0120000001 0.2475600094 2.7249999046 6.3439998627 65.086997986 73.309936523 6.2839999199  -999.250000 6.5069999695
 4241.6181641 5.0000000000 8.4149999619 0.0089999996 0.2187500000 2.7660000324 6.8829998970 57.500999451 74.277450562 6.2309999466  -999.250000 6.8590002060
 4241.7705078 5.0000000000 8.4049997330 0.0020000001 0.1860399991 2.8069999218 5.7729997635 53.957355499 75.203277588 6.0760002136  -999.250000 6.9660000801
 4241.9228516 5.0000000000 8.4040002823 0.0030000000 0.1533199996 2.7699999809 4.9840002060 54.648742676 75.498085022 5.8769998550  -999.250000 6.8080000877
 4242.0751953 5.0000000000 8.4139995575 0.0109999999 0.1469699889 2.7360000610 4.4219999313 56.738288879 76.110290527 5.7199997902  -999.250000 6.3689999580
 4242.2275391 5.0000000000 8.4180002213 0.0299999993 0.1801799983 2.7209999561 4.5590000153 60.599605560 76.995223999 5.5770001411  -999.250000 5.7800002098
 4242.3798828 5.0000000000 8.4219999313 0.0359999985 0.2231399864 2.7439999580 4.4959998131 65.985717773 77.546958923 5.3649997711  -999.250000 5.2950000763
 4242.5327148 5.0000000000 8.4259996414 0.0419999994 0.2456100136 2.7400000095 4.5939998627 71.146003723 77.667800903 5.0749998093  -999.250000 4.9539999962
 4242.6850586 5.0000000000 8.4250001907 0.0460000001 0.2431599945 2.7360000610 4.3629999161 72.432998657 77.667800903 4.7779998779  -999.250000 4.7150001526
 4242.8374023 5.0000000000 8.4219999313 0.0359999985 0.2426799983 2.7149999142 5.0120000839 72.153999329 77.667800903 4.5710000992  -999.250000 4.5920000076
 4242.9897461 6.0000000000 8.4300003052 0.0199999996 0.2490200102 2.7049999237 4.9689998627 72.482002258 77.667800903 4.4879999161  -999.250000 4.5729999542
 4243.1420898 6.0000000000 8.4289999008 0.0170000009 0.2587899864 2.7070000172 4.9099998474 72.906639099 77.667800903 4.4930000305  -999.250000 4.6199998856
 4243.2944336 6.0000000000 8.4130001068 0.0099999998 0.2519499958 2.6860001087 4.1719999313 73.048553467 77.667800903 4.5789999962  -999.250000 4.7410001755
 4243.4467773 6.0000000000 8.4149999619 0.0130000003 0.2587899864 2.6909999847 4.0430002213 73.068939209 77.667800903 4.7569999695  -999.250000 4.9530000687
 4243.5991211 6.0000000000 8.4219999313 0.0120000001 0.2558600008 2.6840000153 4.1989998817 72.418090820 77.667800903 4.9609999657  -999.250000 5.2259998322
 4243.7514648 6.0000000000 8.4309997559 0.0240000002 0.2534199953 2.7009999752 4.2340002060 71.018493652 77.667800903 5.0830001831  -999.250000 5.4600000381
 4243.9042969 6.0000000000 8.4370002747 0.0480000004 0.2397499979 2.7109999657 4.6880002022 70.462997437 77.690406799 5.0840001106  -999.250000 5.5630002022
 4244.0566406 6.0000000000 8.4329996109 0.0750000030 0.2260700017 2.7400000095 4.6640000343 72.462997437 77.940086365 4.9860000610  -999.250000 5.4879999161
 4244.2089844 6.0000000000 8.4340000153 0.0949999988 0.2319300026 2.7539999485 4.8439998627 75.926002502 78.734329224 4.8239998817  -999.250000 5.1909999847
 4244.3613281 6.0000000000 8.4420003891 0.0740000010 0.2539100051 2.7379999161 3.9860000610 79.100822449 79.664421082 4.6649999619  -999.250000 4.7769999504
 4244.5136719 6.0000000000 8.4449996948 0.0480000004 0.2802700102 2.7130000591 3.8910000324 81.176361084 80.004768372 4.5599999428  -999.250000 4.4609999657
 4244.6660156 6.0000000000 8.4499998093 0.0199999996 0.2919899821 2.6970000267 3.6930000782 83.413825989 79.756095886 4.5159997940  -999.250000 4.3189997673
 4244.8183594 6.0000000000 8.4399995804 0.0170000009 0.2797900140 2.6860001087 4.3520002365 85.397644043 78.985977173 4.5269999504  -999.250000 4.3060002327
 4244.9707031 6.0000000000 8.4300003052 0.0149999997 0.2709999979 2.6740000248 4.6290001869 85.268432617 78.315765381 4.5970001221  -999.250000 4.4419999123
 4245.1230469 6.0000000000 8.4169998169 0.0189999994 0.2675800025 2.6860001087 5.7969999313 80.135505676 78.825691223 4.7519998550  -999.250000 4.8229999542
 4245.2758789 6.0000000000 8.4189996719 0.0120000001 0.2456100136 2.7130000591 5.1209998131 72.166000366 79.477226257 5.0100002289  -999.250000 5.4050002098
 4245.4282227 5.0000000000 8.4250001907 0.0160000008 0.2143600136 2.7320001125 4.8550000191 65.114997864 78.469848633 5.3730001450  -999.250000 5.9829998016
 4245.5805664 5.0000000000 8.4169998169 0.0080000004 0.1752899885 2.6879999638 4.2500000000 62.223999023 77.194618225 5.8530001640  -999.250000 6.4679999352
 4245.7329102 5.0000000000 8.4099998474 0.0089999996 0.1733399928 2.6540000439 4.3979997635 62.064510345 76.233329773 6.4530000687  -999.250000 6.8979997635
 4245.8852539 5.0000000000 8.4149999619 0.0049999999 0.1899399906 2.6389999390 4.3049998283 62.733844757 75.561943054 7.0770001411  -999.250000 7.2750000954
 4246.0375977 5.0000000000 8.4309997559 0.0060000001 0.2182600051 2.6579999924 4.0349998474 64.434539795 74.731552124 7.5489997864  -999.250000 7.6290001869
 4246.1899414 5.0000000000 8.4329996109 0.0089999996 0.2158200145 2.6719999313 3.7520000935 66.755554199 74.076187134 7.7769999504  -999.250000 7.9899997711
 4246.3422852 5.0000000000 8.4340000153 0.0130000003 0.2002000064 2.6740000248 3.7620000839 66.422096252 74.170944214 7.8319997787  -999.250000 8.2650003433
 4246.4951172 5.0000000000 8.4379997253 0.0289999992 0.1747999936 2.6860001087 3.8910000324 63.474998474 74.657554626 7.8239998817  -999.250000 8.3800001144
 4246.6474609 5.0000000000 8.4379997253 0.0160000008 0.1757799983 2.6679999828 3.7290000916 60.977001190 74.742820740 7.7919998169  -999.250000 8.4020004272
 4246.7998047 5.0000000000 8.4549999237 0.0120000001 0.1831100136 2.6760001183 3.6930000782 61.612998962 74.274658203 7.7379999161  -999.250000 8.3900003433
 4246.9521484 5.0000000000 8.4429998398 0.0049999999 0.1879899949 2.6819999218 3.6070001125 63.069000244 73.678283691 7.6310000420  -999.250000 8.3009996414
 4247.1044922 5.0000000000 8.4180002213 0.0140000004 0.1782200038 2.6949999332 3.8090000153 63.520553589 73.029571533 7.4089999199  -999.250000 8.0399999619
