# LAS format log file from PETREL
# Project units are specified as depth units
#==================================================================
~Version information
VERS.   2.0:
WRAP.   NO:
#==================================================================
~Well
STRT .m      695.27014160 :
STOP .m      4438.8237305 :
STEP .m     0.00000000 :
NULL .        -999.250000 :
COMP.           : COMPANY
WELL.  29/3-1   : WELL
FLD.            : FIELD
LOC.            : LOCATION
SRVC.           : SERVICE COMPANY
DATE.  2018-09-11 14:48:25   : Log Export Date {yyyy-MM-dd HH:mm:ss}
PROV.           : PROVINCE
UWI.   29/3-1   : UNIQUE WELL ID
API.            : API NUMBER
#==================================================================
~Curve
DEPT .m                   : DEPTH
Lithology_geolink ._      : Lithology_geolink
CALI .in                  : CALI
DRHO .g/cm3               : DRHO
NPHI .m3/m3               : NPHI
RHOB .g/cm3               : RHOB
PEF .b/e                  : PEF
GR .gAPI                  : GR
DTC .us/ft                : DTC
RDEP .ohm.m               : RDEP
SP .mV                    : SP
RMED .ohm.m               : RMED
~Parameter
#==================================================================
~Ascii
# ...
 2241.9777832 13.000000000 18.245000839  -999.250000  -999.250000  -999.250000  -999.250000 87.211997986 110.35521698 1.5549999475 57.189998627 1.5610464811
 2242.1301270 13.000000000 17.705999374  -999.250000  -999.250000  -999.250000  -999.250000 86.388320923 110.29370117 1.5360000134 57.579376221 1.5350416899
 2242.2824707 13.000000000 16.507999420  -999.250000  -999.250000  -999.250000  -999.250000 85.561325073 110.23211670 1.5060000420 57.659870148 1.5100400448
 2242.4348145 13.000000000 16.283000946  -999.250000  -999.250000  -999.250000  -999.250000 84.681411743 110.17062378 1.4859999418 57.270626068 1.5070096254
 2242.5874023 13.000000000 17.165000916  -999.250000  -999.250000  -999.250000  -999.250000 83.263000488 110.10912323 1.4900000095 56.770000458 1.5139888525
 2242.7397461 13.000000000 17.597000122  -999.250000  -999.250000  -999.250000  -999.250000 81.211997986 110.04762268 1.5130000114 56.619998932 1.5379614830
 2242.8920898 13.000000000 17.261999130  -999.250000  -999.250000  -999.250000  -999.250000 78.979576111 109.98610687 1.5410000086 56.884574890 1.5599646568
 2243.0444336 13.000000000  -999.250000  -999.250000  -999.250000  -999.250000  -999.250000 76.752571106 109.92452240 1.5850000381 57.259395599 1.5918976068
 2243.1970215 13.000000000  -999.250000  -999.250000  -999.250000  -999.250000  -999.250000 74.541000366 109.86292267 1.6289999485 57.215000153 1.6259455681
 2243.3493652 13.000000000  -999.250000  -999.250000  -999.250000  -999.250000  -999.250000 72.336997986 109.80142975 1.6640000343 57.189998627 1.6509599686
 2243.5017090 13.000000000  -999.250000  -999.250000  -999.250000  -999.250000  -999.250000 70.142517090 109.73999023 1.6970000267 56.950386047 1.6739631891
 2243.6540527 13.000000000  -999.250000  -999.250000  -999.250000  -999.250000  -999.250000 68.620429993 109.67832947 1.6979999542 56.395889282 1.6829855442
 2243.8063965 13.000000000  -999.250000  -999.250000  -999.250000  -999.250000  -999.250000 70.283332825 109.61692810 1.6859999895 56.385013580 1.6829999685
 2243.9589844 13.000000000  -999.250000  -999.250000  -999.250000  -999.250000  -999.250000 74.155998230 109.55540466 1.6710000038 56.479999542 1.6750128269
 2244.1113281 13.000000000  -999.250000  -999.250000  -999.250000  -999.250000  -999.250000 78.010818481 109.49382019 1.6640000343 57.055076599 1.6660144329
 2244.2636719 13.000000000  -999.250000  -999.250000  -999.250000  -999.250000  -999.250000 81.790939331 109.43231964 1.6599999666 57.409431458 1.6610080004
 2244.4160156 13.000000000  -999.250000  -999.250000  -999.250000  -999.250000  -999.250000 84.412803650 109.37081909 1.6549999714 57.300174713 1.6570127010
 2244.5686035 13.000000000  -999.250000  -999.250000  -999.250000  -999.250000  -999.250000 85.692001343 109.30921936 1.6560000181 56.879001617 1.6560015678
 2244.7209473 13.000000000  -999.250000  -999.250000  -999.250000  -999.250000  -999.250000 86.611999512 109.24771881 1.6610000134 56.900001526 1.6629887819
 2244.8732910 13.000000000  -999.250000  -999.250000  -999.250000  -999.250000  -999.250000 87.526535034 109.18621826 1.6670000553 56.545566559 1.6689903736
 2245.0256348 13.000000000  -999.250000  -999.250000  -999.250000  -999.250000  -999.250000 87.850479126 109.12470245 1.6840000153 56.401229858 1.6719903946
 2245.1782227 13.000000000  -999.250000  -999.250000  -999.250000  -999.250000  -999.250000 86.405998230 109.06301880 1.7100000381 56.955001831 1.7129343748
 2245.3305664 13.000000000  -999.250000  -999.250000  -999.250000  -999.250000  -999.250000 83.912002563 109.00152588 1.7400000095 57.736000061 1.7539342642
 2245.4829102 13.000000000  -999.250000  -999.250000  -999.250000  -999.250000  -999.250000 81.420989990 108.94010162 1.7719999552 57.335639954 1.7849502563
 2245.6352539 13.000000000  -999.250000  -999.250000  -999.250000  -999.250000  -999.250000 78.859107971 108.87851715 1.7929999828 56.676055908 1.7969808578
 2245.7875977 13.000000000  -999.250000  -999.250000  -999.250000  -999.250000  -999.250000 76.218231201 108.81701660 1.8070000410 57.165214539 1.7960032225
 2245.9401855 13.000000000  -999.250000  -999.250000  -999.250000  -999.250000  -999.250000 73.619003296 108.75540161 1.7990000248 57.060001373 1.7870143652
 2246.0925293 13.000000000  -999.250000  -999.250000  -999.250000  -999.250000  -999.250000 72.343048096 108.69381714 1.7719999552 57.025058746 1.7620400190
 2246.2448730 13.000000000  -999.250000  -999.250000  -999.250000  -999.250000  -999.250000 72.480781555 108.63232422 1.7130000591 57.369445801 1.7230625153
 2246.3972168 13.000000000  -999.250000  -999.250000  -999.250000  -999.250000  -999.250000 72.963226318 108.57090759 1.6560000181 57.564685822 1.6821312904
 2246.5498047 13.000000000  -999.250000  -999.250000  -999.250000  -999.250000  -999.250000 73.819000244 108.50930023 1.6180000305 57.604999542 1.6400673389
 2246.7021484 13.000000000  -999.250000  -999.250000  -999.250000  -999.250000  -999.250000 75.059997559 108.44773102 1.5820000172 57.409999847 1.5950721502
 2246.8544922 13.000000000  -999.250000  -999.250000  -999.250000  -999.250000  -999.250000 76.384880066 108.38631439 1.5490000248 56.881847382 1.5520689487
 2247.0068359 13.000000000  -999.250000  -999.250000  -999.250000  -999.250000  -999.250000 77.800735474 108.32482147 1.5369999409 56.760192871 1.5230927467
 2247.1594238 13.000000000  -999.250000  -999.250000  -999.250000  -999.250000  -999.250000 79.469001770 108.26320648 1.5190000534 57.134998322 1.5110192299
 2247.3117676 13.000000000  -999.250000  -999.250000  -999.250000  -999.250000  -999.250000 81.286003113 108.20162964 1.5210000277 57.650001526 1.5249775648
 2247.4641113 13.000000000  -999.250000  -999.250000  -999.250000  -999.250000  -999.250000 83.090110779 108.14020538 1.5420000553 58.064334869 1.5479631424
 2247.6164551 13.000000000  -999.250000  -999.250000  -999.250000  -999.250000  -999.250000 84.567634583 108.07862091 1.5640000105 57.965160370  -999.250000
 2247.7687988 13.000000000  -999.250000  -999.250000  -999.250000  -999.250000  -999.250000 85.776062012 108.01712036  -999.250000 57.520713806  -999.250000
 2247.9213867 13.000000000  -999.250000  -999.250000  -999.250000  -999.250000  -999.250000 86.733001709 107.95552063  -999.250000 57.580001831  -999.250000
 2248.0737305 13.000000000  -999.250000  -999.250000  -999.250000  -999.250000  -999.250000 87.381965637 107.89400482  -999.250000 58.009311676  -999.250000
 2248.2260742 13.000000000  -999.250000  -999.250000  -999.250000  -999.250000  -999.250000 87.946098328 107.83242035  -999.250000 57.754413605  -999.250000
 2248.3784180 13.000000000  -999.250000  -999.250000  -999.250000  -999.250000  -999.250000 87.931022644 107.77092743  -999.250000 58.265178680  -999.250000
 2248.5310059 13.000000000  -999.250000  -999.250000  -999.250000  -999.250000  -999.250000 87.396003723 107.70941925  -999.250000 59.345001221  -999.250000
 2248.6833496 13.000000000  -999.250000  -999.250000  -999.250000  -999.250000  -999.250000 86.608001709 107.64791870  -999.250000 58.905998230  -999.250000
 2248.8356934 13.000000000  -999.250000  -999.250000  -999.250000  -999.250000  -999.250000 84.333648682 107.58640289  -999.250000 58.510631561  -999.250000
 2248.9880371 13.000000000  -999.250000  -999.250000  -999.250000  -999.250000  -999.250000 80.973388672 107.52481842  -999.250000 58.465072632  -999.250000
 2249.1406250 13.000000000  -999.250000  -999.250000  -999.250000  -999.250000  -999.250000 77.781997681 107.46321106  -999.250000 58.369998932  -999.250000
 2249.2929688 13.000000000  -999.250000  -999.250000  -999.250000  -999.250000  -999.250000 74.892997742 107.40171814  -999.250000 58.494998932  -999.250000
 2249.4453125 13.000000000  -999.250000  -999.250000  -999.250000  -999.250000  -999.250000 72.138420105 107.34030151  -999.250000 58.619800568  -999.250000
 2249.5976563 13.000000000  -999.250000  -999.250000  -999.250000  -999.250000  -999.250000 69.376426697 107.27871704  -999.250000 57.835258484  -999.250000
