# LAS format log file from PETREL
# Project units are specified as depth units
#==================================================================
~Version information
VERS.   2.0:
WRAP.   NO:
#==================================================================
~Well
STRT .m      695.27014160 :
STOP .m      4438.8237305 :
STEP .m     0.00000000 :
NULL .        -999.250000 :
COMP.           : COMPANY
WELL.  29/3-1   : WELL
FLD.            : FIELD
LOC.            : LOCATION
SRVC.           : SERVICE COMPANY
DATE.  2018-09-11 14:48:25   : Log Export Date {yyyy-MM-dd HH:mm:ss}
PROV.           : PROVINCE
UWI.   29/3-1   : UNIQUE WELL ID
API.            : API NUMBER
#==================================================================
~Curve
DEPT .m                   : DEPTH
Lithology_geolink ._      : Lithology_geolink
CALI .in                  : CALI
DRHO .g/cm3               : DRHO
NPHI .m3/m3               : NPHI
RHOB .g/cm3               : RHOB
PEF .b/e                  : PEF
GR .gAPI                  : GR
DTC .us/ft                : DTC
RDEP .ohm.m               : RDEP
SP .mV                    : SP
RMED .ohm.m               : RMED
~Parameter
#==================================================================
~Ascii
# ...
 4045.1748047 6.0000000000 8.5000000000 0.0110192001 0.2798337638 2.6250000000 4.5780000687 95.121002197 74.058609009 4.7256269455  -999.250000 4.8359999657
 4045.3271484 6.0000000000 8.5000000000 0.0170048084 0.2934858203 2.6579999924 5.6250000000 90.996002197 74.695564270 4.9213366508  -999.250000 5.1570000648
 4045.4794922 6.0000000000 8.4960002899 0.0200224351 0.3096193075 2.7209999561 8.6250000000 88.315002441 75.336624146 5.1313557625  -999.250000 5.5269999504
 4045.6318359 6.0000000000 8.4840002060 0.0339887850 0.3403487802 2.8139998913 11.991999626 86.055999756 75.780174255 5.3534054756  -999.250000 5.8390002251
 4045.7841797 6.0000000000 8.4890003204 0.0269967951 0.3520828784 2.8440001011 12.477000237 84.568000793 75.981498718 5.6064343452  -999.250000 6.0139999390
 4045.9367676 6.0000000000 8.4910001755 0.0249423999 0.3724162579 2.8340001106 12.444999695 84.513000488 75.596244812 5.8778252602  -999.250000 6.1220002174
 4046.0891113 6.0000000000 8.4840002060 0.0069887824 0.3275468647 2.7769999504 7.8280000687 83.402999878 74.517814636 6.1353654861  -999.250000 6.2719998360
 4046.2414551 6.0000000000 8.4759998322 0.0000032051 0.2694040239 2.7209999561 5.0780000687 79.720001221 73.448562622 6.3632531166  -999.250000 6.4670000076
 4046.3937988 6.0000000000 8.4689998627 0.0020064104 0.1908832192 2.6740000248 3.7579998970 75.039001465 72.855667114 6.5211329460  -999.250000 6.6999998093
 4046.5463867 6.0000000000 8.4689998627 0.0060192002 0.1679606289 2.6579999924 3.3459999561 72.807998657 72.478195190 6.6042113304  -999.250000 6.9619998932
 4046.6987305 6.0000000000 8.4729995728 0.0120112179 0.1650313884 2.6659998894 3.7090001106 72.014999390 72.230064392 6.6701011658  -999.250000 7.1539998055
 4046.8510742 6.0000000000 8.4770002365 0.0189903844 0.1596715450 2.6879999638 3.6930000782 72.541999817 72.178764343 6.7330784798  -999.250000 7.2090001106
 4047.0034180 6.0000000000 8.4759998322 0.0130016031 0.1606462598 2.6619999409 3.7479999065 74.097999573 72.338943481 6.7820801735  -999.250000 7.1789999008
 4047.1560059 6.0000000000 8.4630002975 0.0140032005 0.1645921767 2.6519999504 3.6050000191 76.985000610 72.763450623 6.8320894241  -999.250000 7.1310000420
 4047.3083496 6.0000000000 8.4449996948 0.0150048072 0.1777284592 2.6429998875 3.6740000248 79.096000671 73.047355652 6.8599553108  -999.250000 7.0939998627
 4047.4606934 6.0000000000 8.4460000992 0.0179855768 0.1767662466 2.6540000439 3.6559998989 80.002998352 72.871673584 6.8318891525  -999.250000 7.0729999542
 4047.6130371 6.0000000000 8.4619998932 0.0089839743 0.1806404442 2.6410000324 3.7149999142 80.141998291 72.623733521 6.7628731728  -999.250000 7.0469999313
 4047.7653809 6.0000000000 8.4600000381 -0.001003205 0.1684576571 2.6310000420 3.6289999485 79.384002686 72.571708679 6.6839056015  -999.250000 6.9889998436
 4047.9179688 6.0000000000 8.4490003586 -0.002990400 0.1669868976 2.6229999065 3.5309998989 77.767997742 72.700874329 6.6248974800  -999.250000 6.9019999504
 4048.0700684 6.0000000000 8.4449996948 0.0000000000 0.1660199910 2.6269936562 3.3113527298 75.533584595 72.851058960 6.5929999352  -999.250000 6.8281188011
 4048.2224121 6.0000000000 8.4449996948 0.0010000000 0.1747999936 2.6270000935 3.4857196808 74.066352844 72.614036560 6.5780000687  -999.250000 6.7900609970
 4048.3747559 6.0000000000 8.4449996948 0.0060000001 0.1782200038 2.6389806271 3.7555673122 72.397674561 71.865455627 6.5840001106  -999.250000 6.7800164223
 4048.5270996 6.0000000000 8.4449996948 0.0099999998 0.1801799983 2.6559455395 3.7749392986 70.565872192 71.217605591 6.6129999161  -999.250000 6.7899680138
 4048.6796875 6.0000000000 8.4409999847 0.0130000003 0.1772499979 2.6540031433 3.6521971226 67.992118835 71.272041321 6.6750001907  -999.250000 6.8459105492
 4048.8320313 5.0000000000 8.4289999008 0.0130000003 0.1704100072 2.6500065327 3.6390206814 66.144958496 71.618980408 6.7899999619  -999.250000 6.9897689819
 4048.9843750 5.0000000000 8.4259996414 0.0120000001 0.1660199910 2.6450080872 3.9235432148 64.035377502 71.656333923 6.9699997902  -999.250000 7.2415962219
 4049.1367188 5.0000000000 8.4300003052 0.0170000009 0.1606399864 2.6579585075 4.0306577682 61.140285492 71.777839661 7.2270002365  -999.250000 7.5898833275
 4049.2893066 5.0000000000 8.4250001907 0.0149999997 0.1513700038 2.6540064812 3.8542838097 56.782981873 72.520835876 7.6040000916  -999.250000 8.0332908630
 4049.4416504 5.0000000000 8.4180002213 0.0109999999 0.1415999979 2.6390240192 3.4306795597 51.399627686 73.762481689 8.1459999084  -999.250000 8.6110744476
 4049.5939941 3.0000000000 8.4230003357 0.0080000004 0.1337900013 2.6090481281 3.6067163944 45.476493835 75.059524536 8.8590002060  -999.250000 9.3677873611
 4049.7463379 3.0000000000 8.4250001907 0.0070000002 0.1440400034 2.5740559101 3.6679022312 40.494979858 75.746734619 9.6800003052  -999.250000 10.274546623
 4049.8986816 3.0000000000 8.4219999313 0.0120000001 0.1518599987 2.5181791782 3.9191937447 37.215503693 75.800613403 10.512000084  -999.250000 11.284761429
 4050.0512695 3.0000000000 8.4259996414 0.0099999998 0.1499000043 2.4670817852 3.8461184502 35.884120941 76.020584106 11.279999733  -999.250000 12.370262146
 4050.2036133 3.0000000000 8.4300003052 0.0209999997 0.1342800111 2.4530224800 3.8300256729 34.506210327 76.670822144 11.878999710  -999.250000 13.324471474
 4050.3559570 3.0000000000 8.4250001907 0.0140000004 0.1254899949 2.4569935799 3.8419806957 32.348461151 77.395362854 12.182999611  -999.250000 13.832187653
 4050.5083008 3.0000000000 8.4130001068 0.0149999997 0.1245100051 2.4898943901 3.6994574070 31.006298065 77.667800903 12.236000061  -999.250000 13.672514915
 4050.6608887 3.0000000000 8.4060001373 0.0049999999 0.1298799962 2.5139615536 3.8747179508 35.052497864 77.667800903 12.192999840  -999.250000 12.897243500
 4050.8132324 3.0000000000 8.4060001373 0.0070000002 0.1479499936 2.5549342632 4.0467243195 43.841899872 77.683120728 12.079999924  -999.250000 12.059342384
 4050.9655762 6.0000000000 8.3970003128 0.0049999999 0.1738299876 2.5759663582 4.0080623627 53.591373444 77.811180115 11.845999718  -999.250000 11.618704796
 4051.1179199 6.0000000000 8.3730001450 0.0109999999 0.1962900013 2.6108880043 4.0937247276 59.419342041 77.992477417 11.493000031  -999.250000 11.437579155
 4051.2705078 6.0000000000 8.3680000305 0.0049999999 0.1977500021 2.6289710999 4.0121316910 61.174209595 78.107017517 11.135000229  -999.250000 11.303215027
 4051.4228516 6.0000000000 8.3789997101 0.0000000000 0.2021500021 2.6539599895 4.4762549400 61.646247864 78.522430420 10.918999672  -999.250000 11.217138290
 4051.5751953 6.0000000000 8.3780002594 0.0010000000 0.2114299983 2.6719710827 4.1415381432 61.416370392 79.275917053 10.890999794  -999.250000 11.253940582
 4051.7275391 6.0000000000 8.3750000000 0.0070000002 0.2221699953 2.6759936810 3.8714327812 62.584121704 79.415588379 11.027000427  -999.250000 11.458671570
 4051.8798828 6.0000000000 8.3710002899 0.0140000004 0.2119099945 2.6879615784 3.8321247101 63.519004822 78.686370850 11.288999557  -999.250000 11.755048752
 4052.0324707 6.0000000000 8.3669996262 0.0120000001 0.2026399970 2.6820094585 4.1045622826 64.036178589 78.507987976 11.605999947  -999.250000 12.054521561
 4052.1848145 6.0000000000 8.3669996262 0.0089999996 0.1938499957 2.6800031662 4.4873862267 63.349102020 79.554901123 11.927000046  -999.250000 12.388464928
 4052.3371582 6.0000000000 8.3669996262 0.0070000002 0.1948200017 2.6680192947 4.2973060608 62.497364044 80.681648254 12.201999664  -999.250000 12.811322212
 4052.4895020 6.0000000000 8.3719997406 0.0060000001 0.1992200017 2.6640129089 3.8434560299 62.496997833 81.062225342 12.361000061  -999.250000 13.242617607
 4052.6420898 5.0000000000 8.3789997101 0.0089999996 0.1909199953 2.6679935455 3.8340129852 61.193096161 80.506660461 12.378999710  -999.250000 13.502585411
 4052.7944336 5.0000000000 8.3830003738 0.0109999999 0.1747999936 2.6909630299 4.0466585159 58.970561981 79.849571228 12.243000031  -999.250000 13.464062691
