# LAS format log file from PETREL
# Project units are specified as depth units
#==================================================================
~Version information
VERS.   2.0:
WRAP.   NO:
#==================================================================
~Well
STRT .m      695.27014160 :
STOP .m      4438.8237305 :
STEP .m     0.00000000 :
NULL .        -999.250000 :
COMP.           : COMPANY
WELL.  29/3-1   : WELL
FLD.            : FIELD
LOC.            : LOCATION
SRVC.           : SERVICE COMPANY
DATE.  2018-09-11 14:48:25   : Log Export Date {yyyy-MM-dd HH:mm:ss}
PROV.           : PROVINCE
UWI.   29/3-1   : UNIQUE WELL ID
API.            : API NUMBER
#==================================================================
~Curve
DEPT .m                   : DEPTH
Lithology_geolink ._      : Lithology_geolink
CALI .in                  : CALI
DRHO .g/cm3               : DRHO
NPHI .m3/m3               : NPHI
RHOB .g/cm3               : RHOB
PEF .b/e                  : PEF
GR .gAPI                  : GR
DTC .us/ft                : DTC
RDEP .ohm.m               : RDEP
SP .mV                    : SP
RMED .ohm.m               : RMED
~Parameter
#==================================================================
~Ascii
# ...
 3664.3269043 6.0000000000 8.5389995575 0.0109999999 0.4070700109 2.5199999809 3.2809998989 93.559997559 91.082702637 5.0359997749  -999.250000 4.7399997711
 3664.4792480 6.0000000000 8.5369997025 0.0089999996 0.4391599894 2.4590001106 3.3619999886 95.491996765 89.156852722 5.1919999123  -999.250000 5.1529998779
 3664.6318359 6.0000000000 8.5089998245 0.0060000001 0.3838199973 2.4230000973 3.1189999580 92.810997009 86.739303589 5.4770002365  -999.250000 5.9190001488
 3664.7841797 6.0000000000 8.4569997787 0.0060000001 0.2555600107 2.4309999943 2.7449998856 79.373001099 83.877784729 5.9450001717  -999.250000 6.8899998665
 3664.9365234 6.0000000000 8.4119997025 0.0080000004 0.1550299972 2.4590001106 2.4869999886 61.736999512 80.539947510 6.7080001831  -999.250000 8.0260000229
 3665.0888672 3.0000000000 8.3970003128 0.0130000003 0.1228699982 2.4849998951 2.4800000191 48.349998474 77.014724731 7.9749999046  -999.250000 9.5909996033
 3665.2412109 3.0000000000 8.3889999390 0.0130000003 0.1209300011 2.4890000820 2.6649999619 39.908000946 75.775352478 10.008999825  -999.250000 12.116000175
 3665.3937988 3.0000000000 8.3699998856 0.0120000001 0.1085099950 2.4809999466 2.8220000267 31.625999451 76.441581726 12.562999725  -999.250000 15.746000290
 3665.5461426 3.0000000000 8.3479995728 0.0109999999 0.0784199983 2.4690001011 2.8420000076 22.218000412 76.324462891 14.451999664  -999.250000 19.076000214
 3665.6984863 3.0000000000 8.3360004425 0.0089999996 0.0647300035 2.4600000381 2.7479999065 16.627000809 76.308876038 14.772999763  -999.250000 20.548000336
 3665.8508301 3.0000000000 8.3430004120 0.0030000000 0.0755600035 2.4539999962 2.6760001183 16.898000717 77.395278931 13.699000359  -999.250000 19.899999619
 3666.0034180 3.0000000000 8.3660001755 0.0010000000 0.1076500043 2.4670000076 2.6779999733 23.850999832 78.838897705 12.039999962  -999.250000 17.027999878
 3666.1557617 3.0000000000 8.3929996490 0.0010000000 0.1633699983 2.4879999161 2.9340000153 38.659000397 81.748603821 10.614000320  -999.250000 13.057000160
 3666.3081055 3.0000000000 8.4200000763 0.0010000000 0.2287199944 2.5250000954 3.7249999046 63.143001556 88.797348022 9.6199998856  -999.250000 9.9980001450
 3666.4604492 3.0000000000 8.4519996643 -0.004000000 0.3183099926 2.5580000877 4.4239997864 87.995002747 98.836593628 8.8149995804  -999.250000 8.4060001373
 3666.6130371 18.000000000 8.4919996262 -0.008000000 0.4368500113 2.5490000248 3.9519999027 101.08200073 106.47677612 7.9510002136  -999.250000 7.7989997864
 3666.7653809 18.000000000 8.5329999924 -0.015000000 0.5195800066 2.4070000648 3.2590000629 95.977996826 109.24744415 6.9899997711  -999.250000 7.4079999924
 3666.9177246 6.0000000000 8.5719995499 -0.016000001 0.5212000012 2.1380000114 2.7909998894 80.691001892 109.77589417 6.0749998093  -999.250000 6.6149997711
 3667.0700684 6.0000000000 8.6110000610 -0.011000000 0.4642599821 1.8969999552 2.5840001106 71.535003662 111.78681183 5.3649997711  -999.250000 5.5489997864
 3667.2224121 6.0000000000 8.6549997330 -0.004000000 0.4248199761 1.8539999723 2.7039999962 72.810997009 113.71585083 4.9299998283  -999.250000 4.7459998131
 3667.3750000 6.0000000000 8.7100000381 -0.006000000 0.4240399897 1.9809999466 3.4130001068 80.041999817 111.00395203 4.6789999008  -999.250000 4.3750000000
 3667.5273438 6.0000000000 8.7559995651 -0.002000000 0.4069599807 2.2420001030 3.9670000076 86.092002869 104.38677216 4.4340000153  -999.250000 4.2449998856
 3667.6796875 6.0000000000 8.7749996185 0.0010000000 0.3765999973 2.4240000248 3.7290000916 87.583999634 97.899650574 4.1180000305  -999.250000 4.1300001144
 3667.8320313 6.0000000000 8.7720003128 -0.002000000 0.3599199951 2.4460000992 3.8840000629 88.894996643 95.363777161 3.8169999123  -999.250000 3.9570000172
 3667.9846191 6.0000000000 8.7580003738 -0.001000000 0.3743799925 2.4609999657 4.3870000839 89.323997498 96.315467834 3.6380000114  -999.250000 3.7730000019
 3668.1369629 6.0000000000 8.7559995651 0.0109999999 0.4043099880 2.4960000515 4.8670001030 88.435997009 96.126625061 3.5799999237  -999.250000 3.6340000629
 3668.2893066 6.0000000000 8.7889995575 0.0230000000 0.3993799984 2.5190000534 5.3860001564 87.408996582 94.600486755 3.5969998837  -999.250000 3.5710000992
 3668.4416504 6.0000000000 8.8360004425 0.0329999998 0.3166300058 2.5250000954 5.9609999657 85.777000427 93.373893738 3.6930000782  -999.250000 3.6199998856
 3668.5942383 6.0000000000 8.8140001297 0.0419999994 0.2098200023 2.5339999199 5.6700000763 84.858001709 91.079063416 3.8570001125  -999.250000 3.8570001125
 3668.7465820 6.0000000000 8.7239999771 0.0410000011 0.1297300011 2.5550000668 4.1399998665 80.878997803 87.047019958 4.0209999084  -999.250000 4.2290000916
 3668.8989258 6.0000000000 8.6280002594 0.0379999988 0.1312399954 2.5820000172 3.2330000401 76.772003174 83.270874023 4.1440000534  -999.250000 4.5100002289
 3669.0512695 6.0000000000 8.5850000381 0.0329999998 0.1687100083 2.6129999161 3.2850000858 75.265998840 80.558021545 4.2719998360  -999.250000 4.6059999466
 3669.2036133 6.0000000000 8.5830001831 0.0320000015 0.2287800014 2.6389999390 3.8029999733 77.758003235 78.333656311 4.4860000610  -999.250000 4.6129999161
 3669.3562012 6.0000000000 8.5889997482 0.0260000005 0.2848600149 2.6549999714 4.1409997940 81.060997009 77.698791504 4.8109998703  -999.250000 4.6180000305
 3669.5085449 6.0000000000 8.5950002670 0.0199999996 0.3043999970 2.6570000648 3.8580000401 82.918998718 78.263504028 5.1620001793  -999.250000 4.6729998589
 3669.6608887 6.0000000000 8.5790004730 0.0130000003 0.2909100056 2.6559998989 3.8310000896 81.338996887 78.200942993 5.4409999847  -999.250000 4.8220000267
 3669.8132324 6.0000000000 8.5600004196 0.0130000003 0.2510699928 2.6700000763 4.1479997635 76.614997864 77.457740784 5.6519999504  -999.250000 5.0720000267
 3669.9658203 6.0000000000 8.5520000458 0.0030000000 0.2158499956 2.6819999218 4.6399998665 71.995002747 76.785285950 5.8709998131  -999.250000 5.4250001907
 3670.1181641 6.0000000000 8.5389995575 0.0020000001 0.1930800080 2.6949999332 4.4279999733 69.474998474 76.292785645 6.1659998894  -999.250000 5.9499998093
 3670.2705078 5.0000000000 8.5310001373 -0.003000000 0.1860499978 2.6860001087 4.1960000992 68.791999817 75.877868652 6.5970001221  -999.250000 6.7150001526
 3670.4228516 5.0000000000 8.5310001373 0.0000000000 0.1948200017 2.6900000572 4.1110000610 65.162002563 75.725860596 7.2010002136  -999.250000 7.6149997711
 3670.5754395 5.0000000000 8.5310001373 0.0010000000 0.1912200004 2.7019999027 3.9600000381 59.814998627 76.007453918 7.8299999237  -999.250000 8.3570003510
 3670.7277832 5.0000000000 8.5299997330 0.0070000002 0.1769199967 2.7009999752 3.5620000362 55.840999603 77.334259033 8.1789999008  -999.250000 8.7390003204
 3670.8801270 5.0000000000 8.5249996185 0.0120000001 0.1837100089 2.6649999619 3.2539999485 56.238998413 80.218536377 8.0640001297  -999.250000 8.7060003281
 3671.0324707 5.0000000000 8.5179996490 0.0099999998 0.2360000014 2.6099998951 3.1789999008 61.638999939 83.940124512 7.4910001755  -999.250000 8.1379995346
 3671.1848145 6.0000000000 8.5209999084 0.0089999996 0.3006100059 2.5950000286 3.4909999371 71.940002441 87.253974915 6.7519998550  -999.250000 7.1100001335
 3671.3374023 6.0000000000 8.5480003357 0.0040000002 0.3401300013 2.5889999866 3.6329998970 83.728996277 89.169601440 6.2280001640  -999.250000 6.1149997711
 3671.4897461 6.0000000000 8.5760002136 0.0070000002 0.3388999999 2.5810000896 3.6380000114 92.084999084 89.418708801 6.0050001144  -999.250000 5.5399999619
 3671.6420898 6.0000000000 8.5769996643 0.0060000001 0.3244200051 2.5599999428 3.4590001106 95.264999390 88.269241333 5.9759998322  -999.250000 5.3429999352
 3671.7944336 6.0000000000 8.5740003586 0.0080000004 0.2962999940 2.5650000572 3.4130001068 97.012001038 86.101158142 6.0739998817  -999.250000 5.4120001793
 3671.9470215 6.0000000000 8.5699996948 0.0089999996 0.2406499982 2.5999999046 3.5699999332 96.535003662 83.429367065 6.3499999046  -999.250000 5.8590002060
