# LAS format log file from PETREL
# Project units are specified as depth units
#==================================================================
~Version information
VERS.   2.0:
WRAP.   NO:
#==================================================================
~Well
STRT .m      695.27014160 :
STOP .m      4438.8237305 :
STEP .m     0.00000000 :
NULL .        -999.250000 :
COMP.           : COMPANY
WELL.  29/3-1   : WELL
FLD.            : FIELD
LOC.            : LOCATION
SRVC.           : SERVICE COMPANY
DATE.  2018-09-11 14:48:25   : Log Export Date {yyyy-MM-dd HH:mm:ss}
PROV.           : PROVINCE
UWI.   29/3-1   : UNIQUE WELL ID
API.            : API NUMBER
#==================================================================
~Curve
DEPT .m                   : DEPTH
Lithology_geolink ._      : Lithology_geolink
CALI .in                  : CALI
DRHO .g/cm3               : DRHO
NPHI .m3/m3               : NPHI
RHOB .g/cm3               : RHOB
PEF .b/e                  : PEF
GR .gAPI                  : GR
DTC .us/ft                : DTC
RDEP .ohm.m               : RDEP
SP .mV                    : SP
RMED .ohm.m               : RMED
~Parameter
#==================================================================
~Ascii
 695.27014160  -999.250000 18.656000137  -999.250000  -999.250000  -999.250000  -999.250000 55.006809235 140.93559265 2.0839996338 65.044029236 2.1190023422
 695.42254639  -999.250000 18.672000885  -999.250000  -999.250000  -999.250000  -999.250000 55.488803864 140.53030396 2.0829999447 65.421775818 2.1110193729
 695.57495117  -999.250000 18.672000885  -999.250000  -999.250000  -999.250000  -999.250000 59.802272797 140.73793030 2.0829999447 65.538627625 2.1030192375
 695.72735596  -999.250000 18.656000137  -999.250000  -999.250000  -999.250000  -999.250000 60.844585419 141.64624023 2.0829999447 65.548973083 2.0970141888
 695.87976074  -999.250000 18.656000137  -999.250000  -999.250000  -999.250000  -999.250000 60.691062927 142.44779968 2.0829992294 65.777267456 2.0910143852
 696.03216553  -999.250000 18.656000137  -999.250000  -999.250000  -999.250000  -999.250000 60.363128662 142.44154358 2.0820000172 65.455039978 2.0860118866
 696.18450928  -999.250000 18.672000885  -999.250000  -999.250000  -999.250000  -999.250000 58.595417023 141.98017883 2.0819995403 65.559616089 2.0800168514
 696.33691406  -999.250000 18.672000885  -999.250000  -999.250000  -999.250000  -999.250000 56.889366150 141.55204773 2.0809948444 65.298942566 2.0740141869
 696.48931885  -999.250000 18.656000137  -999.250000  -999.250000  -999.250000  -999.250000 58.292434692 141.19342041 2.0679953098 65.377708435 2.0680143833
 696.64172363  -999.250000 18.656999588  -999.250000  -999.250000  -999.250000  -999.250000 60.892959595 141.49365234 2.0559947491 65.656990051 2.0620143414
 696.79412842  -999.250000 18.687999725  -999.250000  -999.250000  -999.250000  -999.250000 62.135505676 142.69073486 2.0429928303 65.058166504 2.0470359325
 696.94653320  -999.250000 18.718999863  -999.250000  -999.250000  -999.250000  -999.250000 59.165191650 143.76152039 2.0249919891 65.225387573 2.0300407410
 697.09893799  -999.250000 18.718999863  -999.250000  -999.250000  -999.250000  -999.250000 57.078834534 144.69364929 2.0049858093 65.200088501 2.0100481510
 697.25134277  -999.250000 18.702999115  -999.250000  -999.250000  -999.250000  -999.250000 57.027019501 145.99839783 1.9689847231 64.862083435 1.9860576391
 697.40374756  -999.250000 18.702999115  -999.250000  -999.250000  -999.250000  -999.250000 56.676139832 147.88024902 1.9309835434 64.252952576 1.9351224899
 697.55615234  -999.250000 18.702999115  -999.250000  -999.250000  -999.250000  -999.250000 56.101230621 150.22323608 1.8899779320 64.345695496 1.8781369925
 697.70855713  -999.250000 18.702999115  -999.250000  -999.250000  -999.250000  -999.250000 54.458656311 151.84349060 1.8349776268 64.570281982 1.8151514530
 697.86096191  -999.250000 18.702999115  -999.250000  -999.250000  -999.250000  -999.250000 49.927814484 152.68136597 1.8070080280 64.651741028 1.7790865898
 698.01336670  -999.250000 18.702999115  -999.250000  -999.250000  -999.250000  -999.250000 43.960391998 152.81248474 1.8170152903 65.863105774 1.7899734974
 698.16571045  -999.250000 18.702999115  -999.250000  -999.250000  -999.250000  -999.250000 38.427433014 151.34451294 1.8360023499 65.857040405 1.8169243336
 698.31811523  -999.250000 18.702999115  -999.250000  -999.250000  -999.250000  -999.250000 40.266525269 149.19996643 1.8419923782 64.779899597 1.8269759417
 698.47052002  -999.250000 18.702999115  -999.250000  -999.250000  -999.250000  -999.250000 43.605327606 147.26951599 1.8229895830 64.218025208 1.8160264492
 698.62292480  -999.250000 18.702999115  -999.250000  -999.250000  -999.250000  -999.250000 49.476646423 145.02229309 1.7969856262 63.972885132 1.7790889740
 698.77532959  -999.250000 18.702999115  -999.250000  -999.250000  -999.250000  -999.250000 49.820861816 143.97119141 1.7609847784 64.347640991 1.7331105471
 698.92773438  -999.250000 18.702999115  -999.250000  -999.250000  -999.250000  -999.250000 47.383975983 145.16828918 1.7229844332 63.332672119 1.6482042074
 699.08013916  -999.250000 18.702999115  -999.250000  -999.250000  -999.250000  -999.250000 44.174285889 146.95715332 1.6839843988 63.392776489 1.5522307158
 699.23254395  -999.250000 18.735000610  -999.250000  -999.250000  -999.250000  -999.250000 41.718982697 149.17277527 1.6449843645 63.587375641 1.4562306404
 699.38494873  -999.250000 18.750000000  -999.250000  -999.250000  -999.250000  -999.250000 35.215606689 150.32981873 1.6059839725 62.959026337 1.4071177244
 699.53735352  -999.250000 18.750000000  -999.250000  -999.250000  -999.250000  -999.250000 29.325359344 148.88375854 1.5659819841 63.403564453 1.4089952707
 699.68975830  -999.250000 18.718999863  -999.250000  -999.250000  -999.250000  -999.250000 26.949949265 147.69143677 1.5209796429 63.219596863 1.4209711552
 699.84216309  -999.250000 18.718999863  -999.250000  -999.250000  -999.250000  -999.250000 26.710094452 147.26631165 1.4699543715 63.223987579 1.4030432701
 699.99456787  -999.250000 18.750000000  -999.250000  -999.250000  -999.250000  -999.250000 29.470893860 146.71217346 1.4129575491 63.795169830 1.3581081629
 700.14697266  -999.250000 18.766000748  -999.250000  -999.250000  -999.250000  -999.250000 28.521381378 147.96890259 1.3599928617 63.812950134 1.3111128807
 700.29931641  -999.250000 18.781000137  -999.250000  -999.250000  -999.250000  -999.250000 27.403894424 149.92533875 1.3510019779 63.837905884 1.2721092701
 700.45172119  -999.250000 18.797000885  -999.250000  -999.250000  -999.250000  -999.250000 26.485734940 149.96356201 1.3559967279 63.269058228 1.2640192509
 700.60412598  -999.250000 18.797000885  -999.250000  -999.250000  -999.250000  -999.250000 27.876884460 149.99028015 1.3479932547 63.355678558 1.2769687176
 700.75653076  -999.250000 18.829000473  -999.250000  -999.250000  -999.250000  -999.250000 30.386995316 152.07014465 1.3309919834 62.946479797 1.2959543467
 700.90893555  -999.250000 18.906000137  -999.250000  -999.250000  -999.250000  -999.250000 32.312229156 154.78176880 1.3109923601 62.126960754 1.2860240936
 701.06134033  -999.250000 18.827999115  -999.250000  -999.250000  -999.250000  -999.250000 32.831794739 157.09480286 1.2919944525 62.067207336 1.2640528679
 701.21374512  -999.250000 18.829000473  -999.250000  -999.250000  -999.250000  -999.250000 31.715448380 158.77853394 1.2780032158 62.516376495 1.2420527935
 701.36614990  -999.250000 18.906000137  -999.250000  -999.250000  -999.250000  -999.250000 30.928314209 157.63371277 1.2860000134 62.791126251 1.2599567175
 701.51855469  -999.250000 18.843000412  -999.250000  -999.250000  -999.250000  -999.250000 29.844434738 154.01855469 1.2859991789 63.920372009 1.2729687691
 701.67095947  -999.250000 18.702999115  -999.250000  -999.250000  -999.250000  -999.250000 31.181463242 152.22177124 1.2839912176 64.180175781 1.2640216351
 701.82336426  -999.250000 18.702999115  -999.250000  -999.250000  -999.250000  -999.250000 30.895114899 152.92764282 1.2619814873 64.370391846 1.2430504560
 701.97576904  -999.250000 18.702999115  -999.250000  -999.250000  -999.250000  -999.250000 32.764251709 153.97624207 1.2389839888 63.935398102 1.2200553417
 702.12817383  -999.250000 18.702999115  -999.250000  -999.250000  -999.250000  -999.250000 31.651445389 155.05088806 1.2189807892 63.591098785 1.1950601339
 702.28051758  -999.250000 18.702999115  -999.250000  -999.250000  -999.250000  -999.250000 30.552881241 156.40133667 1.2029951811 63.205390930 1.1720645428
 702.43292236  -999.250000 18.702999115  -999.250000  -999.250000  -999.250000  -999.250000 30.413110733 157.62380981 1.1970144510 63.254821777 1.1759887934
 702.58532715  -999.250000 18.702999115  -999.250000  -999.250000  -999.250000  -999.250000 30.032304764 157.85054016 1.2150144577 63.773128510 1.1929590702
 702.73773193  -999.250000 18.702999115  -999.250000  -999.250000  -999.250000  -999.250000 29.281301498 156.32801819 1.2330152988 63.162220001 1.2209327221
 702.89013672  -999.250000 18.702999115  -999.250000  -999.250000  -999.250000  -999.250000 28.458330154 153.51200867 1.2520159483 63.538635254 1.2459399700
