# LAS format log file from PETREL
# Project units are specified as depth units
#==================================================================
~Version information
VERS.   2.0:
WRAP.   NO:
#==================================================================
~Well
STRT .m      695.27014160 :
STOP .m      4438.8237305 :
STEP .m     0.00000000 :
NULL .        -999.250000 :
COMP.           : COMPANY
WELL.  29/3-1   : WELL
FLD.            : FIELD
LOC.            : LOCATION
SRVC.           : SERVICE COMPANY
DATE.  2018-09-11 14:48:25   : Log Export Date {yyyy-MM-dd HH:mm:ss}
PROV.           : PROVINCE
UWI.   29/3-1   : UNIQUE WELL ID
API.            : API NUMBER
#==================================================================
~Curve
DEPT .m                   : DEPTH
Lithology_geolink ._      : Lithology_geolink
CALI .in                  : CALI
DRHO .g/cm3               : DRHO
NPHI .m3/m3               : NPHI
RHOB .g/cm3               : RHOB
PEF .b/e                  : PEF
GR .gAPI                  : GR
DTC .us/ft                : DTC
RDEP .ohm.m               : RDEP
SP .mV                    : SP
RMED .ohm.m               : RMED
~Parameter
#==================================================================
~Ascii
# ...
 4433.7944336  -999.250000 8.1059999466 -0.021000000 0.0371100008 2.5899999142 17.406000137 24.658000946  -999.250000 11.640999794  -999.250000 8.4060001373
 4433.9467773  -999.250000 8.1090002060 -0.023000000 0.0371100008 2.5820000172 17.797000885 24.695999146  -999.250000 11.640999794  -999.250000 8.4060001373
 4434.0996094  -999.250000 8.1090002060 -0.025000000 0.0371100008 2.5680000782 23.452999115 25.531999588  -999.250000 11.640999794  -999.250000 8.4060001373
 4434.2519531  -999.250000 8.1090002060 -0.028999999 0.0371100008 2.5680000782 21.233999252 25.832000732  -999.250000 11.640999794  -999.250000 8.4020004272
 4434.4042969  -999.250000 8.1140003204 -0.023000000 0.0371100008 2.5780000687 20.843999863 25.691999435  -999.250000 11.640999794  -999.250000 8.3979997635
 4434.5566406  -999.250000 8.1129999161 -0.025000000 0.0371100008 2.5739998817 17.562999725 25.465999603  -999.250000 11.640999794  -999.250000 8.3979997635
 4434.7089844  -999.250000 8.1090002060 -0.026000001 0.0371100008 2.5680000782 15.352000237 26.003999710  -999.250000 11.640999794  -999.250000 8.3979997635
 4434.8613281  -999.250000 8.1090002060 -0.027000001 0.0371100008 2.5680000782 15.522999763 26.176000595  -999.250000 11.640999794  -999.250000 8.3979997635
 4435.0136719  -999.250000 8.1049995422 -0.023000000 0.0371100008 2.5759999752 15.897999763 25.653999329  -999.250000 11.640000343  -999.250000 8.3979997635
 4435.1660156  -999.250000 8.0970001221 -0.022000000 0.0371100008 2.5799999237 15.937999725 24.709999084  -999.250000 11.637000084  -999.250000 8.3979997635
 4435.3183594  -999.250000 8.0979995728 -0.027000001 0.0371100008 2.5720000267 16.608999252 23.364999771  -999.250000 11.637000084  -999.250000 8.3979997635
 4435.4711914  -999.250000 8.1020002365 -0.026000001 0.0371100008 2.5799999237 18.406000137 23.160999298  -999.250000 11.640999794  -999.250000 8.3979997635
 4435.6235352  -999.250000 8.1020002365 -0.023000000 0.0371100008 2.5720000267 23.202999115 23.774999619  -999.250000 11.640999794  -999.250000 8.3979997635
 4435.7758789  -999.250000 8.1020002365 -0.020000000 0.0371100008 2.5840001106 19.952999115 25.357999802  -999.250000 11.640999794  -999.250000 8.3979997635
 4435.9282227  -999.250000 8.1020002365 -0.012000000 0.0371100008 2.5880000591 17.891000748 26.704000473  -999.250000 11.645000458  -999.250000 8.3979997635
 4436.0805664  -999.250000 8.1020002365 -0.007000000 0.0371100008 2.6019999981 15.593999863 26.785999298  -999.250000 11.647999763  -999.250000 8.3979997635
 4436.2329102  -999.250000 8.1020002365 -0.007000000 0.0371100008 2.5920000076 17.016000748 25.892999649  -999.250000 11.647999763  -999.250000 8.3979997635
 4436.3852539  -999.250000 8.1020002365 -0.008000000 0.0371100008 2.5959999561 15.406000137 24.993999481  -999.250000 11.644000053  -999.250000 8.3979997635
 4436.5375977  -999.250000 8.1020002365 -0.013000000 0.0371100008 2.5940001011 16.093999863 25.399000168  -999.250000 11.640999794  -999.250000 8.3979997635
 4436.6899414  -999.250000 8.1020002365 -0.007000000 0.0371100008 2.6019999981 13.562999725 26.031999588  -999.250000 11.640999794  -999.250000 8.3979997635
 4436.8427734  -999.250000 8.1020002365 -0.009000000 0.0371100008 2.6019999981 13.218999863 25.523000717  -999.250000 11.640999794  -999.250000 8.3979997635
 4436.9951172  -999.250000 8.1009998322 -0.009000000 0.0371100008 2.6040000916 14.491999626 24.156999588  -999.250000 11.640999794  -999.250000 8.3979997635
 4437.1474609  -999.250000 8.0889997482 -0.017000001 0.0371100008 2.5980000496 16.187999725 23.764999390  -999.250000 11.640999794  -999.250000 8.3979997635
 4437.2998047  -999.250000 8.0909996033 -0.021000000 0.0375999995 2.5980000496 15.383000374 24.823999405  -999.250000 11.640999794  -999.250000 8.3979997635
 4437.4521484  -999.250000 8.0970001221 -0.017999999 0.0371100008 2.5899999142 14.718999863 25.430999756  -999.250000 11.640999794  -999.250000 8.3979997635
 4437.6044922  -999.250000 8.0979995728 -0.018999999 0.0371100008 2.5859999657 15.163999557 25.239999771  -999.250000 11.640000343  -999.250000 8.3979997635
 4437.7568359  -999.250000 8.0970001221 -0.021000000 0.0371100008 2.5820000172 18.016000748 24.850000381  -999.250000 11.637000084  -999.250000 8.3979997635
 4437.9091797  -999.250000 8.0760002136 -0.022000000 0.0371100008 2.5840001106 18.062999725 25.277999878  -999.250000 11.637000084  -999.250000 8.3979997635
 4438.0620117  -999.250000 5.7960004807 -0.016000001 0.0371100008 2.5999999046 19.608999252 25.871999741  -999.250000 11.640999794  -999.250000 8.3979997635
 4438.2143555  -999.250000 3.9509999752 -0.011000000 0.0751999989 2.6040000916 19.608999252 26.547000885  -999.250000 11.640999794  -999.250000 8.3979997635
 4438.3666992  -999.250000 3.9509999752 -0.008000000 0.0751999989 2.6089999676 19.608999252 27.042999268  -999.250000 11.640999794  -999.250000 8.3979997635
 4438.5190430  -999.250000 3.9509999752 -0.008000000 0.0751999989 2.6089999676 19.608999252 26.660999298  -999.250000 11.640999794  -999.250000 8.3979997635
 4438.6713867  -999.250000 3.9509999752 -0.008000000 0.0751999989 2.6089999676 19.608999252 26.004999161  -999.250000 11.640999794  -999.250000 8.3979997635
 4438.8237305  -999.250000 3.9509999752 -0.008000000 0.0751999989 2.6089999676 19.608999252 26.756999969  -999.250000 11.640999794  -999.250000 8.3979997635
