# LAS format log file from PETREL
# Project units are specified as depth units
#==================================================================
~Version information
VERS.   2.0:
WRAP.   NO:
#==================================================================
~Well
STRT .m      695.27014160 :
STOP .m      4438.8237305 :
STEP .m     0.00000000 :
NULL .        -999.250000 :
COMP.           : COMPANY
WELL.  29/3-1   : WELL
FLD.            : FIELD
LOC.            : LOCATION
SRVC.           : SERVICE COMPANY
DATE.  2018-09-11 14:48:25   : Log Export Date {yyyy-MM-dd HH:mm:ss}
PROV.           : PROVINCE
UWI.   29/3-1   : UNIQUE WELL ID
API.            : API NUMBER
#==================================================================
~Curve
DEPT .m                   : DEPTH
Lithology_geolink ._      : Lithology_geolink
CALI .in                  : CALI
DRHO .g/cm3               : DRHO
NPHI .m3/m3               : NPHI
RHOB .g/cm3               : RHOB
PEF .b/e                  : PEF
GR .gAPI                  : GR
DTC .us/ft                : DTC
RDEP .ohm.m               : RDEP
SP .mV                    : SP
RMED .ohm.m               : RMED
~Parameter
#==================================================================
~Ascii
# ...
 1278.2000732  -999.250000 17.450000763  -999.250000  -999.250000  -999.250000  -999.250000 31.521902084 137.90130615 0.7960000038 50.499519348 0.8809735775
 1278.3525391  -999.250000 17.422000885  -999.250000  -999.250000  -999.250000  -999.250000 32.335350037 138.10693359 0.8069999814 51.328006744 0.8939791322
 1278.5048828  -999.250000 17.447999954  -999.250000  -999.250000  -999.250000  -999.250000 29.672136307 138.38917542 0.8230000138 51.758621216 0.9079663754
 1278.6573486  -999.250000 17.513999939  -999.250000  -999.250000  -999.250000  -999.250000 26.843265533 138.54832458 0.8479999900 52.203933716 0.9249727726
 1278.8096924  -999.250000 17.746000290  -999.250000  -999.250000  -999.250000  -999.250000 27.691316605 138.72158813 0.8719999790 52.214969635 0.9419591427
 1278.9621582  -999.250000 17.856000900  -999.250000  -999.250000  -999.250000  -999.250000 32.452186584 139.07710266 0.8840000033 51.771068573 0.9559775591
 1279.1145020  -999.250000 18.042999268  -999.250000  -999.250000  -999.250000  -999.250000 36.583690643 139.34266663 0.8780000210 50.992500305 0.9679711461
 1279.2669678  -999.250000 17.851999283  -999.250000  -999.250000  -999.250000  -999.250000 37.286437988 139.34669495 0.8709999919 50.690719604 0.9769855738
 1279.4193115  -999.250000 17.486000061  -999.250000  -999.250000  -999.250000  -999.250000 34.864940643 139.08486938 0.8709999919 50.311218262 0.9849871993
 1279.5716553  -999.250000 17.437999725  -999.250000  -999.250000  -999.250000  -999.250000 31.244802475 138.57072449 0.8700000048 49.926231384 0.9899880290
 1279.7241211  -999.250000 17.445999146  -999.250000  -999.250000  -999.250000  -999.250000 27.534969330 138.11235046 0.8590000272 49.645896912 0.9830111861
 1279.8764648  -999.250000 17.452999115  -999.250000  -999.250000  -999.250000  -999.250000 23.921791077 137.91639709 0.8439999819 49.216377258 0.9690335989
 1280.0289307  -999.250000 17.452999115  -999.250000  -999.250000  -999.250000  -999.250000 22.360246658 137.87615967 0.8280000091 48.841201782 0.9470353127
 1280.1812744  -999.250000 17.461999893  -999.250000  -999.250000  -999.250000  -999.250000 21.466432571 137.91209412 0.8090000153 48.535976410 0.9210624695
 1280.3337402  -999.250000 17.486000061  -999.250000  -999.250000  -999.250000  -999.250000 20.999374390 137.95263672 0.7919999957 48.285602570 0.8970384598
 1280.4860840  -999.250000 17.509000778  -999.250000  -999.250000  -999.250000  -999.250000 22.822536469 137.96177673 0.7829999924 48.245128632 0.8780456781
 1280.6385498  -999.250000 17.514999390  -999.250000  -999.250000  -999.250000  -999.250000 25.393939972 137.99696350 0.7770000100 48.509361267 0.8610272408
 1280.7908936  -999.250000 17.481000900  -999.250000  -999.250000  -999.250000  -999.250000 27.274492264 138.04487610 0.7739999890 48.604694366 0.8530191779
 1280.9433594  -999.250000 17.427000046  -999.250000  -999.250000  -999.250000  -999.250000 25.286594391 138.04814148 0.7749999762 48.410469055 0.8480079770
 1281.0957031  -999.250000 17.406000137  -999.250000  -999.250000  -999.250000  -999.250000 23.265619278 138.01698303 0.7799999714 48.719009399 0.8529880047
 1281.2481689  -999.250000 17.406000137  -999.250000  -999.250000  -999.250000  -999.250000 23.311962128 137.94233704 0.7850000262 48.769878387 0.8589904308
 1281.4005127  -999.250000 17.398000717  -999.250000  -999.250000  -999.250000  -999.250000 24.689895630 137.80271912 0.7889999747 48.550704956 0.8649904132
 1281.5528564  -999.250000 17.399000168  -999.250000  -999.250000  -999.250000  -999.250000 26.527055740 137.60885620 0.7919999957 48.829105377 0.8679927588
 1281.7053223  -999.250000 17.406000137  -999.250000  -999.250000  -999.250000  -999.250000 27.403299332 137.39511108 0.7879999876 49.538722992 0.8590144515
 1281.8576660  -999.250000 17.423999786  -999.250000  -999.250000  -999.250000  -999.250000 28.039979935 137.25248718 0.7789999843 50.412200928 0.8540119529
 1282.0101318  -999.250000 17.445999146  -999.250000  -999.250000  -999.250000  -999.250000 28.366739273 137.21380615 0.7720000148 51.147647858 0.8599904180
 1282.1624756  -999.250000 17.469999313  -999.250000  -999.250000  -999.250000  -999.250000 27.624191284 137.20721436 0.7720000148 51.982322693 0.8689783812
 1282.3149414  -999.250000 17.475999832  -999.250000  -999.250000  -999.250000  -999.250000 26.055257797 137.20039368 0.7799999714 51.725624084 0.8749904037
 1282.4672852  -999.250000 17.468999863  -999.250000  -999.250000  -999.250000  -999.250000 26.104959488 137.21879578 0.7910000086 51.106987000 0.8809855580
 1282.6197510  -999.250000 17.468999863  -999.250000  -999.250000  -999.250000  -999.250000 27.562831879 137.28230286 0.8000000119 50.910469055 0.8859919906
 1282.7720947  -999.250000 17.476999283  -999.250000  -999.250000  -999.250000  -999.250000 28.578187943 137.46896362 0.8000000119 50.800350189 0.8899903893
 1282.9245605  -999.250000 17.483999252  -999.250000  -999.250000  -999.250000  -999.250000 27.100185394 137.77751160 0.8000000119 50.799999237 0.8929951787
 1283.0769043  -999.250000 17.483999252  -999.250000  -999.250000  -999.250000  -999.250000 24.309236526 138.04573059 0.7950000167 50.799999237 0.8890095949
 1283.2293701  -999.250000 17.493000031  -999.250000  -999.250000  -999.250000  -999.250000 25.404121399 138.15206909 0.7900000215 50.939662933 0.8830096126
 1283.3817139  -999.250000 17.509000778  -999.250000  -999.250000  -999.250000  -999.250000 27.036691666 138.01762390 0.7839999795 50.910095215 0.8770095706
 1283.5341797  -999.250000 17.516000748  -999.250000  -999.250000  -999.250000  -999.250000 27.854345322 137.67851257 0.7720000148 50.660602570 0.8740048409
 1283.6865234  -999.250000 17.506999969  -999.250000  -999.250000  -999.250000  -999.250000 29.102998734 137.37023926 0.7609999776 50.341026306 0.8720031977
 1283.8388672  -999.250000 17.500000000  -999.250000  -999.250000  -999.250000  -999.250000 30.997961044 137.27302551 0.7570000291 49.966201782 0.8700048327
 1283.9913330  -999.250000 17.534999847  -999.250000  -999.250000  -999.250000  -999.250000 32.384891510 137.36740112 0.7609999776 49.870304108 0.8759903908
 1284.1436768  -999.250000 17.614999771  -999.250000  -999.250000  -999.250000  -999.250000 29.884012222 137.55366516 0.7770000100 49.645721436 0.8839808106
 1284.2961426  -999.250000 17.656000137  -999.250000  -999.250000  -999.250000  -999.250000 25.775291443 137.78726196 0.7810000181 49.285865784 0.8849983811
 1284.4484863  -999.250000 17.621000290  -999.250000  -999.250000  -999.250000  -999.250000 22.282596588 138.04464722 0.7829999924 48.617145538 0.8820072412
 1284.6009521  -999.250000 17.584999084  -999.250000  -999.250000  -999.250000  -999.250000 24.676074982 138.26800537 0.7829999924 48.245887756 0.8680223823
 1284.7532959  -999.250000 17.586999893  -999.250000  -999.250000  -999.250000  -999.250000 27.506732941 138.46276855 0.7779999971 47.671840668 0.8550312519
 1284.9057617  -999.250000 17.593999863  -999.250000  -999.250000  -999.250000  -999.250000 28.139493942 138.66307068 0.7620000243 47.106357574 0.8440176249
 1285.0581055  -999.250000 17.584999084  -999.250000  -999.250000  -999.250000  -999.250000 23.214950562 138.85115051 0.7419999838 47.189727783 0.8330264091
 1285.2105713  -999.250000 17.559999466  -999.250000  -999.250000  -999.250000  -999.250000 20.001571655 139.00825500 0.7329999804 47.369567871 0.8250128031
 1285.3629150  -999.250000 17.511999130  -999.250000  -999.250000  -999.250000  -999.250000 20.082933426 139.12678528 0.7189999819 48.052806854 0.8180168271
 1285.5153809  -999.250000 17.450000763  -999.250000  -999.250000  -999.250000  -999.250000 24.493465424 139.19212341 0.7080000043 48.758304596 0.8130080104
 1285.6677246  -999.250000 17.422000885  -999.250000  -999.250000  -999.250000  -999.250000 29.698827744 139.24620056 0.7039999962 48.505817413 0.8110032082
 1285.8200684  -999.250000 17.422000885  -999.250000  -999.250000  -999.250000  -999.250000 29.706995010 139.36145020 0.6999999881 47.478298187 0.8090048432
