# LAS format log file from PETREL
# Project units are specified as depth units
#==================================================================
~Version information
VERS.   2.0:
WRAP.   NO:
#==================================================================
~Well
STRT .m      695.27014160 :
STOP .m      4438.8237305 :
STEP .m     0.00000000 :
NULL .        -999.250000 :
COMP.           : COMPANY
WELL.  29/3-1   : WELL
FLD.            : FIELD
LOC.            : LOCATION
SRVC.           : SERVICE COMPANY
DATE.  2018-09-11 14:48:25   : Log Export Date {yyyy-MM-dd HH:mm:ss}
PROV.           : PROVINCE
UWI.   29/3-1   : UNIQUE WELL ID
API.            : API NUMBER
#==================================================================
~Curve
DEPT .m                   : DEPTH
Lithology_geolink ._      : Lithology_geolink
CALI .in                  : CALI
DRHO .g/cm3               : DRHO
NPHI .m3/m3               : NPHI
RHOB .g/cm3               : RHOB
PEF .b/e                  : PEF
GR .gAPI                  : GR
DTC .us/ft                : DTC
RDEP .ohm.m               : RDEP
SP .mV                    : SP
RMED .ohm.m               : RMED
~Parameter
#==================================================================
~Ascii
# ...
 3275.7070313 12.000000000 12.220999718 0.0059951926 0.2413732260 2.5729999542  -999.250000 42.466999054 90.220039368 2.3199999332  -999.250000 2.4079999924
 3275.8593750 12.000000000 12.223000526 0.0030048077 0.2496214062 2.5620000362  -999.250000 45.276000977 90.043144226 2.3220000267  -999.250000 2.4159998894
 3276.0117188 12.000000000 12.223000526 0.0060096155 0.2504841983 2.5610001087  -999.250000 44.759998322 89.843833923 2.3320000172  -999.250000 2.4249999523
 3276.1643066 12.000000000 12.225000381 0.0120032001 0.2468280196 2.5680000782  -999.250000 43.516998291 89.775657654 2.3469998837  -999.250000 2.4400000572
 3276.3166504 12.000000000 12.226000786 0.0129935900 0.2368501723 2.5729999542  -999.250000 43.111999512 89.800903320 2.3670001030  -999.250000 2.4570000172
 3276.4689941 12.000000000 12.227000237 0.0089871790 0.2307239622 2.5739998817  -999.250000 42.297000885 89.829475403 2.3819999695  -999.250000 2.4769999981
 3276.6213379 12.000000000 12.227999687 0.0009967949 0.2332085520 2.5659999847  -999.250000 40.828998566 89.633186340 2.3919999599  -999.250000 2.4990000725
 3276.7739258 12.000000000 12.229000092 -0.000993600 0.2448226362 2.5680000782  -999.250000 39.058998108 89.277526855 2.3970000744  -999.250000 2.5199999809
 3276.9262695 12.000000000 12.230999947 0.0010048078 0.2612242103 2.5639998913  -999.250000 38.957000732 89.030929565 2.3859999180  -999.250000 2.5320000648
 3277.0786133 12.000000000 12.232000351 0.0039983978 0.2638179064 2.5680000782  -999.250000 40.813999176 88.958801270 2.3589999676  -999.250000 2.5339999199
 3277.2309570 12.000000000 12.234999657 0.0029935897 0.2500336766 2.5629999638  -999.250000 43.106998444 89.198989868 2.3329999447  -999.250000 2.5120000839
 3277.3835449 12.000000000 12.239998817 -0.001006400 0.2398956865 2.5550000668  -999.250000 42.876998901 89.756843567 2.3110001087  -999.250000 2.4700000286
 3277.5358887 12.000000000 12.246000290 -0.002995192 0.2447781265 2.5480000973  -999.250000 41.500000000 90.348968506 2.2899999619  -999.250000 2.4270000458
 3277.6882324 12.000000000 12.251999855 0.0000192308 0.2435923517 2.5469999313  -999.250000 41.224998474 90.797714233 2.2699999809  -999.250000 2.3849999905
 3277.8405762 12.000000000 12.258000374 0.0120128207 0.2326046526 2.5599999428  -999.250000 42.775001526 90.961853027 2.2490000725  -999.250000 2.3420000076
 3277.9929199 12.000000000 12.262999535 0.0199903846 0.2355100065 2.5759999752  -999.250000 43.305000305 90.825485229 2.2279999256  -999.250000 2.3029999733
 3278.1455078 12.000000000 12.269000053 0.0139808003 0.2417566776 2.5639998913  -999.250000 41.910999298 90.646362305 2.2119998932  -999.250000 2.2799999714
 3278.2978516 12.000000000 12.274999619 0.0079919873 0.2438444495 2.5499999523  -999.250000 40.984001160 90.493118286 2.2090001106  -999.250000 2.2750000954
 3278.4501953 12.000000000 12.281000137 0.0029967949 0.2466150373 2.5420000553  -999.250000 40.662998199 90.181472778 2.2269999981  -999.250000 2.2890000343
 3278.6025391 12.000000000 12.284999847 0.0010016026 0.2497844398 2.5499999523  -999.250000 39.270999908 89.720596313 2.2560000420  -999.250000 2.3190000057
 3278.7551270 12.000000000 12.283999443 0.0020032001 0.2649717927 2.5569999218  -999.250000 37.939998627 89.242996216 2.2929999828  -999.250000 2.3659999371
 3278.9074707 11.000000000 12.279000282 0.0030016026 0.2530508339 2.5620000362  -999.250000 37.838001251 88.615249634 2.3489999771  -999.250000 2.4270000458
 3279.0598145 11.000000000 12.273999214 0.0039983978 0.2411027253 2.5659999847  -999.250000 37.918998718 87.843917847 2.4149999619  -999.250000 2.4939999580
 3279.2121582 11.000000000 12.269000053 0.0029983975 0.2303370237 2.5759999752  -999.250000 37.004001617 87.206695557 2.4809999466  -999.250000 2.5680000782
 3279.3647461 11.000000000 12.263998985 0.0019872000 0.2284580469 2.5799999237  -999.250000 35.669998169 86.735725403 2.5429999828  -999.250000 2.6449999809
 3279.5170898 11.000000000 12.258999825 -0.002008013 0.2216096073 2.5699999332  -999.250000 35.144001007 86.328361511 2.5950000286  -999.250000 2.7209999561
 3279.6694336 11.000000000 12.253999710 -0.007001603 0.2151268721 2.5650000572  -999.250000 34.191001892 86.078224182 2.6280000210  -999.250000 2.7750000954
 3279.8217773 11.000000000 12.248999596 -0.007991987 0.2131710202 2.5510001183  -999.250000 32.832000732 86.066070557 2.6419999599  -999.250000 2.7799999714
 3279.9741211 11.000000000 12.244999886 -0.002993600 0.2075549811 2.5710000992  -999.250000 32.198001862 86.114814758 2.6459999084  -999.250000 2.7590000629
 3280.1267090 11.000000000 12.243000984 0.0010016026 0.1981633902 2.5720000267  -999.250000 31.892000198 86.219749451 2.6449999809  -999.250000 2.7439999580
 3280.2790527 11.000000000 12.243000984 0.0020016027 0.1878064573 2.5869998932  -999.250000 32.285999298 86.443885803 2.6380000114  -999.250000 2.7260000706
 3280.4313965 11.000000000 12.241999626 0.0030016026 0.1856210530 2.5859999657  -999.250000 33.251998901 86.731605530 2.6210000515  -999.250000 2.7060000896
 3280.5837402 11.000000000 12.241999626 0.0040000002 0.1987615824 2.5859999657  -999.250000 34.194999695 87.121948242 2.5999999046  -999.250000 2.6819999218
 3280.7363281 11.000000000 12.241000175 0.0040064002 0.2122346759 2.5840001106  -999.250000 34.708999634 87.596687317 2.5789999962  -999.250000 2.6530001163
 3280.8886719 11.000000000 12.241000175 0.0060048075 0.2230493724 2.5820000172  -999.250000 35.534999847 87.958702087 2.5599999428  -999.250000 2.6219999790
 3281.0410156 11.000000000 12.239998817 0.0090064099 0.2288861275 2.5820000172  -999.250000 37.479999542 88.114532471 2.5420000553  -999.250000 2.6010000706
 3281.1933594 11.000000000 12.239998817 0.0129983975 0.2327118367 2.5840001106  -999.250000 37.754001617 88.155998230 2.5250000954  -999.250000 2.6010000706
 3281.3459473 11.000000000 12.239000320 0.0119808000 0.2400843799 2.5840001106  -999.250000 35.824001312 88.069015503 2.5109999180  -999.250000 2.5999999046
 3281.4982910 11.000000000 12.239000320 0.0059935898 0.2414510101 2.5739998817  -999.250000 35.428001404 87.916488647 2.4990000725  -999.250000 2.5769999027
 3281.6506348 11.000000000 12.239000320 0.0019967949 0.2420700341 2.5590000153  -999.250000 36.709999084 87.831710815 2.4869999886  -999.250000 2.5569999218
 3281.8029785 11.000000000 12.237999916 0.0000032051 0.2420863956 2.5580000877  -999.250000 37.138000488 87.777793884 2.4890000820  -999.250000 2.5520000458
 3281.9555664 11.000000000 12.237999916 0.0020064001 0.2398182899 2.5720000267  -999.250000 36.252998352 87.690620422 2.5139999390  -999.250000 2.5610001087
 3282.1079102 11.000000000 12.237000465 0.0040000002 0.2330404818 2.5759999752  -999.250000 35.618999481 87.499275208 2.5450000763  -999.250000 2.5959999561
 3282.2602539 11.000000000 12.237000465 0.0040000002 0.2208726108 2.5729999542  -999.250000 36.041999817 87.176429749 2.5750000477  -999.250000 2.6489999294
 3282.4125977 11.000000000 12.236000061 0.0039983978 0.2162805498 2.5659999847  -999.250000 36.160999298 86.761039734 2.6059999466  -999.250000 2.7049999237
 3282.5649414 11.000000000 12.236000061 0.0030000000 0.2166178674 2.5720000267  -999.250000 37.102001190 86.292884827 2.6380000114  -999.250000 2.7530000210
 3282.7175293 11.000000000 12.234999657 0.0030032001 0.2152699828 2.5739998817  -999.250000 39.097999573 85.797286987 2.6700000763  -999.250000 2.7880001068
 3282.8698730 11.000000000 12.234999657 0.0040032053 0.2121474296 2.5750000477  -999.250000 38.930000305 85.456153870 2.7019999027  -999.250000 2.8139998913
 3283.0222168 11.000000000 12.234000206 0.0060000001 0.2105492204 2.5729999542  -999.250000 37.603000641 85.500686646 2.7260000706  -999.250000 2.8229999542
 3283.1745605 11.000000000 12.234000206 0.0060000001 0.2162966281 2.5780000687  -999.250000 37.027999878 85.827247620 2.7349998951  -999.250000 2.8039999008
 3283.3271484 11.000000000 12.233000755 0.0059936000 0.2204145342 2.5769999027  -999.250000 37.402999878 86.321212769 2.7330000401  -999.250000 2.7699999809
