# LAS format log file from PETREL
# Project units are specified as depth units
#==================================================================
~Version information
VERS.   2.0:
WRAP.   NO:
#==================================================================
~Well
STRT .m      695.27014160 :
STOP .m      4438.8237305 :
STEP .m     0.00000000 :
NULL .        -999.250000 :
COMP.           : COMPANY
WELL.  29/3-1   : WELL
FLD.            : FIELD
LOC.            : LOCATION
SRVC.           : SERVICE COMPANY
DATE.  2018-09-11 14:48:25   : Log Export Date {yyyy-MM-dd HH:mm:ss}
PROV.           : PROVINCE
UWI.   29/3-1   : UNIQUE WELL ID
API.            : API NUMBER
#==================================================================
~Curve
DEPT .m                   : DEPTH
Lithology_geolink ._      : Lithology_geolink
CALI .in                  : CALI
DRHO .g/cm3               : DRHO
NPHI .m3/m3               : NPHI
RHOB .g/cm3               : RHOB
PEF .b/e                  : PEF
GR .gAPI                  : GR
DTC .us/ft                : DTC
RDEP .ohm.m               : RDEP
SP .mV                    : SP
RMED .ohm.m               : RMED
~Parameter
#==================================================================
~Ascii
# ...
 3850.8645020 6.0000000000 8.2449998856 0.0520000011 0.1544100046 2.6400001049 3.5720000267 84.382003784 73.974617004 7.9510002136  -999.250000 8.2690000534
 3851.0170898 6.0000000000 8.2489995956 0.0419999994 0.1755499989 2.6300001144 3.3900001049 90.950996399 74.552459717 7.6149997711  -999.250000 7.8109998703
 3851.1694336 5.0000000000 8.2589998245 0.0340000018 0.1927899867 2.6319999695 3.2799999714 92.811996460 75.095138550 7.1950001717  -999.250000 7.4640002251
 3851.3217773 5.0000000000 8.2650003433 0.0320000015 0.1907300055 2.6419999599 3.2019999027 84.893997192 75.318107605 6.7729997635  -999.250000 7.1960000992
 3851.4741211 5.0000000000 8.2659997940 0.0230000000 0.1636400074 2.6129999161 3.0959999561 69.274002075 75.537902832 6.3889999390  -999.250000 6.9120001793
 3851.6267090 5.0000000000 8.2690000534 0.0179999992 0.1297100037 2.5650000572 3.0620000362 57.123001099 75.894561768 6.0440001488  -999.250000 6.6250000000
 3851.7790527 5.0000000000 8.2779998779 0.0160000008 0.1209900007 2.5339999199 3.2909998894 53.493999481 76.057899475 5.7509999275  -999.250000 6.4039998055
 3851.9313965 5.0000000000 8.2869997025 0.0230000000 0.1398900002 2.5369999409 3.4449999332 51.379001617 75.865882874 5.5089998245  -999.250000 6.2709999084
 3852.0837402 5.0000000000 8.2860002518 0.0289999992 0.1567599922 2.5299999714 3.4579999447 46.791000366 75.510002136 5.2979998589  -999.250000 6.1579999924
 3852.2360840 5.0000000000 8.2819995880 0.0230000000 0.1606399864 2.4920001030 3.2239999771 41.797000885 75.299186707 5.1329998970  -999.250000 5.9980001450
 3852.3886719 5.0000000000 8.2840003967 0.0170000009 0.1481631249 2.4509999752 3.1919999123 39.389999390 75.078872681 5.0539999008  -999.250000 5.8390002251
 3852.5410156 5.0000000000 8.2880001068 0.0149999997 0.1429269463 2.4479999542 3.3410000801 40.911998749 74.770103455 5.0430002213  -999.250000 5.7649998665
 3852.6933594 3.0000000000 8.2919998169 0.0149999997 0.1534961462 2.4619998932 3.6870000362 44.145999908 74.924308777 5.0510001183  -999.250000 5.8029999733
 3852.8457031 3.0000000000 8.2930002213 0.0240000002 0.1635511070 2.4839999676 3.7799999714 43.901000977 75.028366089 5.0570001602  -999.250000 5.9419999123
 3852.9982910 3.0000000000 8.2869997025 0.0219999999 0.1579406857 2.4700000286 3.4649999142 38.520999908 74.517280579 5.0570001602  -999.250000 6.0809998512
 3853.1506348 3.0000000000 8.2799997330 0.0260000005 0.1363178939 2.4500000477 3.0950000286 31.292999268 74.157028198 5.0599999428  -999.250000 6.1209998131
 3853.3029785 3.0000000000 8.2860002518 0.0189999994 0.1163070574 2.4200000763 2.9539999962 28.635000229 74.175216675 5.0760002136  -999.250000 6.0939998627
 3853.4553223 3.0000000000 8.3090000153 0.0120000001 0.1145044863 2.4110000134 3.0179998875 31.236000061 74.563026428 5.1009998322  -999.250000 6.0359997749
 3853.6079102 3.0000000000 8.3389997482 0.0099999998 0.1298070401 2.4370000362 3.2249999046 39.448001862 75.116157532 5.1160001755  -999.250000 5.9479999542
 3853.7602539 3.0000000000 8.3620004654 0.0140000004 0.1444758475 2.5030000210 3.2699999809 53.330001831 75.546813965 5.0859999657  -999.250000 5.8579998016
 3853.9125977 3.0000000000 8.3909997940 0.0189999994 0.1543588340 2.5789999962 3.2009999752 67.105003357 76.121398926 4.9939999580  -999.250000 5.7740001678
 3854.0649414 6.0000000000 8.4259996414 0.0149999997 0.1661157757 2.6140000820 2.9949998856 74.044998169 76.641204834 4.8699998856  -999.250000 5.6589999199
 3854.2172852 6.0000000000 8.4460000992 0.0080000004 0.1822059900 2.6019999981 2.9189999104 73.597000122 76.638595581 4.7540001869  -999.250000 5.5209999084
 3854.3698730 6.0000000000 8.4580001831 0.0040000002 0.1983845234 2.5829999447 3.0969998837 70.242996216 76.343498230 4.6570000648  -999.250000 5.4190001488
 3854.5222168 6.0000000000 8.4519996643 0.0000000000 0.1935357600 2.5599999428 3.2650001049 62.770999908 76.566780090 4.5780000687  -999.250000 5.3759999275
 3854.6745605 6.0000000000 8.4329996109 0.0000000000 0.1784052551 2.5250000954 3.4679999352 51.196998596 77.261459351 4.5050001144  -999.250000 5.3629999161
 3854.8269043 3.0000000000 8.4259996414 0.0020000001 0.1629768908 2.4790000916 3.7720000744 38.755001068 77.638153076 4.4289999008  -999.250000 5.3509998322
 3854.9794922 3.0000000000 8.4280004501 0.0020000001 0.1547887772 2.4409999847 4.0539999008 31.202999115 77.667800903 4.3550000191  -999.250000 5.3350000381
 3855.1318359 3.0000000000 8.4239997864 0.0000000000 0.1481716186 2.4140000343 3.7049999237 28.205999374 77.597969055 4.2849998474  -999.250000 5.3109998703
 3855.2841797 3.0000000000 8.4079999924 -0.003000000 0.1429391354 2.3949999809 3.1449999809 27.777000427 77.053398132 4.2150001526  -999.250000 5.2480001450
 3855.4365234 3.0000000000 8.3940000534 -0.002000000 0.1361633688 2.3889999390 2.7750000954 29.416999817 76.601837158 4.1510000229  -999.250000 5.1139998436
 3855.5891113 3.0000000000 8.3929996490 0.0020000001 0.1320146024 2.3870000839 2.6359999180 33.158000946 77.057022095 4.0920000076  -999.250000 4.9320001602
 3855.7414551 3.0000000000 8.3970003128 0.0080000004 0.1272281110 2.3940000534 2.5610001087 38.910999298 77.213256836 4.0279998779  -999.250000 4.7729997635
 3855.8937988 3.0000000000 8.3979997635 0.0120000001 0.1322898865 2.4059998989 2.6089999676 45.374000549 76.888137817 3.9509999752  -999.250000 4.6760001183
 3856.0461426 3.0000000000 8.3929996490 0.0140000004 0.1384574771 2.4249999523 2.7400000095 48.277000427 76.584770203 3.8699998856  -999.250000 4.6059999466
 3856.1984863 3.0000000000 8.3680000305 0.0140000004 0.1431139857 2.4370000362 2.9079999924 46.798999786 75.660881042 3.8090000153  -999.250000 4.5260000229
 3856.3510742 3.0000000000 8.3409996033 0.0120000001 0.1393580139 2.4370000362 2.9100000858 44.540000916 74.769554138 3.7829999924  -999.250000 4.4359998703
 3856.5034180 3.0000000000 8.3299999237 0.0120000001 0.1387642920 2.4389998913 2.9330000877 47.056999207 74.537086487 3.8039999008  -999.250000 4.3800001144
 3856.6557617 5.0000000000 8.3420000076 0.0230000000 0.1539303511 2.4649999142 2.9519999027 53.911998749 74.499267578 3.8880000114  -999.250000 4.4359998703
 3856.8081055 5.0000000000 8.3669996262 0.0370000005 0.1728442162 2.5079998970 3.0390000343 60.543998718 74.272079468 4.0120000839  -999.250000 4.6700000763
 3856.9606934 5.0000000000 8.3889999390 0.0359999985 0.1754067093 2.5269999504 3.0209999084 59.139999390 73.711242676 4.1180000305  -999.250000 4.9869999886
 3857.1130371 5.0000000000 8.3999996185 0.0199999996 0.1556548923 2.5160000324 2.9639999866 49.791000366 73.168075562 4.2030000687  -999.250000 5.2150001526
 3857.2653809 5.0000000000 8.3999996185 0.0130000003 0.1337641180 2.4830000401 3.0260000229 37.375999451 72.987785339 4.2979998589  -999.250000 5.3350000381
 3857.4177246 3.0000000000 8.3870000839 0.0099999998 0.1238646507 2.4519999027 3.2769999504 30.471000671 73.199501038 4.4149999619  -999.250000 5.4120001793
 3857.5703125 3.0000000000 8.3450002670 0.0109999999 0.1205379069 2.4360001087 3.7190001011 31.476999283 73.736320496 4.5250000954  -999.250000 5.4670000076
 3857.7226563 3.0000000000 8.2939996719 0.0109999999 0.1230036914 2.4430000782 3.8099999428 36.196998596 74.098365784 4.5819997787  -999.250000 5.5000000000
 3857.8750000 3.0000000000 8.3000001907 0.0199999996 0.1253002882 2.4609999657 3.5590000153 39.870998383 74.151908875 4.5760002136  -999.250000 5.5029997826
 3858.0273438 3.0000000000 8.3509998322 0.0230000000 0.1254782975 2.4649999142 3.2060000896 40.160999298 74.332946777 4.5329999924  -999.250000 5.4460000992
 3858.1796875 3.0000000000 8.3760004044 0.0149999997 0.1181785837 2.4470000267 3.0769999027 40.542999268 74.506858826 4.4920001030  -999.250000 5.3299999237
 3858.3322754 3.0000000000 8.3439998627 0.0040000002 0.1110550463 2.4300000668 3.1689999104 42.660999298 74.475746155 4.4829998016  -999.250000 5.2360000610
 3858.4846191 3.0000000000 8.2919998169 0.0000000000 0.1142144576 2.4400000572 3.2880001068 44.695999146 74.044136047 4.5009999275  -999.250000 5.2449998856
