# LAS format log file from PETREL
# Project units are specified as depth units
#==================================================================
~Version information
VERS.   2.0:
WRAP.   NO:
#==================================================================
~Well
STRT .m      695.27014160 :
STOP .m      4438.8237305 :
STEP .m     0.00000000 :
NULL .        -999.250000 :
COMP.           : COMPANY
WELL.  29/3-1   : WELL
FLD.            : FIELD
LOC.            : LOCATION
SRVC.           : SERVICE COMPANY
DATE.  2018-09-11 14:48:25   : Log Export Date {yyyy-MM-dd HH:mm:ss}
PROV.           : PROVINCE
UWI.   29/3-1   : UNIQUE WELL ID
API.            : API NUMBER
#==================================================================
~Curve
DEPT .m                   : DEPTH
Lithology_geolink ._      : Lithology_geolink
CALI .in                  : CALI
DRHO .g/cm3               : DRHO
NPHI .m3/m3               : NPHI
RHOB .g/cm3               : RHOB
PEF .b/e                  : PEF
GR .gAPI                  : GR
DTC .us/ft                : DTC
RDEP .ohm.m               : RDEP
SP .mV                    : SP
RMED .ohm.m               : RMED
~Parameter
#==================================================================
~Ascii
# ...
 1853.3576660 5.0000000000 17.950000763  -999.250000  -999.250000  -999.250000  -999.250000 46.613281250 127.79396820 0.7960000038 61.708667755 0.8830064535
 1853.5100098 5.0000000000 17.975999832  -999.250000  -999.250000  -999.250000  -999.250000 48.203449249 127.11849213 0.7839999795 61.593273163 0.8830000162
 1853.6624756 5.0000000000 18.003999710  -999.250000  -999.250000  -999.250000  -999.250000 45.817916870 126.80772400 0.7879999876 61.639923096 0.8830000162
 1853.8148193 5.0000000000 18.083000183  -999.250000  -999.250000  -999.250000  -999.250000 43.965969086 127.03792572 0.7820000052 61.647979736 0.8750191927
 1853.9672852 5.0000000000 18.107999802  -999.250000  -999.250000  -999.250000  -999.250000 42.685024261 127.22176361 0.7730000019 62.059341431 0.8799920082
 1854.1196289 5.0000000000 18.104000092  -999.250000  -999.250000  -999.250000  -999.250000 42.746902466 127.40634918 0.7789999843 61.524288177 0.8829928041
 1854.2720947 5.0000000000 18.246999741  -999.250000  -999.250000  -999.250000  -999.250000 43.923057556 127.45803070 0.7879999876 61.213497162 0.8820016384
 1854.4244385 5.0000000000 18.184999466  -999.250000  -999.250000  -999.250000  -999.250000 45.217964172 127.27513123 0.7900000215 61.382591248 0.8770119548
 1854.5769043 5.0000000000 17.996999741  -999.250000  -999.250000  -999.250000  -999.250000 46.653850555 127.45004272 0.7839999795 61.370018005 0.8710095882
 1854.7292480 6.0000000000 18.135000229  -999.250000  -999.250000  -999.250000  -999.250000 48.175777435 128.12133789 0.7900000215 61.564529419 0.8660119772
 1854.8817139 6.0000000000 18.228000641  -999.250000  -999.250000  -999.250000  -999.250000 50.764923096 128.83491516 0.8199999928 61.884487152 0.8669983745
 1855.0340576 6.0000000000 18.056999207  -999.250000  -999.250000  -999.250000  -999.250000 54.343132019 129.09797668 0.8519999981 61.944854736 0.8939351439
 1855.1865234 6.0000000000 17.961999893  -999.250000  -999.250000  -999.250000  -999.250000 56.794040680 128.51206970 0.8840000033 61.268085480 0.9319390655
 1855.3388672 6.0000000000 17.968999863  -999.250000  -999.250000  -999.250000  -999.250000 56.191486359 127.28015137 0.9129999876 61.080303192 0.9619519114
 1855.4913330 6.0000000000 18.045999527  -999.250000  -999.250000  -999.250000  -999.250000 53.252353668 125.79936981 0.9279999733 61.229759216 0.9839648008
 1855.6436768 6.0000000000 18.048999786  -999.250000  -999.250000  -999.250000  -999.250000 47.770393372 124.16175079 0.9229999781 61.943855286 0.9780095816
 1855.7960205 5.0000000000 18.027000427  -999.250000  -999.250000  -999.250000  -999.250000 45.029392242 122.53135681 0.9250000119 62.094642639 0.9660288692
 1855.9484863 5.0000000000 18.135000229  -999.250000  -999.250000  -999.250000  -999.250000 41.127124786 120.94190979 0.9449999928 62.227787018 0.9749855995
 1856.1008301 5.0000000000 18.361999512  -999.250000  -999.250000  -999.250000  -999.250000 36.236839294 119.63096619 0.9729999900 62.402580261 0.9989423752
 1856.2532959 5.0000000000 18.768999100  -999.250000  -999.250000  -999.250000  -999.250000 34.663253784 119.76380920 1.0010000467 61.608272552 1.0239599943
 1856.4056396 5.0000000000 18.833999634  -999.250000  -999.250000  -999.250000  -999.250000 35.947937012 121.79199982 1.0199999809 61.427429199 1.0469448566
 1856.5581055 5.0000000000 18.531000137  -999.250000  -999.250000  -999.250000  -999.250000 41.393634796 124.55351257 1.0190000534 61.464939117 1.0420080423
 1856.7104492 5.0000000000 18.476999283  -999.250000  -999.250000  -999.250000  -999.250000 45.262901306 126.47714996 1.0039999485 61.684471130 1.0270359516
 1856.8629150 5.0000000000 18.461000443  -999.250000  -999.250000  -999.250000  -999.250000 48.787178040 126.84494019 1.0010000467 61.602134705 1.0240048170
 1857.0152588 6.0000000000 18.479000092  -999.250000  -999.250000  -999.250000  -999.250000 50.293792725 126.27084351 1.0060000420 61.265808105 1.0349735022
 1857.1677246 6.0000000000 18.676000595  -999.250000  -999.250000  -999.250000  -999.250000 49.539608002 125.55936432 1.0030000210 60.992439270 1.0369967222
 1857.3200684 6.0000000000 18.649999619  -999.250000  -999.250000  -999.250000  -999.250000 49.008426666 125.28509521 0.9850000143 60.730628967 1.0280215740
 1857.4725342 6.0000000000 18.364000320  -999.250000  -999.250000  -999.250000  -999.250000 50.045169830 125.71935272 0.9649999738 60.395538330 1.0070335865
 1857.6248779 6.0000000000 18.158000946  -999.250000  -999.250000  -999.250000  -999.250000 48.951877594 127.02955627 0.9440000057 60.245239258 0.9800432920
 1857.7772217 6.0000000000 18.152000427  -999.250000  -999.250000  -999.250000  -999.250000 46.869338989 128.99604797 0.9229999781 60.579196930 0.9730167985
 1857.9296875 6.0000000000 18.152999878  -999.250000  -999.250000  -999.250000  -999.250000 44.365005493 130.36283875 0.9129999876 60.799648285 0.9739983678
 1858.0820313 6.0000000000 18.124000549  -999.250000  -999.250000  -999.250000  -999.250000 45.554088593 130.77084351 0.9129999876 61.428485870 0.9779903889
 1858.2344971 6.0000000000 18.048000336  -999.250000  -999.250000  -999.250000  -999.250000 49.128135681 130.29115295 0.9300000072 61.924205780 0.9829919934
 1858.3868408 6.0000000000 18.139999390  -999.250000  -999.250000  -999.250000  -999.250000 50.851242065 128.02989197 0.9459999800 61.296512604 0.9919783473
 1858.5393066 6.0000000000 18.273000717  -999.250000  -999.250000  -999.250000  -999.250000 49.861797333 125.04144287 0.9679999948 60.311580658 1.0019840002
 1858.6916504 6.0000000000 18.111000061  -999.250000  -999.250000  -999.250000  -999.250000 48.697929382 123.73535919 0.9900000095 59.995754242 1.0129735470
 1858.8441162 6.0000000000 18.306999207  -999.250000  -999.250000  -999.250000  -999.250000 49.801113129 124.40613556 1.0060000420 60.189685822 1.0259791613
 1858.9964600 6.0000000000 18.652999878  -999.250000  -999.250000  -999.250000  -999.250000 55.760219574 126.67865753 0.9990000129 60.229904175 1.0339808464
 1859.1489258 6.0000000000 19.347000122  -999.250000  -999.250000  -999.250000  -999.250000 61.101722717 129.92088318 0.9610000253 60.524528503 1.0210208893
 1859.3012695 5.0000000000 20.138999939  -999.250000  -999.250000  -999.250000  -999.250000 58.910758972 132.66838074 0.9250000119 60.589843750 0.9820936918
 1859.4537354 5.0000000000 20.628002167  -999.250000  -999.250000  -999.250000  -999.250000 50.168003082 134.42385864 0.8889999986 60.355377197 0.9420640469
 1859.6060791 5.0000000000 19.854000092  -999.250000  -999.250000  -999.250000  -999.250000 42.038516998 134.54022217 0.8539999723 60.160312653 0.9110496640
 1859.7584229 5.0000000000 19.059000015  -999.250000  -999.250000  -999.250000  -999.250000 36.768440247 132.15213013 0.8399999738 60.120094299 0.8960360289
 1859.9108887 5.0000000000 19.455999374  -999.250000  -999.250000  -999.250000  -999.250000 39.027179718 129.02874756 0.8669999838 60.035137177 0.9169663191
 1860.0632324 5.0000000000 19.143999100  -999.250000  -999.250000  -999.250000  -999.250000 43.012611389 128.05497742 0.8989999890 60.204593658 0.9489231110
 1860.2156982 5.0000000000 19.059999466  -999.250000  -999.250000  -999.250000  -999.250000 48.572547913 129.46005249 0.9089999795 60.424648285 0.9739599228
 1860.3680420 5.0000000000 19.531000137  -999.250000  -999.250000  -999.250000  -999.250000 49.440616608 131.95826721 0.8999999762 60.145671844 0.9769927859
 1860.5205078 5.0000000000 19.023000717  -999.250000  -999.250000  -999.250000  -999.250000 52.054904938 135.15957642 0.8659999967 60.274791718 0.9560336471
 1860.6728516 6.0000000000 18.283000946  -999.250000  -999.250000  -999.250000  -999.250000 53.866550446 138.28480530 0.8270000219 60.060516357 0.9280672073
 1860.8253174 6.0000000000 18.424999237  -999.250000  -999.250000  -999.250000  -999.250000 54.954132080 140.08258057 0.7929999828 59.605728149 0.9010432959
 1860.9776611 6.0000000000 18.753999710  -999.250000  -999.250000  -999.250000  -999.250000 54.037734985 140.36415100 0.7620000243 59.410469055 0.8810480237
