# LAS format log file from PETREL
# Project units are specified as depth units
#==================================================================
~Version information
VERS.   2.0:
WRAP.   NO:
#==================================================================
~Well
STRT .m      695.27014160 :
STOP .m      4438.8237305 :
STEP .m     0.00000000 :
NULL .        -999.250000 :
COMP.           : COMPANY
WELL.  29/3-1   : WELL
FLD.            : FIELD
LOC.            : LOCATION
SRVC.           : SERVICE COMPANY
DATE.  2018-09-11 14:48:25   : Log Export Date {yyyy-MM-dd HH:mm:ss}
PROV.           : PROVINCE
UWI.   29/3-1   : UNIQUE WELL ID
API.            : API NUMBER
#==================================================================
~Curve
DEPT .m                   : DEPTH
Lithology_geolink ._      : Lithology_geolink
CALI .in                  : CALI
DRHO .g/cm3               : DRHO
NPHI .m3/m3               : NPHI
RHOB .g/cm3               : RHOB
PEF .b/e                  : PEF
GR .gAPI                  : GR
DTC .us/ft                : DTC
RDEP .ohm.m               : RDEP
SP .mV                    : SP
RMED .ohm.m               : RMED
~Parameter
#==================================================================
~Ascii
# ...
 1659.0477295  -999.250000 17.233999252  -999.250000  -999.250000  -999.250000  -999.250000 36.623798370 145.44172668 0.5849999785 66.424781799 0.6700080037
 1659.2000732  -999.250000 17.243000031  -999.250000  -999.250000  -999.250000  -999.250000 38.077671051 145.60733032 0.5870000124 66.180587769 0.6650120020
 1659.3525391  -999.250000 17.267000198  -999.250000  -999.250000  -999.250000  -999.250000 38.259853363 145.95913696 0.5770000219 66.197967529 0.6580111980
 1659.5048828  -999.250000 17.290000916  -999.250000  -999.250000  -999.250000  -999.250000 40.395572662 146.35762024 0.5649999976 66.012451172 0.6490216255
 1659.6573486  -999.250000 17.297000885  -999.250000  -999.250000  -999.250000  -999.250000 42.447357178 146.87962341 0.5540000200 66.157760620 0.6400144100
 1659.8096924  -999.250000 17.305000305  -999.250000  -999.250000  -999.250000  -999.250000 41.832988739 147.60075378 0.5440000296 66.067222595 0.6310216188
 1659.9621582  -999.250000 17.295000076  -999.250000  -999.250000  -999.250000  -999.250000 39.489875793 148.22436523 0.5370000005 65.948188782 0.6250095963
 1660.1145020  -999.250000 17.290000916  -999.250000  -999.250000  -999.250000  -999.250000 39.288158417 148.52427673 0.5370000005 66.880760193 0.6210095882
 1660.2669678  -999.250000 17.340000153  -999.250000  -999.250000  -999.250000  -999.250000 40.454067230 148.51705933 0.5370000005 67.206481934 0.6170064211
 1660.4193115  -999.250000 17.357999802  -999.250000  -999.250000  -999.250000  -999.250000 40.548923492 148.33544922 0.5389999747 66.952613831 0.6120119691
 1660.5717773  -999.250000 17.334999084  -999.250000  -999.250000  -999.250000  -999.250000 37.085773468 148.14903259 0.5410000086 66.505714417 0.6119999886
 1660.7241211  -999.250000 17.363000870  -999.250000  -999.250000  -999.250000  -999.250000 34.624973297 147.94113159 0.5419999957 66.315460205 0.6189832091
 1660.8765869  -999.250000 17.399000168  -999.250000  -999.250000  -999.250000  -999.250000 36.404571533 147.56179810 0.5419999957 66.424827576 0.6269871593
 1661.0289307  -999.250000 17.363000870  -999.250000  -999.250000  -999.250000  -999.250000 40.310867310 147.07519531 0.5419999957 66.599716187 0.6339887977
 1661.1812744  -999.250000 17.319000244  -999.250000  -999.250000  -999.250000  -999.250000 43.042625427 146.65301514 0.5389999747 67.050918579 0.6379904151
 1661.3337402  -999.250000 17.304000854  -999.250000  -999.250000  -999.250000  -999.250000 44.714660645 146.69172668 0.5339999795 67.299606323 0.6340064406
 1661.4860840  -999.250000 17.322999954  -999.250000  -999.250000  -999.250000  -999.250000 45.710407257 148.08776855 0.5329999924 67.160339355 0.6230264306
 1661.6385498  -999.250000 17.334999084  -999.250000  -999.250000  -999.250000  -999.250000 45.028549194 148.96366882 0.5329999924 66.491073608 0.6150128245
 1661.7908936  -999.250000 17.336999893  -999.250000  -999.250000  -999.250000  -999.250000 40.486286163 149.33601379 0.5329999924 66.365295410 0.6120072007
 1661.9433594  -999.250000 17.353000641  -999.250000  -999.250000  -999.250000  -999.250000 37.563339233 149.20063782 0.5329999924 66.681488037 0.6110016108
 1662.0957031  -999.250000 17.385000229  -999.250000  -999.250000  -999.250000  -999.250000 37.039421082 148.84747314 0.5329999924 66.771789551 0.6090048552
 1662.2481689  -999.250000 17.406000137  -999.250000  -999.250000  -999.250000  -999.250000 38.512817383 148.66546631 0.5329999924 66.380622864 0.6070032120
 1662.4005127  -999.250000 17.396999359  -999.250000  -999.250000  -999.250000  -999.250000 36.798377991 148.72209167 0.5320000052 66.190460205 0.6060023904
 1662.5529785  -999.250000 17.347000122  -999.250000  -999.250000  -999.250000  -999.250000 36.808986664 149.04142761 0.5239999890 66.684204102 0.6060000062
 1662.7053223  -999.250000 17.287000656  -999.250000  -999.250000  -999.250000  -999.250000 40.556995392 149.44807434 0.5159999728 66.427619934 0.6020095944
 1662.8577881  -999.250000 17.274000168  -999.250000  -999.250000  -999.250000  -999.250000 45.781814575 149.46289063 0.5080000162 66.407028198 0.5940127969
 1663.0101318  -999.250000 17.281999588  -999.250000  -999.250000  -999.250000  -999.250000 46.176685333 148.95292664 0.5000000000 66.387031555 0.5910048485
 1663.1624756  -999.250000 17.315999985  -999.250000  -999.250000  -999.250000  -999.250000 42.833362579 148.35623169 0.4920000136 66.566566467 0.5840167999
 1663.3149414  -999.250000 17.318000793  -999.250000  -999.250000  -999.250000  -999.250000 41.097389221 148.03039551 0.4839999974 67.064201355 0.5770112276
 1663.4672852  -999.250000 17.313999176  -999.250000  -999.250000  -999.250000  -999.250000 39.053276062 148.08226013 0.4749999940 67.523895264 0.5680216551
 1663.6197510  -999.250000 17.354000092  -999.250000  -999.250000  -999.250000  -999.250000 36.427101135 148.33570862 0.4679999948 67.380226135 0.5620095730
 1663.7720947  -999.250000 17.340000153  -999.250000  -999.250000  -999.250000  -999.250000 36.923202515 147.95942688 0.4670000076 66.771461487 0.5619999766
 1663.9245605  -999.250000 17.329999924  -999.250000  -999.250000  -999.250000  -999.250000 38.886425018 145.86062622 0.4790000021 66.375633240 0.5709855556
 1664.0769043  -999.250000 17.370000839  -999.250000  -999.250000  -999.250000  -999.250000 39.507503510 142.33193970 0.4930000007 66.097671509 0.5819736123
 1664.2293701  -999.250000 17.399000168  -999.250000  -999.250000  -999.250000  -999.250000 37.871311188 139.81718445 0.5080000162 66.301673889 0.5979743600
 1664.3817139  -999.250000 17.354000092  -999.250000  -999.250000  -999.250000  -999.250000 36.255294800 140.13806152 0.5350000262 66.758903503 0.6149591804
 1664.5341797  -999.250000 17.320999146  -999.250000  -999.250000  -999.250000  -999.250000 35.565551758 143.15342712 0.5600000024 67.274177551 0.6229872108
 1664.6865234  -999.250000 17.363000870  -999.250000  -999.250000  -999.250000  -999.250000 33.816402435 147.23292542 0.5649999976 67.514419556 0.6170144081
 1664.8389893  -999.250000 17.381000519  -999.250000  -999.250000  -999.250000  -999.250000 31.135147095 150.08103943 0.5450000167 67.103660583 0.6020240188
 1664.9913330  -999.250000 17.322999954  -999.250000  -999.250000  -999.250000  -999.250000 33.012493134 151.09083557 0.5230000019 67.149925232 0.6010016203
 1665.1437988  -999.250000 17.263999939  -999.250000  -999.250000  -999.250000  -999.250000 33.109924316 151.21963501 0.5029888153 67.110061646 0.6010000110
 1665.2961426  -999.250000 17.267999649  -999.250000  -999.250000  -999.250000  -999.250000 37.364589691 151.28387451 0.4959975779 67.491386414 0.5920144320
 1665.4484863  -999.250000 17.333000183  -999.250000  -999.250000  -999.250000  -999.250000 37.948070526 151.18981934 0.4930064082 67.566818237 0.5840191841
 1665.6009521  -999.250000 17.392000198  -999.250000  -999.250000  -999.250000  -999.250000 39.445796967 150.30809021 0.5010064244 67.307418823 0.5800064206
 1665.7532959  -999.250000 17.406000137  -999.250000  -999.250000  -999.250000  -999.250000 40.949588776 148.18367004 0.5090079904 66.768295288 0.5849879980
 1665.9057617  -999.250000 17.431999207  -999.250000  -999.250000  -999.250000  -999.250000 43.381050110 145.16680908 0.5190095901 66.755020142 0.5899919868
 1666.0581055  -999.250000 17.451999664  -999.250000  -999.250000  -999.250000  -999.250000 41.623821259 142.83749390 0.5310096145 66.761985779 0.6029687524
 1666.2105713  -999.250000 17.384000778  -999.250000  -999.250000  -999.250000  -999.250000 37.383399963 142.53585815 0.5430064201 66.208885193 0.6159791350
 1666.3629150  -999.250000 17.311000824  -999.250000  -999.250000  -999.250000  -999.250000 35.916175842 144.41560364 0.5509992242 66.267852783 0.6279711723
 1666.5153809  -999.250000 17.280000687  -999.250000  -999.250000  -999.250000  -999.250000 38.865634918 147.77835083 0.5499759912 66.661369324 0.6289983988
 1666.6677246  -999.250000 17.264999390  -999.250000  -999.250000  -999.250000  -999.250000 41.730705261 150.54318237 0.5349823833 67.148826599 0.6170288324
