# LAS format log file from PETREL
# Project units are specified as depth units
#==================================================================
~Version information
VERS.   2.0:
WRAP.   NO:
#==================================================================
~Well
STRT .m      695.27014160 :
STOP .m      4438.8237305 :
STEP .m     0.00000000 :
NULL .        -999.250000 :
COMP.           : COMPANY
WELL.  29/3-1   : WELL
FLD.            : FIELD
LOC.            : LOCATION
SRVC.           : SERVICE COMPANY
DATE.  2018-09-11 14:48:25   : Log Export Date {yyyy-MM-dd HH:mm:ss}
PROV.           : PROVINCE
UWI.   29/3-1   : UNIQUE WELL ID
API.            : API NUMBER
#==================================================================
~Curve
DEPT .m                   : DEPTH
Lithology_geolink ._      : Lithology_geolink
CALI .in                  : CALI
DRHO .g/cm3               : DRHO
NPHI .m3/m3               : NPHI
RHOB .g/cm3               : RHOB
PEF .b/e                  : PEF
GR .gAPI                  : GR
DTC .us/ft                : DTC
RDEP .ohm.m               : RDEP
SP .mV                    : SP
RMED .ohm.m               : RMED
~Parameter
#==================================================================
~Ascii
# ...
 1083.8901367  -999.250000 17.545000076  -999.250000  -999.250000  -999.250000  -999.250000 19.893571854 141.65643311 0.8139920235 51.105400085 0.9130071998
 1084.0426025  -999.250000 17.547000885  -999.250000  -999.250000  -999.250000  -999.250000 20.648000717 142.05059814 0.8039872050 50.980300903 0.9100048542
 1084.1949463  -999.250000 17.533000946  -999.250000  -999.250000  -999.250000  -999.250000 20.528095245 142.41302490 0.7959944010 51.692710876 0.9070072174
 1084.3474121  -999.250000 17.517000198  -999.250000  -999.250000  -999.250000  -999.250000 21.458000183 142.67031860 0.7889935970 52.298545837 0.9040048122
 1084.4997559  -999.250000 17.516000748  -999.250000  -999.250000  -999.250000  -999.250000 22.392251968 142.86546326 0.7850048542 52.369773865 0.9010072351
 1084.6522217  -999.250000 17.530000687  -999.250000  -999.250000  -999.250000  -999.250000 23.444999695 142.99003601 0.7910096049 52.285205841 0.9010000229
 1084.8045654  -999.250000 17.531000137  -999.250000  -999.250000  -999.250000  -999.250000 23.512945175 142.91633606 0.7970048189 51.966026306 0.9049935341
 1084.9569092  -999.250000 17.517000198  -999.250000  -999.250000  -999.250000  -999.250000 25.660278320 142.61259460 0.8030039668 51.730751038 0.9089903831
 1085.1093750  -999.250000 17.530000687  -999.250000  -999.250000  -999.250000  -999.250000 26.370431900 142.19750977 0.8080040216 51.605400085 0.9129935503
 1085.2617188  -999.250000 17.517000198  -999.250000  -999.250000  -999.250000  -999.250000 25.772480011 141.88912964 0.8130040169 51.829280853 0.9169903994
 1085.4141846  -999.250000 17.516000748  -999.250000  -999.250000  -999.250000  -999.250000 24.533000946 141.77719116 0.8180007935 51.909744263 0.9219920039
 1085.5665283  -999.250000 17.516000748  -999.250000  -999.250000  -999.250000  -999.250000 24.291194916 141.71989441 0.8189992309 51.870128632 0.9269880056
 1085.7189941  -999.250000 17.530000687  -999.250000  -999.250000  -999.250000  -999.250000 25.783000946 141.68647766 0.8180000186 52.064529419 0.9299951792
 1085.8713379  -999.250000 17.517000198  -999.250000  -999.250000  -999.250000  -999.250000 27.463653564 141.79956055 0.8180000186 51.755992889 0.9240144491
 1086.0238037  -999.250000 17.502000809  -999.250000  -999.250000  -999.250000  -999.250000 26.579000473 141.99604797 0.8180016279 51.355960846 0.9190080166
 1086.1761475  -999.250000 17.513999939  -999.250000  -999.250000  -999.250000  -999.250000 24.634557724 142.15794373 0.8200016022 51.230400085 0.9150096178
 1086.3286133  -999.250000 17.528999329  -999.250000  -999.250000  -999.250000  -999.250000 24.312999725 142.27845764 0.8220032454 51.314792633 0.9199920297
 1086.4809570  -999.250000 17.517000198  -999.250000  -999.250000  -999.250000  -999.250000 25.500999451 142.33415222 0.8240000010 51.564197540 0.9289783835
 1086.6334229  -999.250000 17.516000748  -999.250000  -999.250000  -999.250000  -999.250000 25.304000854 142.34449768 0.8239983916 52.163558960 0.9359887838
 1086.7857666  -999.250000 17.516000748  -999.250000  -999.250000  -999.250000  -999.250000 24.594999313 142.37570190 0.8229984045 52.478992462 0.9280127883
 1086.9382324  -999.250000 17.516000748  -999.250000  -999.250000  -999.250000  -999.250000 25.656999588 142.40122986 0.8209967613 51.796646118 0.9210112095
 1087.0905762  -999.250000 17.516000748  -999.250000  -999.250000  -999.250000  -999.250000 26.427999496 142.35461426 0.8189983964 51.441135406 0.9190032482
 1087.2429199  -999.250000 17.514999390  -999.250000  -999.250000  -999.250000  -999.250000 26.017999649 142.27415466 0.8169983625 51.130992889 0.9190000296
 1087.3953857  -999.250000 17.502000809  -999.250000  -999.250000  -999.250000  -999.250000 25.569999695 142.22463989 0.8149983883 50.940608978 0.9190000296
 1087.5477295  -999.250000 17.500000000  -999.250000  -999.250000  -999.250000  -999.250000 24.788000107 142.23985291 0.8129984140 51.398529053 0.9180023670
 1087.7001953  -999.250000 17.513000488  -999.250000  -999.250000  -999.250000  -999.250000 24.018999100 142.30439758 0.8109976053 51.953666687 0.9179999828
 1087.8525391  -999.250000 17.474000931  -999.250000  -999.250000  -999.250000  -999.250000 24.461000443 142.36738586 0.8079992533 52.383621216 0.9179999828
 1088.0050049  -999.250000 17.468999863  -999.250000  -999.250000  -999.250000  -999.250000 26.274999619 142.36608887 0.8070023656 52.200447083 0.9179999828
 1088.1573486  -999.250000 17.510000229  -999.250000  -999.250000  -999.250000  -999.250000 27.152000427 142.28808594 0.8100023866 51.995491028 0.9219903946
 1088.3098145  -999.250000 17.516000748  -999.250000  -999.250000  -999.250000  -999.250000 25.930000305 142.19929504 0.8130032420 52.049865723 0.9259935617
 1088.4621582  -999.250000 17.516000748  -999.250000  -999.250000  -999.250000  -999.250000 24.055000305 142.10670471 0.8150023818 52.189662933 0.9299904108
 1088.6146240  -999.250000 17.514999390  -999.250000  -999.250000  -999.250000  -999.250000 23.628000259 141.98472595 0.8180032372 52.509231567 0.9339935780
 1088.7669678  -999.250000 17.502000809  -999.250000  -999.250000  -999.250000  -999.250000 23.906000137 141.85903931 0.8200023770 52.534938812 0.9369927645
 1088.9194336  -999.250000 17.500000000  -999.250000  -999.250000  -999.250000  -999.250000 24.766000748 141.84600830 0.8230032325 52.495094299 0.9399951696
 1089.0717773  -999.250000 17.500000000  -999.250000  -999.250000  -999.250000  -999.250000 24.632999420 141.98800659 0.8250007629 52.410205841 0.9399999976
 1089.2241211  -999.250000 17.513999939  -999.250000  -999.250000  -999.250000  -999.250000 23.872999191 142.17890930 0.8259959817 52.160800934 0.9399999976
 1089.3765869  -999.250000 17.528999329  -999.250000  -999.250000  -999.250000  -999.250000 24.518999100 142.38003540 0.8209959865 51.491611481 0.9390016198
 1089.5289307  -999.250000 17.531000137  -999.250000  -999.250000  -999.250000  -999.250000 25.448999405 142.62361145 0.8159959912 51.051055908 0.9310191870
 1089.6813965  -999.250000 17.531000137  -999.250000  -999.250000  -999.250000  -999.250000 24.277999878 142.87980652 0.8109983802 51.259494781 0.9230127931
 1089.8337402  -999.250000 17.517000198  -999.250000  -999.250000  -999.250000  -999.250000 22.503999710 143.07560730 0.8089984059 51.424602509 0.9180119634
 1089.9862061  -999.250000 17.502000809  -999.250000  -999.250000  -999.250000  -999.250000 22.886999130 143.20851135 0.8069983721 52.262981415 0.9130079746
 1090.1385498  -999.250000 17.513999939  -999.250000  -999.250000  -999.250000  -999.250000 25.850000381 143.33262634 0.8049983978 52.713916779 0.9080119729
 1090.2908936  -999.250000 17.528999329  -999.250000  -999.250000  -999.250000  -999.250000 27.306833267 143.45091248 0.8029999733 52.201648712 0.9040095806
 1090.4433594  -999.250000 17.517999649  -999.250000  -999.250000  -999.250000  -999.250000 27.415000916 143.52247620 0.8030007482 51.506671906 0.9059951901
 1090.5957031  -999.250000 17.516000748  -999.250000  -999.250000  -999.250000  -999.250000 25.530509949 143.54876709 0.8040016294 51.176055908 0.9069976211
 1090.7480469  -999.250000 17.514999390  -999.250000  -999.250000  -999.250000  -999.250000 25.185276031 143.58787537 0.8059999943 51.314548492 0.9089936018
 1090.9005127  -999.250000 17.489000320  -999.250000  -999.250000  -999.250000  -999.250000 25.374847412 143.67021179 0.8070007563 51.354869843 0.9099976420
 1091.0528564  -999.250000 17.510999680  -999.250000  -999.250000  -999.250000  -999.250000 24.843425751 143.76080322 0.8080000281 51.788608551 0.9129927754
 1091.2053223  -999.250000 17.502000809  -999.250000  -999.250000  -999.250000  -999.250000 22.764999390 143.88879395 0.8100016117 52.103992462 0.9159927964
 1091.3576660  -999.250000 17.513999939  -999.250000  -999.250000  -999.250000  -999.250000 21.684865952 144.21690369 0.8119999766 51.910625458 0.9179951549
 1091.5101318  -999.250000 17.516000748  -999.250000  -999.250000  -999.250000  -999.250000 25.778999329 144.82617188 0.8130007982 51.660602570 0.9160048366
