# LAS format log file from PETREL
# Project units are specified as depth units
#==================================================================
~Version information
VERS.   2.0:
WRAP.   NO:
#==================================================================
~Well
STRT .m      695.27014160 :
STOP .m      4438.8237305 :
STEP .m     0.00000000 :
NULL .        -999.250000 :
COMP.           : COMPANY
WELL.  29/3-1   : WELL
FLD.            : FIELD
LOC.            : LOCATION
SRVC.           : SERVICE COMPANY
DATE.  2018-09-11 14:48:25   : Log Export Date {yyyy-MM-dd HH:mm:ss}
PROV.           : PROVINCE
UWI.   29/3-1   : UNIQUE WELL ID
API.            : API NUMBER
#==================================================================
~Curve
DEPT .m                   : DEPTH
Lithology_geolink ._      : Lithology_geolink
CALI .in                  : CALI
DRHO .g/cm3               : DRHO
NPHI .m3/m3               : NPHI
RHOB .g/cm3               : RHOB
PEF .b/e                  : PEF
GR .gAPI                  : GR
DTC .us/ft                : DTC
RDEP .ohm.m               : RDEP
SP .mV                    : SP
RMED .ohm.m               : RMED
~Parameter
#==================================================================
~Ascii
# ...
 889.58013916  -999.250000 17.416000366  -999.250000  -999.250000  -999.250000  -999.250000 33.877445221 150.58703613 0.7509967685 56.060913086 0.8739976287
 889.73254395  -999.250000 17.431999207  -999.250000  -999.250000  -999.250000  -999.250000 32.658489227 150.35845947 0.7430027723 56.374118805 0.8690120578
 889.88494873  -999.250000 17.437999725  -999.250000  -999.250000  -999.250000  -999.250000 34.089427948 150.28889465 0.7500023842 56.714046478 0.8630144000
 890.03735352  -999.250000 17.437999725  -999.250000  -999.250000  -999.250000  -999.250000 33.286319733 150.55786133 0.7560011744 56.480659485 0.8530240059
 890.18975830  -999.250000 17.437999725  -999.250000  -999.250000  -999.250000  -999.250000 31.927543640 151.10037231 0.7589992285 56.704372406 0.8440216184
 890.34216309  -999.250000 17.437999725  -999.250000  -999.250000  -999.250000  -999.250000 30.086738586 151.67939758 0.7569972277 56.645168304 0.8330264091
 890.49456787  -999.250000 17.437999725  -999.250000  -999.250000  -999.250000  -999.250000 30.316905975 152.05699158 0.7499948144 56.286010742 0.8240216374
 890.64697266  -999.250000 17.437999725  -999.250000  -999.250000  -999.250000  -999.250000 30.934751511 151.99943542 0.7369855642 55.896095276 0.8170167804
 890.79937744  -999.250000 17.437999725  -999.250000  -999.250000  -999.250000  -999.250000 32.411407471 151.60156250 0.7189895511 56.234046936 0.8140072227
 890.95178223  -999.250000 17.485000610  -999.250000  -999.250000  -999.250000  -999.250000 31.078533173 151.01403809 0.7060035467 56.673767090 0.8110072017
 891.10412598  -999.250000 17.496000290  -999.250000  -999.250000  -999.250000  -999.250000 28.746870041 150.35504150 0.7090079784 57.023880005 0.8129944205
 891.25653076  -999.250000 17.445999146  -999.250000  -999.250000  -999.250000  -999.250000 29.287565231 149.80889893 0.7190111876 57.857326508 0.8159927726
 891.40893555  -999.250000 17.422000885  -999.250000  -999.250000  -999.250000  -999.250000 30.541994095 149.61608887 0.7330104113 57.879936218 0.8249783516
 891.56134033  -999.250000 17.422000885  -999.250000  -999.250000  -999.250000  -999.250000 33.527801514 149.81932068 0.7460144162 57.341732025 0.8449519873
 891.71374512  -999.250000 17.413000107  -999.250000  -999.250000  -999.250000  -999.250000 34.259704590 150.13201904 0.7640135884 56.826446533 0.8609615564
 891.86614990  -999.250000 17.406000137  -999.250000  -999.250000  -999.250000  -999.250000 32.357761383 150.55209351 0.7810032368 56.062145233 0.8739687800
 892.01855469  -999.250000 17.406000137  -999.250000  -999.250000  -999.250000  -999.250000 29.730052948 150.94970703 0.7849888206 55.676078796 0.8779904246
 892.17095947  -999.250000 17.406000137  -999.250000  -999.250000  -999.250000  -999.250000 29.506090164 151.13156128 0.7709844112 55.814605713 0.8770023584
 892.32336426  -999.250000 17.406000137  -999.250000  -999.250000  -999.250000  -999.250000 29.679929733 151.10812378 0.7579867840 56.483123779 0.8760023713
 892.47576904  -999.250000 17.406000137  -999.250000  -999.250000  -999.250000  -999.250000 29.851930618 150.84577942 0.7469999790 56.784160614 0.8690168262
 892.62817383  -999.250000 17.415000916  -999.250000  -999.250000  -999.250000  -999.250000 29.966953278 150.51406860 0.7470071912 56.605503082 0.8630144000
 892.78057861  -999.250000 17.422000885  -999.250000  -999.250000  -999.250000  -999.250000 29.931015015 150.21343994 0.7530035973 56.340744019 0.8629999757
 892.93298340  -999.250000 17.413000107  -999.250000  -999.250000  -999.250000  -999.250000 29.362226486 150.06153870 0.7560035586 56.175460815 0.8689855933
 893.08532715  -999.250000 17.406000137  -999.250000  -999.250000  -999.250000  -999.250000 28.393775940 149.99848938 0.7590095997 56.244773865 0.8739860058
 893.23773193  -999.250000 17.415000916  -999.250000  -999.250000  -999.250000  -999.250000 27.708549500 149.79603577 0.7710096240 56.369598389 0.8749971986
 893.39013672  -999.250000 17.422000885  -999.250000  -999.250000  -999.250000  -999.250000 28.191612244 149.61744690 0.7829943895 56.494598389 0.8750000000
 893.54254150  -999.250000 17.422000885  -999.250000  -999.250000  -999.250000  -999.250000 28.609832764 149.58366394 0.7759935856 56.200946808 0.8740023971
 893.69494629  -999.250000 17.422000885  -999.250000  -999.250000  -999.250000  -999.250000 29.487649918 149.76377869 0.7679976225 56.065429688 0.8710072041
 893.84735107  -999.250000 17.422000885  -999.250000  -999.250000  -999.250000  -999.250000 29.240098953 150.14941406 0.7650007606 56.035083771 0.8680071831
 893.99975586  -999.250000 17.422000885  -999.250000  -999.250000  -999.250000  -999.250000 28.378345490 150.44891357 0.7660048008 55.366878510 0.8670023680
 894.15216064  -999.250000 17.422000885  -999.250000  -999.250000  -999.250000  -999.250000 28.470962524 150.56489563 0.7720032334 55.135643005 0.8729856014
 894.30456543  -999.250000 17.422000885  -999.250000  -999.250000  -999.250000  -999.250000 27.591352463 150.54956055 0.7760024071 55.299537659 0.8779879808
 894.45697021  -999.250000 17.422000885  -999.250000  -999.250000  -999.250000  -999.250000 29.277324677 150.50451660 0.7780023813 55.509410858 0.8799951673
 894.60937500  -999.250000 17.413999557  -999.250000  -999.250000  -999.250000  -999.250000 29.459926605 150.49765015 0.7800011635 56.163166046 0.8799999952
 894.76177979  -999.250000 17.406000137  -999.250000  -999.250000  -999.250000  -999.250000 32.193904877 150.47250366 0.7809988260 56.688526154 0.8780048490
 894.91418457  -999.250000 17.413999557  -999.250000  -999.250000  -999.250000  -999.250000 33.364532471 150.51121521 0.7799999714 56.590278625 0.8760048151
 895.06658936  -999.250000 17.413999557  -999.250000  -999.250000  -999.250000  -999.250000 33.733852386 150.58435059 0.7799999714 55.867034912 0.8740048409
 895.21893311  -999.250000 17.406000137  -999.250000  -999.250000  -999.250000  -999.250000 30.386684418 150.57159424 0.7799991965 55.635734558 0.8710083961
 895.37133789  -999.250000 17.406000137  -999.250000  -999.250000  -999.250000  -999.250000 29.446750641 150.56692505 0.7789959908 55.520370483 0.8700023890
 895.52374268  -999.250000 17.413999557  -999.250000  -999.250000  -999.250000  -999.250000 29.174217224 150.65272522 0.7739951611 55.370479584 0.8700000048
 895.67614746  -999.250000 17.422000885  -999.250000  -999.250000  -999.250000  -999.250000 29.652807236 150.75186157 0.7679951787 55.564373016 0.8690024018
 895.82855225  -999.250000 17.422000885  -999.250000  -999.250000  -999.250000  -999.250000 29.270153046 150.80975342 0.7619944215 55.884101868 0.8690000176
 895.98095703  -999.250000 17.422000885  -999.250000  -999.250000  -999.250000  -999.250000 29.810783386 150.88638306 0.7549960017 56.468360901 0.8680023551
 896.13336182  -999.250000 17.422000885  -999.250000  -999.250000  -999.250000  -999.250000 31.807201385 151.00372314 0.7500000000 56.519859314 0.8630120158
 896.28576660  -999.250000 17.422000885  -999.250000  -999.250000  -999.250000  -999.250000 33.608280182 151.07670593 0.7500007749 56.440223694 0.8600072265
 896.43817139  -999.250000 17.422000885  -999.250000  -999.250000  -999.250000  -999.250000 32.466457367 151.01502991 0.7510107756 56.549690247 0.8600000143
 896.59057617  -999.250000 17.422000885  -999.250000  -999.250000  -999.250000  -999.250000 32.685913086 150.83270264 0.7600095868 56.480194092 0.8649879694
 896.74298096  -999.250000 17.422000885  -999.250000  -999.250000  -999.250000  -999.250000 32.783962250 150.58377075 0.7680011988 56.564762115 0.8739783764
 896.89538574  -999.250000 17.422000885  -999.250000  -999.250000  -999.250000  -999.250000 31.364568710 150.44508362 0.7689999938 56.395477295 0.8829783797
 897.04779053  -999.250000 17.422000885  -999.250000  -999.250000  -999.250000  -999.250000 28.528137207 150.48385620 0.7689999938 56.175617218 0.8820024133
 897.20019531  -999.250000 17.422000885  -999.250000  -999.250000  -999.250000  -999.250000 29.319681168 150.48806763 0.7689988017 56.174999237 0.8820000291
