# LAS format log file from PETREL
# Project units are specified as depth units
#==================================================================
~Version information
VERS.   2.0:
WRAP.   NO:
#==================================================================
~Well
STRT .m      695.27014160 :
STOP .m      4438.8237305 :
STEP .m     0.00000000 :
NULL .        -999.250000 :
COMP.           : COMPANY
WELL.  29/3-1   : WELL
FLD.            : FIELD
LOC.            : LOCATION
SRVC.           : SERVICE COMPANY
DATE.  2018-09-11 14:48:25   : Log Export Date {yyyy-MM-dd HH:mm:ss}
PROV.           : PROVINCE
UWI.   29/3-1   : UNIQUE WELL ID
API.            : API NUMBER
#==================================================================
~Curve
DEPT .m                   : DEPTH
Lithology_geolink ._      : Lithology_geolink
CALI .in                  : CALI
DRHO .g/cm3               : DRHO
NPHI .m3/m3               : NPHI
RHOB .g/cm3               : RHOB
PEF .b/e                  : PEF
GR .gAPI                  : GR
DTC .us/ft                : DTC
RDEP .ohm.m               : RDEP
SP .mV                    : SP
RMED .ohm.m               : RMED
~Parameter
#==================================================================
~Ascii
# ...
 1464.7377930  -999.250000 17.193000793  -999.250000  -999.250000  -999.250000  -999.250000 35.321998596 141.66709900 0.6929960251 62.987998962 0.7760016322
 1464.8901367  -999.250000 17.207000732  -999.250000  -999.250000  -999.250000  -999.250000 32.138999939 141.66705322 0.6879960299 63.580577850 0.7760000229
 1465.0426025  -999.250000 17.233999252  -999.250000  -999.250000  -999.250000  -999.250000 29.809000015 141.66560364 0.6830000281 63.979362488 0.7760000229
 1465.1949463  -999.250000 17.243000031  -999.250000  -999.250000  -999.250000  -999.250000 28.829000473 141.65119934 0.6830040216 63.680721283 0.7760000229
 1465.3474121  -999.250000 17.240999222  -999.250000  -999.250000  -999.250000  -999.250000 32.694999695 141.59304810 0.6879944205 62.998092651 0.7769984007
 1465.4997559  -999.250000 17.233999252  -999.250000  -999.250000  -999.250000  -999.250000 37.721000671 141.46891785 0.6809911728 62.718666077 0.7770000100
 1465.6522217  -999.250000 17.243000031  -999.250000  -999.250000  -999.250000  -999.250000 37.675998688 141.29765320 0.6699839830 62.169879913 0.7770000100
 1465.8045654  -999.250000 17.294000626  -999.250000  -999.250000  -999.250000  -999.250000 35.126998901 141.10742188 0.6600016356 61.571437836 0.7779976130
 1465.9570313  -999.250000 17.363000870  -999.250000  -999.250000  -999.250000  -999.250000 32.522998810 140.90216064 0.6620144248 61.032863617 0.7789983749
 1466.1093750  -999.250000 17.381999969  -999.250000  -999.250000  -999.250000  -999.250000 32.089000702 140.68222046 0.6710088253 59.907707214 0.7859832048
 1466.2618408  -999.250000 17.392999649  -999.250000  -999.250000  -999.250000  -999.250000 33.250000000 140.40562439 0.6820191741 58.391429901 0.7919903994
 1466.4141846  -999.250000 17.440000534  -999.250000  -999.250000  -999.250000  -999.250000 30.704999924 139.78886414 0.6940072179 56.278388977 0.8009855747
 1466.5665283  -999.250000 17.399000168  -999.250000  -999.250000  -999.250000  -999.250000 28.457000732 138.74659729 0.7030072212 54.129165649 0.8069855571
 1466.7189941  -999.250000 17.343000412  -999.250000  -999.250000  -999.250000  -999.250000 23.083999634 137.78445435 0.7120056152 52.183116913 0.7980144024
 1466.8713379  -999.250000 17.299999237  -999.250000  -999.250000  -999.250000  -999.250000 20.363000870 137.17297363 0.7190032005 51.022785187 0.7880240083
 1467.0238037  -999.250000 17.256999969  -999.250000  -999.250000  -999.250000  -999.250000 18.809999466 136.78854370 0.7229992151 50.730464935 0.7760192752
 1467.1761475  -999.250000 17.250000000  -999.250000  -999.250000  -999.250000  -999.250000 19.263000488 136.67073059 0.7219960093 50.675132751 0.7650263906
 1467.3286133  -999.250000 17.242000580  -999.250000  -999.250000  -999.250000  -999.250000 20.267999649 136.91067505 0.7169960141 50.884662628 0.7540176511
 1467.4809570  -999.250000 17.260999680  -999.250000  -999.250000  -999.250000  -999.250000 21.861000061 137.52189636 0.7119904160 51.608261108 0.7410312295
 1467.6334229  -999.250000 17.315000534  -999.250000  -999.250000  -999.250000  -999.250000 21.455999374 138.37174988 0.6999831796 53.097610474 0.7270224094
 1467.7857666  -999.250000 17.291999817  -999.250000  -999.250000  -999.250000  -999.250000 23.288999557 139.18592834 0.6789816022 54.829833984 0.7140312195
 1467.9382324  -999.250000 17.294000626  -999.250000  -999.250000  -999.250000  -999.250000 28.070999146 139.87446594 0.6559647918 56.806835175 0.7080096006
 1468.0905762  -999.250000 17.363000870  -999.250000  -999.250000  -999.250000  -999.250000 34.081001282 140.37196350 0.6339855790 58.286445618 0.7139855623
 1468.2430420  -999.250000 17.391000748  -999.250000  -999.250000  -999.250000  -999.250000 37.770000458 140.43655396 0.6159936190 58.953937531 0.7179935575
 1468.3953857  -999.250000 17.434000015  -999.250000  -999.250000  -999.250000  -999.250000 36.416999817 140.05332947 0.6120088100 59.524089813 0.7369695306
 1468.5478516  -999.250000 17.416000366  -999.250000  -999.250000  -999.250000  -999.250000 34.625000000 139.73156738 0.6230144501 59.310344696 0.7559695840
 1468.7001953  -999.250000 17.305999756  -999.250000  -999.250000  -999.250000  -999.250000 34.405998230 139.99708557 0.6319984198 58.855728149 0.7609919906
 1468.8525391  -999.250000 17.259000778  -999.250000  -999.250000  -999.250000  -999.250000 37.102001190 140.73475647 0.6299936175 58.450973511 0.7440408468
 1469.0050049  -999.250000 17.266000748  -999.250000  -999.250000  -999.250000  -999.250000 36.132999420 141.30151367 0.6219919920 58.245326996 0.7240320444
 1469.1573486  -999.250000 17.309000015  -999.250000  -999.250000  -999.250000  -999.250000 33.974998474 141.11404419 0.6119959950 57.393051147 0.7110312581
 1469.3098145  -999.250000 17.386999130  -999.250000  -999.250000  -999.250000  -999.250000 29.448999405 140.21531677 0.6070048213 55.627830505 0.7239791155
 1469.4621582  -999.250000 17.430999756  -999.250000  -999.250000  -999.250000  -999.250000 26.535999298 139.08003235 0.6130160093 53.963996887 0.7399615645
 1469.6146240  -999.250000 17.437999725  -999.250000  -999.250000  -999.250000  -999.250000 23.393999100 138.05892944 0.6330160499 52.111968994 0.7549759746
 1469.7669678  -999.250000 17.472000122  -999.250000  -999.250000  -999.250000  -999.250000 22.504999161 137.32681274 0.6530120373 50.618591309 0.7609855533
 1469.9194336  -999.250000 17.447999954  -999.250000  -999.250000  -999.250000  -999.250000 23.450000763 136.90417480 0.6680032015 49.616603851 0.7520143986
 1470.0717773  -999.250000 17.379999161  -999.250000  -999.250000  -999.250000  -999.250000 24.576000214 136.89248657 0.6699944139 49.176055908 0.7270600200
 1470.2242432  -999.250000 17.385000229  -999.250000  -999.250000  -999.250000  -999.250000 25.281999588 137.40370178 0.6629871726 49.524440765 0.7140208483
 1470.3765869  -999.250000 17.381000519  -999.250000  -999.250000  -999.250000  -999.250000 25.406000137 137.96566772 0.6549911499 50.078670502 0.7060191631
 1470.5290527  -999.250000 17.402999878  -999.250000  -999.250000  -999.250000  -999.250000 25.808000565 138.09399414 0.6439823508 50.439422607 0.7169823647
 1470.6813965  -999.250000 17.454999924  -999.250000  -999.250000  -999.250000  -999.250000 25.629999161 137.83232117 0.6329944134 50.270271301 0.7309775949
 1470.8337402  -999.250000 17.476999283  -999.250000  -999.250000  -999.250000  -999.250000 25.454000473 137.09210205 0.6260095835 49.631538391 0.7419735789
 1470.9862061  -999.250000 17.475999832  -999.250000  -999.250000  -999.250000  -999.250000 24.917999268 136.16386414 0.6380144358 48.182323456 0.7519839406
 1471.1385498  -999.250000 17.468000412  -999.250000  -999.250000  -999.250000  -999.250000 25.204999924 135.79046631 0.6559960246 47.092617035 0.7500048280
 1471.2910156  -999.250000 17.424999237  -999.250000  -999.250000  -999.250000  -999.250000 25.215000153 135.96319580 0.6509904265 46.855377197 0.7290336490
 1471.4433594  -999.250000 17.391000748  -999.250000  -999.250000  -999.250000  -999.250000 23.756000519 136.27166748 0.6389911771 46.939792633 0.7180263996
 1471.5958252  -999.250000 17.381999969  -999.250000  -999.250000  -999.250000  -999.250000 22.816999435 136.54779053 0.6279951930 47.609924316 0.7080160379
 1471.7481689  -999.250000 17.409000397  -999.250000  -999.250000  -999.250000  -999.250000 23.701000214 136.90274048 0.6220031977 49.237087250 0.7010167837
 1471.9006348  -999.250000 17.402999878  -999.250000  -999.250000  -999.250000  -999.250000 26.030000687 137.55633545 0.6260015965 50.733604431 0.7009999752
 1472.0529785  -999.250000 17.357000351  -999.250000  -999.250000  -999.250000  -999.250000 28.358999252 138.64073181 0.6269935369 52.152587891 0.7000023723
 1472.2054443  -999.250000 17.299999237  -999.250000  -999.250000  -999.250000  -999.250000 30.694000244 139.81001282 0.6189823747 54.673957825 0.6950079799
 1472.3577881  -999.250000 17.256999969  -999.250000  -999.250000  -999.250000  -999.250000 32.825000763 140.56031799 0.6079951525 57.304676056 0.6910095811
