# LAS format log file from PETREL
# Project units are specified as depth units
#==================================================================
~Version information
VERS.   2.0:
WRAP.   NO:
#==================================================================
~Well
STRT .m      200.91401672 :
STOP .m      3436.5195313 :
STEP .m     0.00000000 :
NULL .        -999.250000 :
COMP.           : COMPANY
WELL.  30/3-3   : WELL
FLD.            : FIELD
LOC.            : LOCATION
SRVC.           : SERVICE COMPANY
DATE.  2018-09-11 14:48:28   : Log Export Date {yyyy-MM-dd HH:mm:ss}
PROV.           : PROVINCE
UWI.   30/3-3   : UNIQUE WELL ID
API.            : API NUMBER
#==================================================================
~Curve
DEPT .m                   : DEPTH
Lithology_geolink ._      : Lithology_geolink
CALI .in                  : CALI
DRHO .g/cm3               : DRHO
NPHI .m3/m3               : NPHI
RHOB .g/cm3               : RHOB
PEF .b/e                  : PEF
GR .gAPI                  : GR
DTC .us/ft                : DTC
DTE .us/ft                : DTE
RDEP .ohm.m               : RDEP
SP .mV                    : SP
RSHA .ohm.m               : RSHA
RMED .ohm.m               : RMED
~Parameter
#==================================================================
~Ascii
 200.91401672  -999.250000 17.266000748  -999.250000  -999.250000  -999.250000  -999.250000 13.843999863 206.52339172 206.22460938 2000.0000000 -8.187999725 0.1120000035  -999.250000
 201.06642151  -999.250000 17.297000885  -999.250000  -999.250000  -999.250000  -999.250000 13.241999626 206.50904846 206.22460938 2000.0000000 -6.750000000 0.1120000035  -999.250000
 201.21881104  -999.250000 17.297000885  -999.250000  -999.250000  -999.250000  -999.250000 15.227000237 206.52891541 206.22460938 2000.0000000 -3.250000000 0.1120000035 0.8862701058
 201.37121582  -999.250000 17.281000137  -999.250000  -999.250000  -999.250000  -999.250000 14.640999794 206.50918579 206.22460938 2000.0000000 -1.062999964 0.1199999973 1.1191097498
 201.52362061  -999.250000 17.312999725  -999.250000  -999.250000  -999.250000  -999.250000 15.227000237 206.52325439 206.22460938 2000.0000000 0.6250000000 0.2360000014 0.7374609709
 201.67602539  -999.250000 17.233999252  -999.250000  -999.250000  -999.250000  -999.250000 14.109000206 206.51470947 206.22460938 2000.0000000 0.2500000000 0.1159999967 0.2427845001
 201.82841492  -999.250000 17.327999115  -999.250000  -999.250000  -999.250000  -999.250000 12.694999695 206.52339172 206.22460938 10.796999931 -0.125000000 0.1150000021 0.1363889724
 201.98081970  -999.250000 17.327999115  -999.250000  -999.250000  -999.250000  -999.250000 10.961000443 206.50904846 206.22460938 2000.0000000 -0.125000000 0.1140000001 0.1320148110
 202.13322449  -999.250000 17.297000885  -999.250000  -999.250000  -999.250000  -999.250000 9.8129997253 206.52891541 206.22460938 2000.0000000 2.0000000000 0.1190000027 0.1319999993
 202.28561401  -999.250000 17.327999115  -999.250000  -999.250000  -999.250000  -999.250000 9.5229997635 206.50918579 206.22460938 2000.0000000 0.5630000234 0.1140000001 0.1339925975
 202.43801880  -999.250000 17.218999863  -999.250000  -999.250000  -999.250000  -999.250000 10.116999626 206.52325439 206.22460938 15.781000137 -1.125000000 0.1199999973 0.1340000033
 202.59042358  -999.250000 17.047000885  -999.250000  -999.250000  -999.250000  -999.250000 10.687999725 206.50904846 206.22460938 2000.0000000 -1.562999964 0.1360000074 0.1449603438
 202.74282837  -999.250000 16.406000137  -999.250000  -999.250000  -999.250000  -999.250000 10.680000305 206.52891541 206.22460938 2000.0000000 -2.312999964 0.6769999862 1.0616841316
 202.89521790  -999.250000 16.391000748  -999.250000  -999.250000  -999.250000  -999.250000 12.125000000 206.50918579 206.22460938 2000.0000000 -2.250000000 10.602000237 21.875619888
 203.04762268  -999.250000 16.327999115  -999.250000  -999.250000  -999.250000  -999.250000 13.288999557 206.52325439 206.22460938 0.7879999876 -3.125000000 2000.0000000 1992.6724854
 203.20002747  -999.250000 16.422000885  -999.250000  -999.250000  -999.250000  -999.250000 13.578000069 206.51470947 206.22460938 10.781000137 -2.750000000 160.37500000 11.529742241
 203.35241699  -999.250000 16.875000000  -999.250000  -999.250000  -999.250000  -999.250000 12.711000443 206.52339172 206.22460938 2000.0000000 -4.500000000 0.2269999981 0.2561697066
 203.50482178  -999.250000 17.016000748  -999.250000  -999.250000  -999.250000  -999.250000 11.836000443 206.50904846 206.22460938 2000.0000000 -3.750000000 0.1129999980 0.2698925734
 203.65722656  -999.250000 17.437999725  -999.250000  -999.250000  -999.250000  -999.250000 10.406000137 206.52891541 206.22460938 4.2270002365 -5.313000202 0.1129999980 0.1454505771
 203.80961609  -999.250000 17.641000748  -999.250000  -999.250000  -999.250000  -999.250000 9.2270002365 206.50918579 206.22460938 2.9670000076 -6.750000000 0.1120000035 0.1390222311
 203.96202087  -999.250000 19.031000137  -999.250000  -999.250000  -999.250000  -999.250000 7.5120000839 206.52325439 206.22460938 2000.0000000 -6.688000202 0.1319999993 0.1409925967
 204.11442566  -999.250000 18.812999725  -999.250000  -999.250000  -999.250000  -999.250000 7.2150001526 206.51470947 206.22460938 2000.0000000 -9.656000137 0.4970000088 0.1918161660
 204.26683044  -999.250000 18.843999863  -999.250000  -999.250000  -999.250000  -999.250000 8.0939998627 206.52339172 206.22460938 4.7069997787 -11.81299973 0.1480000019 0.2677260637
 204.41921997  -999.250000 19.077999115  -999.250000  -999.250000  -999.250000  -999.250000 8.6560001373 206.50904846 206.22460938 15.163999557 -15.18799973 0.1809999943 0.2809518278
 204.57162476  -999.250000 17.343999863  -999.250000  -999.250000  -999.250000  -999.250000 9.5159997940 206.52891541 206.22460938 2000.0000000 -17.96899986 1.1050000191 0.3318110704
 204.72402954  -999.250000 17.093999863  -999.250000  -999.250000  -999.250000  -999.250000 9.5159997940 206.50918579 206.22460938 11.319999695 -27.62500000 0.7080000043 0.4595386088
 204.87641907  -999.250000 16.937999725  -999.250000  -999.250000  -999.250000  -999.250000 11.218999863 206.52325439 206.22460938 3.3959999084 -39.28099823 0.7929999828 0.4948703349
 205.02882385  -999.250000 16.797000885  -999.250000  -999.250000  -999.250000  -999.250000 12.343999863 206.50904846 206.22460938 4.8829998970 -51.78099823 1.4750000238 0.4870296121
 205.18122864  -999.250000 16.781000137  -999.250000  -999.250000  -999.250000  -999.250000 12.616999626 206.52891541 206.22460938 6.3239998817 -63.83600235 1.5629999638 0.5139026642
 205.33363342  -999.250000 16.250000000  -999.250000  -999.250000  -999.250000  -999.250000 12.062999725 206.50918579 206.22460938 8.3909997940 -73.92900085 1.3789999485 0.5030396581
 205.48602295  -999.250000 15.843999863  -999.250000  -999.250000  -999.250000  -999.250000 11.218999863 206.52325439 206.22460938 4.9060001373 -83.75800323 1.2599999905 0.4312667251
 205.63842773  -999.250000 18.297000885  -999.250000  -999.250000  -999.250000  -999.250000 10.078000069 206.51470947 206.22460938 3.4240000248 -92.03099823 1.1289999485 0.3542852402
 205.79083252  -999.250000 19.093999863  -999.250000  -999.250000  -999.250000  -999.250000 8.9300003052 206.52339172 206.22460938 3.6760001183 -98.82800293 0.8750000000 0.2852487266
 205.94322205  -999.250000 19.108999252  -999.250000  -999.250000  -999.250000  -999.250000 9.5159997940 206.50904846 206.22460938 4.9219999313 -102.2659988 0.7760000229 0.2541148365
 206.09562683  -999.250000 19.093999863  -999.250000  -999.250000  -999.250000  -999.250000 13.219199181 206.52891541 206.22460938 5.2770705223 -106.4380035 0.7209907770 0.2221185416
 206.24801636  -999.250000 19.108999252  -999.250000  -999.250000  -999.250000  -999.250000 15.211000443 206.50918579 206.22460938 5.9840002060 -111.5309982 0.6290000081 0.1990852058
 206.40040588  -999.250000 19.108999252  -999.250000  -999.250000  -999.250000  -999.250000 18.047000885 206.52325439 206.22460938 5.5630002022 -120.1880035 0.6010000110 0.1880418509
 206.55281067  -999.250000 19.141000748  -999.250000  -999.250000  -999.250000  -999.250000 14.633000374 206.51470947 206.22460938 5.6560001373 -129.9060059 0.7929999828 0.1870038062
 206.70521545  -999.250000 19.108999252  -999.250000  -999.250000  -999.250000  -999.250000 13.788999557 206.52339172 206.22460938 6.6719999313 -141.0630035 0.7969999909 0.1969629526
 206.85760498  -999.250000 19.108999252  -999.250000  -999.250000  -999.250000  -999.250000 12.930000305 206.52360535 206.22460938 8.9610004425 -152.3130035 0.7490000129 0.2368478179
 207.01000977  -999.250000 19.156000137  -999.250000  -999.250000  -999.250000  -999.250000 14.656000137 206.48551941 206.22460938 9.9689998627 -161.3750000 1.1690000296 0.3087260425
 207.16241455  -999.250000 19.093999863  -999.250000  -999.250000  -999.250000  -999.250000 14.663999557 206.52268982 206.22460938 10.147999763 -166.8130035 1.3480000496 0.4096157253
 207.31480408  -999.250000 19.093999863  -999.250000  -999.250000  -999.250000  -999.250000 14.390999794 206.52360535 206.22460938 9.2189998627 -170.0630035 1.6979999542 0.4498477876
 207.46720886  -999.250000 19.077999115  -999.250000  -999.250000  -999.250000  -999.250000 16.172000885 206.51470947 206.22460938 9.4689998627 -172.8130035 1.6150000095 0.4430266321
