# LAS format log file from PETREL
# Project units are specified as depth units
#==================================================================
~Version information
VERS.   2.0:
WRAP.   NO:
#==================================================================
~Well
STRT .m      236.19400024 :
STOP .m      3572.9916992 :
STEP .m     0.00000000 :
NULL .        -999.250000 :
COMP.           : COMPANY
WELL.  30/3-2R   : WELL
FLD.            : FIELD
LOC.            : LOCATION
SRVC.           : SERVICE COMPANY
DATE.  2018-09-11 14:48:27   : Log Export Date {yyyy-MM-dd HH:mm:ss}
PROV.           : PROVINCE
UWI.   30/3-2 R   : UNIQUE WELL ID
API.            : API NUMBER
#==================================================================
~Curve
DEPT .m                   : DEPTH
Lithology_geolink ._      : Lithology_geolink
CALI .in                  : CALI
DRHO .g/cm3               : DRHO
NPHI .m3/m3               : NPHI
RHOB .g/cm3               : RHOB
GR .gAPI                  : GR
DTC .us/ft                : DTC
RDEP .ohm.m               : RDEP
SP .mV                    : SP
RSHA .ohm.m               : RSHA
RMED .ohm.m               : RMED
~Parameter
#==================================================================
~Ascii
# ...
 2676.7277832 13.000000000 13.702000618 0.0089999996 0.3275470734 2.3029999733 69.735801697 103.06300354 1.5950256586 69.760002136 1.0818448067 1.7290096283
 2676.8801270 13.000000000 13.722001076 0.0149999997 0.3391143680 2.3280000687 65.318107605 102.58699799 1.6028831005 70.434997559 1.9660257101 1.7320224047
 2677.0324707 13.000000000 13.565999985 0.0480000004 0.3480663300 2.3859999180 68.492385864 101.53999329 1.5299855471 70.281997681 0.7363605499 1.7460674047
 2677.1848145 13.000000000 13.787000656 0.0700000003 0.3457695842 2.4200000763 63.753005981 100.36900330 1.5210497379 70.563003540 0.9629150629 1.7880561352
 2677.3374023 13.000000000 13.623000145 0.0579999983 0.3391999006 2.4300000668 65.610198975 99.896003723 1.5519776344 71.481002808 2.1531679630 1.8229807615
 2677.4897461 13.000000000 13.399000168 0.0460000001 0.3111088574 2.4489998817 61.003204346 99.500000000 1.5450464487 72.362998962 1.2702035904 1.8169903755
 2677.6420898 13.000000000 13.359000206 0.0399999991 0.2979091108 2.4809999466 63.000148773 99.541007996 1.5741490126 71.538002014 0.7745400667 1.8109952211
 2677.7944336 13.000000000 13.366000175 0.0299999993 0.2911807895 2.4830000401 63.091495514 99.507003784 1.6670448780 71.023002625 1.1116393805 1.8080897331
 2677.9470215 13.000000000 13.413000107 0.0240000002 0.3166581690 2.4709999561 61.534198761 99.046997070 1.6951056719 71.324996948 1.5121728182 1.8643103838
 2678.0993652 13.000000000 13.454999924 0.0350000001 0.3379201293 2.4549999237 62.527793884 97.999992371 1.7280368805 70.778999329 2.1879022121 1.9609967470
 2678.2517090 13.000000000 13.560999870 0.0610000007 0.3567204177 2.3870000839 60.528045654 97.555000305 1.7510160208 70.591003418 1.5037611723 1.9589871168
 2678.4040527 13.000000000 13.469999313 0.0829999968 0.3819497228 2.3039999008 58.680038452 97.172996521 1.7609070539 70.043998718 1.3549679518 1.9510848522
 2678.5563965 13.000000000 13.426000595 0.0949999988 0.4191507101 2.2379999161 53.722908020 97.965003967 1.7029262781 71.251998901 1.3350529671 2.0040128231
 2678.7089844 13.000000000 13.421999931 0.0850000009 0.4132958651 2.1989998817 56.163997650 97.555999756 1.6569391489 70.266998291 1.3670848608 2.0120544434
 2678.8613281 13.000000000 13.421999931 0.0480000004 0.3932889700 2.1630001068 58.661659241 99.421989441 1.6380544901 69.767997742 1.0811603069 2.0285513401
 2679.0136719 13.000000000 13.925000191 0.0270000007 0.3739637733 2.1870000362 62.189502716 100.79000092 1.6719903946 69.507003784 0.5582292080 1.7489166260
 2679.1660156 13.000000000 13.367999077 0.0060000001 0.3762978315 2.2469999790 63.122497559 103.37100220 1.6659631729 69.871002197 0.7005913258 1.6968749762
 2679.3186035 13.000000000 13.312999725 0.0309999995 0.3624514341 2.3680000305 61.554599762 103.43800354 1.6428464651 69.375000000 0.4471744001 1.6194639206
 2679.4709473 13.000000000 13.546999931 0.0689999983 0.3535669148 2.4470000267 58.930839539 101.74800110 1.5948493481 70.085998535 0.8130224347 1.7639439106
 2679.6232910 13.000000000 13.310999870 0.1110000014 0.3641038239 2.4849998951 54.471454620 100.57599640 1.5008926392 72.629997253 0.8279038668 1.7291954756
 2679.7756348 13.000000000 13.342000008 0.0930000022 0.3602356911 2.4500000477 56.001102448 99.518005371 1.4341378212 71.350997925 1.3930079937 1.8508460522
 2679.9282227 13.000000000 13.760000229 0.0350000001 0.3450372517 2.3870000839 56.707897186 100.35600281 1.5200575590 71.344001770 2.6430273056 1.7547919750
 2680.0805664 13.000000000 13.536999702 0.0040000002 0.3286070824 2.3680000305 62.905948639 100.94999695 1.5380865335 71.680000305 2.3379037380 1.6899087429
 2680.2329102 13.000000000 13.593000412 -0.003000000 0.3267832994 2.3870000839 62.879608154 103.88099670 1.5920673609 71.213996887 1.0322227478 1.6330320835
 2680.3852539 13.000000000 13.625000000 0.0080000004 0.3288022280 2.4110000134 65.740036011 105.12799835 1.6339631081 70.589996338 1.1707724333 1.6530368328
 2680.5375977 13.000000000 13.517000198 0.0280000009 0.3115222454 2.4149999619 59.531749725 103.69899750 1.6108974218 71.066001892 1.0296314955 1.6761057377
 2680.6896973 13.000000000 13.401000023 0.0090608001 0.3316099942 2.4120094776 60.000000000 100.67270660 1.5470000505 71.459732056 1.4229999781 1.7419999838
 2680.8422852 13.000000000 13.571999550 0.0109967953 0.3333200216 2.4539327621 57.969001770 99.241279602 1.5360000134 71.599777222 2.9159998894 1.7730000019
 2680.9946289 13.000000000 13.623000145 0.0399535261 0.3418299854 2.5588316917 57.469001770 98.656929016 1.5650000572 69.795898438 3.0179998875 1.7790000439
 2681.1469727 13.000000000 13.727999687 0.1378429383 0.3250999749 2.6768109798 52.000000000 97.179374695 1.5650000572 68.711730957 1.5709999800 1.7879999876
 2681.2993164 13.000000000 13.814001083 0.1280319989 0.3127599955 2.6281569004 52.125000000 96.404479980 1.5559999943 75.252998352 1.0889999866 1.9420000315
 2681.4519043 13.000000000 13.919999123 0.0670977607 0.3078800142 2.5211713314 57.187999725 96.271217346 1.6289999485 76.190528870 3.0699999332 2.1310000420
 2681.6042480 13.000000000 13.986000061 0.0140849361 0.3034000099 2.4441235065 63.655998230 97.104667664 1.6660000086 71.354766846 4.7049999237 2.0739998817
 2681.7565918 13.000000000 14.508000374 0.0030176283 0.3148500025 2.4420030117 66.625000000 98.239181519 1.6200000048 70.538299561 1.1130000353 1.8530000448
 2681.9089355 13.000000000 14.239999771 0.0089807995 0.3269300163 2.4529647827 64.063003540 99.044418335 1.6490000486 70.749320984 1.2869999409 1.8099999428
 2682.0615234 13.000000000 14.201999664 0.0089999996 0.3260599971 2.4549968243 60.530998230 99.145843506 1.6369999647 70.732032776 2.6500000954 1.7849999666
 2682.2138672 13.000000000 14.202999115 0.0119951926 0.3223400116 2.4569969177 60.500000000 98.557945251 1.5399999619 70.590225220 2.3800001144 1.9129999876
 2682.3662109 13.000000000 14.243000031 0.0129983975 0.3217800260 2.4440207481 59.469001770 98.735710144 1.5740000010 70.426261902 2.2479999065 1.8750000000
 2682.5185547 13.000000000 14.361000061 0.0179919861 0.3132399917 2.4320192337 59.562999725 99.169303894 1.6189999580 70.716537476 2.8599998951 1.9229999781
 2682.6708984 13.000000000 14.510999680 0.0349455997 0.3211399913 2.4329969883 59.719001770 99.374351501 1.6260000467 70.548538208 3.0669999123 1.8910000324
 2682.8234863 13.000000000 14.930999756 0.0489775613 0.3287699819 2.4469776154 63.875000000 99.520767212 1.6519999504 70.449157715 2.5950000286 1.9379999638
 2682.9758301 13.000000000 15.104000092 0.0460048094 0.3261899948 2.4460017681 67.438003540 99.733657837 1.6579999924 67.888114929 2.7260000706 1.9040000439
 2683.1281738 13.000000000 14.756999969 0.0280288476 0.3251999915 2.4330208302 64.938003540 99.852813721 1.6230000257 71.046928406 2.5969998837 1.8639999628
 2683.2805176 13.000000000 14.685999870 0.0100576002 0.3112199903 2.3981120586 61.937999725 99.874931335 1.6019999981 74.286613464 1.7749999762 1.8960000277
 2683.4331055 13.000000000 14.784999847 -0.002979167 0.3275699914 2.4039905071 59.405998230 99.656349182 1.5609999895 75.272438049 2.0810000896 1.8799999952
 2683.5854492 13.000000000 15.362999916 -0.006993590 0.3233700097 2.4199743271 58.155998230 99.803764343 1.5190000534 76.021804810 2.4809999466 1.9379999638
 2683.7377930 13.000000000 15.005000114 -0.000011218 0.3367800117 2.4569406509 58.062999725 99.919822693 1.5490000248 72.380844116 2.8190000057 1.9040000439
 2683.8901367 13.000000000 14.813000679 0.0259167999 0.3257499933 2.4859073162 55.937999725 99.959869385 1.5829999447 70.333557129 1.8120000362 1.9359999895
 2684.0427246 13.000000000 14.873999596 0.0479647443 0.3141099811 2.5009758472 55.125000000 99.728363037 1.6030000448 70.961975098 1.0650000572 1.8639999628
 2684.1950684 13.000000000 14.854999542 0.0489983968 0.2948699892 2.4940111637 56.312999725 98.880355835 1.5939999819 70.601577759 2.7179999352 1.8200000525
 2684.3474121 13.000000000 14.798000336 0.0440080129 0.2939999998 2.4880094528 59.375000000 98.474647522 1.5959999561 70.375358582 2.8320000172 1.8040000200
