# LAS format log file from PETREL
# Project units are specified as depth units
#==================================================================
~Version information
VERS.   2.0:
WRAP.   NO:
#==================================================================
~Well
STRT .m      200.91401672 :
STOP .m      3436.5195313 :
STEP .m     0.00000000 :
NULL .        -999.250000 :
COMP.           : COMPANY
WELL.  30/3-3   : WELL
FLD.            : FIELD
LOC.            : LOCATION
SRVC.           : SERVICE COMPANY
DATE.  2018-09-11 14:48:28   : Log Export Date {yyyy-MM-dd HH:mm:ss}
PROV.           : PROVINCE
UWI.   30/3-3   : UNIQUE WELL ID
API.            : API NUMBER
#==================================================================
~Curve
DEPT .m                   : DEPTH
Lithology_geolink ._      : Lithology_geolink
CALI .in                  : CALI
DRHO .g/cm3               : DRHO
NPHI .m3/m3               : NPHI
RHOB .g/cm3               : RHOB
PEF .b/e                  : PEF
GR .gAPI                  : GR
DTC .us/ft                : DTC
DTE .us/ft                : DTE
RDEP .ohm.m               : RDEP
SP .mV                    : SP
RSHA .ohm.m               : RSHA
RMED .ohm.m               : RMED
~Parameter
#==================================================================
~Ascii
# ...
 2353.4123535 13.000000000 15.633000374 0.0020000001  -999.250000 2.4339935780  -999.250000 48.437999725 111.62567902 107.67810059 1.5249999762 55.706001282 2.1410000324 1.5249999762
 2353.5646973 13.000000000 15.616999626 -0.003000000  -999.250000 2.4529695511  -999.250000 49.937999725 111.15326691 107.35408783 1.5829999447 54.737998962 2.2699999809 1.5069999695
 2353.7172852 13.000000000 15.609000206 -0.010004807  -999.250000 2.4900000095  -999.250000 52.560844421 111.14409637 107.29495239 1.5579855442 55.549999237 3.0658621788 1.8289999962
 2353.8696289 13.000000000 15.609000206 -0.012990385  -999.250000 2.5060000420  -999.250000 51.215595245 112.25801086 108.52246857 1.5489888191 55.331001282 2.9785513878 1.7710000277
 2354.0219727 13.000000000 15.625000000 -0.006990400  -999.250000 2.4960160255  -999.250000 49.092899323 112.85980988 108.79872894 1.5420032740 55.644001007 2.0758047104 1.5970000029
 2354.1743164 13.000000000 15.616999626 -0.001000000  -999.250000 2.4510719776  -999.250000 48.405998230 113.04862213 109.11882019 1.5440000296 55.519001007 1.9539999962 1.5629999638
 2354.3269043 13.000000000 15.593999863 0.0010016026  -999.250000 2.4319999218  -999.250000 50.154796600 112.99571228 109.16881561 1.5429887772 55.924999237 1.6923509836 1.5570000410
 2354.4792480 13.000000000 15.703000069 0.0019983975  -999.250000 2.4159998894  -999.250000 49.406650543 113.05108643 109.20486450 1.5359407663 55.987998962 1.9104503393 1.5520000458
 2354.6315918 13.000000000 15.671998978 0.0009984000  -999.250000 2.4159998894  -999.250000 49.808849335 113.34183502 109.25797272 1.4989279509 55.174999237 1.5684607029 1.4859999418
 2354.7839355 13.000000000 15.663999557 0.0000000000  -999.250000 2.4179968834  -999.250000 47.219001770 113.47010040 109.62679291 1.4539999962 56.706001282 1.8559999466 1.4359999895
 2354.9362793 13.000000000 15.633000374 -0.008000000  -999.250000 2.4140064716  -999.250000 49.655998230 113.29409790 109.38841248 1.4309999943 55.799999237 1.8430000544 1.4309999943
 2355.0888672 13.000000000 15.781000137 -0.008001603  -999.250000 2.4260001183  -999.250000 47.813602448 112.35341644 108.47176361 1.4240144491 55.862998962 1.6481987238 1.4550000429
 2355.2412109 13.000000000 15.819999695 -0.008987200  -999.250000 2.4260001183  -999.250000 48.185848236 112.33660126 108.24511719 1.4330176115 56.206001282 1.7729455233 1.4809999466
 2355.3935547 13.000000000 15.805000305 -0.001000000  -999.250000 2.4429728985  -999.250000 46.844001770 111.16703033 107.39126587 1.4440000057 54.206001282 2.3629999161 1.5240000486
 2355.5458984 13.000000000 15.812999725 -0.002000000  -999.250000 2.4380080700  -999.250000 46.780998230 111.08476257 107.14785004 1.4639999866 56.299999237 2.0309998989 1.5650000572
 2355.6984863 13.000000000 15.812999725 0.0000016026  -999.250000 2.4449999332  -999.250000 44.283401489 111.61162567 107.71396637 1.5080848932 55.987998962 1.8603333235 1.6200000048
 2355.8508301 13.000000000 15.788999557 0.0010064103  -999.250000 2.4649999142  -999.250000 45.786357880 110.85838318 106.78131866 1.5610785484 57.081001282 2.0680947304 1.6540000439
 2356.0031738 13.000000000 15.796999931 0.0049935998  -999.250000 2.5099279881  -999.250000 49.129798889 112.36523438 108.56318665 1.6100096703 56.269001007 2.1281745434 1.6399999857
 2356.1555176 13.000000000 15.781000137 0.0010000000  -999.250000 2.5409502983  -999.250000 52.125000000 110.93424225 107.06457520 1.6160000563 56.019001007 2.8610000610 1.6799999475
 2356.3081055 13.000000000 15.781000137 -0.000993590  -999.250000 2.5250000954  -999.250000 49.370594025 107.56022644 103.64994049 1.5679551363 55.394001007 2.2579214573 1.7910000086
 2356.4604492 13.000000000 15.734000206 0.0030064103  -999.250000 2.4900000095  -999.250000 46.619190216 107.56533051 103.39763641 1.5399711132 54.519001007 2.2083110809 1.8059999943
 2356.6127930 13.000000000 16.031000137 0.0069984002  -999.250000 2.4490654469  -999.250000 43.004199982 106.93054962 103.20049286 1.5219663382 55.081001282 1.7785216570 1.7239999771
 2356.7651367 13.000000000 15.953000069 0.0060000001  -999.250000 2.4360208511  -999.250000 45.625000000 108.19192505 104.29123688 1.5010000467 54.549999237 1.4800000191 1.6330000162
 2356.9174805 13.000000000 15.984000206 0.0000000000  -999.250000 2.4300096035  -999.250000 47.469001770 109.91814423 106.00334930 1.4930000305 55.049999237 1.4789999723 1.5119999647
 2357.0700684 13.000000000 15.977000237 0.0000048077  -999.250000 2.4340000153  -999.250000 50.154945374 112.52885437 108.39488220 1.4899903536 56.269001007 1.6176202297 1.4259999990
 2357.2224121 13.000000000 16.108999252 0.0030064001  -999.250000 2.4379935265  -999.250000 49.495700836 113.33267212 109.51500702 1.4840159416 55.331001282 2.0045504570 1.3830000162
 2357.3747559 13.000000000 16.108999252 0.0070000002  -999.250000 2.4429919720  -999.250000 46.812999725 113.93871307 110.13093567 1.4939999580 55.269001007 2.3480000496 1.4099999666
 2357.5270996 13.000000000 16.108999252 0.0000000000  -999.250000 2.4489903450  -999.250000 49.469001770 112.36763763 108.63613129 1.5130000114 55.706001282 2.7709999084 1.5479999781
 2357.6796875 13.000000000 16.062999725 -0.002000000  -999.250000 2.4609999657  -999.250000 48.654796600 110.93082428 106.94068909 1.5320512056 55.894001007 2.4788799286 1.7319999933
 2357.8320313 13.000000000 16.093999863 -0.001998398  -999.250000 2.4769999981  -999.250000 47.901592255 109.90702057 106.18492126 1.5640320778 55.081001282 2.4039599895 1.8539999723
 2357.9843750 13.000000000 16.062999725 -0.001001600  -999.250000 2.4730064869  -999.250000 45.153347015 109.31072235 105.58322144 1.5840319395 55.831001282 2.3787839413 1.8630000353
 2358.1367188 13.000000000 16.077999115 -0.002000000  -999.250000 2.4630160332  -999.250000 43.500000000 110.40688324 106.66623688 1.6039999723 55.644001007 2.2439999580 1.8040000200
 2358.2893066 13.000000000 16.062999725 -0.004996795  -999.250000 2.4470000267  -999.250000 45.872745514 111.77602386 107.67822266 1.6119952202 54.706001282 1.6046906710 1.7530000210
 2358.4416504 13.000000000 16.062999725 -0.002985577  -999.250000 2.4470000267  -999.250000 44.468502045 112.32714844 108.39850616 1.6089519262 56.581001282 2.0351474285 1.6449999809
 2358.5939941 13.000000000 16.172000885 0.0060048001  -999.250000 2.4549870491  -999.250000 44.153900146 111.92672729 108.16550446 1.5789792538 55.331001282 2.1265537739 1.5570000410
 2358.7463379 13.000000000 16.141000748 0.0089999996  -999.250000 2.4490094185  -999.250000 42.844001770 112.32856750 108.57261658 1.5659999847 55.331001282 1.8480000496 1.5329999924
 2358.8986816 13.000000000 16.172000885 0.0049999999  -999.250000 2.4380176067  -999.250000 43.687999725 113.45066071 109.34207153 1.5420000553 55.644001007 1.6770000458 1.5399999619
 2359.0512695 13.000000000 16.125000000 0.0010032052  -999.250000 2.4279999733  -999.250000 44.472957611 112.35662842 108.62061310 1.5129263401 55.956001282 1.9639726877 1.5410000086
 2359.2036133 13.000000000 16.250000000 0.0030384001  -999.250000 2.4220094681  -999.250000 46.935848236 112.39387512 108.52854156 1.4669680595 56.081001282 1.9459999800 1.5559999943
 2359.3559570 13.000000000 16.187999725 0.0270000007  -999.250000 2.4379742146  -999.250000 45.594001770 112.98316193 109.10466003 1.4470000267 55.799999237 1.3220000267 1.5800000429
 2359.5083008 13.000000000 16.608999252 0.0250000004  -999.250000 2.4260194302  -999.250000 47.155998230 113.75273895 109.75585938 1.4029999971 55.674999237 1.2790000439 1.4850000143
 2359.6608887 13.000000000 16.641000748 0.0189903844  -999.250000 2.4140000343  -999.250000 43.036258698 115.40776825 111.69718170 1.3969935179 54.956001282 1.0970753431 1.4140000343
 2359.8132324 13.000000000 16.672000885 0.0130048078  -999.250000 2.3929998875  -999.250000 46.311897278 115.61922455 111.83937073 1.3929775953 55.112998962 1.1434471607 1.4029999971
 2359.9655762 13.000000000 16.641000748 0.0159936007  -999.250000 2.3850128651  -999.250000 45.627998352 114.55892181 110.80596924 1.3789759874 54.581001282 0.7988720536 1.3969999552
