# LAS format log file from PETREL
# Project units are specified as depth units
#==================================================================
~Version information
VERS.   2.0:
WRAP.   NO:
#==================================================================
~Well
STRT .m      236.19400024 :
STOP .m      3572.9916992 :
STEP .m     0.00000000 :
NULL .        -999.250000 :
COMP.           : COMPANY
WELL.  30/3-2R   : WELL
FLD.            : FIELD
LOC.            : LOCATION
SRVC.           : SERVICE COMPANY
DATE.  2018-09-11 14:48:27   : Log Export Date {yyyy-MM-dd HH:mm:ss}
PROV.           : PROVINCE
UWI.   30/3-2 R   : UNIQUE WELL ID
API.            : API NUMBER
#==================================================================
~Curve
DEPT .m                   : DEPTH
Lithology_geolink ._      : Lithology_geolink
CALI .in                  : CALI
DRHO .g/cm3               : DRHO
NPHI .m3/m3               : NPHI
RHOB .g/cm3               : RHOB
GR .gAPI                  : GR
DTC .us/ft                : DTC
RDEP .ohm.m               : RDEP
SP .mV                    : SP
RSHA .ohm.m               : RSHA
RMED .ohm.m               : RMED
~Parameter
#==================================================================
~Ascii
# ...
 1262.1507568  -999.250000 13.657999992 -0.009000000 0.4808529019 1.7950063944 36.562999725 146.79164124 1.0930032730  -999.250000  -999.250000 1.2310096025
 1262.3031006  -999.250000 13.677000046 -0.009000000 0.5093910694 1.7999879122 32.219001770 147.33413696 1.0999832153  -999.250000  -999.250000 1.2080551386
 1262.4555664  -999.250000 13.699999809 -0.010000000 0.5107442737 1.8209663630 33.405998230 147.47689819 1.1099840403  -999.250000  -999.250000 1.2020096779
 1262.6079102  -999.250000 13.689999580 -0.010000000 0.5035931468 1.8489327431 38.905998230 147.05767822 1.1219711304  -999.250000  -999.250000 1.2159663439
 1262.7603760  -999.250000 13.640001297 -0.010000000 0.5075191259 1.8719631433 41.750000000 145.84097290 1.1279903650  -999.250000  -999.250000 1.2529407740
 1262.9127197  -999.250000 13.633000374 -0.008000000 0.4939907491 1.8869639635 43.280998230 144.69491577 1.1309928894  -999.250000  -999.250000 1.3058726788
 1263.0651855  -999.250000 13.604999542 -0.007000000 0.4699744582 1.8860015869 42.655998230 144.00454712 1.1319984198  -999.250000  -999.250000 1.3389470577
 1263.2175293  -999.250000 13.602000237 -0.008000000 0.4727714956 1.8790167570 45.155998230 144.36070251 1.1329976320  -999.250000  -999.250000 1.3320168257
 1263.3699951  -999.250000 13.484000206 -0.003000000 0.4995592833 1.8610287905 47.312999725 145.14038086 1.1320015192  -999.250000  -999.250000 1.2900673151
 1263.5223389  -999.250000 13.440999985 0.0020000001 0.4991095960 1.8470336199 47.905998230 146.18916321 1.1310024261  -999.250000  -999.250000 1.2431129217
 1263.6748047  -999.250000 13.395999908 0.0070000002 0.4985928833 1.8400112391 42.500000000 147.09927368 1.1250096560  -999.250000  -999.250000 1.2100529671
 1263.8271484  -999.250000 13.383999825 -0.003000000 0.4692185521 1.8330111504 39.750000000 147.56661987 1.1090255976  -999.250000  -999.250000 1.1960223913
 1263.9794922  -999.250000 13.362000465 -0.009000000 0.4549551010 1.8320024014 39.312999725 147.88449097 1.0900456905  -999.250000  -999.250000 1.1979951859
 1264.1319580  -999.250000 13.331000328 -0.010000000 0.4488635063 1.8140288591 42.719001770 147.86601257 1.0740256310  -999.250000  -999.250000 1.1970015764
 1264.2843018  -999.250000 13.335000038 -0.006000000 0.4782031775 1.7980383635 39.594001770 147.94087219 1.0600335598  -999.250000  -999.250000 1.1960023642
 1264.4367676  -999.250000 13.321999550 0.0030000000 0.5071009994 1.7910112143 41.219001770 147.99995422 1.0520129204  -999.250000  -999.250000 1.1880128384
 1264.5891113  -999.250000 13.298999786 0.0010000000 0.5083696842 1.7949903011 37.905998230 148.45526123 1.0559903383  -999.250000  -999.250000 1.1730359793
 1264.7415771  -999.250000 13.289999962 -0.005000000 0.5079613328 1.8049839735 41.219001770 148.88565063 1.0589952469  -999.250000  -999.250000 1.1450448036
 1264.8939209  -999.250000 13.267999649 -0.015000000 0.5221030712 1.8119832277 44.780998230 149.24270630 1.0590000153  -999.250000  -999.250000 1.1459976435
 1265.0463867  -999.250000 13.222999573 -0.020000000 0.5259766579 1.8199871778 48.530998230 149.36390686 1.0570032597  -999.250000  -999.250000 1.1879326105
 1265.1987305  -999.250000 13.218999863 -0.017999999 0.5093309879 1.8200000525 46.219001770 149.19213867 1.0530096292  -999.250000  -999.250000 1.2318942547
 1265.3511963  -999.250000 13.232999802 -0.012000000 0.4731799066 1.8130111694 41.905998230 148.85827637 1.0510032177  -999.250000  -999.250000 1.2359935045
 1265.5035400  -999.250000 13.220000267 -0.004000000 0.4793484807 1.8090096712 41.530998230 148.48429871 1.0529952049  -999.250000  -999.250000 1.2230312824
 1265.6560059  -999.250000 13.218999863 0.0020000001 0.4899598360 1.8119952679 47.030998230 148.21621704 1.0579919815  -999.250000  -999.250000 1.1990385056
 1265.8083496  -999.250000 13.232999802 0.0040000002 0.5023251176 1.8309695721 49.375000000 147.95620728 1.0599967241  -999.250000  -999.250000 1.1780335903
 1265.9608154  -999.250000 13.234000206 0.0010000000 0.4962322116 1.8379888535 48.187999725 147.54434204 1.0609984398  -999.250000  -999.250000 1.1700127125
 1266.1131592  -999.250000 13.262999535 -0.003000000 0.4913644195 1.8380000591 45.500000000 147.27120972 1.0609999895  -999.250000  -999.250000 1.1749919653
 1266.2655029  -999.250000 13.208000183 -0.002000000 0.4968495071 1.8320144415 43.812999725 146.99743652 1.0600023270  -999.250000  -999.250000 1.2039303780
 1266.4179688  -999.250000 13.203000069 -0.004000000 0.4962115884 1.8389887810 47.155998230 146.83612061 1.0629951954  -999.250000  -999.250000 1.2229696512
 1266.5703125  -999.250000 13.203000069 -0.005000000 0.4732648134 1.8549616337 47.562999725 146.60935974 1.0719784498  -999.250000  -999.250000 1.2309807539
 1266.7227783  -999.250000 13.203000069 -0.007000000 0.4792485535 1.8619887829 48.625000000 146.56703186 1.0859775543  -999.250000  -999.250000 1.2190191746
 1266.8751221  -999.250000 13.203000069 -0.004000000 0.4649757445 1.8699808121 48.375000000 146.42022705 1.1009639502  -999.250000  -999.250000 1.2289760113
 1267.0275879  -999.250000 13.203000069 -0.001000000 0.4720992446 1.8799840212 49.562999725 146.32507324 1.1119823456  -999.250000  -999.250000 1.2599502802
 1267.1799316  -999.250000 13.210000038 -0.006000000 0.4587226510 1.8889784813 49.594001770 146.09718323 1.1209784746  -999.250000  -999.250000 1.2879327536
 1267.3323975  -999.250000 13.203999519 -0.007000000 0.4620588124 1.8870031834 47.687999725 146.00108337 1.1309840679  -999.250000  -999.250000 1.3169535398
 1267.4847412  -999.250000 13.203000069 -0.002000000 0.4925050139 1.8810144663 45.030998230 146.33273315 1.1419734955  -999.250000  -999.250000 1.3329615593
 1267.6372070  -999.250000 13.218000412 0.0070000002 0.4987322092 1.8939791918 40.094001770 146.50286865 1.1499871016  -999.250000  -999.250000 1.3250129223
 1267.7895508  -999.250000 13.210999489 0.0060000001 0.5001077652 1.9039760828 41.594001770 146.49800110 1.1649639606  -999.250000  -999.250000 1.3180167675
 1267.9420166  -999.250000 13.270000458 -0.003000000 0.4973340631 1.9159808159 43.219001770 146.36109924 1.1699919701  -999.250000  -999.250000 1.3160032034
 1268.0943604  -999.250000 13.265998840 -0.003000000 0.5061232448 1.9080128670 47.530998230 146.23410034 1.1739935875  -999.250000  -999.250000 1.3140032291
 1268.2467041  -999.250000 13.236000061 -0.006000000 0.5226306319 1.9030120373 45.875000000 145.72282410 1.1809831858  -999.250000  -999.250000 1.3339519501
 1268.3991699  -999.250000 13.272001266 -0.002000000 0.5358459949 1.9089903831 45.750000000 145.48019409 1.1839952469  -999.250000  -999.250000 1.3110368252
 1268.5515137  -999.250000 13.288000107 -0.005000000 0.5308945179 1.9319448471 42.437999725 146.23678589 1.1800063848  -999.250000  -999.250000 1.3469423056
 1268.7039795  -999.250000 13.265998840 -0.006000000 0.5489199162 1.9459775686 37.562999725 147.95162964 1.1889928579  -999.250000  -999.250000 1.3539943695
 1268.8563232  -999.250000 13.288000107 -0.008000000 0.5238301158 1.9340288639 35.125000000 149.38769531 1.1880015135  -999.250000  -999.250000 1.4119070768
 1269.0087891  -999.250000 13.418000221 -0.004000000 0.4989960492 1.9040480852 35.812999725 149.31604004 1.1870008707  -999.250000  -999.250000 1.3680353165
 1269.1611328  -999.250000 13.642000198 0.0049999999 0.4566727281 1.8960192204 41.750000000 147.15972900 1.1879991293  -999.250000  -999.250000 1.3689991236
 1269.3135986  -999.250000 14.720000267 0.0060000001 0.4601060748 1.9089791775 44.687999725 143.74073792 1.1810055971  -999.250000  -999.250000 1.3080488443
 1269.4659424  -999.250000 13.135999680 -0.001000000 0.4701579213 1.9379303455 45.750000000 140.60052490 1.1690096855  -999.250000  -999.250000 1.3060015440
 1269.6184082  -999.250000 13.093999863 -0.006000000 0.4924885333 1.9589663744 45.250000000 138.78045654 1.1739959717  -999.250000  -999.250000 1.2770231962
 1269.7707520  -999.250000 13.093999863 -0.008000000 0.4978154302 1.9719687700 43.250000000 137.47105408 1.1789959669  -999.250000  -999.250000 1.3069759607
