# LAS format log file from PETREL
# Project units are specified as depth units
#==================================================================
~Version information
VERS.   2.0:
WRAP.   NO:
#==================================================================
~Well
STRT .m      236.19400024 :
STOP .m      3572.9916992 :
STEP .m     0.00000000 :
NULL .        -999.250000 :
COMP.           : COMPANY
WELL.  30/3-2R   : WELL
FLD.            : FIELD
LOC.            : LOCATION
SRVC.           : SERVICE COMPANY
DATE.  2018-09-11 14:48:27   : Log Export Date {yyyy-MM-dd HH:mm:ss}
PROV.           : PROVINCE
UWI.   30/3-2 R   : UNIQUE WELL ID
API.            : API NUMBER
#==================================================================
~Curve
DEPT .m                   : DEPTH
Lithology_geolink ._      : Lithology_geolink
CALI .in                  : CALI
DRHO .g/cm3               : DRHO
NPHI .m3/m3               : NPHI
RHOB .g/cm3               : RHOB
GR .gAPI                  : GR
DTC .us/ft                : DTC
RDEP .ohm.m               : RDEP
SP .mV                    : SP
RSHA .ohm.m               : RSHA
RMED .ohm.m               : RMED
~Parameter
#==================================================================
~Ascii
# ...
 2319.1972656 13.000000000 12.989998817 0.0219999999 0.3634107411 2.3989999294 54.846305847 104.76000214 1.6030000448 45.668544769 0.1230000034 1.9019999504
 2319.3496094 13.000000000 13.026000023 0.0219999999 0.3700717688 2.4070000648 56.273651123 105.33799744 1.5839999914 45.471321106 0.1230000034 1.8459999561
 2319.5019531 13.000000000 13.038999557 0.0260000005 0.3586999774 2.4099953175 51.687999725 105.81822968 1.5570000410 47.663478851 0.1230000034 1.7999999523
 2319.6542969 13.000000000 13.031000137 0.0270000007 0.3567900062 2.4090015888 50.280998230 106.01967621 1.5219999552 47.195514679 0.1230000034 1.7819999456
 2319.8068848 13.000000000 12.982998848 0.0329999998 0.3470517397 2.4130001068 51.841598511 106.46701050 1.5069999695 47.359733582 0.1230000034 1.7139999866
 2319.9592285 13.000000000 12.979999542 0.0329999998 0.3543700278 2.4170000553 50.348106384 106.44499969 1.5019999743 43.531147003 0.1230000034 1.6890000105
 2320.1115723 13.000000000 12.996999741 0.0359999985 0.3543792963 2.4080142975 52.902648926 106.17143250 1.4950000048 26.058036804 0.1230000034 1.6779999733
 2320.2639160 13.000000000 12.984999657 0.0309999995 0.3477100134 2.3840384483 50.812999725 105.82455444 1.4980000257 -1.547734022 0.1230000034 1.7710000277
 2320.4165039 13.000000000 13.031999588 0.0209999997 0.3366026580 2.3800001144 53.556739807 105.71099854 1.5089999437 -14.62910652 0.1230000034 1.8099999428
 2320.5688477 13.000000000 13.022000313 0.0089999996 0.3382935226 2.3870000839 49.656147003 105.83999634 1.5119999647 -4.977525711 0.1230000034 1.8029999733
 2320.7211914 13.000000000 13.263999939 0.0030000000 0.3592270017 2.3919918537 49.748550415 105.78809357 1.5190000534 7.8584218025 0.1230000034 1.8150000572
 2320.8735352 13.000000000 13.019000053 0.0040000002 0.3885599971 2.3850111961 48.844001770 105.85388947 1.5210000277 11.140764236 0.1230000034 1.8170000315
 2321.0258789 13.000000000 13.019999504 0.0000000000 0.3948400021 2.3859982491 51.937999725 105.68327332 1.5099999905 11.480925560 0.1230000034 1.8380000591
 2321.1784668 13.000000000 13.300999641 -0.004000000 0.3734664321 2.3810000420 52.350311279 106.01499939 1.5010000467 13.289098740 0.1230000034 1.7829999924
 2321.3308105 13.000000000 13.326000214 -0.003000000 0.3650002778 2.3829967976 56.277851105 106.35945129 1.4980000257 17.479278564 0.1230000034 1.7500000000
 2321.4831543 13.000000000 13.223999977 -0.003000000 0.3589300215 2.3760111332 54.312999725 106.97700500 1.4869999886 22.784494400 0.1230000034 1.7269999981
 2321.6354980 13.000000000 13.074000359 0.0020000001 0.3708499968 2.3670144081 57.875000000 107.23358917 1.4670000076 26.499101639 0.1230000034 1.7139999866
 2321.7880859 13.000000000 13.116000175 -0.004000000 0.3720931411 2.3619999886 53.283351898 107.40699768 1.4600000381 30.247003555 0.1230000034 1.6859999895
 2321.9404297 13.000000000 13.274000168 -0.005000000 0.3802849948 2.3719999790 54.742038727 107.60600281 1.4550000429 35.058288574 0.1230000034 1.6699999571
 2322.0927734 13.000000000 13.461999893 -0.006000000 0.3834063411 2.3859775066 49.782848358 107.49916840 1.4559999704 40.003078461 0.1230000034 1.6829999685
 2322.2451172 13.000000000 13.093999863 0.0049999999 0.3811199963 2.3929886818 50.937999725 107.47303772 1.4520000219 44.279296875 0.1230000034 1.6959999800
 2322.3977051 13.000000000 13.108999252 0.0120000001 0.3793999851 2.3929998875 50.441505432 107.41000366 1.4630000591 46.819946289 0.1230000034 1.7170000076
 2322.5500488 13.000000000 13.255998611 0.0209999997 0.3731494844 2.3900001049 52.628154755 107.22299957 1.4620000124 48.097953796 0.1230000034 1.7029999495
 2322.7023926 13.000000000 13.156000137 0.0140000004 0.3728289604 2.3830111027 54.589153290 107.04228973 1.4379999638 48.153911591 0.1230000034 1.7439999580
 2322.8547363 13.000000000 13.229999542 0.0130000003 0.3721700013 2.3760111332 51.562999725 106.70753479 1.4249999523 48.775005341 0.1230000034 1.7860000134
 2323.0070801 13.000000000 13.118000031 0.0109999999 0.4010900259 2.3700094223 52.594001770 106.86673737 1.4049999714 48.980342865 0.1230000034 1.7469999790
 2323.1596680 13.000000000 13.486999512 0.0160000008 0.4090471268 2.3610000610 47.348758698 107.34200287 1.3760000467 49.642936707 0.1230000034 1.6859999895
 2323.3120117 13.000000000 13.335000038 0.0199999996 0.4321486056 2.3500175476 50.316547394 107.81824493 1.3890000582 50.623428345 0.1230000034 1.5490000248
 2323.4643555 13.000000000 13.435000420 0.0089999996 0.4250400066 2.3609824181 52.530998230 107.98174286 1.3789999485 51.123199463 0.1230000034 1.5549999475
 2323.6166992 13.000000000 13.618000031 0.0040000002 0.4238000214 2.3639953136 54.500000000 107.46582794 1.3680000305 52.530483246 0.1230000034 1.5410000086
 2323.7692871 13.000000000 13.592000008 0.0109999999 0.3946362734 2.3599998951 53.678882599 107.56999969 1.3789999485 51.491676331 0.1230000034 1.6299999952
 2323.9216309 13.000000000 13.105999947 0.0219999999 0.3798564374 2.3489999771 48.002555847 107.52499390 1.3869999647 51.670711517 0.1230000034 1.6069999933
 2324.0739746 13.000000000 13.166998863 0.0189999994 0.3838883638 2.3659727573 49.593200684 107.65479279 1.3730000257 51.147838593 0.1230000034 1.6360000372
 2324.2263184 13.000000000 13.090999603 0.0060000001 0.3953399956 2.3819742203 49.094001770 106.92117310 1.3930000067 51.832798004 0.1230000034 1.6929999590
 2324.3789063 13.000000000 13.041999817 0.0000000000 0.3856739104 2.3699998856 52.905197144 105.98400116 1.3919999599 52.528884888 0.1230000034 1.7940000296
 2324.5312500 13.000000000 13.083999634 0.0089999996 0.3693946898 2.3359999657 52.405246735 105.91100311 1.3839999437 52.685749054 0.1230000034 1.8009999990
 2324.6835938 13.000000000 13.039999962 0.0140000004 0.3473991156 2.3130366802 51.935699463 106.57493591 1.4240000248 52.473339081 0.1230000034 1.7150000334
 2324.8359375 13.000000000 13.064998627 0.0030000000 0.3530899882 2.3179919720 50.500000000 107.40666199 1.4630000591 53.226791382 0.1230000034 1.5920000076
 2324.9882813 13.000000000 13.161000252 -0.011000000 0.3509400189 2.3409631252 50.875000000 107.40400696 1.4470000267 59.714179993 0.1230000034 1.6030000448
 2325.1408691 13.000000000 14.179000854 -0.017999999 0.3588271439 2.3689999580 52.287158966 106.48999786 1.4440000057 61.141742706 0.1230000034 1.6749999523
 2325.2932129 13.000000000 13.371999741 -0.009000000 0.3508321345 2.3670032024 56.118301392 105.96683502 1.4110000134 59.113258362 0.1230000034 1.7849999666
 2325.4455566 13.000000000 13.055999756 0.0030000000 0.3583999872 2.3520240784 51.937999725 105.83920288 1.3880000114 56.287532806 0.1230000034 1.7330000401
 2325.5979004 13.000000000 13.104999542 0.0080000004 0.3610800207 2.3330304623 51.812999725 106.49993896 1.4199999571 57.651603699 0.1230000034 1.7029999495
 2325.7504883 13.000000000 13.215999603 0.0089999996 0.3701159060 2.3399999142 48.001304626 107.29900360 1.4600000381 60.373634338 0.1230000034 1.6319999695
 2325.9028320 13.000000000 13.123999596 0.0030000000 0.3800639212 2.3599998951 48.812149048 108.21800232 1.4850000143 58.378208160 0.1230000034 1.6499999762
 2326.0551758 13.000000000 13.100999832 0.0010000000 0.4012297690 2.3919487000 48.285148621 108.60038757 1.5360000134 58.305110931 0.1230000034 1.6430000067
 2326.2075195 13.000000000 13.084999084 -0.004000000 0.4135699868 2.4179582596 50.875000000 107.86218262 1.5199999809 58.231235504 0.1230000034 1.7150000334
 2326.3601074 13.000000000 13.036999702 -0.003000000 0.4027754366 2.4330000877 51.687446594 106.31099701 1.4939999580 58.427684784 0.1230000034 1.8489999771
 2326.5124512 13.000000000 12.937000275 0.0070000002 0.3687765300 2.4370000362 51.345104218 104.68000031 1.4900000095 58.322170258 0.1230000034 1.9869999886
 2326.6647949 13.000000000 12.913999557 0.0219999999 0.3666332662 2.4230225086 52.033946991 104.50527954 1.4960000515 58.281063080 0.1230000034 1.9919999838
 2326.8171387 13.000000000 12.921999931 0.0410000011 0.3686800003 2.3850607872 53.875000000 105.27376556 1.5089999437 57.824733734 0.1230000034 1.8140000105
