# LAS format log file from PETREL
# Project units are specified as depth units
#==================================================================
~Version information
VERS.   2.0:
WRAP.   NO:
#==================================================================
~Well
STRT .m      236.19400024 :
STOP .m      3572.9916992 :
STEP .m     0.00000000 :
NULL .        -999.250000 :
COMP.           : COMPANY
WELL.  30/3-2R   : WELL
FLD.            : FIELD
LOC.            : LOCATION
SRVC.           : SERVICE COMPANY
DATE.  2018-09-11 14:48:27   : Log Export Date {yyyy-MM-dd HH:mm:ss}
PROV.           : PROVINCE
UWI.   30/3-2 R   : UNIQUE WELL ID
API.            : API NUMBER
#==================================================================
~Curve
DEPT .m                   : DEPTH
Lithology_geolink ._      : Lithology_geolink
CALI .in                  : CALI
DRHO .g/cm3               : DRHO
NPHI .m3/m3               : NPHI
RHOB .g/cm3               : RHOB
GR .gAPI                  : GR
DTC .us/ft                : DTC
RDEP .ohm.m               : RDEP
SP .mV                    : SP
RSHA .ohm.m               : RSHA
RMED .ohm.m               : RMED
~Parameter
#==================================================================
~Ascii
# ...
 2148.2043457 5.0000000000 12.762999535 0.0099999998 0.4242500067 2.2669887543 45.687950134 126.30959320 0.9559999704  -999.250000  -999.250000 1.2180000544
 2148.3566895 5.0000000000 12.803999901 0.0020000001 0.4275799990 2.2540206909 45.655998230 128.76606750 0.9639999866  -999.250000  -999.250000 1.1390000582
 2148.5090332 5.0000000000 12.916000366 -0.008000000 0.4121099710 2.2290802002 45.155998230 131.04135132 0.9860000014  -999.250000  -999.250000 1.0880000591
 2148.6616211 5.0000000000 12.897998810 -0.015000000 0.4140900075 2.2050383091 41.408954620 131.10299683 1.0110000372  -999.250000  -999.250000 1.1180000305
 2148.8139648 5.0000000000 12.832999229 -0.010000000 0.4017900229 2.1640658379 43.250000000 128.79499817 1.0149999857  -999.250000  -999.250000 1.1219999790
 2148.9663086 5.0000000000 12.788998604 0.0030000000 0.4219499826 2.1230657101 43.250000000 125.13585663 1.0069999695  -999.250000  -999.250000 1.1940000057
 2149.1186523 5.0000000000 13.123000145 0.0149999997 0.4214600027 2.1100413799 44.125000000 121.59467316 1.0110000372  -999.250000  -999.250000 1.2769999504
 2149.2712402 5.0000000000 13.168999672 0.0160000008 0.4191299677 2.1469407082 44.218902588 119.25399780 1.0099999905  -999.250000  -999.250000 1.2819999456
 2149.4235840 5.0000000000 12.538000107 0.0070000002 0.4114400148 2.2029104233 44.153896332 119.97399902 1.0169999599  -999.250000  -999.250000 1.2319999933
 2149.5759277 5.0000000000 13.116000175 0.0010000000 0.4136299789 2.2369453907 42.843902588 122.40910339 1.0310000181  -999.250000  -999.250000 1.1940000057
 2149.7282715 5.0000000000 13.446999550 -0.001000000 0.4322899878 2.2350029945 42.780998230 124.51262665 1.0269999504  -999.250000  -999.250000 1.2239999771
 2149.8808594 5.0000000000 12.725999832 -0.001000000 0.4552299976 2.2200241089 44.624149323 124.39099884 1.0069999695  -999.250000  -999.250000 1.2389999628
 2150.0332031 5.0000000000 12.782999992 0.0020000001 0.4545199871 2.2130112648 44.087142944 123.54100037 0.9909999967  -999.250000  -999.250000 1.2740000486
 2150.1855469 5.0000000000 12.855999947 0.0040000002 0.4511699975 2.2179918289 39.808547974 123.13665009 0.9639999866  -999.250000  -999.250000 1.2990000248
 2150.3378906 5.0000000000 12.740999222 -0.001000000 0.4349200130 2.2339742184 37.030998230 122.34427643 0.9419999719  -999.250000  -999.250000 1.3680000305
 2150.4902344 5.0000000000 12.737999916 -0.006000000 0.4287799895 2.2569262981 37.000000000 122.96200562 0.9319999814  -999.250000  -999.250000 1.3559999466
 2150.6428223 5.0000000000 12.802000999 -0.012000000 0.4278200269 2.2689807415 39.878807068 124.08599854 0.9359999895  -999.250000  -999.250000 1.2079999447
 2150.7951660 5.0000000000 12.779000282 -0.012000000 0.4306299984 2.2430417538 42.250999451 126.56402588 0.9380000234  -999.250000  -999.250000 1.1139999628
 2150.9475098 5.0000000000 12.906000137 -0.010000000 0.4405099750 2.1910834312 42.875000000 128.05760193 0.9409999847  -999.250000  -999.250000 1.0319999456
 2151.0998535 5.0000000000 13.036000252 -0.002000000 0.4372400045 2.1471409798 46.750000000 127.40106201 0.9409999847  -999.250000  -999.250000 1.0829999447
 2151.2524414 5.0000000000 12.878000259 0.0080000004 0.4304700196 2.1370160580 44.902942657 125.97798920 0.9319999814  -999.250000  -999.250000 1.0900000334
 2151.4047852 5.0000000000 12.875000000 0.0240000002 0.4253699780 2.1599631310 42.990734100 124.34200287 0.9229999781  -999.250000  -999.250000 1.2120000124
 2151.5571289 5.0000000000 12.996999741 0.0260000005 0.4204800129 2.2019326687 37.223400116 124.74835205 0.9250000119  -999.250000  -999.250000 1.2230000496
 2151.7094727 5.0000000000 12.935999870 0.0209999997 0.4175299704 2.2458591461 39.969001770 125.49180603 0.9269999862  -999.250000  -999.250000 1.1629999876
 2151.8620605 5.0000000000 12.930999756 0.0020000001 0.4128900170 2.2759518623 41.317554474 126.53299713 0.9309999943  -999.250000  -999.250000 1.1119999886
 2152.0144043 5.0000000000 12.873000145 -0.001000000 0.4186300039 2.2740030289 44.156749725 126.70500183 0.9279999733  -999.250000  -999.250000 1.0720000267
 2152.1667480 5.0000000000 12.680000305 0.0140000004 0.4137600064 2.2440481186 44.630249023 126.33159637 0.9190000296  -999.250000  -999.250000 1.1080000401
 2152.3190918 6.0000000000 12.364000320 0.0390000008 0.4072400033 2.2030658722 47.905998230 125.88871002 0.9190000296  -999.250000  -999.250000 1.0889999866
 2152.4714355 6.0000000000 11.989999771 0.0520000011 0.4008100033 2.1850576401 48.469001770 126.28335571 0.9169999957  -999.250000  -999.250000 1.0690000057
 2152.6240234 6.0000000000 11.868000031 0.0509999990 0.4080799818 2.2019727230 49.399288177 127.46700287 0.9110000134  -999.250000  -999.250000 1.0199999809
 2152.7763672 6.0000000000 11.897000313 0.0430000015 0.4104600251 2.2299551964 45.212001801 128.76492310 0.9070000052  -999.250000  -999.250000 1.0230000019
 2152.9287109 5.0000000000 12.003999710 0.0289999992 0.4023000002 2.2389857769 40.844001770 129.37004089 0.8960000277  -999.250000  -999.250000 1.0479999781
 2153.0810547 5.0000000000 12.336999893 0.0109999999 0.3949500024 2.2320225239 40.905998230 129.45088196 0.8790000081  -999.250000  -999.250000 1.1219999790
 2153.2336426 5.0000000000 12.715000153 0.0020000001 0.3873300254 2.2250111103 42.219001770 129.78300476 0.8980000019  -999.250000  -999.250000 1.1039999723
 2153.3859863 5.0000000000 12.869000435 -0.002000000 0.3917100132 2.2170128822 42.211391449 129.82699585 0.9110000134  -999.250000  -999.250000 1.0429999828
 2153.5383301 5.0000000000 13.086000443 -0.009000000 0.4048099816 2.2060177326 37.473499298 129.38970947 0.9079999924  -999.250000  -999.250000 0.9459999800
 2153.6906738 5.0000000000 13.600000381 -0.008000000 0.4139300287 2.1810801029 40.280998230 128.00921631 0.9060000181  -999.250000  -999.250000 0.9919999838
 2153.8432617 5.0000000000 13.512000084 -0.001000000 0.4254199862 2.1450576782 38.908401489 125.78800201 0.8870000243  -999.250000  -999.250000 1.0579999685
 2153.9956055 5.0000000000 13.012999535 0.0049999999 0.4445500076 2.1250319481 40.404647827 125.50598907 0.8669999838  -999.250000  -999.250000 1.1050000191
 2154.1479492 5.0000000000 13.131999969 0.0000000000 0.4454600215 2.1449680328 39.562999725 126.99561310 0.8909999728  -999.250000  -999.250000 1.0740000010
 2154.3002930 5.0000000000 13.121999741 -0.005000000 0.4437299967 2.1749517918 39.562999725 128.81709290 0.9129999876  -999.250000  -999.250000 1.0549999475
 2154.4526367 5.0000000000 13.093999863 -0.003000000 0.4410699904 2.1909487247 39.594001770 128.93782043 0.9139999747  -999.250000  -999.250000 1.0529999733
 2154.6052246 5.0000000000 13.541998863 -0.004000000 0.4548899829 2.1870064735 40.509967804 126.52300262 0.9219999909  -999.250000  -999.250000 1.1000000238
 2154.7575684 5.0000000000 13.574999809 -0.006000000 0.4722799957 2.1919918060 46.717300415 124.27661133 0.9259999990  -999.250000  -999.250000 1.1519999504
 2154.9099121 5.0000000000 13.114000320 -0.004000000 0.4675199986 2.1939969063 45.655998230 122.30516052 0.9129999876  -999.250000  -999.250000 1.1000000238
 2155.0622559 5.0000000000 13.068000793 -0.002000000 0.4573300183 2.1959936619 43.280998230 122.41182709 0.9100000262  -999.250000  -999.250000 1.0659999847
 2155.2148438 5.0000000000 13.022000313 0.0000000000 0.4485900104 2.2069823742 43.186645508 123.49501038 0.9190000296  -999.250000  -999.250000 1.0540000200
 2155.3671875 5.0000000000 13.050000191 0.0020000001 0.4456800222 2.2269680500 42.341896057 123.83799744 0.9240000248  -999.250000  -999.250000 1.0839999914
 2155.5195313 5.0000000000 12.951000214 0.0030000000 0.4613800049 2.2479662895 41.024250031 124.07561493 0.9200000167  -999.250000  -999.250000 1.0690000057
 2155.6718750 5.0000000000 13.123999596 0.0000000000 0.4761799872 2.2629520893 36.812999725 124.20079803 0.9269999862  -999.250000  -999.250000 1.1150000095
 2155.8244629 5.0000000000 13.161999702 -0.007000000 0.4822999835 2.2669999599 37.752002716 124.88600159 0.9350000024  -999.250000  -999.250000 1.1480000019
