# LAS format log file from PETREL
# Project units are specified as depth units
#==================================================================
~Version information
VERS.   2.0:
WRAP.   NO:
#==================================================================
~Well
STRT .m      3891.7941895 :
STOP .m      4561.5922852 :
STEP .m     0.00000000 :
NULL .        -999.250000 :
COMP.           : COMPANY
WELL.  30/3-5S   : WELL
FLD.            : FIELD
LOC.            : LOCATION
SRVC.           : SERVICE COMPANY
DATE.  2018-09-11 14:48:29   : Log Export Date {yyyy-MM-dd HH:mm:ss}
PROV.           : PROVINCE
UWI.   30/3-5 S   : UNIQUE WELL ID
API.            : API NUMBER
#==================================================================
~Curve
DEPT .m                   : DEPTH
Lithology_geolink ._      : Lithology_geolink
CALI .in                  : CALI
DRHO .g/cm3               : DRHO
NPHI .m3/m3               : NPHI
RHOB .g/cm3               : RHOB
PEF .b/e                  : PEF
GR .gAPI                  : GR
DTC .us/ft                : DTC
DTE .us/ft                : DTE
RDEP .ohm.m               : RDEP
RMED .ohm.m               : RMED
~Parameter
#==================================================================
~Ascii
# ...
 3977.2905273 6.0000000000 9.1406002045 0.0063999998 0.2995489836 2.5878679752 3.4550781250 91.764762878 81.620872498 81.625137329 4.6666998863 4.7277998924
 3977.4428711 6.0000000000 9.1406002045 0.0081000002 0.3006378710 2.5850689411 3.5401141644 90.553443909 81.612472534 81.384750366 4.7395000458 4.8867998123
 3977.5952148 6.0000000000 9.1406002045 0.0073000002 0.3094963133 2.5822749138 3.4226262569 90.497482300 81.194519043 80.991355896 4.8625001907 5.1571998596
 3977.7475586 6.0000000000 9.1406002045 0.0085000005 0.3198226690 2.5829045773 3.3372030258 90.889343262 80.931098938 80.630653381 4.9548997879 5.5173001289
 3977.9001465 6.0000000000 9.1406002045 0.0102000004 0.3247794211 2.5843174458 3.3094952106 90.204200745 80.597373962 80.418579102 5.1065998077 5.8695998192
 3978.0524902 6.0000000000 9.1406002045 0.0103000002 0.3243997991 2.5809664726 3.4670972824 89.344779968 80.760871887 80.538673401 5.2958002090 6.0795001984
 3978.2048340 6.0000000000 9.1406002045 0.0080000004 0.3211964071 2.5747356415 3.6044170856 90.628143311 81.070373535 80.860641479 5.4704999924 6.0890002251
 3978.3571777 6.0000000000 9.1406002045 0.0052999998 0.3248974085 2.5663647652 3.5563402176 91.336235046 81.667587280 81.365051270 5.6219000816 5.9829001427
 3978.5097656 6.0000000000 9.1406002045 0.0052000000 0.3274390101 2.5598316193 3.4791188240 89.916381836 82.047119141 81.868103027 5.7193999290 5.8789000511
 3978.6621094 6.0000000000 9.1406002045 0.0044999998 0.3297260702 2.5541200638 3.3934795856 85.200164795 82.417396545 82.087226868 5.7588000298 5.8516001701
 3978.8144531 6.0000000000 9.1406002045 0.0007000000 0.3277474046 2.5520515442 3.4035456181 84.165748596 82.549995422 82.210327148 5.7849998474 5.9040999413
 3978.9667969 6.0000000000 9.1239995956 -0.002500000 0.3290931284 2.5532276630 3.4909856319 87.613922119 83.118476868 82.975303650 5.8123002052 5.9977002144
 3979.1193848 6.0000000000 9.1337995529 -0.004100000 0.3324238360 2.5532593727 3.6712219715 90.128776550 83.325767517 83.050476074 5.8231000900 6.0798997879
 3979.2717285 6.0000000000 9.1239995956 -0.007300000 0.3371410966 2.5485382080 3.8007812500 90.314109802 82.037971497 81.912551880 5.8186998367 6.1126999855
 3979.4240723 6.0000000000 9.1061000824 -0.011000000 0.3419908285 2.5469095707 3.8695912361 85.985946655 80.342544556 80.181579590 5.7943000793 6.0949997902
 3979.5764160 6.0000000000 9.0406999588 -0.008700000 0.3455962241 2.5573124886 3.8399939537 85.136749268 78.289550781 78.307624817 5.8045001030 6.0444002151
 3979.7287598 6.0000000000 8.9989995956 -0.008100000 0.3396212757 2.5826492310 4.0067343712 87.617034912 76.633689880 76.419456482 5.8235998154 5.9857997894
 3979.8813477 6.0000000000 8.9921998978 -0.011100000 0.3194651604 2.6136126518 4.4915866852 88.056602478 74.713249207 74.530128479 5.7866001129 5.9465999603
 3980.0336914 16.000000000 8.9921998978 -0.010500000 0.3048647940 2.6387863159 4.9137620926 88.184890747 73.092773438 72.750869751 5.7445998192 5.9347000122
 3980.1860352 16.000000000 8.9921998978 -0.007100000 0.3109217584 2.6362247467 4.8413462639 87.295722961 72.536674500 72.457321167 5.7371001244 5.9446997643
 3980.3383789 16.000000000 8.9921998978 -0.001600000 0.3306853175 2.5996913910 4.8536658287 89.788887024 76.459991455 76.283531189 5.7715001106 5.9574999809
 3980.4909668 6.0000000000 8.9921998978 0.0035000001 0.3456208110 2.5502593517 4.7228374481 91.528419495 81.240997314 81.226173401 5.7381000519 5.9608998299
 3980.6433105 6.0000000000 8.9921998978 0.0083999997 0.3500341177 2.5188212395 4.4230771065 92.943832397 83.241455078 83.064407349 5.6993999481 5.9526000023
 3980.7956543 6.0000000000 8.9976997375 0.0175000001 0.3457688987 2.5220565796 3.8401441574 94.188110352 83.060829163 83.083206177 5.6942000389 5.9464998245
 3980.9479980 6.0000000000 9.0165996552 0.0230000000 0.3409709930 2.5395927429 3.4130108356 92.910308838 82.815200806 82.683082581 5.7007999420 5.9453001022
 3981.1005859 6.0000000000 9.0179004669 0.0135000004 0.3337408900 2.5467119217 3.2830123901 92.516227722 82.636367798 82.570404053 5.6838002205 5.9453001022
 3981.2529297 6.0000000000 9.0156002045 0.0055999998 0.3316369057 2.5433259010 3.2495493889 93.066818237 83.326599121 82.960670471 5.6564002037 5.9369997978
 3981.4052734 6.0000000000 9.0156002045 0.0062000002 0.3334574103 2.5424671173 3.3234674931 95.549613953 83.657623291 83.531646729 5.6318001747 5.9141998291
 3981.5576172 6.0000000000 9.0045995712 0.0027999999 0.3354456723 2.5375671387 3.4711537361 96.542709351 84.435249329 84.118202209 5.6111998558 5.8868999481
 3981.7099609 6.0000000000 9.0221004486 0.0001000000 0.3399722278 2.5332708359 3.4821250439 96.209373474 84.679542542 84.436302185 5.5971999168 5.8734002113
 3981.8625488 6.0000000000 9.0977001190 0.0007000000 0.3465729356 2.5318045616 3.3906250000 94.869354248 84.520378113 84.510971069 5.5964999199 5.8931999207
 3982.0148926 6.0000000000 9.1195001602 0.0000000000 0.3492130637 2.5344340801 3.2500000000 95.835342407 85.020050049 84.690979004 5.6308999062 5.9465999603
 3982.1672363 6.0000000000 9.1117000580 -0.000200000 0.3383227587 2.5397820473 3.2507512569 95.861961365 84.654510498 84.714630127 5.6805000305 6.0311999321
 3982.3195801 6.0000000000 9.1093997955 0.0023000001 0.3267578185 2.5440316200 3.2962739468 96.420104980 84.398918152 84.171180725 5.7284998894 6.1277999878
 3982.4721680 6.0000000000 9.0263996124 0.0044999998 0.3278183639 2.5472517014 3.4462656975 94.848823547 83.582649231 83.374725342 5.7726001740 6.2115998268
 3982.6245117 6.0000000000 9.0586004257 0.0046000001 0.3362898827 2.5479514599 3.5587439537 93.533004761 83.316276550 82.959075928 5.8183999062 6.2593002319
 3982.7768555 6.0000000000 9.1135997772 0.0060999999 0.3355905414 2.5502097607 3.5664062500 92.826629639 83.070625305 82.901321411 5.8431000710 6.2473998070
 3982.9291992 6.0000000000 9.0862998962 0.0070000002 0.3298865259 2.5542471409 3.5306489468 93.552368164 83.401664734 83.114891052 5.8449001312 6.1718997955
 3983.0817871 6.0000000000 9.1201000214 0.0068999999 0.3251917064 2.5520405769 3.4398593903 96.456245422 83.886474609 83.666198730 5.8270998001 6.0531997681
 3983.2341309 6.0000000000 9.1129999161 0.0074000000 0.3273278773 2.5484683514 3.5449218750 99.398887634 87.502700806 84.552871704 5.7926001549 5.9159998894
 3983.3864746 6.0000000000 9.1070995331 0.0063000000 0.3276172876 2.5473623276 3.7704327106 100.76121521 93.198974609 85.455299377 5.7231001854 5.7726001740
 3983.5388184 6.0000000000 9.1093997955 0.0054000001 0.3295531571 2.5552127361 4.1875000000 101.88359833 94.041580200 86.166648865 5.6133999825 5.6198000908
 3983.6911621 6.0000000000 9.0319004059 0.0043000001 0.3310483992 2.5608727932 4.3295001984 102.24883270 94.638816833 86.871826172 5.4425001144 5.4468998909
 3983.8437500 6.0000000000 8.9945001602 0.0030000000 0.3322962821 2.5586106777 4.0135216713 99.377006531 95.011001587 87.323654175 5.2484002113 5.2423000336
 3983.9960938 6.0000000000 8.9976997375 0.0017000000 0.3340208828 2.5540704727 3.7062799931 96.995216370 95.328323364 87.726829529 5.0419001579 5.0246000290
 3984.1484375 6.0000000000 9.0165996552 -0.000100000 0.3359492421 2.5525038242 3.5582933426 94.997993469 95.236297607 87.769447327 4.8586997986 4.8281002045
 3984.3007813 6.0000000000 9.0953998566 0.0009000000 0.3530873954 2.5548284054 3.5039062500 97.907348633 95.011909485 87.235206604 4.6923999786 4.6711001396
 3984.4533691 6.0000000000 9.1360998154 0.0006000000 0.3652566075 2.5588269234 3.4794344902 100.12406158 93.964706421 86.175125122 4.5531997681 4.5570001602
 3984.6057129 6.0000000000 9.1406002045 -0.003100000 0.3661767244 2.5707049370 3.6119291782 101.49850464 92.538352966 84.669349670 4.4906997681 4.4774999619
 3984.7580566 6.0000000000 9.1184997559 -0.004900000 0.3581253290 2.5887761116 3.9576323032 99.550025940 91.579902649 83.658172607 4.4832000732 4.4404001236
 3984.9104004 6.0000000000 9.0430002213 -0.002300000 0.3590865135 2.5992393494 4.1556491852 98.653869629 91.566711426 83.592407227 4.5064997673 4.4612998962
