# LAS format log file from PETREL
# Project units are specified as depth units
#==================================================================
~Version information
VERS.   2.0:
WRAP.   NO:
#==================================================================
~Well
STRT .m      236.19400024 :
STOP .m      3572.9916992 :
STEP .m     0.00000000 :
NULL .        -999.250000 :
COMP.           : COMPANY
WELL.  30/3-2R   : WELL
FLD.            : FIELD
LOC.            : LOCATION
SRVC.           : SERVICE COMPANY
DATE.  2018-09-11 14:48:27   : Log Export Date {yyyy-MM-dd HH:mm:ss}
PROV.           : PROVINCE
UWI.   30/3-2 R   : UNIQUE WELL ID
API.            : API NUMBER
#==================================================================
~Curve
DEPT .m                   : DEPTH
Lithology_geolink ._      : Lithology_geolink
CALI .in                  : CALI
DRHO .g/cm3               : DRHO
NPHI .m3/m3               : NPHI
RHOB .g/cm3               : RHOB
GR .gAPI                  : GR
DTC .us/ft                : DTC
RDEP .ohm.m               : RDEP
SP .mV                    : SP
RSHA .ohm.m               : RSHA
RMED .ohm.m               : RMED
~Parameter
#==================================================================
~Ascii
# ...
 3034.2578125 5.0000000000 12.390999794 0.0209999997 0.3081499934 2.5510001183 68.869995117 81.653999329 5.7150001526 93.537002563 9.2192630768 6.6449999809
 3034.4104004 5.0000000000 12.366999626 0.0070000002 0.2964500189 2.5409998894 65.751800537 81.614997864 5.5980000496 94.280998230 9.3797016144 6.3709998131
 3034.5627441 5.0000000000 12.390999794 -0.001000000 0.2874599993 2.5350000858 66.321418762 81.572998047 5.4730000496 95.257003784 8.3516235352 6.0780000687
 3034.7150879 5.0000000000 12.366999626 -0.004000000 0.2750900090 2.5450000763 71.567108154 81.552001953 5.3870000839 95.140998840 8.1171131134 5.8829998970
 3034.8674316 5.0000000000 12.366999626 0.0000000000 0.2704600096 2.5690000057 74.126907349 81.518997192 5.3010001183 94.415000916 8.1879119873 5.7810001373
 3035.0200195 5.0000000000 12.358999252 0.0089999996 0.2650299966 2.5799999237 75.312805176 81.553001404 5.2379999161 94.157997131 8.1329231262 5.7420001030
 3035.1723633 6.0000000000 12.352001190 0.0189999994 0.2780599892 2.5699999332 75.245491028 81.552001953 5.1950001717 94.223999023 8.1090755463 5.7540001869
 3035.3247070 6.0000000000 12.366999626 0.0140000004 0.2967000008 2.5580000877 72.440208435 81.489997864 5.1599998474 93.931999207 8.1567888260 5.8049998283
 3035.4770508 6.0000000000 12.352001190 0.0099999998 0.2956599891 2.5580000877 73.808692932 81.385002136 5.1329998970 94.456001282 8.6471242905 5.8280000687
 3035.6296387 6.0000000000 12.352001190 0.0089999996 0.2881500125 2.5569999218 71.143402100 81.321998596 5.1129999161 94.657997131 8.1026754379 5.8130002022
 3035.7819824 6.0000000000 12.352001190 0.0060000001 0.2688599825 2.5529999733 76.880409241 81.333999634 5.0659999847 93.861000061 8.3131875992 5.8200001717
 3035.9343262 6.0000000000 12.358999252 0.0060000001 0.2721399963 2.5510001183 80.256011963 81.427001953 5.0159997940 95.811996460 8.4296751022 5.7890000343
 3036.0866699 6.0000000000 12.352001190 0.0030000000 0.2746900022 2.5520000458 83.997695923 81.511001587 4.9730000496 95.397003174 8.2266864777 5.6880002022
 3036.2390137 6.0000000000 12.352001190 0.0000000000 0.2899999917 2.5539999008 82.554786682 81.594001770 4.9260001183 93.375000000 8.0315513611 5.5659999847
 3036.3916016 5.0000000000 12.352001190 0.0000000000 0.2792900205 2.5659999847 77.423202515 81.564002991 4.9099998474 93.668998718 8.3728752136 5.4569997787
 3036.5439453 5.0000000000 12.352001190 0.0030000000 0.2818099856 2.5829999447 72.808395386 81.479003906 4.9060001373 93.750000000 7.7103495598 5.4099998474
 3036.6962891 5.0000000000 12.352001190 0.0130000003 0.2742699981 2.6019999981 69.941009521 81.333007813 4.9140000343 96.871002197 7.3058443069 5.4180002213
 3036.8486328 5.0000000000 12.352001190 0.0250000004 0.2821999788 2.5950000286 71.818107605 81.226997375 4.9099998474 95.725997925 7.8322257996 5.5000000000
 3037.0012207 5.0000000000 12.358999252 0.0270000007 0.2875300050 2.5850000381 75.010398865 81.052001953 4.9180002213 95.063003540 7.9725360870 5.5939998627
 3037.1535645 6.0000000000 12.352001190 0.0199999996 0.2840900123 2.5529999733 78.250801086 80.893997192 4.9060001373 94.342002869 7.8278126717 5.7109999657
 3037.3059082 6.0000000000 12.366999626 -0.003000000 0.2792100012 2.5469999313 78.744995117 80.771003723 4.8979997635 93.246002197 7.7122273445 5.7890000343
 3037.4582520 6.0000000000 12.352001190 -0.010000000 0.2774499953 2.5469999313 75.619094849 80.778999329 4.9099998474 93.121002197 8.4761304855 5.8049998283
 3037.6108398 6.0000000000 12.352001190 -0.012000000 0.2771999836 2.5510001183 71.932006836 80.946998596 4.9260001183 92.444999695 7.9330978394 5.7030000687
 3037.7631836 5.0000000000 12.358999252 -0.008000000 0.2783399820 2.5569999218 70.062904358 81.114997864 4.9380002022 92.527999878 7.6521439552 5.6170001030
 3037.9155273 5.0000000000 12.352001190 -0.006000000 0.2699600160 2.5520000458 70.000503540 81.271003723 4.9489998817 92.267997742 7.7423076630 5.5819997787
 3038.0678711 5.0000000000 12.352001190 -0.002000000 0.2712900043 2.5550000668 70.314903259 81.279998779 4.9609999657 91.486000061 7.9342308044 5.5739998817
 3038.2202148 5.0000000000 12.358999252 -0.001000000 0.2763099968 2.5539999008 71.499900818 81.363998413 4.9609999657 96.870002747 8.0717210770 5.5939998627
 3038.3728027 5.0000000000 12.352001190 -0.003000000 0.2793099880 2.5499999523 71.445602417 81.447998047 5.0229997635 98.491996765 4.1744384766 5.6329998970
 3038.5251465 5.0000000000 12.352001190 -0.007000000 0.2690300047 2.5599999428 73.812400818 81.553001404 5.1020002365 94.836997986 8.6715106964 5.7729997635
 3038.6774902 5.0000000000 12.352001190 -0.006000000 0.2709699869 2.5520000458 73.437500000 81.625000000 5.1680002213 93.939002991 8.3660364151 5.9340000153
 3038.8298340 5.0000000000 12.352001190 -0.006000000 0.2679400146 2.5490000248 73.122894287 81.688003540 5.2620000839 93.967002869 7.7678265572 6.0430002213
 3038.9824219 5.0000000000 12.358999252 -0.002000000 0.2702099979 2.5439999104 71.817802429 81.739997864 5.3480000496 94.274002075 8.9057245255 6.1409997940
 3039.1347656 5.0000000000 12.358999252 0.0030000000 0.2714900076 2.5510001183 73.317413330 81.763999939 5.3750000000 94.337997437 8.8199501038 6.2890000343
 3039.2871094 5.0000000000 12.352001190 0.0140000004 0.2782900035 2.5529999733 76.064407349 81.833000183 5.3829998970 93.738998413 8.7906646729 6.4489998817
 3039.4394531 5.0000000000 12.352001190 0.0109999999 0.2971200049 2.5429999828 76.935600281 81.928001404 5.3870000839 92.790000916 9.8274374008 6.5199999809
 3039.5920410 5.0000000000 12.358999252 0.0010000000 0.2891499996 2.5380001068 75.427200317 82.047996521 5.3870000839 92.655998230 9.4763727188 6.5199999809
 3039.7443848 5.0000000000 12.358999252 -0.002000000 0.2747099996 2.5380001068 72.060096741 82.115997314 5.3400001526 92.952003479 9.2802114487 6.4689998627
 3039.8967285 5.0000000000 12.358999252 0.0020000001 0.2626200020 2.5450000763 70.247596741 82.081993103 5.2810001373 93.467002869 8.7888374329 6.3049998283
 3040.0490723 5.0000000000 12.358999252 0.0080000004 0.2550100088 2.5569999218 68.750198364 81.864997864 5.2270002365 93.613998413 8.6883125305 6.1479997635
 3040.2014160 5.0000000000 12.352001190 0.0120000001 0.2560000122 2.5639998913 68.874298096 81.634002686 5.1799998283 93.679000854 8.8832244873 6.0549998283
 3040.3540039 5.0000000000 12.358999252 0.0170000009 0.2558200061 2.5490000248 68.439804077 81.386001587 5.1250000000 93.992996216 9.0215501785 6.0120000839
 3040.5063477 5.0000000000 12.352001190 0.0120000001 0.2593300045 2.5290000439 69.006912231 81.156997681 5.0900001526 94.463996887 8.5695123672 6.0000000000
 3040.6586914 5.0000000000 12.352001190 0.0000000000 0.2673200071 2.5179998875 73.313301086 80.893997192 5.0469999313 94.316001892 8.2659616470 5.9340000153
 3040.8110352 5.0000000000 12.336000443 -0.008000000 0.2743099928 2.5260000229 73.500198364 80.655998230 5.0159997940 94.831001282 8.2422256470 5.9840002060
 3040.9636230 5.0000000000 12.352001190 -0.008000000 0.2849299908 2.5299999714 73.616203308 80.561004639 5.0390000343 94.345001221 8.3831987381 5.9840002060
 3041.1159668 5.0000000000 12.336000443 -0.006000000 0.2985199988 2.5360000134 70.873100281 80.527999878 5.0590000153 94.374000549 8.4452514648 5.9260001183
 3041.2683105 5.0000000000 12.336000443 -0.005000000 0.2901000082 2.5320000648 69.691207886 80.575996399 5.0780000687 93.818000793 8.6006221771 5.9260001183
 3041.4206543 5.0000000000 12.336000443 -0.008000000 0.2952100039 2.5369999409 71.691406250 80.440002441 5.0900001526 94.328002930 7.7433028221 5.9920001030
 3041.5732422 5.0000000000 12.336000443 -0.009000000 0.2829700112 2.5499999523 73.815803528 80.224998474 5.0900001526 94.933998108 8.5558738708 6.1599998474
 3041.7255859 5.0000000000 12.336000443 -0.004000000 0.2726799846 2.5629999638 74.685195923 79.981010437 5.1290001869 95.399002075 8.8276748657 6.2769999504
 3041.8779297 5.0000000000 12.328000069 0.0049999999 0.2540900111 2.5720000267 72.933898926 80.008003235 5.1840000153 94.966003418 8.6244745255 6.2699999809
