# LAS format log file from PETREL
# Project units are specified as depth units
#==================================================================
~Version information
VERS.   2.0:
WRAP.   NO:
#==================================================================
~Well
STRT .m      236.19400024 :
STOP .m      3572.9916992 :
STEP .m     0.00000000 :
NULL .        -999.250000 :
COMP.           : COMPANY
WELL.  30/3-2R   : WELL
FLD.            : FIELD
LOC.            : LOCATION
SRVC.           : SERVICE COMPANY
DATE.  2018-09-11 14:48:27   : Log Export Date {yyyy-MM-dd HH:mm:ss}
PROV.           : PROVINCE
UWI.   30/3-2 R   : UNIQUE WELL ID
API.            : API NUMBER
#==================================================================
~Curve
DEPT .m                   : DEPTH
Lithology_geolink ._      : Lithology_geolink
CALI .in                  : CALI
DRHO .g/cm3               : DRHO
NPHI .m3/m3               : NPHI
RHOB .g/cm3               : RHOB
GR .gAPI                  : GR
DTC .us/ft                : DTC
RDEP .ohm.m               : RDEP
SP .mV                    : SP
RSHA .ohm.m               : RSHA
RMED .ohm.m               : RMED
~Parameter
#==================================================================
~Ascii
# ...
 1083.3856201  -999.250000 13.055999756 -0.022000000 0.4901409745 1.9219856262 43.874599457 141.77085876 1.3259911537  -999.250000  -999.250000 1.3339896202
 1083.5379639  -999.250000 13.019999504 -0.025996799 0.5094534755 1.9180096388 43.374675751 142.16036987 1.3359839916  -999.250000  -999.250000 1.3459807634
 1083.6903076  -999.250000 12.996001244 -0.035991985 0.5137192607 1.9100255966 42.969001770 142.53440857 1.3459839821  -999.250000  -999.250000 1.3509919643
 1083.8427734  -999.250000 12.977000237 -0.038997598 0.4629217088 1.9099999666 41.409099579 143.03718567 1.3519903421  -999.250000  -999.250000 1.3539952040
 1083.9951172  -999.250000 12.980999947 -0.037001602 0.4775334597 1.9119951725 45.280998230 143.27961731 1.3529984951  -999.250000  -999.250000 1.3569952250
 1084.1475830  -999.250000 12.996999741 -0.039000001 0.4943569005 1.9080096483 49.783176422 143.31994629 1.3460111618  -999.250000  -999.250000 1.3540047407
 1084.2999268  -999.250000 12.987000465 -0.041997597 0.5278934240 1.8980240822 52.500000000 143.09236145 1.3330208063  -999.250000  -999.250000 1.3470112085
 1084.4523926  -999.250000 13.001000404 -0.045000002 0.5196847320 1.8930120468 53.561573029 142.94323730 1.3160271645  -999.250000  -999.250000 1.3390127420
 1084.6047363  -999.250000 13.008000374 -0.045000002 0.4881493747 1.8949952126 51.780998230 143.17063904 1.3010240793  -999.250000  -999.250000 1.3350064754
 1084.7572021  -999.250000 13.010999680 -0.041000001 0.4624152184 1.9009855986 48.308597565 143.78002930 1.2810320854  -999.250000  -999.250000 1.3300080299
 1084.9095459  -999.250000 13.022999763 -0.035004806 0.4719069600 1.9039928913 42.812999725 145.08291626 1.2680208683  -999.250000  -999.250000 1.3180191517
 1085.0620117  -999.250000 13.034000397 -0.039999999 0.4930801988 1.8860433102 39.250976563 146.79362488 1.2570087910  -999.250000  -999.250000 1.2960176468
 1085.2143555  -999.250000 13.126999855 -0.045995194 0.5056561232 1.8750264645 40.470802307 148.33377075 1.2410256863  -999.250000  -999.250000 1.2780288458
 1085.3668213  -999.250000 13.190999985 -0.050999999 0.4757983983 1.8650239706 42.721103668 148.66374207 1.2290096283  -999.250000  -999.250000 1.2690072060
 1085.5191650  -999.250000 12.549999237 -0.050999999 0.4561043382 1.8570191860 45.344352722 147.76171875 1.2220112085  -999.250000  -999.250000 1.2799823284
 1085.6715088  -999.250000 12.336000443 -0.047003202 0.4615436792 1.8420480490 45.780998230 146.53297424 1.2170079947  -999.250000  -999.250000 1.2710144520
 1085.8239746  -999.250000 12.265999794 -0.047999199 0.5035719872 1.8280335665 45.251651764 145.76960754 1.2219920158  -999.250000  -999.250000 1.2510321140
 1085.9763184  -999.250000 12.260001183 -0.036009613 0.5060762763 1.8409687281 47.312999725 145.68313599 1.2369759083  -999.250000  -999.250000 1.2300336361
 1086.1287842  -999.250000 12.233000755 -0.026000001 0.4764247239 1.8609519005 48.030872345 145.62605286 1.2549711466  -999.250000  -999.250000 1.2349920273
 1086.2811279  -999.250000 12.223999977 -0.019005604 0.4199588001 1.8819495440 47.875000000 145.44229126 1.2709743977  -999.250000  -999.250000 1.2739375830
 1086.4335938  -999.250000 12.215000153 -0.024000000 0.4059901237 1.8879855871 45.060699463 144.93040466 1.2839791775  -999.250000  -999.250000 1.3289119005
 1086.5859375  -999.250000 12.229000092 -0.035990391 0.4186342061 1.8889976740 42.187999725 144.44538879 1.2919871807  -999.250000  -999.250000 1.3679375648
 1086.7384033  -999.250000 12.203000069 -0.043000001 0.4488371909 1.8929903507 43.564250946 143.87646484 1.2920000553  -999.250000  -999.250000 1.3719935417
 1086.8907471  -999.250000 12.203000069 -0.037004806 0.4703054428 1.9039735794 45.125000000 143.37840271 1.2910015583  -999.250000  -999.250000 1.3490368128
 1087.0432129  -999.250000 12.196999550 -0.028000001 0.4895544052 1.9159711599 48.594375610 142.71453857 1.2880023718  -999.250000  -999.250000 1.3210223913
 1087.1955566  -999.250000 12.171998978 -0.024003202 0.4860545099 1.9199903011 49.062999725 141.90365601 1.2810112238  -999.250000  -999.250000 1.2830607891
 1087.3480225  -999.250000 12.171998978 -0.025000000 0.4791626334 1.9249879122 46.968524933 141.14060974 1.2720071077  -999.250000  -999.250000 1.2690112591
 1087.5003662  -999.250000 12.171998978 -0.021003202 0.4433863163 1.9329807758 46.375423431 140.33764648 1.2670079470  -999.250000  -999.250000 1.2580176592
 1087.6528320  -999.250000 12.180000305 -0.017999999 0.4387483001 1.9439735413 46.908603668 139.74946594 1.2630032301  -999.250000  -999.250000 1.2609976530
 1087.8051758  -999.250000 12.208999634 -0.013004003 0.4190093875 1.9539759159 50.156425476 139.44824219 1.2610032558  -999.250000  -999.250000 1.2659920454
 1087.9575195  -999.250000 12.204999924 -0.015997596 0.4432120919 1.9569928646 50.687999725 139.37612915 1.2610000372  -999.250000  -999.250000 1.2869663239
 1088.1099854  -999.250000 12.216000557 -0.016000001 0.4458184838 1.9550048113 51.090423584 139.55485535 1.2639952898  -999.250000  -999.250000 1.3169519901
 1088.2623291  -999.250000 12.234000206 -0.016000001 0.4563592374 1.9460215569 46.625000000 139.90443420 1.2709888220  -999.250000  -999.250000 1.3259855509
 1088.4147949  -999.250000 12.234000206 -0.015000000 0.4554019868 1.9330312014 45.938198090 140.34265137 1.2779887915  -999.250000  -999.250000 1.3060320616
 1088.5671387  -999.250000 12.233000755 -0.018999999 0.4703646302 1.9210288525 46.187999725 140.44883728 1.2879840136  -999.250000  -999.250000 1.2860320807
 1088.7196045  -999.250000 12.223000526 -0.021000000 0.4886345267 1.9160120487 48.502754211 140.38905334 1.2959872484  -999.250000  -999.250000 1.2830047607
 1088.8719482  -999.250000 12.211000443 -0.024000000 0.4818034172 1.9130071402 51.937999725 140.29608154 1.2960000038  -999.250000  -999.250000 1.3019696474
 1089.0244141  -999.250000 12.211000443 -0.024000000 0.4611210823 1.9090096951 49.591323853 140.49084473 1.2960000038  -999.250000  -999.250000 1.3099871874
 1089.1767578  -999.250000 12.213999748 -0.029999999 0.4430854917 1.9020167589 46.250000000 140.63487244 1.2989952564  -999.250000  -999.250000 1.3070048094
 1089.3292236  -999.250000 12.227000237 -0.033000000 0.4499705136 1.8970119953 43.502655029 140.82484436 1.2999991179  -999.250000  -999.250000 1.2930111885
 1089.4815674  -999.250000 12.234999657 -0.030999999 0.4503248036 1.8930096626 46.812923431 140.72508240 1.3019968271  -999.250000  -999.250000 1.2710353136
 1089.6340332  -999.250000 12.273999214 -0.026000001 0.4937207103 1.8930000067 46.717575073 140.56912231 1.2980031967  -999.250000  -999.250000 1.2680023909
 1089.7863770  -999.250000 12.303000450 -0.022000000 0.4941748381 1.9009808302 44.933971405 140.43510437 1.2860192060  -999.250000  -999.250000 1.2680000067
 1089.9387207  -999.250000 12.298999786 -0.021000000 0.5250775218 1.9079775810 39.905998230 140.61671448 1.2700256109  -999.250000  -999.250000 1.2680000067
 1090.0911865  -999.250000 12.308000565 -0.020000000 0.4720578492 1.9119902849 44.438098907 141.19853210 1.2480353117  -999.250000  -999.250000 1.2610112429
 1090.2435303  -999.250000 12.326999664 -0.017999999 0.4693259895 1.9040192366 44.562999725 142.10655212 1.2260352373  -999.250000  -999.250000 1.2510160208
 1090.3959961  -999.250000 12.362999916 -0.017000001 0.4269108772 1.8860433102 53.152397156 143.49488831 1.2100256681  -999.250000  -999.250000 1.2300336361
 1090.5483398  -999.250000 12.407999992 -0.017999999 0.4404842854 1.8560720682 48.655998230 145.01556396 1.1960223913  -999.250000  -999.250000 1.1910624504
 1090.7008057  -999.250000 12.413998604 -0.020000000 0.4458723068 1.8260719776 49.778221130 146.44085693 1.1830208302  -999.250000  -999.250000 1.1600495577
 1090.8531494  -999.250000 12.413998604 -0.020000000 0.4737080932 1.8080432415 46.312999725 147.18440247 1.1720176935  -999.250000  -999.250000 1.1450240612
 1091.0056152  -999.250000 12.413998604 -0.018999999 0.4963257015 1.8010168076 47.500373840 147.36585999 1.1560256481  -999.250000  -999.250000 1.1489936113
