# LAS format log file from PETREL
# Project units are specified as depth units
#==================================================================
~Version information
VERS.   2.0:
WRAP.   NO:
#==================================================================
~Well
STRT .m      236.19400024 :
STOP .m      3572.9916992 :
STEP .m     0.00000000 :
NULL .        -999.250000 :
COMP.           : COMPANY
WELL.  30/3-2R   : WELL
FLD.            : FIELD
LOC.            : LOCATION
SRVC.           : SERVICE COMPANY
DATE.  2018-09-11 14:48:27   : Log Export Date {yyyy-MM-dd HH:mm:ss}
PROV.           : PROVINCE
UWI.   30/3-2 R   : UNIQUE WELL ID
API.            : API NUMBER
#==================================================================
~Curve
DEPT .m                   : DEPTH
Lithology_geolink ._      : Lithology_geolink
CALI .in                  : CALI
DRHO .g/cm3               : DRHO
NPHI .m3/m3               : NPHI
RHOB .g/cm3               : RHOB
GR .gAPI                  : GR
DTC .us/ft                : DTC
RDEP .ohm.m               : RDEP
SP .mV                    : SP
RSHA .ohm.m               : RSHA
RMED .ohm.m               : RMED
~Parameter
#==================================================================
~Ascii
# ...
 3384.0161133 6.0000000000 12.913999557 0.0189999994 0.0995300040 2.6329998970 88.046600342 62.722999573 10.681674004 129.63879395 64.107849121 15.498623848
 3384.1684570 6.0000000000 12.888999939 0.0209999997 0.1097199991 2.6259999275 82.930488586 63.157001495 11.202787399 128.64199829 19.825771332 10.083621979
 3384.3208008 6.0000000000 12.833999634 0.0230000000 0.1168600023 2.5969998837 78.245895386 63.812999725 11.068586349 128.64160156 18.440052032 8.6003284454
 3384.4731445 6.0000000000 12.762999535 0.0289999992 0.1198400036 2.5920000076 75.682090759 64.429000854 10.185870171 128.39179993 19.711223602 7.5569777489
 3384.6257324 5.0000000000 12.706000328 0.0439999998 0.1188099980 2.5759999752 71.984199524 65.241996765 8.8554515839 128.26820374 14.851975441 6.2939853668
 3384.7780762 5.0000000000 12.670999527 0.0640000030 0.1181600019 2.5320000648 67.058197021 66.415000916 7.7484469414 128.64169312 10.170384407 5.3541684151
 3384.9304199 5.0000000000 12.630999565 0.0599999987 0.1173299998 2.4809999466 64.063903809 68.042999268 6.7800178528 128.45530701 9.1641874313 4.8349790573
 3385.0827637 3.0000000000 12.550999641 0.0430000015 0.1228199974 2.4460000992 64.625900269 69.930999756 6.1671733856 128.64140320 9.2814006805 4.1983428001
 3385.2351074 3.0000000000 12.508000374 0.0260000005 0.1302400082 2.4330000877 65.184906006 71.926002502 5.6512575150 128.26910400 9.5249013901 3.7886097431
 3385.3876953 3.0000000000 12.494999886 0.0250000004 0.1303499937 2.4149999619 63.252304077 73.883003235 5.1873607635 129.57730103 5.7159199715 3.5449280739
 3385.5400391 3.0000000000 12.463999748 0.0230000000 0.1269199997 2.3810000420 64.692306519 75.342002869 4.7884488106 127.89050293 3.7985961437 3.5000784397
 3385.6923828 3.0000000000 12.453000069 0.0049999999 0.1237800047 2.3870000839 67.375099182 76.069000244 4.4446377754 126.96211243 4.7912230492 3.5491442680
 3385.8447266 3.0000000000 12.453000069 -0.004000000 0.1239899993 2.4040000439 67.439605713 76.143989563 4.2188429832 131.38699341 3.6848814487 3.6392562389
 3385.9973145 3.0000000000 12.444999695 0.0060000001 0.1287499964 2.4500000477 68.449005127 75.875999451 4.1209869385 128.26699829 4.2339649200 3.7995183468
 3386.1496582 3.0000000000 12.437999725 0.0329999998 0.1313499957 2.4379999638 71.888023376 75.384002686 4.1170754433 128.26660156 4.2226490974 3.9613380432
 3386.3020020 3.0000000000 12.437999725 0.0370000005 0.1383600086 2.4460000992 80.006111145 74.884002686 4.1640944481 128.01660156 4.0042371750 4.1722192764
 3386.4543457 3.0000000000 12.425000191 0.0189999994 0.1380800009 2.4449999332 83.813903809 74.397003174 4.2230753899 127.76211548 4.1529903412 4.3091940880
 3386.6069336 3.0000000000 12.435000420 0.0109999999 0.1347700059 2.4630000591 84.366401672 74.092002869 4.2701854706 124.72779846 4.7669601440 4.4305982590
 3386.7592773 3.0000000000 12.414999962 0.0170000009 0.1300199926 2.4509999752 81.684898376 73.958999634 4.3281316757 126.85974884 3.8239998817 4.6168446541
 3386.9116211 3.0000000000 12.357000351 0.0219999999 0.1341100037 2.4319999218 79.738281250 74.176002502 4.4101696014 135.41223145 6.3166761398 4.5194983482
 3387.0639648 3.0000000000 12.288999557 0.0140000004 0.1434800029 2.4040000439 72.426986694 74.478996277 4.5161871910 128.07899475 6.7330770493 4.2066183090
 3387.2165527 3.0000000000 12.246000290 0.0070000002 0.1461800039 2.4119999409 65.535202026 74.668998718 4.6333103180 127.45379639 3.6693565845 3.9691505432
 3387.3688965 3.0000000000 12.241999626 0.0130000003 0.1420499980 2.4130001068 56.870441437 74.739997864 4.7301955223 127.08016205 4.7141170502 4.0163941383
 3387.5212402 3.0000000000 12.241999626 0.0270000007 0.1359799951 2.4179999828 54.026390076 74.739997864 4.8522500992 127.17460632 4.1651763916 4.2622756958
 3387.6735840 3.0000000000 12.234000206 0.0350000001 0.1291700006 2.4110000134 51.157051086 74.634002686 5.0083250999 127.54920959 4.8975687027 4.4341940880
 3387.8259277 3.0000000000 12.227000237 0.0370000005 0.1233699992 2.4270000458 51.808540344 74.250000000 5.2113189697 127.67279053 4.6286940575 4.5555000305
 3387.9785156 3.0000000000 12.227000237 0.0390000008 0.1178600043 2.4549999237 49.033901215 73.613998413 5.4105629921 126.92340851 4.4398722649 4.8683247566
 3388.1308594 3.0000000000 12.227000237 0.0469999984 0.1169699952 2.4590001106 49.936595917 72.929000854 5.5861873627 126.73640442 5.0241394043 5.2811074257
 3388.2832031 3.0000000000 12.227000237 0.0450000018 0.1182999983 2.4609999657 49.065204620 72.363998413 5.7032566071 126.98609924 5.7323865891 5.3479437828
 3388.4355469 3.0000000000 12.248000145 0.0309999995 0.1205500066 2.4649999142 50.436397552 71.758003235 5.8633379936 127.04959869 4.7269248962 5.3134007454
 3388.5881348 3.0000000000 12.303999901 0.0189999994 0.1244399995 2.4779999256 49.451095581 70.975997925 6.0747742653 127.42520142 4.6821503639 5.5642004013
 3388.7404785 3.0000000000 12.340000153 0.0130000003 0.1195899993 2.5000000000 53.542366028 70.061996460 6.3165640831 127.79940796 5.3525433540 5.9387135506
 3388.8928223 3.0000000000 12.343999863 0.0070000002 0.1116999984 2.5350000858 60.647335052 69.179000854 6.6688270569 128.04980469 5.6911697388 6.3838315010
 3389.0451660 3.0000000000 12.343999863 -0.002000000 0.1077599972 2.5880000591 74.576927185 68.402000427 7.1847257614 128.54919434 5.7995033264 6.9033908844
 3389.1977539 6.0000000000 12.352001190 -0.012000000 0.1150399968 2.6419999599 83.285003662 67.204002380 7.6383857727 128.67410278 7.3582000732 7.7743616104
 3389.3500977 6.0000000000 12.350999832 -0.014000000 0.1233800054 2.6949999332 94.194213867 65.919998169 8.0704889297 128.70460510 7.1194553375 9.1354045868
 3389.5024414 6.0000000000 12.343999863 -0.006000000 0.1268000007 2.7079999447 98.069412231 64.847999573 8.3749370575 128.45550537 13.661558151 10.633174896
 3389.6547852 6.0000000000 12.343999863 0.0060000001 0.1297499985 2.6900000572 102.05388641 64.642997742 8.3352804184 128.76679993 31.439426422 10.739884377
 3389.8071289 6.0000000000 12.343999863 0.0149999997 0.1407999992 2.6540000439 96.356369019 65.686996460 7.8862919807 128.64160156 22.980319977 9.4188203812
 3389.9597168 5.0000000000 12.343999863 0.0250000004 0.1478400081 2.5899999142 84.717002869 67.656997681 7.4441008568 128.39039612 20.696098328 7.4326496124
 3390.1120605 5.0000000000 12.343999863 0.0340000018 0.1459199935 2.5250000954 74.424278259 69.759002686 7.1634182930 127.89230347 23.191793442 5.7641582489
 3390.2644043 5.0000000000 12.343999863 0.0359999985 0.1300700009 2.4779999256 65.868339539 71.043998718 6.8002419472 128.07989502 6.2394843102 4.6160483360
 3390.4167480 3.0000000000 12.343999863 0.0299999993 0.1171199977 2.4600000381 61.715293884 71.518997192 6.3270306587 128.01730347 4.6764197350 4.0229563713
 3390.5693359 3.0000000000 12.343999863 0.0209999997 0.1115400046 2.4890000820 59.410900116 71.557998657 5.7210226059 128.20500183 7.4233503342 3.9976513386
 3390.7216797 3.0000000000 12.343999863 0.0209999997 0.1161499992 2.5069999695 60.942405701 71.425003052 5.1044936180 128.20550537 5.3538656235 4.5125126839
 3390.8740234 3.0000000000 12.343999863 0.0280000009 0.1214000061 2.5109999180 63.680286407 71.488998413 4.7888126373 128.51759338 6.5215573311 4.8315992355
 3391.0263672 3.0000000000 12.343999863 0.0299999993 0.1256600022 2.4670000076 58.868789673 72.019996643 4.6719999313 128.89250183 9.9769020081 4.5811553001
 3391.1789551 3.0000000000 12.352001190 0.0219999999 0.1259199977 2.4470000267 54.994300842 72.817001343 4.6722111702 129.20080566 5.5488877296 4.0544877052
 3391.3312988 3.0000000000 12.364000320 0.0209999997 0.1258399934 2.4470000267 53.225811005 73.819999695 4.7383942604 128.51730347 3.6450080872 3.8955368996
 3391.4836426 3.0000000000 12.388999939 0.0299999993 0.1277199984 2.4570000172 57.475761414 74.102996826 4.9843640327 128.70585632 3.6522195339 4.2307147980
 3391.6359863 3.0000000000 12.432000160 0.0219999999 0.1224400029 2.4879999161 61.693206787 73.000000000 5.2117691040 129.23579407 5.0343747139 4.6766381264
