# LAS format log file from PETREL
# Project units are specified as depth units
#==================================================================
~Version information
VERS.   2.0:
WRAP.   NO:
#==================================================================
~Well
STRT .m      579.75000000 :
STOP .m      3292.5014648 :
STEP .m     0.00000000 :
NULL .        -999.250000 :
COMP.           : COMPANY
WELL.  30/3-4R   : WELL
FLD.            : FIELD
LOC.            : LOCATION
SRVC.           : SERVICE COMPANY
DATE.  2018-09-11 14:48:28   : Log Export Date {yyyy-MM-dd HH:mm:ss}
PROV.           : PROVINCE
UWI.   30/3-4 R   : UNIQUE WELL ID
API.            : API NUMBER
#==================================================================
~Curve
DEPT .m                   : DEPTH
Lithology_geolink ._      : Lithology_geolink
CALI .in                  : CALI
DRHO .g/cm3               : DRHO
NPHI .m3/m3               : NPHI
RHOB .g/cm3               : RHOB
GR .gAPI                  : GR
DTC .us/ft                : DTC
DTE .us/ft                : DTE
RDEP .ohm.m               : RDEP
SP .mV                    : SP
RSHA .ohm.m               : RSHA
RMED .ohm.m               : RMED
~Parameter
#==================================================================
~Ascii
# ...
 2925.7500000 1.0000000000 8.1879997253 0.0140000004 0.1451900005 2.3610000610 53.423999786 78.105995178 76.631668091 21.118000031 101.11900330 13.897999763 10.640000343
 2925.8747559 1.0000000000 8.1909999847 0.0209999997 0.1474199891 2.3740000725 51.076999664 78.021659851 76.491905212 21.135000229 103.64900208 13.729000092 10.527999878
 2925.9997559 1.0000000000 8.1949996948 0.0299999993 0.1507800072 2.3900001049 49.473999023 77.991699219 76.491020203 21.260999680 105.85299683 13.444999695 10.407999992
 2926.1247559 1.0000000000 8.1969995499 0.0379999988 0.1549199969 2.4059998989 49.548000336 78.081520081 76.627388000 21.356000900 106.83200073 13.166999817 10.289999962
 2926.2497559 1.0000000000 8.1969995499 0.0439999998 0.1589999944 2.4179999828 51.449001312 78.277137756 76.875816345 21.299999237 106.35199738 12.991000175 10.175999641
 2926.3747559 1.0000000000 8.1940002441 0.0469999984 0.1611199975 2.4240000248 54.308998108 78.476341248 77.194923401 21.094999313 105.15200043 12.911000252 10.062999725
 2926.5000000 1.0000000000 8.1920003891 0.0460000001 0.1604299992 2.4249999523 57.075000763 78.868492126 77.524345398 20.791999817 104.03099823 12.847999573 9.9499998093
 2926.6250000 1.0000000000 8.1899995804 0.0419999994 0.1579300016 2.4210000038 58.646999359 79.259880066 77.798454285 20.466999054 103.14099884 12.732999802 9.8290004730
 2926.7500000 1.0000000000 8.1890001297 0.0350000001 0.1556099951 2.4130001068 58.353000641 79.422698975 77.984428406 20.155000687 102.27400208 12.534999847 9.6909999847
 2926.8750000 1.0000000000 8.1879997253 0.0280000009 0.1550499946 2.4030001163 56.611999512 79.494171143 78.087280273 19.850999832 101.58599854 12.281999588 9.5220003128
 2927.0002441 1.0000000000 8.1870002747 0.0230000000 0.1557900012 2.3919999599 54.036998749 79.645698547 78.135017395 19.535999298 101.60600281 12.017999649 9.3299999237
 2927.1252441 1.0000000000 8.1859998703 0.0189999994 0.1567399949 2.3810000420 51.623001099 79.541236877 78.164100647 19.218999863 102.77100372 11.772999763 9.1309995651
 2927.2502441 1.0000000000 8.1890001297 0.0149999997 0.1566399932 2.3699998856 50.629001617 79.449203491 78.207603455 18.926000595 105.04000092 11.572999954 8.9460000992
 2927.3750000 1.0000000000 8.1979999542 0.0099999998 0.1550000012 2.3570001125 51.458000183 79.561058044 78.249664307 18.662000656 107.51899719 11.428999901 8.7880001068
 2927.5000000 1.0000000000 8.2130002975 0.0049999999 0.1534499973 2.3450000286 53.638000488 79.661201477 78.279632568 18.399000168 109.26000214 11.321000099 8.6619997025
 2927.6250000 1.0000000000 8.2299995422 0.0010000000 0.1530900002 2.3359999657 56.034999847 79.685646057 78.298034668 18.080999374 109.93800354 11.208000183 8.5760002136
 2927.7500000 1.0000000000 8.2449998856 -0.001000000 0.1538600028 2.3320000172 57.444999695 79.777015686 78.318428040 17.645999908 109.59400177 11.039999962 8.5229997635
 2927.8750000 1.0000000000 8.2539997101 0.0020000001 0.1544200033 2.3320000172 57.694000244 79.881881714 78.372253418 17.107000351 108.31999969 10.793999672 8.4650001526
 2928.0000000 1.0000000000 8.2569999695 0.0060000001 0.1536400020 2.3369998932 57.423000336 79.737258911 78.474235535 16.486000061 106.50599670 10.479000092 8.3559999466
 2928.1250000 1.0000000000 8.2550001144 0.0120000001 0.1517099887 2.3440001011 57.397998810 79.900466919 78.620529175 15.786000252 104.96299744 10.109999657 8.1680002213
 2928.2497559 1.0000000000 8.2489995956 0.0179999992 0.1499800086 2.3489999771 57.554000854 80.214523315 78.789039612 14.925999641 104.70600128 9.7040004730 7.9000000954
 2928.3747559 1.0000000000 8.2449998856 0.0219999999 0.1504399925 2.3510000706 57.283000946 80.409950256 78.949180603 13.850000381 106.07599640 9.2959995270 7.5700001717
 2928.4997559 1.0000000000 8.2419996262 0.0240000002 0.1527999938 2.3480000496 56.262001038 80.605644226 79.062080383 12.536000252 108.34500122 8.9239997864 7.1799998283
 2928.6247559 1.0000000000 8.2419996262 0.0219999999 0.1552300006 2.3450000286 54.909000397 80.615196228 79.080169678 11.090999603 110.58399963 8.6140003204 6.7129998207
 2928.7500000 1.0000000000 8.2449998856 0.0199999996 0.1560499966 2.3410000801 54.012001038 80.327774048 79.021217346 9.6780004501 112.01100159 8.3549995422 6.1599998474
 2928.8750000 1.0000000000 8.2539997101 0.0179999992 0.1549299955 2.3389999866 53.893001556 80.239105225 78.928558350 8.4289999008 112.42700195 8.0880002975 5.5710000992
 2929.0000000 1.0000000000 8.2690000534 0.0149999997 0.1535400003 2.3380000591 54.306999207 80.345428467 78.845756531 7.4409999847 112.21099854 7.7560000420 5.0089998245
 2929.1250000 1.0000000000 8.2919998169 0.0130000003 0.1528500021 2.3380000591 54.525001526 80.256134033 78.809005737 6.6750001907 111.59500122 7.3390002251 4.5120000839
 2929.2500000 1.0000000000 8.3199996948 0.0120000001 0.1531800032 2.3369998932 53.868999481 80.361656189 78.843132019 6.0679998398 110.70999908 6.8660001755 4.1079998016
 2929.3752441 1.0000000000 8.3420000076 0.0140000004 0.1543999910 2.3359999657 52.513000488 80.376701355 78.918022156 5.5419998169 109.97100067 6.4029998779 3.7929999828
 2929.5002441 1.0000000000 8.3520002365 0.0179999992 0.1557099968 2.3359999657 50.825000763 80.251335144 78.996025085 5.0819997787 109.79199982 5.9939999580 3.5399999619
 2929.6252441 1.0000000000 8.3470001221 0.0209999997 0.1570100039 2.3359999657 49.339000702 80.258468628 79.059074402 4.6750001907 110.34999847 5.6570000648 3.3380000591
 2929.7500000 1.0000000000 8.3319997787 0.0219999999 0.1585900038 2.3340001106 48.617000580 80.507286072 79.101509094 4.3260002136 111.54199982 5.3979997635 3.1789999008
 2929.8750000 1.0000000000 8.3140001297 0.0209999997 0.1603199989 2.3329999447 48.743999481 80.613128662 79.133178711 4.0320000648 112.84300232 5.2059998512 3.0569999218
 2930.0000000 1.0000000000 8.2989997864 0.0199999996 0.1614100039 2.3310000896 49.513999939 80.615196228 79.186813354 3.7839999199 113.56300354 5.0630002022 2.9619998932
 2930.1250000 1.0000000000 8.2849998474 0.0189999994 0.1613400131 2.3280000687 50.429000854 80.764251709 79.266197205 3.5850000381 113.05400085 4.9549999237 2.8840000629
 2930.2500000 1.0000000000 8.2700004578 0.0179999992 0.1603800058 2.3239998817 51.241001129 80.747612000 79.356361389 3.4379999638 111.00499725 4.8660001755 2.8169999123
 2930.3750000 1.0000000000 8.2569999695 0.0170000009 0.1594299972 2.3199999332 51.974998474 80.707031250 79.437423706 3.3280000687 108.05899811 4.7779998779 2.7569999695
 2930.5000000 1.0000000000 8.2519998550 0.0149999997 0.1594800055 2.3169999123 52.441001892 80.964286804 79.488479614 3.2449998856 105.55300140 4.6869997978 2.7019999027
 2930.6247559 1.0000000000 8.2580003738 0.0130000003 0.1612400115 2.3159999847 52.735000610 80.981483459 79.489219666 3.1800000668 104.75700378 4.6040000916 2.6540000439
 2930.7497559 1.0000000000 8.2740001678 0.0120000001 0.1642699987 2.3159999847 53.049999237 80.889472961 79.446998596 3.1250000000 106.37500000 4.5479998589 2.6110000610
 2930.8747559 1.0000000000 8.2919998169 0.0109999999 0.1667699963 2.3159999847 53.262001038 80.853691101 79.399070740 3.0720000267 109.63400269 4.5250000954 2.5680000782
 2930.9997559 1.0000000000 8.3009996414 0.0109999999 0.1672100127 2.3159999847 53.375999451 80.806526184 79.384132385 3.0190000534 112.90899658 4.5040001869 2.5220000744
 2931.1250000 1.0000000000 8.2980003357 0.0109999999 0.1656699926 2.3150000572 53.786998749 80.748435974 79.437805176 2.9649999142 115.08499908 4.4499998093 2.4760000706
 2931.2500000 1.0000000000 8.2819995880 0.0109999999 0.1634499878 2.3129999638 54.569999695 80.856750488 79.585929871 2.9149999619 115.77700043 4.3420000076 2.4319999218
 2931.3750000 1.0000000000 8.2589998245 0.0089999996 0.1623900086 2.3090000153 55.393001556 81.248146057 79.820106506 2.8710000515 115.46099854 4.2109999657 2.3949999809
 2931.5000000 1.0000000000 8.2360000610 0.0070000002 0.1631399989 2.3039999008 56.129001617 81.415260315 80.031105042 2.8340001106 114.85099792 4.1050000191 2.3640000820
 2931.6250000 1.0000000000 8.2180004120 0.0020000001 0.1653300077 2.2990000248 56.791000366 81.562034607 80.147270203 2.8010001183 114.29399872 4.0529999733 2.3359999657
