# LAS format log file from PETREL
# Project units are specified as depth units
#==================================================================
~Version information
VERS.   2.0:
WRAP.   NO:
#==================================================================
~Well
STRT .m      3891.7941895 :
STOP .m      4561.5922852 :
STEP .m     0.00000000 :
NULL .        -999.250000 :
COMP.           : COMPANY
WELL.  30/3-5S   : WELL
FLD.            : FIELD
LOC.            : LOCATION
SRVC.           : SERVICE COMPANY
DATE.  2018-09-11 14:48:29   : Log Export Date {yyyy-MM-dd HH:mm:ss}
PROV.           : PROVINCE
UWI.   30/3-5 S   : UNIQUE WELL ID
API.            : API NUMBER
#==================================================================
~Curve
DEPT .m                   : DEPTH
Lithology_geolink ._      : Lithology_geolink
CALI .in                  : CALI
DRHO .g/cm3               : DRHO
NPHI .m3/m3               : NPHI
RHOB .g/cm3               : RHOB
PEF .b/e                  : PEF
GR .gAPI                  : GR
DTC .us/ft                : DTC
DTE .us/ft                : DTE
RDEP .ohm.m               : RDEP
RMED .ohm.m               : RMED
~Parameter
#==================================================================
~Ascii
# ...
 4552.4482422 3.0000000000 3.0332000256 0.0104000000 0.3520306349  -999.250000 3.7441406250 39.996601105  -999.250000  -999.250000 2.1619000435 5.7578001022
 4552.6005859 3.0000000000 3.0332000256 0.0104000000 0.3520306349  -999.250000 3.7441406250 37.591800690  -999.250000  -999.250000 2.3285000324 5.7578001022
 4552.7529297 3.0000000000 3.0332000256 0.0104000000 0.3520306349  -999.250000 3.7441406250 34.768901825  -999.250000  -999.250000 2.3908998966 5.7578001022
 4552.9057617 3.0000000000 3.0332000256 0.0104000000 0.3520306349  -999.250000 3.7441406250 32.009101868  -999.250000  -999.250000 2.3610877991 5.7578001022
 4553.0581055 3.0000000000 3.0332000256 0.0104000000 0.3520306349  -999.250000 3.7441406250 29.589000702  -999.250000  -999.250000 2.3286135197 5.7578001022
 4553.2104492 3.0000000000 3.0332000256 0.0104000000 0.3520306349  -999.250000 3.7441406250 27.735700607  -999.250000  -999.250000 3.0849127769 5.7578001022
 4553.3627930 3.0000000000 3.0332000256 0.0104000000 0.3520306349  -999.250000 3.7441406250 26.626199722  -999.250000  -999.250000 4.8663372993 5.7578001022
 4553.5151367 3.0000000000 3.0332000256 0.0104000000 0.3520306349  -999.250000 3.7441406250 26.291299820  -999.250000  -999.250000 6.3411760330 5.7578001022
 4553.6674805 3.0000000000 3.0332000256 0.0104000000 0.3520306349  -999.250000 3.7441406250 26.619400024  -999.250000  -999.250000 6.8333458900 5.7578001022
 4553.8198242 3.0000000000 3.0332000256 0.0104000000 0.3520306349  -999.250000 3.7441406250 27.654800415  -999.250000  -999.250000 7.4717001915 5.7578001022
 4553.9721680 3.0000000000 3.0332000256 0.0104000000 0.3520306349  -999.250000 3.7441406250 29.702199936  -999.250000  -999.250000 8.5913000107 5.7578001022
 4554.1245117 3.0000000000 3.0332000256 0.0104000000 0.3520306349  -999.250000 3.7441406250 32.801700592  -999.250000  -999.250000 9.2878999710 5.7578001022
 4554.2773438 3.0000000000 3.0332000256 0.0104000000 0.3520306349  -999.250000 3.7441406250 36.704898834  -999.250000  -999.250000 10.107419014 5.7578001022
 4554.4296875 3.0000000000 3.0332000256 0.0104000000 0.3520306349  -999.250000 3.7441406250 40.882999420  -999.250000  -999.250000 8.9892244339 5.7578001022
 4554.5820313 3.0000000000 3.0332000256 0.0104000000 0.3520306349  -999.250000 3.7441406250 44.723701477  -999.250000  -999.250000 7.5938544273 5.7578001022
 4554.7343750 5.0000000000 3.0332000256 0.0104000000 0.3520306349  -999.250000 3.7441406250 47.779098511  -999.250000  -999.250000 6.5507550240 5.7578001022
 4554.8867188 5.0000000000 3.0332000256 0.0104000000 0.3520306349  -999.250000 3.7441406250 49.621101379  -999.250000  -999.250000 5.7261023521 5.7578001022
 4555.0390625 5.0000000000 3.0332000256 0.0104000000 0.3520306349  -999.250000 3.7441406250 50.402099609  -999.250000  -999.250000 5.0715999603 5.7578001022
 4555.1914063 5.0000000000 3.0332000256 0.0104000000 0.3520306349  -999.250000 3.7441406250 50.198898315  -999.250000  -999.250000 4.5510997772 5.7578001022
 4555.3437500 5.0000000000 3.0332000256 0.0104000000 0.3520306349  -999.250000 3.7441406250 49.473899841  -999.250000  -999.250000 4.2602000237 5.7578001022
 4555.4960938 5.0000000000 3.0332000256 0.0104000000 0.3520306349  -999.250000 3.7441406250 49.088199615  -999.250000  -999.250000 4.2690000534 5.7578001022
 4555.6489258 5.0000000000 3.0332000256 0.0104000000 0.3520306349  -999.250000 3.7441406250 50.207099915  -999.250000  -999.250000 4.5558638573 5.7578001022
 4555.8012695 5.0000000000 3.0332000256 0.0104000000 0.3520306349  -999.250000 3.7441406250 53.588500977  -999.250000  -999.250000 4.8876295090 5.7578001022
 4555.9536133 5.0000000000 3.0332000256 0.0104000000 0.3520306349  -999.250000 3.7441406250 58.377101898  -999.250000  -999.250000 5.1773304939 5.7578001022
 4556.1059570 6.0000000000 3.0332000256 0.0104000000 0.3520306349  -999.250000 3.7441406250 63.521701813  -999.250000  -999.250000 5.3734965324 5.7578001022
 4556.2583008 6.0000000000 3.0332000256 0.0104000000 0.3520306349  -999.250000 3.7441406250 67.799301147  -999.250000  -999.250000 5.4030194283 5.7578001022
 4556.4106445 6.0000000000 3.0332000256 0.0104000000 0.3520306349  -999.250000 3.7441406250 70.191200256  -999.250000  -999.250000 5.2529997826 5.7578001022
 4556.5629883 6.0000000000 3.0332000256 0.0104000000 0.3520306349  -999.250000 3.7441406250 70.857101440  -999.250000  -999.250000 5.0929999352 5.7578001022
 4556.7153320 6.0000000000 3.0332000256 0.0104000000 0.3520306349  -999.250000 3.7441406250 70.562103271  -999.250000  -999.250000 4.9165000916 5.7578001022
 4556.8681641 6.0000000000 3.0332000256 0.0104000000 0.3520306349  -999.250000 3.7441406250 69.845901489  -999.250000  -999.250000 4.7065725327 5.7578001022
 4557.0205078 6.0000000000 3.0332000256 0.0104000000 0.3520306349  -999.250000 3.7441406250 68.870597839  -999.250000  -999.250000 4.5422444344 5.7578001022
 4557.1728516 6.0000000000 3.0332000256 0.0104000000 0.3520306349  -999.250000 3.7441406250 67.647697449  -999.250000  -999.250000 4.4628825188 5.7578001022
 4557.3251953 6.0000000000 3.0332000256 0.0104000000 0.3520306349  -999.250000 3.7441406250 66.096801758  -999.250000  -999.250000 4.4882698059 5.7578001022
 4557.4775391 6.0000000000 3.0332000256 0.0104000000 0.3520306349  -999.250000 3.7441406250 63.994998932  -999.250000  -999.250000 4.3851666451 5.7578001022
 4557.6298828 6.0000000000 3.0332000256 0.0104000000 0.3520306349  -999.250000 3.7441406250 61.358600616  -999.250000  -999.250000 4.2498998642 5.7578001022
 4557.7822266 5.0000000000 3.0332000256 0.0104000000 0.3520306349  -999.250000 3.7441406250 58.321399689  -999.250000  -999.250000 4.1764001846 5.7578001022
 4557.9345703 5.0000000000 3.0332000256 0.0104000000 0.3520306349  -999.250000 3.7441406250 55.199401855  -999.250000  -999.250000 4.0998001099 5.7578001022
 4558.0869141 5.0000000000 3.0332000256 0.0104000000 0.3520306349  -999.250000 3.7441406250 52.443901062  -999.250000  -999.250000 3.9839000702 5.7578001022
 4558.2397461 5.0000000000 3.0332000256 0.0104000000 0.3520306349  -999.250000 3.7441406250 50.584800720  -999.250000  -999.250000 3.7461354733 5.7578001022
 4558.3920898 5.0000000000 3.0332000256 0.0104000000 0.3520306349  -999.250000 3.7441406250 50.164100647  -999.250000  -999.250000 3.6015863419 5.7578001022
 4558.5444336 5.0000000000 3.0332000256 0.0104000000 0.3520306349  -999.250000 3.7441406250 51.137599945  -999.250000  -999.250000 3.5663554668 5.7578001022
 4558.6967773 5.0000000000 3.0332000256 0.0104000000 0.3520306349  -999.250000 3.7441406250 53.565299988  -999.250000  -999.250000 3.6149849892 5.7578001022
 4558.8491211 5.0000000000 3.0332000256 0.0104000000 0.3520306349  -999.250000 3.7441406250 56.821998596  -999.250000  -999.250000 3.7034690380 5.7578001022
 4559.0014648 5.0000000000 3.0332000256 0.0104000000 0.3520306349  -999.250000 3.7441406250 60.043701172  -999.250000  -999.250000 3.6626000404 5.7578001022
 4559.1538086 5.0000000000 3.0332000256 0.0104000000 0.3520306349  -999.250000 3.7441406250 62.426700592  -999.250000  -999.250000 3.5841999054 5.7578001022
 4559.3061523 5.0000000000 3.0332000256 0.0104000000 0.3520306349  -999.250000 3.7441406250 63.192401886  -999.250000  -999.250000 3.7574999332 5.7578001022
 4559.4589844 5.0000000000 3.0332000256 0.0104000000 0.3520306349  -999.250000 3.7441406250 62.222999573  -999.250000  -999.250000 3.9592182636 5.7578001022
 4559.6113281 5.0000000000 3.0332000256 0.0104000000 0.3520306349  -999.250000 3.7441406250 59.881698608  -999.250000  -999.250000 4.0275053978 5.7578001022
 4559.7636719 5.0000000000 3.0332000256 0.0104000000 0.3520306349  -999.250000 3.7441406250 57.028301239  -999.250000  -999.250000 4.1531085968 5.7578001022
 4559.9160156 5.0000000000 3.0332000256 0.0104000000 0.3520306349  -999.250000 3.7441406250 54.402500153  -999.250000  -999.250000 4.0311460495 5.7578001022
 4560.0683594 5.0000000000 3.0332000256 0.0104000000 0.3520306349  -999.250000 3.7441406250 52.374801636  -999.250000  -999.250000 3.9830555916 5.7578001022
