# LAS format log file from PETREL
# Project units are specified as depth units
#==================================================================
~Version information
VERS.   2.0:
WRAP.   NO:
#==================================================================
~Well
STRT .m      579.75000000 :
STOP .m      3292.5014648 :
STEP .m     0.00000000 :
NULL .        -999.250000 :
COMP.           : COMPANY
WELL.  30/3-4R   : WELL
FLD.            : FIELD
LOC.            : LOCATION
SRVC.           : SERVICE COMPANY
DATE.  2018-09-11 14:48:28   : Log Export Date {yyyy-MM-dd HH:mm:ss}
PROV.           : PROVINCE
UWI.   30/3-4 R   : UNIQUE WELL ID
API.            : API NUMBER
#==================================================================
~Curve
DEPT .m                   : DEPTH
Lithology_geolink ._      : Lithology_geolink
CALI .in                  : CALI
DRHO .g/cm3               : DRHO
NPHI .m3/m3               : NPHI
RHOB .g/cm3               : RHOB
GR .gAPI                  : GR
DTC .us/ft                : DTC
DTE .us/ft                : DTE
RDEP .ohm.m               : RDEP
SP .mV                    : SP
RSHA .ohm.m               : RSHA
RMED .ohm.m               : RMED
~Parameter
#==================================================================
~Ascii
# ...
 1839.7500000  -999.250000 12.835000038 -0.011000000 0.3530799747 2.1789999008 68.583000183 143.28741455 143.15356445 0.4769999981 67.891998291 0.7129999995 0.4390000105
 1839.8748779  -999.250000 12.927000046 -0.007000000 0.3642599881 2.1789999008 67.680000305 142.86799622 142.70108032 0.4779999852 70.242996216 0.7120000124 0.4350000024
 1840.0001221  -999.250000 13.055000305 -0.001000000 0.3673799932 2.1770000458 67.658996582 143.15902710 143.00488281 0.4790000021 71.774002075 0.7059999704 0.4320000112
 1840.1248779  -999.250000 13.187001228 0.0040000002 0.3664399981 2.1700000763 68.367996216 144.30549622 144.15344238 0.4799999893 71.846000671 0.6970000267 0.4320000112
 1840.2497559  -999.250000 13.274999619 0.0060000001 0.3661199808 2.1589999199 69.522003174 146.16688538 146.01452637 0.4799999893 70.435997009 0.6859999895 0.4350000024
 1840.3751221  -999.250000 13.285999298 0.0049999999 0.3702500165 2.1480000019 70.633003235 148.31398010 148.24954224 0.4799999893 68.426002502 0.6759999990 0.4390000105
 1840.4998779  -999.250000 13.235000610 0.0049999999 0.3770600259 2.1410000324 71.339996338 150.26716614 150.19708252 0.4790000021 66.776000977 0.6719999909 0.4429999888
 1840.6250000  -999.250000 13.149000168 0.0080000004 0.3811399937 2.1410000324 71.609001160 151.58160400 151.48286438 0.4769999981 65.842002869 0.6719999909 0.4460000098
 1840.7500000  -999.250000 13.068000793 0.0120000001 0.3783800006 2.1449999809 71.859001160 152.04666138 151.95913696 0.4760000110 65.490997314 0.6750000119 0.4480000138
 1840.8750000  -999.250000 13.024999619 0.0170000009 0.3713800013 2.1459999084 72.416000366 151.78353882 151.72070313 0.4760000110 65.352996826 0.6759999990 0.4499999881
 1840.9998779  -999.250000 13.024999619 0.0189999994 0.3658599854 2.1410000324 73.445999146 151.03753662 150.97349548 0.4769999981 65.247001648 0.6750000119 0.4510000050
 1841.1253662  -999.250000 13.051000595 0.0170000009 0.3598699868 2.1329998970 75.150001526 149.95623779 149.89071655 0.4799999893 65.257003784 0.6759999990 0.4530000091
 1841.2501221  -999.250000 13.069999695 0.0120000001 0.3501999974 2.1270000935 77.422996521 148.97602844 148.87373352 0.4839999974 65.757003784 0.6809999943 0.4539999962
 1841.3748779  -999.250000 13.058000565 0.0099999998 0.3362900019 2.1250000000 79.189002991 148.35437012 148.20573425 0.4889999926 67.191001892 0.6890000105 0.4569999874
 1841.5001221  -999.250000 13.019000053 0.0109999999 0.3230099976 2.1250000000 79.541000366 148.11259460 147.97328186 0.4950000048 69.496002197 0.6970000267 0.4600000083
 1841.6251221  -999.250000 12.975000381 0.0130000003 0.3172599971 2.1280000210 78.736000061 148.22534180 148.13305664 0.5000000000 72.137001038 0.7030000091 0.4650000036
 1841.7500000  -999.250000 12.951000214 0.0160000008 0.3226800263 2.1359999180 77.851997375 148.60964966 148.51473999 0.5049999952 74.025001526 0.7070000172 0.4690000117
 1841.8750000  -999.250000 12.956999779 0.0189999994 0.3386099935 2.1489999294 77.522003174 148.90290833 148.77848816 0.5080000162 74.102996826 0.7129999995 0.4720000029
 1842.0000000  -999.250000 12.986001015 0.0219999999 0.3550899923 2.1649999619 77.376998901 148.69822693 148.54829407 0.5090000033 72.402000427 0.7210000157 0.4729999900
 1842.1250000  -999.250000 13.024999619 0.0250000004 0.3651500046 2.1800000668 76.723999023 147.78907776 147.68269348 0.5080000162 69.638999939 0.7279999852 0.4720000029
 1842.2498779  -999.250000 13.064000130 0.0270000007 0.3682899773 2.1889998913 75.359001160 146.31842041 146.25654602 0.5049999952 66.928001404 0.7300000191 0.4679999948
 1842.3751221  -999.250000 13.090999603 0.0270000007 0.3685500026 2.1909999847 74.003997803 144.55395508 144.47822571 0.5000000000 65.148002625 0.7279999852 0.4620000124
 1842.4998779  -999.250000 13.104000092 0.0209999997 0.3687500060 2.1849999428 73.440002441 142.79608154 142.69734192 0.4920000136 64.427001953 0.7220000029 0.4539999962
 1842.6247559  -999.250000 13.107999802 0.0120000001 0.3671200275 2.1719999313 73.833000183 141.60736084 141.49299622 0.4830000103 64.527999878 0.7160000205 0.4420000017
 1842.7501221  -999.250000 13.114999771 0.0000000000 0.3602899909 2.1570000648 74.699996948 141.39259338 141.23956299 0.4749999940 65.018997192 0.7099999785 0.4289999902
 1842.8748779  -999.250000 13.137999535 -0.010000000 0.3443599939 2.1449999809 75.291000366 142.16754150 142.02963257 0.4679999948 65.533996582 0.7020000219 0.4180000126
 1843.0000000  -999.250000 13.178999901 -0.011000000 0.3234699965 2.1400001049 75.184997559 143.84295654 143.74975586 0.4629999995 66.046997070 0.6919999719 0.4120000005
 1843.1250000  -999.250000 13.237999916 -0.005000000 0.3050000072 2.1400001049 74.684997559 146.21142578 146.10748291 0.4589999914 66.888000488 0.6809999943 0.4099999964
 1843.2500000  -999.250000 13.307000160 0.0049999999 0.2950299978 2.1429998875 74.443000793 148.75173950 148.60778809 0.4580000043 68.608001709 0.6700000167 0.4120000005
 1843.3748779  -999.250000 13.364001274 0.0109999999 0.2990099788 2.1419999599 74.985000610 150.69338989 150.60479736 0.4569999874 71.343002319 0.6639999747 0.4160000086
 1843.5003662  -999.250000 13.388999939 0.0089999996 0.3101199865 2.1349999905 76.249000549 151.91178894 151.79121399 0.4560000002 74.440002441 0.6600000262 0.4189999998
 1843.6251221  -999.250000 13.374999046 0.0020000001 0.3190999925 2.1270000935 77.334999084 152.27517700 152.13526917 0.4560000002 76.902000427 0.6589999795 0.4199999869
 1843.7498779  -999.250000 13.329000473 -0.003000000 0.3189899921 2.1219999790 77.198997498 151.85629272 151.76936340 0.4560000002 77.629997253 0.6610000134 0.4199999869
 1843.8747559  -999.250000 13.284999847 -0.001000000 0.3097600043 2.1199998856 75.991996765 150.97726440 150.90583801 0.4580000043 76.255996704 0.6660000086 0.4189999998
 1844.0001221  -999.250000 13.267000198 0.0060000001 0.3006899953 2.1219999790 74.671997070 149.99613953 149.90161133 0.4600000083 73.530998230 0.6710000038 0.4169999957
 1844.1250000  -999.250000 13.285999298 0.0120000001 0.2976900041 2.1229999065 74.108001709 149.17132568 149.07595825 0.4639999866 70.444000244 0.6740000248 0.4169999957
 1844.2500000  -999.250000 13.329999924 0.0140000004 0.3006800115 2.1199998856 74.384002686 148.60850525 148.51104736 0.4679999948 67.947998047 0.6740000248 0.4169999957
 1844.3750000  -999.250000 13.377999306 0.0070000002 0.3045499921 2.1119999886 74.980003357 148.28439331 148.18193054 0.4699999988 66.541000366 0.6710000038 0.4169999957
 1844.5000000  -999.250000 13.416000366 -0.001000000 0.3057599962 2.1099998951 75.144996643 148.10104370 147.99995422 0.4699999988 66.038002014 0.6679999828 0.4160000086
 1844.6248779  -999.250000 13.449998856 -0.007000000 0.3049799800 2.1150000095 74.369003296 148.00234985 147.90699768 0.4679999948 66.045997620 0.6669999957 0.4129999876
 1844.7501221  -999.250000 13.484000206 -0.009000000 0.3052400053 2.1280000210 72.930999756 148.08210754 147.94241333 0.4650000036 66.263999939 0.6679999828 0.4090000093
 1844.8748779  -999.250000 13.511000633 -0.011000000 0.3118499815 2.1380000114 71.893997192 148.31333923 148.17350769 0.4609999955 66.759002686 0.6690000296 0.4059999883
 1844.9997559  -999.250000 13.512999535 -0.016000001 0.3250699937 2.1400001049 72.254997253 148.74197388 148.61215210 0.4569999874 67.627998352 0.6660000086 0.4040000141
 1845.1251221  -999.250000 13.477999687 -0.021000000 0.3408200145 2.1340000629 74.079002380 149.35472107 149.22612000 0.4530000091 68.652999878 0.6589999795 0.4029999971
 1845.2500000  -999.250000 13.409000397 -0.023000000 0.3504999876 2.1240000725 76.516998291 150.03866577 149.92739868 0.4469999969 69.301002502 0.6499999762 0.4020000100
 1845.3750000  -999.250000 13.326000214 -0.022000000 0.3488600254 2.1199998856 78.271003723 150.72361755 150.57199097 0.4390000105 69.088996887 0.6449999809 0.4000000060
 1845.5000000  -999.250000 13.246999741 -0.018999999 0.3427799940 2.1229999065 78.806999207 151.09230042 151.04269409 0.4309999943 68.135002136 0.6460000277 0.3959999979
 1845.6250000  -999.250000 13.177000999 -0.015000000 0.3392399848 2.1319999695 78.967002869 151.38578796 151.33450317 0.4230000079 66.929000854 0.6510000229 0.3899999857
