# LAS format log file from PETREL
# Project units are specified as depth units
#==================================================================
~Version information
VERS.   2.0:
WRAP.   NO:
#==================================================================
~Well
STRT .m      579.75000000 :
STOP .m      3292.5014648 :
STEP .m     0.00000000 :
NULL .        -999.250000 :
COMP.           : COMPANY
WELL.  30/3-4R   : WELL
FLD.            : FIELD
LOC.            : LOCATION
SRVC.           : SERVICE COMPANY
DATE.  2018-09-11 14:48:28   : Log Export Date {yyyy-MM-dd HH:mm:ss}
PROV.           : PROVINCE
UWI.   30/3-4 R   : UNIQUE WELL ID
API.            : API NUMBER
#==================================================================
~Curve
DEPT .m                   : DEPTH
Lithology_geolink ._      : Lithology_geolink
CALI .in                  : CALI
DRHO .g/cm3               : DRHO
NPHI .m3/m3               : NPHI
RHOB .g/cm3               : RHOB
GR .gAPI                  : GR
DTC .us/ft                : DTC
DTE .us/ft                : DTE
RDEP .ohm.m               : RDEP
SP .mV                    : SP
RSHA .ohm.m               : RSHA
RMED .ohm.m               : RMED
~Parameter
#==================================================================
~Ascii
# ...
 1119.7498779  -999.250000 17.590999603 -0.104000002  -999.250000 1.9290000200 69.231002808 150.15039063 146.23086548 1.2849999666 57.081001282 1.0319999456 0.7139999866
 1119.8751221  -999.250000 17.579999924 -0.101999998  -999.250000 1.9390000105 69.762001038 150.37799072 146.42666626 1.2840000391 55.715999603 1.0470000505 0.7139999866
 1120.0001221  -999.250000 17.514999390 -0.097999997  -999.250000 1.9479999542 69.538002014 150.35784912 146.40959167 1.2890000343 55.855998993 1.0559999943 0.7149999738
 1120.1251221  -999.250000 17.429000854 -0.090000004  -999.250000 1.9559999704 68.956001282 150.26109314 146.33309937 1.2979999781 57.166000366 1.0609999895 0.7179999948
 1120.2500000  -999.250000 17.361000061 -0.079000004  -999.250000 1.9630000591 68.617996216 150.44975281 146.50848389 1.3079999685 59.083000183 1.0640000105 0.7220000029
 1120.3750000  -999.250000 17.329000473 -0.068000004  -999.250000 1.9659999609 68.861000061 150.79490662 146.85018921 1.3140000105 61.006999969 1.0670000315 0.7250000238
 1120.5000000  -999.250000 17.320999146 -0.061999999  -999.250000 1.9650000334 69.542999268 151.02766418 147.09616089 1.3159999847 62.571994781 1.0709999800 0.7260000110
 1120.6248779  -999.250000 17.325000763 -0.063000001  -999.250000 1.9589999914 70.164001465 150.96815491 147.03622437 1.3150000572 63.400997162 1.0750000477 0.7269999981
 1120.7498779  -999.250000 17.343000412 -0.067000002  -999.250000 1.9520000219 70.262001038 150.53663635 146.55613708 1.3159999847 62.973999023 1.0789999962 0.7300000191
 1120.8748779  -999.250000 17.378000259 -0.068999998  -999.250000 1.9509999752 69.773002625 149.75392151 145.76358032 1.3200000525 61.154998779 1.0829999447 0.7360000014
 1121.0001221  -999.250000 17.424999237 -0.063000001  -999.250000 1.9579999447 68.917999268 149.05667114 145.13987732 1.3240000010 58.750000000 1.0870000124 0.7440000176
 1121.1251221  -999.250000 17.478000641 -0.052000001  -999.250000 1.9739999771 68.276000977 148.82809448 144.91760254 1.3270000219 56.853000641 1.0920000076 0.7530000210
 1121.2501221  -999.250000 17.524000168 -0.039999999  -999.250000 1.9910000563 68.460998535 148.95912170 145.01748657 1.3259999752 56.275001526 1.0950000286 0.7590000033
 1121.3750000  -999.250000 17.556999207 -0.035000000  -999.250000 2.0009999275 69.325996399 149.20796204 145.23942566 1.3209999800 56.904998779 1.0959999561 0.7620000243
 1121.5000000  -999.250000 17.573999405 -0.039999999  -999.250000 2.0009999275 70.357002258 149.30270386 145.31457520 1.3159999847 57.872001648 1.0950000286 0.7630000114
 1121.6250000  -999.250000 17.579999924 -0.050000001  -999.250000 1.9950000048 70.963996887 149.00953674 145.06127930 1.3120000362 58.508998871 1.0939999819 0.7639999986
 1121.7500000  -999.250000 17.579999924 -0.057999998  -999.250000 1.9900000095 70.888000488 148.71621704 144.77209473 1.3120000362 58.738998413 1.0950000286 0.7659999728
 1121.8748779  -999.250000 17.583999634 -0.057000000  -999.250000 1.9880000353 70.431999207 148.58969116 144.66209412 1.3109999895 59.091999054 1.0980000496 0.7680000067
 1121.9998779  -999.250000 17.604999542 -0.052000001  -999.250000 1.9850000143 69.953002930 148.69201660 144.77325439 1.3059999943 59.909000397 1.0989999771 0.7710000277
 1122.1248779  -999.250000 17.649999619 -0.046000000  -999.250000 1.9800000191 69.671997070 148.94738770 144.99641418 1.2949999571 60.896999359 1.0959999561 0.7730000019
 1122.2501221  -999.250000 17.708000183 -0.043000001  -999.250000 1.9730000496 69.448997498 148.94731140 144.99566650 1.2799999714 61.304000854 1.0900000334 0.7749999762
 1122.3751221  -999.250000 17.753000259 -0.044000000  -999.250000 1.9650000334 69.063003540 148.41181946 144.44395447 1.2640000582 60.710998535 1.0820000172 0.7730000019
 1122.5001221  -999.250000 17.767999649 -0.048999999  -999.250000 1.9550000429 68.482002258 147.48701477 143.52894592 1.2539999485 59.500999451 1.0759999752 0.7680000067
 1122.6250000  -999.250000 17.756999969 -0.056000002  -999.250000 1.9450000525 67.925003052 146.59725952 142.64758301 1.2519999743 58.296001434 1.0729999542 0.7649999857
 1122.7500000  -999.250000 17.733999252 -0.061999999  -999.250000 1.9400000572 67.817001343 146.18496704 142.22334290 1.2599999905 57.763000488 1.0709999800 0.7689999938
 1122.8750000  -999.250000 17.722000122 -0.064000003  -999.250000 1.9440000057 68.224998474 146.61087036 142.62585449 1.2730000019 58.227001190 1.0700000525 0.7810000181
 1122.9998779  -999.250000 17.728000641 -0.063000001  -999.250000 1.9520000219 68.886001587 147.97790527 144.08027649 1.2819999456 59.457000732 1.0720000267 0.8019999862
 1123.1248779  -999.250000 17.742000580 -0.059999999  -999.250000 1.9609999657 69.456001282 149.90301514 145.98367310 1.2790000439 61.013999939 1.0800000429 0.8240000010
 1123.2498779  -999.250000 17.752000809 -0.059000000  -999.250000 1.9670000076 69.790000916 151.55007935 147.62084961 1.2640000582 62.256000519 1.0959999561 0.8410000205
 1123.3751221  -999.250000 17.746999741 -0.059999999  -999.250000 1.9689999819 69.954002380 152.44174194 148.52053833 1.2400000095 62.523998260 1.1150000095 0.8479999900
 1123.5001221  -999.250000 17.729000092 -0.061999999  -999.250000 1.9670000076 69.955001831 152.33662415 148.41429138 1.2139999866 61.661998749 1.1319999695 0.8429999948
 1123.6251221  -999.250000 17.701999664 -0.063000001  -999.250000 1.9639999866 69.766998291 151.16485596 147.25498962 1.1920000315 59.957000732 1.1399999857 0.8309999704
 1123.7500000  -999.250000 17.677000046 -0.061999999  -999.250000 1.9600000381 69.502998352 149.53407288 145.63650513 1.1759999990 58.069999695 1.1349999905 0.8159999847
 1123.8750000  -999.250000 17.660999298 -0.061000001  -999.250000 1.9529999495 69.456001282 148.29351807 144.38655090 1.1610000134 56.875999451 1.1160000563 0.8009999990
 1124.0000000  -999.250000 17.652000427 -0.064000003  -999.250000 1.9400000572 69.725997925 147.80424500 143.87161255 1.1440000534 56.814998627 1.0909999609 0.7900000215
 1124.1250000  -999.250000 17.645000458 -0.070000000  -999.250000 1.9240000248 70.016998291 148.12089539 144.17202759 1.1219999790 57.733001709 1.0640000105 0.7810000181
 1124.2498779  -999.250000 17.636999130 -0.079000004  -999.250000 1.9049999714 69.820999146 149.01834106 145.09637451 1.0959999561 58.848999023 1.0399999619 0.7779999971
 1124.3748779  -999.250000 17.628000259 -0.089000002  -999.250000 1.8880000114 69.194999695 150.19161987 146.28198242 1.0700000525 59.312000275 1.0230000019 0.7779999971
 1124.4998779  -999.250000 17.621999741 -0.096000001  -999.250000 1.8750000000 68.569000244 151.19966125 147.30706787 1.0490000248 59.186000824 1.0130000114 0.7810000181
 1124.6251221  -999.250000 17.618999481 -0.101000004  -999.250000 1.8639999628 68.275001526 151.93627930 147.99533081 1.0369999409 59.173999786 1.0099999905 0.7850000262
 1124.7501221  -999.250000 17.618000031 -0.104999997  -999.250000 1.8550000191 68.003997803 152.28556824 148.30259705 1.0360000134 60.077999115 1.0149999857 0.7900000215
 1124.8751221  -999.250000 17.615999222 -0.107000001  -999.250000 1.8480000496 67.191001892 152.21150208 148.25993347 1.0429999828 61.868000031 1.0249999762 0.7979999781
 1125.0000000  -999.250000 17.613000870 -0.108999997  -999.250000 1.8459999561 65.666999817 151.82270813 147.92631531 1.0579999685 63.490001678 1.0390000343 0.8090000153
 1125.1250000  -999.250000 17.611000061 -0.108999997  -999.250000 1.8500000238 63.979999542 151.24142456 147.35554504 1.0779999495 63.943996429 1.0540000200 0.8259999752
 1125.2500000  -999.250000 17.611000061 -0.109999999  -999.250000 1.8580000401 63.009998322 150.65518188 146.73075867 1.1000000238 62.853000641 1.0679999590 0.8479999900
 1125.3750000  -999.250000 17.614999771 -0.114000000  -999.250000 1.8700000048 63.263999939 150.17176819 146.18139648 1.1230000257 60.898998260 1.0809999704 0.8730000257
 1125.4998779  -999.250000 17.622999191 -0.119000003  -999.250000 1.8819999695 64.655998230 149.81069946 145.78797913 1.1449999809 59.018001556 1.0930000544 0.8970000148
 1125.6248779  -999.250000 17.631000519 -0.122000001  -999.250000 1.8930000067 66.577003479 149.52641296 145.57272339 1.1660000086 57.687000275 1.1039999723 0.9150000215
