# LAS format log file from PETREL
# Project units are specified as depth units
#==================================================================
~Version information
VERS.   2.0:
WRAP.   NO:
#==================================================================
~Well
STRT .m      200.91401672 :
STOP .m      3436.5195313 :
STEP .m     0.00000000 :
NULL .        -999.250000 :
COMP.           : COMPANY
WELL.  30/3-3   : WELL
FLD.            : FIELD
LOC.            : LOCATION
SRVC.           : SERVICE COMPANY
DATE.  2018-09-11 14:48:28   : Log Export Date {yyyy-MM-dd HH:mm:ss}
PROV.           : PROVINCE
UWI.   30/3-3   : UNIQUE WELL ID
API.            : API NUMBER
#==================================================================
~Curve
DEPT .m                   : DEPTH
Lithology_geolink ._      : Lithology_geolink
CALI .in                  : CALI
DRHO .g/cm3               : DRHO
NPHI .m3/m3               : NPHI
RHOB .g/cm3               : RHOB
PEF .b/e                  : PEF
GR .gAPI                  : GR
DTC .us/ft                : DTC
DTE .us/ft                : DTE
RDEP .ohm.m               : RDEP
SP .mV                    : SP
RSHA .ohm.m               : RSHA
RMED .ohm.m               : RMED
~Parameter
#==================================================================
~Ascii
# ...
 1924.2539063 5.0000000000 18.750000000 0.0109991990  -999.250000 2.1739904881 4.1316533089 40.875450134 140.61296082 137.93383789 0.7380031943 61.900001526 1.2940592766 0.7740344405
 1924.4062500 5.0000000000 18.733999252 0.0099959932  -999.250000 2.1749975681 4.4034776688 41.439403534 137.91183472 135.33976746 0.7419871688 62.400001526 1.3680489063 0.7690039873
 1924.5587158 5.0000000000 18.891000748 0.0049919933  -999.250000 2.1759984493 4.7019610405 43.177989960 135.98550415 133.49945068 0.7260112166 61.650001526 1.4292354584 0.7729967833
 1924.7110596 19.000000000 18.812999725 0.0000008013  -999.250000 2.1750023365 5.1024084091 36.937446594 135.24752808 132.51930237 0.7329999804 62.400001526 1.5759351254 0.7720007896
 1924.8635254 19.000000000 18.827999115 0.0010080064  -999.250000 2.1680111885 5.9826903343 36.238716125 134.89337158 132.41232300 0.7330095768 62.650001526 1.4940856695 0.7899855971
 1925.0158691 19.000000000 18.672000885 0.0060048075  -999.250000 2.1550207138 7.0992307663 29.204538345 134.05696106 131.46513367 0.7390056252 62.650001526 0.9242684245 0.7919983864
 1925.1683350 19.000000000 18.577999115 0.0119983992  -999.250000 2.1500082016 6.6156401634 31.124549866 132.64994812 129.76493835 0.7460048199 61.150001526 1.2592625618 0.8169799447
 1925.3206787 19.000000000 18.483999252 0.0109935896  -999.250000 2.1529953480 4.8032193184 30.843473434 131.67419434 128.99661255 0.7490040064 61.900001526 1.4230008125 0.8040104508
 1925.4730225 19.000000000 19.077999115 0.0029967974  -999.250000 2.1549952030 3.6936762333 30.186010361 131.78584290 129.12252808 0.7540112138 62.650001526 1.4239599705 0.7960128188
 1925.6254883 19.000000000 19.031000137 -0.001000801  -999.250000 2.1510064602 3.4925093651 27.701797485 133.76347351 131.10391235 0.7679927945 61.650001526 1.3739967346 0.8079904318
 1925.7778320 19.000000000 19.281000137 -0.001998399  -999.250000 2.1430191994 3.7043750286 26.203750610 136.26628113 133.68095398 0.7589992285 61.400001526 1.3700320721 0.8399487138
 1925.9302979 19.000000000 18.531000137 0.0000000000  -999.250000 2.1390063763 3.9385716915 27.142967224 138.52891541 135.99131775 0.7579928041 62.150001526 1.4100873470 0.8060272336
 1926.0826416 19.000000000 18.437999725 -0.000001601  -999.250000 2.1419928074 4.1765322685 29.592962265 140.20848083 137.41746521 0.7489848137 61.650001526 1.5189375877 0.8020063639
 1926.2351074 19.000000000 18.233999252 -0.001999199  -999.250000 2.1479904652 4.5087685585 28.298265457 141.06672668 138.40959167 0.7299615741 61.650001526 1.4408718348 0.7980031967
 1926.3874512 19.000000000 18.327999115 -0.000997596  -999.250000 2.1559805870 4.8290643692 29.874961853 141.66108704 139.18034363 0.6819767356 60.900001526 1.2810409069 0.8169847727
 1926.5399170 19.000000000 18.031000137 0.0020064053  -999.250000 2.1550016403 5.4949135780 29.827447891 143.31039429 140.59741211 0.6529503465 60.150001526 1.3311576843 0.8020119667
 1926.6922607 19.000000000 18.391000748 0.0060000001  -999.250000 2.1470193863 6.7106490135 29.486001968 143.69303894 141.02865601 0.6219807267 59.900001526 0.8061057925 0.7390505075
 1926.8447266 19.000000000 18.687999725 0.0059983986  -999.250000 2.1290287971 10.241790771 31.982097626 143.47050476 140.82623291 0.5979936123 61.650001526 0.9375212193 0.6910384297
 1926.9970703 19.000000000 18.952999115 0.0050032050  -999.250000 2.1030623913 15.140085220 30.799242020 144.98226929 142.36268616 0.5940055847 61.400001526 0.6392852664 0.6050689220
 1927.1495361 19.000000000 18.516000748 0.0090048034  -999.250000 2.0960111618 15.803985596 33.589073181 144.89813232 142.28805542 0.6009759903 61.900001526 0.9957606196 0.6129935980
 1927.3018799 19.000000000 18.343999863 0.0120024038  -999.250000 2.1139712334 10.806915283 30.517992020 146.41334534 143.84432983 0.5860048532 61.900001526 1.4699815512 0.6100023985
 1927.4542236 19.000000000 18.218999863 0.0149983987  -999.250000 2.1469209194 6.3916282654 32.998775482 146.56167603 143.83923340 0.5920023918 60.400001526 1.4468855858 0.6629151106
 1927.6066895 19.000000000 18.172000885 0.0129959937  -999.250000 2.1619758606 5.5365223885 31.470727921 144.34010315 141.79016113 0.5950168371 60.900001526 1.3041578531 0.7149583101
 1927.7590332 19.000000000 18.093999863 0.0079943957  -999.250000 2.1580095291 5.3375639915 33.622486115 144.53022766 141.83731079 0.6160296202 61.900001526 1.5009880066 0.7908782959
 1927.9114990 19.000000000 18.062999725 0.0009967949  -999.250000 2.1480159760 5.0653347969 30.483022690 144.18780518 141.64666748 0.6530200243 62.650001526 1.4860111475 0.8139815927
 1928.0638428 19.000000000 17.812999725 -0.003001601  -999.250000 2.1460046768 4.7902851105 29.262535095 144.17727661 141.44964600 0.6780359745 62.400001526 1.4996701479 0.8329696059
 1928.2163086 19.000000000 17.750000000 -0.004994391  -999.250000 2.1430046558 5.5948934555 24.938301086 142.54481506 139.95806885 0.7230144143 61.400001526 1.0881787539 0.8120167851
 1928.3686523 19.000000000 18.016000748 0.0020048078  -999.250000 2.1589615345 7.2128429413 25.314226151 135.84635925 133.21287537 0.7410128117 61.400001526 1.3114967346 0.7740304470
 1928.5211182 16.000000000 18.062999725 0.0080032032  -999.250000 2.2009327412 7.7349133492 26.845901489 130.22779846 127.46726990 0.7569888234 61.900001526 1.9299992323 0.7799951434
 1928.6734619 16.000000000 17.922000885 0.0099991988  -999.250000 2.2359158993 6.4504213333 28.028432846 129.05387878 126.56841278 0.7499799728 61.900001526 1.3060992956 0.8779215217
 1928.8259277 19.000000000 17.858999252 0.0089967968  -999.250000 2.2300095558 4.8424963951 24.830526352 131.96931458 129.19889832 0.7250448465 62.150001526 1.4302481413 0.8120528460
 1928.9782715 19.000000000 17.922000885 0.0070000002  -999.250000 2.1910936832 4.2180304527 26.408304214 136.34120178 133.73310852 0.7529968023 62.650001526 1.5850336552 0.7600416541
 1929.1307373 19.000000000 17.875000000 0.0069935950  -999.250000 2.1650416851 4.2396540642 29.284029007 140.52587891 138.00727844 0.7489839792 63.400001526 1.6267389059 0.7769864202
 1929.2830811 19.000000000 17.858999252 0.0030000000  -999.250000 2.1500241756 5.3446364403 31.170986176 140.71673584 137.98425293 0.7389879823 61.900001526 1.4638445377 0.8009807467
 1929.4354248 19.000000000 17.750000000 0.0030016012  -999.250000 2.1330406666 6.9910125732 29.904211044 141.42587280 138.73541260 0.7239903808 62.650001526 1.2696460485 0.8239631653
 1929.5878906 19.000000000 18.077999115 0.0050024036  -999.250000 2.1050224304 9.4962291718 27.672239304 144.82327271 142.27009583 0.7120040059 60.900001526 0.8280192614 0.8269976377
 1929.7402344 19.000000000 17.608999252 0.0080008013  -999.250000 2.0860304832 11.512204170 27.968023300 147.58064270 144.78906250 0.7169871926 61.150001526 0.8521504998 0.7910576463
 1929.8927002 19.000000000 17.327999115 0.0090008005  -999.250000 2.0909960270 14.137386322 26.752027512 146.58470154 144.12136841 0.7010031939 61.400001526 1.0399150848 0.7560280561
 1930.0450439 19.000000000 18.062999725 0.0100032026  -999.250000 2.1099693775 16.787425995 29.281038284 145.51051331 142.88163757 0.7049975991 61.900001526 0.9339159727 0.7170624733
 1930.1975098 19.000000000 17.218999863 0.0140008014  -999.250000 2.1239888668 15.172416687 29.329965591 145.60845947 142.96232605 0.7019799948 62.400001526 0.8291987181 0.7140023708
 1930.3498535 19.000000000 17.156000137 0.0149959968  -999.250000 2.1200029850 10.770591736 31.780500412 144.55653381 141.93199158 0.6770023704 62.650001526 1.0772410631 0.7120016217
 1930.5023193 19.000000000 17.000000000 0.0099927885  -999.250000 2.1209993362 6.7734866142 31.156702042 144.30108643 141.57792664 0.6800032258 62.400001526 1.3780553341 0.7179951668
 1930.6546631 19.000000000 17.093999863 0.0009959936  -999.250000 2.1349887848 4.8980097771 32.030521393 142.42658997 139.94599915 0.6840016246 62.400001526 1.4469158649 0.7359855771
 1930.8071289 19.000000000 17.031000137 -0.004001602  -999.250000 2.1489887238 4.2808127403 31.434471130 139.93931580 137.37113953 0.6859887838 63.150005341 1.3420528173 0.7320032120
