# LAS format log file from PETREL
# Project units are specified as depth units
#==================================================================
~Version information
VERS.   2.0:
WRAP.   NO:
#==================================================================
~Well
STRT .m      200.91401672 :
STOP .m      3436.5195313 :
STEP .m     0.00000000 :
NULL .        -999.250000 :
COMP.           : COMPANY
WELL.  30/3-3   : WELL
FLD.            : FIELD
LOC.            : LOCATION
SRVC.           : SERVICE COMPANY
DATE.  2018-09-11 14:48:28   : Log Export Date {yyyy-MM-dd HH:mm:ss}
PROV.           : PROVINCE
UWI.   30/3-3   : UNIQUE WELL ID
API.            : API NUMBER
#==================================================================
~Curve
DEPT .m                   : DEPTH
Lithology_geolink ._      : Lithology_geolink
CALI .in                  : CALI
DRHO .g/cm3               : DRHO
NPHI .m3/m3               : NPHI
RHOB .g/cm3               : RHOB
PEF .b/e                  : PEF
GR .gAPI                  : GR
DTC .us/ft                : DTC
DTE .us/ft                : DTE
RDEP .ohm.m               : RDEP
SP .mV                    : SP
RSHA .ohm.m               : RSHA
RMED .ohm.m               : RMED
~Parameter
#==================================================================
~Ascii
# ...
 1065.9366455  -999.250000 17.452999115 -0.010000000  -999.250000 2.0359199047 50.041957855 33.405998230 142.30903625 138.64103699 1.3680000305 57.900001526 1.1460000277 1.0721057653
 1066.0891113  -999.250000 17.437999725 -0.014000000  -999.250000 2.0608999729 46.692424774 36.094001770 140.86917114 137.20939636 1.4259999990 57.400001526 1.2779999971 1.0839711428
 1066.2414551  -999.250000 17.187999725 -0.014000000  -999.250000 2.0709600449 34.237972260 36.062999725 141.31036377 137.66748047 1.3619999886 57.900001526 1.1979999542 1.1298893690
 1066.3939209  -999.250000 17.031000137 -0.009995997  -999.250000 2.0560481548 25.537916183 35.000000000 141.78201294 137.99304199 1.3480000496 57.650001526 0.9900000095 1.1030648947
 1066.5462646  -999.250000 16.952999115 -0.005000000  -999.250000 2.0251243114 22.491300583 32.562999725 141.55328369 137.82569885 1.3839999437 56.400001526 1.0920000076 1.0960167646
 1066.6987305  -999.250000 16.983999252 -0.005004804  -999.250000 2.0000801086 25.464216232 32.280998230 140.97633362 137.33221436 1.3830000162 57.400001526 1.2239999771 1.1119616032
 1066.8510742  -999.250000 17.172000885 -0.011000000  -999.250000 1.9850480556 37.936981201 30.593999863 140.72439575 137.00720215 1.3630000353 56.900001526 1.2710000277 1.1189831495
 1067.0035400  -999.250000 17.202999115 -0.018003201  -999.250000 1.9869935513 61.996429443 31.422000885 141.42469788 137.78602600 1.3389999866 57.650001526 1.1299999952 1.1050336361
 1067.1558838  -999.250000 16.812999725 -0.022000000  -999.250000 2.0079326630 67.363174438 31.922000885 143.53300476 139.82757568 1.3289999962 57.400001526 1.1629999876 1.0880409479
 1067.3083496  -999.250000 16.797000885 -0.027005609  -999.250000 2.0249457359 51.180992126 32.655998230 144.05139160 140.27630615 1.3270000219 59.150001526 1.1849999428 1.0660527945
 1067.4606934  -999.250000 16.812999725 -0.034008808  -999.250000 2.0220096111 47.907215118 32.562999725 141.37461853 137.71768188 1.3300000429 58.900001526 1.1820000410 1.0540288687
 1067.6131592  -999.250000 16.766000748 -0.045008816  -999.250000 1.9960832596 55.093463898 31.250000000 139.80545044 136.08882141 1.3259999752 58.150001526 1.2790000439 1.0559952259
 1067.7655029  -999.250000 16.733999252 -0.056005605  -999.250000 1.9810479879 62.438228607 29.406000137 141.98184204 138.34210205 1.3329999447 56.650001526 1.2029999495 1.0659759045
 1067.9178467  -999.250000 16.516000748 -0.063000001  -999.250000 2.0019159317 66.616966248 30.062999725 144.59870911 140.92474365 1.3329999447 57.650001526 1.0779999495 1.0849543810
 1068.0703125  -999.250000 16.906000137 -0.067000002  -999.250000 2.0498461723 77.109176636 29.483999252 146.52108765 142.79913330 1.3530000448 57.650001526 1.1519999504 1.0889903307
 1068.2226563  -999.250000 16.922000885 -0.067000002  -999.250000 2.0908360481 78.493705750 31.672000885 145.39653015 141.60206604 1.3810000420 57.150001526 1.2549999952 1.1109470129
 1068.3751221  -999.250000 16.983999252 -0.070005603  -999.250000 2.0850193501 75.178321838 29.437999725 142.10823059 138.35693359 1.3869999647 57.400001526 1.3279999495 1.1279591322
 1068.5274658  -999.250000 16.952999115 -0.077000000  -999.250000 2.0511362553 82.678924561 29.437999725 140.04043579 136.33013916 1.3409999609 58.150001526 1.3240000010 1.1409687996
 1068.6799316  -999.250000 16.937999725 -0.074992798  -999.250000 2.0440223217 140.89758301 28.343999863 138.61111450 134.94046021 1.3359999657 59.150001526 1.1109999418 1.1050864458
 1068.8322754  -999.250000 16.608999252 -0.066000000  -999.250000 2.0749006271 192.35932922 28.093999863 138.22251892 134.57904053 1.3470000029 58.150001526 1.1790000200 1.0920312405
 1068.9847412  -999.250000 16.750000000 -0.053998400  -999.250000 2.1039071083 183.12303162 30.062999725 134.37571716 130.67597961 1.3839999437 57.650001526 1.2450000048 1.0750409365
 1069.1370850  -999.250000 16.766000748 -0.052000001  -999.250000 2.0830671787 143.36369324 30.656000137 127.16242981 123.35762787 1.3980000019 56.650001526 1.0889999866 1.0959495306
 1069.2895508  -999.250000 16.843999863 -0.054001603  -999.250000 2.0331602097 96.973312378 33.092300415 126.08849335 122.39252472 1.3410344124 57.650001526 1.1649895906 1.0969976187
 1069.4418945  -999.250000 16.766000748 -0.056004006  -999.250000 1.9971153736 76.608848572 30.968761444 128.96804810 125.30986786 1.3840126991 56.650001526 1.1519415379 1.0660744905
 1069.5943604  -999.250000 17.141000748 -0.061005611  -999.250000 1.9850383997 82.191955566 30.670522690 134.18133545 130.51679993 1.4000064135 57.400001526 1.0790328979 1.1088967323
 1069.7467041  -999.250000 18.141000748 -0.068001606  -999.250000 1.9859967232 78.995140076 28.827749252 138.71310425 135.06248474 1.4079840183 56.400001526 1.1200288534 1.1209712029
 1069.8990479  -999.250000 17.983999252 -0.070000000  -999.250000 1.9899840355 69.202568054 28.516000748 139.28501892 135.63139343 1.3880000114 58.150001526 1.1560000181 1.1319646835
 1070.0515137  -999.250000 18.781000137 -0.066997603  -999.250000 1.9919935465 74.143035889 28.779436111 135.08767700 131.32772827 1.4259607792 57.150001526 0.9489871860 1.1160385609
 1070.2038574  -999.250000 19.187999725 -0.064000003  -999.250000 1.9949879646 104.15575409 26.827999115 132.31124878 128.55911255 1.3769999743 57.150001526 0.9330000281 1.1379470825
 1070.3563232  -999.250000 19.516000748 -0.061999999  -999.250000 2.0159327984 139.13897705 24.624961853 132.49806213 128.76202393 1.4010409117 56.150001526 0.8709511757 1.0821344852
 1070.5086670  -999.250000 19.702999115 -0.061999999  -999.250000 2.0428919792 117.47329712 24.577999115 133.99578857 130.28613281 1.4520000219 56.650001526 0.8100000024 1.0869879723
 1070.6611328  -999.250000 19.968999863 -0.055995196  -999.250000 2.0579519272 72.335365295 25.348604202 136.03390503 132.38290405 1.4499800205 56.650001526 1.0591088533 1.1259063482
 1070.8134766  -999.250000 20.000000000 -0.050000001  -999.250000 2.0400719643 46.467105865 31.093999863 138.40171814 134.66172791 1.4249999523 58.400001526 1.1950000525 1.1469495296
 1070.9659424  -999.250000 20.233997345 -0.043998398  -999.250000 2.0090994835 43.666393280 31.327587128 143.24110413 139.39628601 1.4110152721 57.150001526 1.0559799671 1.1559784412
 1071.1182861  -999.250000 19.781000137 -0.041999999  -999.250000 1.9790961742 49.965820313 30.812999725 145.09269714 141.43971252 1.4299999475 57.400001526 1.0310000181 1.1380432844
 1071.2707520  -999.250000 19.297000885 -0.045996796  -999.250000 1.9640480280 37.825511932 26.423791885 145.01742554 141.27247620 1.4040312767 57.400001526 1.0261418819 1.1340095997
 1071.4230957  -999.250000 18.327999115 -0.041995194  -999.250000 1.9709775448 22.726308823 28.659053802 143.72862244 139.99278259 1.4430055618 57.150001526 1.2027741671 1.1040720940
 1071.5755615  -999.250000 18.187999725 -0.035994388  -999.250000 1.9749872684 21.075592041 32.470981598 140.20397949 136.55455017 1.4499880075 57.400001526 0.9212996960 1.1359231472
 1071.7279053  -999.250000 17.625000000 -0.028998397  -999.250000 1.9759967327 17.261117935 34.937549591 141.40618896 137.75721741 1.4349927902 57.400001526 1.2949583530 1.1439808607
 1071.8802490  -999.250000 18.827999115 -0.027000001  -999.250000 1.9630521536 14.340018272 34.375000000 142.83912659 139.00747681 1.4259999990 57.150001526 1.2430000305 1.1639360189
 1072.0327148  -999.250000 17.093999863 -0.029000800  -999.250000 1.9370833635 13.651094437 32.999973297 142.04884338 138.37135315 1.4249607325 57.900001526 1.0192497969 1.1659952402
 1072.1850586  -999.250000 16.983999252 -0.029999999  -999.250000 1.9140920639 14.389220238 32.969001770 148.79776001 145.04577637 1.3760000467 56.900001526 1.3309999704 1.1719856262
 1072.3375244  -999.250000 17.297000885 -0.029995997  -999.250000 1.9040321112 15.235644341 30.577850342 151.04574585 147.31053162 1.3499984741 56.900001526 1.2876148224 1.1340912580
 1072.4898682  -999.250000 17.406000137 -0.025000000  -999.250000 1.9059920311 14.390038490 30.391000748 148.76045227 145.08709717 1.3480000496 58.400001526 0.8069999814 1.1250215769
