# LAS format log file from PETREL
# Project units are specified as depth units
#==================================================================
~Version information
VERS.   2.0:
WRAP.   NO:
#==================================================================
~Well
STRT .m      3891.7941895 :
STOP .m      4561.5922852 :
STEP .m     0.00000000 :
NULL .        -999.250000 :
COMP.           : COMPANY
WELL.  30/3-5S   : WELL
FLD.            : FIELD
LOC.            : LOCATION
SRVC.           : SERVICE COMPANY
DATE.  2018-09-11 14:48:29   : Log Export Date {yyyy-MM-dd HH:mm:ss}
PROV.           : PROVINCE
UWI.   30/3-5 S   : UNIQUE WELL ID
API.            : API NUMBER
#==================================================================
~Curve
DEPT .m                   : DEPTH
Lithology_geolink ._      : Lithology_geolink
CALI .in                  : CALI
DRHO .g/cm3               : DRHO
NPHI .m3/m3               : NPHI
RHOB .g/cm3               : RHOB
PEF .b/e                  : PEF
GR .gAPI                  : GR
DTC .us/ft                : DTC
DTE .us/ft                : DTE
RDEP .ohm.m               : RDEP
RMED .ohm.m               : RMED
~Parameter
#==================================================================
~Ascii
# ...
 4420.3173828 7.0000000000 8.7109003067 -0.006400000 0.3163888752 2.5876619816 3.9621708393 112.16929626 100.06780243 88.330474854 3.3050000668 3.3519001007
 4420.4697266 7.0000000000 8.7109003067 -0.007500000 0.3162714243 2.5839922428 3.9379382133 110.96350098 100.06780243 88.248809814 3.3013999462 3.3496000767
 4420.6225586 7.0000000000 8.7109003067 -0.005900000 0.3145582080 2.5808410645 3.8439002037 111.84110260 99.883514404 88.125610352 3.2993936539 3.3496000767
 4420.7749023 7.0000000000 8.7109003067 -0.005500000 0.3105986118 2.5794558525 3.7285780907 115.41929626 99.370559692 87.804924011 3.2974071503 3.3482000828
 4420.9272461 7.0000000000 8.7165002823 -0.003300000 0.3132137656 2.5897104740 3.7101299763 114.88819885 99.522285461 87.757034302 3.2996168137 3.3420999050
 4421.0795898 7.0000000000 8.7131996155 -0.001500000 0.3310036063 2.6013929844 3.6140387058 114.87760162 99.703903198 87.807991028 3.3049099445 3.3329000473
 4421.2319336 7.0000000000 8.7109003067 0.0024999999 0.3464864492 2.6111972332 3.6591670513 111.38020325 99.703903198 88.033576965 3.3079974651 3.3273000717
 4421.3842773 7.0000000000 8.7109003067 0.0031999999 0.3472595215 2.6073083878 3.7800230980 109.54689789 99.885848999 88.251998901 3.3071999550 3.3289000988
 4421.5366211 7.0000000000 8.7109003067 0.0014000000 0.3346435130 2.5929663181 3.8870818615 109.57029724 100.34072876 88.356857300 3.3080000877 3.3369998932
 4421.6889648 7.0000000000 8.7165002823 -0.000800000 0.3262607753 2.5760841370 3.9368238449 114.05210114 100.06780243 88.405700684 3.3141000271 3.3480999470
 4421.8417969 7.0000000000 8.7131996155 0.0007000000 0.3265300393 2.5643692017 3.9794294834 118.04429626 100.15994263 88.422866821 3.3233222961 3.3585000038
 4421.9941406 7.0000000000 8.7109003067 0.0011000000 0.3292803466 2.5571331978 4.0203824043 119.51300049 100.33956146 88.365066528 3.3303101063 3.3640999794
 4422.1464844 7.0000000000 8.7109003067 0.0013000000 0.3363781571 2.5560901165 4.0057282448 115.62740326 100.12789154 88.388565063 3.3334329128 3.3610999584
 4422.2988281 7.0000000000 8.7109003067 0.0026000000 0.3446418941 2.5611698627 3.8826746941 112.74220276 100.39947510 88.602615356 3.3437435627 3.3538000584
 4422.4511719 7.0000000000 8.7109003067 0.0030000000 0.3489145637 2.5670406818 3.6644129753 113.13539886 100.61548615 88.725250244 3.3573307991 3.3459999561
 4422.6035156 7.0000000000 8.7109003067 0.0031000001 0.3416930437 2.5711810589 3.4810883999 117.97129822 100.61539459 89.093933105 3.3669114113 3.3438000679
 4422.7558594 7.0000000000 8.7109003067 0.0035999999 0.3380850554 2.5744988918 3.3041679859 122.07029724 101.25045013 89.549850464 3.3705000877 3.3478999138
 4422.9082031 7.0000000000 8.7109003067 0.0048000002 0.3429391682 2.5822017193 3.3031349182 123.70829773 101.25039673 89.332656860 3.3877000809 3.3578999043
 4423.0605469 7.0000000000 8.7109003067 0.0071000000 0.3492474556 2.5893113613 3.3661983013 124.04429626 100.24975586 88.635101318 3.4179999828 3.3724000454
 4423.2133789 7.0000000000 8.7109003067 0.0073000002 0.3428466022 2.5917949677 3.4217998981 122.73439789 99.796043396 88.104362488 3.4500443935 3.3935999870
 4423.3657227 7.0000000000 8.7274999619 0.0060999999 0.3288946450 2.5915579796 3.4439227581 122.85160065 100.00599670 88.081741333 3.4952335358 3.4267001152
 4423.5180664 7.0000000000 8.7178001404 0.0044999998 0.3249487877 2.5922455788 3.5345571041 123.92289734 99.516967773 87.863555908 3.5681362152 3.4804000854
 4423.6704102 7.0000000000 8.7109003067 0.0014000000 0.3313260972 2.5894277096 3.5930364132 124.33850098 98.183746338 86.336227417 3.6419672966 3.5603001118
 4423.8227539 7.0000000000 8.7109003067 -0.002700000 0.3395332992 2.5841999054 3.6758689880 120.30210114 96.612228394 84.741363525 3.7569293976 3.6689000130
 4423.9750977 7.0000000000 8.6444997787 -0.001400000 0.3486965597 2.5819971561 3.8893730640 116.54429626 95.519248962 83.831954956 3.9844999313 3.8138000965
 4424.1274414 7.0000000000 8.5839996338 -0.001100000 0.3549841344 2.5631434917 3.9631848335 111.26039886 95.305198669 83.551773071 4.2866001129 4.0170998573
 4424.2797852 7.0000000000 8.5481996536 -0.004900000 0.3425725400 2.5066208839 3.4097430706 104.21350098 96.696571350 84.771606445 4.6223998070 4.3282999992
 4424.4321289 7.0000000000 8.4561004639 -0.008800000 0.3096995652 2.4284856319 2.7754094601 87.674499512 98.248374939 86.654876709 5.0103998184 4.8088002205
 4424.5849609 7.0000000000 8.4218997955 -0.011800000 0.2703721225 2.3608539104 2.5353565216 68.800796509 99.524284363 87.737800598 5.5072307587 5.5099000931
 4424.7373047 2.0000000000 8.4218997955 -0.011600000 0.2492636442 2.3208003044 2.5433557034 52.467399597 99.914085388 88.000312805 6.1410660744 6.4260997772
 4424.8896484 2.0000000000 8.4218997955 -0.008700000 0.2415028960 2.3006043434 2.6147084236 44.479801178 99.430145264 87.913856506 6.8477263451 7.4201998711
 4425.0419922 2.0000000000 8.4162998199 -0.005000000 0.2349480540 2.2890632153 2.5611479282 39.764301300 99.339996338 87.616249084 7.4795608521 8.2256002426
 4425.1943359 2.0000000000 8.3697996140 -0.002200000 0.2313921452 2.2873127460 2.6239295006 40.044300079 99.248176575 87.502571106 7.9663310051 8.6533002853
 4425.3466797 2.0000000000 8.3184003830 0.0000000000 0.2398672253 2.2925028801 2.7027306557 41.072898865 98.885223389 87.365852356 8.3815002441 8.7311000824
 4425.4990234 2.0000000000 8.2992000580 0.0024999999 0.2522992194 2.2996077538 2.7535493374 43.210899353 98.521324158 86.787376404 8.7214002609 8.6546001434
 4425.6513672 2.0000000000 8.3135004044 0.0023000001 0.2556859553 2.3001339436 2.7722418308 41.662799835 97.884498596 85.964355469 8.9896001816 8.6304998398
 4425.8041992 2.0000000000 8.3313999176 -0.001600000 0.2488100976 2.2968616486 2.7971129417 38.385398865 96.700683594 85.200431824 9.2181539536 8.7601003647
 4425.9565430 2.0000000000 8.3690996170 -0.002100000 0.2428120822 2.3014204502 2.8660607338 36.640598297 96.613258362 85.002876282 9.4535589218 9.0339002609
 4426.1088867 2.0000000000 8.4104995728 -0.000400000 0.2421428859 2.3135600090 2.9000287056 34.827499390 97.312065125 85.464752197 9.6905040741 9.3744001389
 4426.2612305 2.0000000000 8.4053001404 -0.000500000 0.2430564165 2.3223583698 2.8575782776 34.395801544 98.229415894 86.539352417 9.9410495758 9.6813001633
 4426.4135742 2.0000000000 8.3210000992 0.0024999999 0.2448907197 2.3225276470 2.7861454487 33.096401215 99.798271179 87.925895691 10.143315315 9.8430995941
 4426.5659180 2.0000000000 8.3222999573 0.0052000000 0.2460399866 2.3159580231 2.6864984035 31.690099716 100.70721436 89.084785461 10.272800446 9.8141002655
 4426.7182617 2.0000000000 8.3304004669 0.0060999999 0.2459148765 2.3131141663 2.6485188007 30.037799835 101.70524597 89.929801941 10.277000427 9.6286001205
 4426.8706055 2.0000000000 8.3889999390 0.0066000000 0.2397639602 2.3181471825 2.7163274288 29.411500931 102.34207153 90.548950195 10.171500206 9.3466997147
 4427.0229492 2.0000000000 8.4195995331 0.0062000002 0.2387711853 2.3221099377 2.8071601391 28.744100571 102.79692078 91.157196045 9.9945001602 9.0087995529
 4427.1757813 2.0000000000 8.4218997955 0.0004000000 0.2461769283 2.3148050308 2.8149664402 28.074899673 103.52698517 91.699913025 9.7486438751 8.6517000198
 4427.3281250 2.0000000000 8.4053001404 -0.004300000 0.2568726540 2.3003494740 2.7463066578 30.573600769 104.09815216 92.148071289 9.5438985825 8.3144998550
 4427.4804688 2.0000000000 8.4151000977 -0.006500000 0.2664574683 2.2894389629 2.6904077530 33.943698883 104.27161407 92.777374268 9.3253383636 8.0276002884
 4427.6328125 2.0000000000 8.4107999802 -0.004700000 0.2713102400 2.2861909866 2.7924177647 36.977901459 104.51528168 92.951416016 9.1189985275 7.8218998909
 4427.7851563 2.0000000000 8.3288002014 -0.001000000 0.2719985843 2.2806563377 2.8722517490 35.253898621 104.15885925 92.333778381 8.9625568390 7.7059001923
 4427.9375000 2.0000000000 8.2968997955 -0.000100000 0.2643232644 2.2669043541 2.8615221977 34.364601135 103.25174713 91.593025208 8.8555002213 7.6602997780
