# LAS format log file from PETREL
# Project units are specified as depth units
#==================================================================
~Version information
VERS.   2.0:
WRAP.   NO:
#==================================================================
~Well
STRT .m      236.19400024 :
STOP .m      3572.9916992 :
STEP .m     0.00000000 :
NULL .        -999.250000 :
COMP.           : COMPANY
WELL.  30/3-2R   : WELL
FLD.            : FIELD
LOC.            : LOCATION
SRVC.           : SERVICE COMPANY
DATE.  2018-09-11 14:48:27   : Log Export Date {yyyy-MM-dd HH:mm:ss}
PROV.           : PROVINCE
UWI.   30/3-2 R   : UNIQUE WELL ID
API.            : API NUMBER
#==================================================================
~Curve
DEPT .m                   : DEPTH
Lithology_geolink ._      : Lithology_geolink
CALI .in                  : CALI
DRHO .g/cm3               : DRHO
NPHI .m3/m3               : NPHI
RHOB .g/cm3               : RHOB
GR .gAPI                  : GR
DTC .us/ft                : DTC
RDEP .ohm.m               : RDEP
SP .mV                    : SP
RSHA .ohm.m               : RSHA
RMED .ohm.m               : RMED
~Parameter
#==================================================================
~Ascii
# ...
 1969.4392090 16.000000000 13.166998863 0.0060000001 0.4203807116 2.1639711857 23.671951294 102.79934692 1.7660000324  -999.250000  -999.250000 2.7249999046
 1969.5916748 16.000000000 12.994000435 0.0030000000 0.3963168561 2.1879806519 23.605497360 104.38372803 1.5629999638  -999.250000  -999.250000 2.2520000935
 1969.7440186 16.000000000 13.378999710 -0.014000000 0.4068512619 2.2089831829 21.423652649 109.79766083 1.4400000572  -999.250000  -999.250000 1.6019999981
 1969.8964844 19.000000000 14.571999550 -0.023000000 0.4584597945 2.1780247688 23.485727310 117.58477020 1.3350000381  -999.250000  -999.250000 1.2120000124
 1970.0488281 19.000000000 15.800999641 -0.027000001 0.5393870473 2.1040594578 24.563850403 124.49945831 1.2790000439  -999.250000  -999.250000 1.0099999905
 1970.2011719 19.000000000 15.129999161 -0.027000001 0.5481005907 2.0291202068 25.622472763 125.59125519 1.2259999514  -999.250000  -999.250000 1.1260000467
 1970.3536377 19.000000000 13.411999702 -0.014000000 0.4863671064 2.0040199757 22.469902039 123.24288177 1.1590000391  -999.250000  -999.250000 1.4029999971
 1970.5059814 19.000000000 13.218000412 -0.009000000 0.4078676999 2.0539197922 23.598541260 117.97145081 1.1230000257  -999.250000  -999.250000 1.8999999762
 1970.6584473 5.0000000000 13.140000343 -0.002000000 0.3675428331 2.1309382915 29.276529312 116.09350586 1.1490000486  -999.250000  -999.250000 2.0780000687
 1970.8107910 5.0000000000 13.062999725 0.0020000001 0.3585647941 2.1889069080 42.414779663 117.16428375 1.1929999590  -999.250000  -999.250000 1.8960000277
 1970.9632568 5.0000000000 13.101999283 0.0030000000 0.3521277308 2.2019894123 53.377178192 119.74092865 1.2450000048  -999.250000  -999.250000 1.6549999714
 1971.1156006 5.0000000000 13.203000069 0.0020000001 0.3742573559 2.1930072308 56.090995789 122.14907074 1.2680000067  -999.250000  -999.250000 1.5939999819
 1971.2680664 5.0000000000 13.242000580 0.0020000001 0.4084341228 2.1910016537 52.328739166 122.86342621 1.2549999952  -999.250000  -999.250000 1.5980000496
 1971.4204102 5.0000000000 13.321000099 0.0030000000 0.4546700418 2.1999928951 42.809242249 122.16456604 1.2309999466  -999.250000  -999.250000 1.5460000038
 1971.5728760 6.0000000000 13.484999657 0.0049999999 0.4671953917 2.2039968967 38.117496490 121.30668640 1.2250000238  -999.250000  -999.250000 1.4880000353
 1971.7252197 6.0000000000 13.555001259 -0.001000000 0.4580819905 2.2010023594 33.435508728 120.74645233 1.2330000401  -999.250000  -999.250000 1.4450000525
 1971.8776855 6.0000000000 13.625000000 -0.003000000 0.4481262267 2.1860120296 30.331277847 120.13748932 1.2549999952  -999.250000  -999.250000 1.4659999609
 1972.0300293 19.000000000 13.633998871 -0.004000000 0.4457606971 2.1720111370 32.376300812 119.27768707 1.2869999409  -999.250000  -999.250000 1.5420000553
 1972.1823730 19.000000000 13.694000244 -0.006000000 0.4341445267 2.1700031757 34.002578735 117.89422607 1.3170000315  -999.250000  -999.250000 1.6160000563
 1972.3348389 19.000000000 14.409000397 -0.002000000 0.4148049653 2.1789927483 37.218624115 116.10942841 1.3459999561  -999.250000  -999.250000 1.6740000248
 1972.4871826 19.000000000 15.208001137 -0.007000000 0.3835568726 2.1989679337 36.747875214 114.50756073 1.3739999533  -999.250000  -999.250000 1.7710000277
 1972.6396484 19.000000000 14.777999878 -0.004000000 0.3796572685 2.2089920044 34.093574524 113.43100739 1.3899999857  -999.250000  -999.250000 1.9170000553
 1972.7919922 19.000000000 13.897999763 0.0089999996 0.3762598634 2.2109968662 33.565475464 114.04799652 1.4110000134  -999.250000  -999.250000 1.9490000010
 1972.9444580 19.000000000 13.897999763 0.0230000000 0.4010418653 2.2189936638 36.658500671 115.57399750 1.4290000200  -999.250000  -999.250000 1.8129999638
 1973.0968018 19.000000000 14.147999763 0.0230000000 0.4158333242 2.2269935608 39.782249451 118.07199860 1.4199999571  -999.250000  -999.250000 1.6440000534
 1973.2492676 19.000000000 14.944999695 0.0030000000 0.4199596643 2.2319960594 41.337295532 120.22399902 1.3910000324  -999.250000  -999.250000 1.5939999819
 1973.4016113 19.000000000 14.555000305 0.0049999999 0.4322336316 2.2130153179 37.153820038 122.19899750 1.3600000143  -999.250000  -999.250000 1.6080000401
 1973.5540771 19.000000000 14.378999710 0.0010000000 0.4368426502 2.1970129013 34.433895111 124.50901031 1.3279999495  -999.250000  -999.250000 1.6399999857
 1973.7064209 19.000000000 14.303000450 -0.006000000 0.4821759164 2.1780152321 31.874160767 128.08799744 1.3109999895  -999.250000  -999.250000 1.6200000048
 1973.8588867 19.000000000 14.260000229 -0.011000000 0.5145593286 2.1460254192 30.830726624 132.93299866 1.3179999590  -999.250000  -999.250000 1.5340000391
 1974.0112305 19.000000000 14.170999527 -0.016000001 0.5390903354 2.1120271683 32.531375885 137.11900330 1.3309999704  -999.250000  -999.250000 1.4759999514
 1974.1635742 19.000000000 14.403999329 -0.010000000 0.5270366669 2.0850431919 33.003002167 139.04899597 1.3409999609  -999.250000  -999.250000 1.4129999876
 1974.3160400 19.000000000 13.977000237 -0.007000000 0.4978633225 2.0830016136 36.757812500 137.39500427 1.3480000496  -999.250000  -999.250000 1.4739999771
 1974.4683838 19.000000000 13.857000351 -0.001000000 0.4645383954 2.1039664745 46.502925873 132.68600464 1.3600000143  -999.250000  -999.250000 1.6009999514
 1974.6208496 19.000000000 13.706000328 0.0000000000 0.4500009418 2.1359741688 50.156272888 126.96299744 1.3630000353  -999.250000  -999.250000 1.7949999571
 1974.7731934 19.000000000 13.633998871 0.0049999999 0.4262683094 2.1619582176 50.492546082 122.71399689 1.3849999905  -999.250000  -999.250000 1.9040000439
 1974.9256592 19.000000000 13.649999619 -0.002000000 0.4491153359 2.1869800091 41.185844421 121.60399628 1.4129999876  -999.250000  -999.250000 1.9379999638
 1975.0780029 19.000000000 13.677000046 -0.006000000 0.4558150172 2.1870000362 38.500926971 122.78900146 1.4420000315  -999.250000  -999.250000 1.9570000172
 1975.2304688 19.000000000 13.751000404 -0.015000000 0.4994955659 2.1670160294 39.652767181 125.73400116 1.4650000334  -999.250000  -999.250000 1.9639999866
 1975.3828125 19.000000000 13.857000351 -0.011000000 0.4939602613 2.1440184116 35.625000000 129.67999268 1.4809999466  -999.250000  -999.250000 1.8899999857
 1975.5352783 19.000000000 13.836999893 -0.005000000 0.4817660451 2.1290118694 35.623149872 132.43299866 1.4800000191  -999.250000  -999.250000 1.7560000420
 1975.6876221 19.000000000 13.836000443 -0.001000000 0.4543545842 2.1230046749 34.472705841 133.01100159 1.4670000076  -999.250000  -999.250000 1.6890000105
 1975.8400879 19.000000000 13.661999702 -0.009000000 0.4476096332 2.1130080223 39.090698242 130.33900452 1.4680000544  -999.250000  -999.250000 1.7170000076
 1975.9924316 19.000000000 13.538001060 -0.009000000 0.4598650932 2.1090030670 37.027267456 126.90699768 1.4989999533  -999.250000  -999.250000 1.7369999886
 1976.1448975 19.000000000 13.359999657 -0.004000000 0.4662016332 2.1379768848 32.372524261 124.80999756 1.5650000572  -999.250000  -999.250000 1.6619999409
 1976.2972412 19.000000000 13.277999878 0.0040000002 0.4609859288 2.1749703884 30.829263687 125.38800049 1.6590000391  -999.250000  -999.250000 1.6169999838
 1976.4495850 19.000000000 13.171999931 0.0000000000 0.4559540153 2.1899759769 32.405899048 127.62599945 1.7690000534  -999.250000  -999.250000 1.7170000076
 1976.6020508 19.000000000 13.173000336 0.0000000000 0.4609680772 2.1730136871 32.280570984 129.59800720 1.8730000257  -999.250000  -999.250000 2.0139999390
 1976.7543945 19.000000000 13.173000336 -0.004000000 0.4959905446 2.1560270786 31.749187469 130.05400085 1.9769999981  -999.250000  -999.250000 2.3199999332
 1976.9068604 19.000000000 13.111999512 -0.007000000 0.4967082441 2.1460080147 30.734563828 128.18299866 2.0999999046  -999.250000  -999.250000 2.5610001087
 1977.0592041 19.000000000 13.065999985 -0.009000000 0.5070103407 2.1350176334 31.433845520 124.33200073 2.2209999561  -999.250000  -999.250000 2.6619999409
