# LAS format log file from PETREL
# Project units are specified as depth units
#==================================================================
~Version information
VERS.   2.0:
WRAP.   NO:
#==================================================================
~Well
STRT .m      236.19400024 :
STOP .m      3572.9916992 :
STEP .m     0.00000000 :
NULL .        -999.250000 :
COMP.           : COMPANY
WELL.  30/3-2R   : WELL
FLD.            : FIELD
LOC.            : LOCATION
SRVC.           : SERVICE COMPANY
DATE.  2018-09-11 14:48:27   : Log Export Date {yyyy-MM-dd HH:mm:ss}
PROV.           : PROVINCE
UWI.   30/3-2 R   : UNIQUE WELL ID
API.            : API NUMBER
#==================================================================
~Curve
DEPT .m                   : DEPTH
Lithology_geolink ._      : Lithology_geolink
CALI .in                  : CALI
DRHO .g/cm3               : DRHO
NPHI .m3/m3               : NPHI
RHOB .g/cm3               : RHOB
GR .gAPI                  : GR
DTC .us/ft                : DTC
RDEP .ohm.m               : RDEP
SP .mV                    : SP
RSHA .ohm.m               : RSHA
RMED .ohm.m               : RMED
~Parameter
#==================================================================
~Ascii
# ...
 3205.2507324 7.0000000000 11.343999863 0.0209999997 0.2511500120 2.6059999466 103.57652283 84.875000000 5.3240189552 127.14199829 10.759301186 6.2889809608
 3205.4030762 7.0000000000 11.343999863 0.0170000009 0.2451899946 2.6170001030 112.00911713 84.709999084 5.3360495567 124.95500183 11.569486618 6.2770447731
 3205.5556641 7.0000000000 11.352000237 0.0010000000 0.2594400048 2.6119999886 117.69020081 84.624000549 5.3670001030 125.36099243 11.247823715 6.3049998283
 3205.7080078 7.0000000000 11.375000000 0.0000000000 0.2572599947 2.6050000191 118.36779022 84.580001831 5.3670129776 125.61100769 10.570964813 6.3049998283
 3205.8603516 7.0000000000 11.398000717 0.0130000003 0.2645699978 2.5969998837 113.86968994 84.614997864 5.3750319481 125.67401123 11.171185493 6.3049244881
 3206.0126953 7.0000000000 11.398000717 0.0250000004 0.2528199852 2.6010000706 110.56169891 84.635002136 5.3949871063 125.36099243 10.664187431 6.2579741478
 3206.1652832 7.0000000000 11.398000717 0.0439999998 0.2617300153 2.6159999371 109.75140381 84.657989502 5.3870482445 125.29900360 10.780324936 6.2420897484
 3206.3176270 7.0000000000 11.398000717 0.0390000008 0.2567400038 2.6349999905 110.19030762 84.554000854 5.4020061493 125.54900360 10.570689201 6.2700304985
 3206.4699707 7.0000000000 11.398000717 0.0199999996 0.2622999847 2.6670000553 111.62199402 84.365997314 5.4060001373 125.98599243 11.000350952 6.2890563011
 3206.6223145 7.0000000000 11.398000717 0.0010000000 0.2561399937 2.6470000744 109.74929810 84.164001465 5.4060192108 126.23600769 11.219049454 6.3240494728
 3206.7746582 7.0000000000 11.413999557 0.0000000000 0.2570399940 2.6129999161 109.31370544 84.143997192 5.4180002213 126.11100006 11.249549866 6.3549199104
 3206.9272461 7.0000000000 11.437999725 -0.002000000 0.2543799877 2.5820000172 109.76039886 84.261001587 5.4181122780 125.61100769 10.967675209 6.3047981262
 3207.0795898 7.0000000000 11.437999725 0.0000000000 0.2604599893 2.5789999962 112.99729919 84.405998230 5.4530062675 125.48600006 10.555325508 6.2420258522
 3207.2319336 7.0000000000 11.444999695 0.0000000000 0.2512899935 2.5750000477 111.31240082 84.438003540 5.4570126534 125.36099243 10.759064674 6.2581377029
 3207.3842773 7.0000000000 11.444999695 0.0040000002 0.2483499944 2.5859999657 110.93579865 84.415992737 5.4650001526 126.42399597 11.422099113 6.3441119194
 3207.5368652 7.0000000000 11.491999626 -0.004000000 0.2395999879 2.5969998837 109.57199860 84.299011230 5.4649615288 125.36099243 11.483926773 6.4140992165
 3207.6892090 7.0000000000 11.484000206 -0.012000000 0.2501899898 2.6019999981 112.36648560 84.103996277 5.4530320168 125.48600006 11.460637093 6.4449505806
 3207.8415527 7.0000000000 11.491999626 -0.012000000 0.2504900098 2.5840001106 107.06450653 83.917999268 5.4730176926 125.51699829 11.233887672 6.4139184952
 3207.9938965 7.0000000000 11.530999184 -0.005000000 0.2523899972 2.5669999123 107.99429321 83.843002319 5.4840130806 125.95500183 11.165339470 6.3629245758
 3208.1464844 7.0000000000 11.530999184 0.0040000002 0.2517699897 2.5720000267 104.45280457 83.834999084 5.4920387268 125.95500183 11.997724533 6.3159389496
 3208.2988281 7.0000000000 11.515999794 0.0350000001 0.2593600154 2.5889999866 109.06120300 83.809989929 5.5039939880 125.57999420 11.289701462 6.2970128059
 3208.4511719 7.0000000000 11.530999184 0.0480000004 0.2543300092 2.6189999580 107.93950653 83.722999573 5.4999742508 125.76699066 11.725598335 6.3049998283
 3208.6035156 7.0000000000 11.530999184 0.0480000004 0.2527900040 2.6619999409 108.87830353 83.778999329 5.4839887619 125.70500183 10.852499962 6.3049869537
 3208.7558594 7.0000000000 11.555000305 0.0089999996 0.2426099926 2.6679999828 110.93970490 83.927001953 5.4769873619 125.76699066 11.163372993 6.2969870567
 3208.9084473 7.0000000000 11.555000305 -0.007000000 0.2585799992 2.6449999809 112.00879669 84.113998413 5.4689869881 125.45500946 10.772126198 6.2890000343
 3209.0607910 7.0000000000 11.569999695 -0.013000000 0.2545799911 2.5959999561 114.74449158 84.232002258 5.4650306702 125.57999420 10.501302719 6.2890434265
 3209.2131348 7.0000000000 11.578000069 -0.008000000 0.2514699996 2.5769999027 111.31370544 84.228996277 5.4840192795 125.64199829 11.312285423 6.3160624504
 3209.3654785 7.0000000000 11.593999863 -0.005000000 0.2421900034 2.5739998817 111.75160217 84.117996216 5.4960060120 126.01700592 10.866700172 6.3550319672
 3209.5180664 7.0000000000 11.602000237 -0.002000000 0.2447699904 2.5789999962 112.73979950 84.016990662 5.5000734329 126.33000183 10.680375099 6.3750638962
 3209.6704102 7.0000000000 11.616999626 -0.002000000 0.2595899999 2.5750000477 109.56159973 83.848999023 5.5229949951 125.70500183 10.796399117 6.3950800896
 3209.8227539 7.0000000000 11.625000000 0.0049999999 0.2533800006 2.5750000477 108.67327881 83.684997559 5.5199999809 124.20500183 10.423175812 6.4450001717
 3209.9750977 6.0000000000 11.640999794 0.0080000004 0.2567200065 2.5759999752 99.501800537 83.449996948 5.5200366974 128.70500183 11.154824257 6.4450130463
 3210.1276855 6.0000000000 11.640999794 0.0309999995 0.2444199920 2.5929999352 100.62840271 83.272003174 5.5428624153 125.39200592 10.422425270 6.4527759552
 3210.2800293 6.0000000000 11.664000511 0.0309999995 0.2539600134 2.6110000610 101.69831848 83.195999146 5.4999566078 125.95500183 10.555864334 6.3828301430
 3210.4323730 6.0000000000 11.694998741 0.0250000004 0.2614600062 2.6329998970 108.12459564 83.228996277 5.4729485512 127.33000183 11.093661308 6.2769246101
 3210.5847168 6.0000000000 11.711001396 0.0099999998 0.2776499987 2.6259999275 107.86949158 83.440002441 5.4409375191 125.76699066 10.881610870 6.2298254967
 3210.7370605 6.0000000000 11.711001396 0.0099999998 0.2864199877 2.6119999886 104.44220734 83.708999634 5.4019565582 125.20499420 10.015787125 6.1209244728
 3210.8896484 6.0000000000 11.734000206 0.0260000005 0.2885800004 2.6010000706 107.06639862 83.988998413 5.3748621941 125.82999420 9.8848247528 6.0738620758
 3211.0419922 6.0000000000 11.741999626 0.0109999999 0.2860699892 2.6089999676 108.12750244 84.297996521 5.3319563866 126.45500946 10.451347351 6.0309185982
 3211.1943359 6.0000000000 11.766000748 -0.002000000 0.2822600007 2.6319999695 109.67919159 84.554000854 5.3049182892 125.70500183 9.4220123291 5.9799327850
 3211.3466797 7.0000000000 11.788999557 -0.007000000 0.2780300081 2.6129999161 104.18960571 84.733001709 5.2539744377 125.76699066 9.4307136536 5.9380240440
 3211.4992676 7.0000000000 11.812999725 0.0030000000 0.2701300085 2.6010000706 105.19660187 84.819999695 5.2379870415 125.89199829 9.8749265671 5.9531631470
 3211.6516113 7.0000000000 11.852000237 0.0130000003 0.2561100125 2.6029999256 107.87660217 84.824996948 5.2339887619 125.61100769 9.8514986038 6.0040564537
 3211.8039551 7.0000000000 11.859000206 0.0209999997 0.2571499944 2.6250000000 108.87560272 84.739997864 5.2270116806 126.04899597 9.5389738083 6.0391011238
 3211.9562988 7.0000000000 11.883000374 0.0160000008 0.2530599833 2.6370000839 109.24829865 84.521003723 5.2340388298 125.48600006 9.5238008499 6.1021060944
 3212.1088867 7.0000000000 11.905999184 0.0140000004 0.2632099986 2.6410000324 108.18900299 84.373001099 5.2580733299 125.79900360 10.025400162 6.1680259705
 3212.2612305 7.0000000000 11.905999184 0.0099999998 0.2642700076 2.6250000000 108.49819946 84.268997192 5.2810387611 125.79900360 10.773301125 6.1759438515
 3212.4135742 7.0000000000 11.905999184 0.0070000002 0.2619000077 2.6140000820 107.37209320 84.249992371 5.3049998283 125.17400360 10.959047318 6.1410431862
 3212.5659180 6.0000000000 11.921999931 0.0070000002 0.2695299983 2.6010000706 105.55599213 84.249000549 5.3049807549 129.48599243 9.7432508469 6.1680994034
 3212.7182617 6.0000000000 11.930000305 0.0109999999 0.2885400057 2.5950000286 101.18990326 84.250999451 5.2929811478 126.98600006 10.521875381 6.2299265862
 3212.8708496 6.0000000000 11.944999695 0.0049999999 0.3136300147 2.5980000496 102.37459564 84.249992371 5.2809634209 126.92401123 9.8195753098 6.1838235855
