# LAS format log file from PETREL
# Project units are specified as depth units
#==================================================================
~Version information
VERS.   2.0:
WRAP.   NO:
#==================================================================
~Well
STRT .m      579.75000000 :
STOP .m      3292.5014648 :
STEP .m     0.00000000 :
NULL .        -999.250000 :
COMP.           : COMPANY
WELL.  30/3-4R   : WELL
FLD.            : FIELD
LOC.            : LOCATION
SRVC.           : SERVICE COMPANY
DATE.  2018-09-11 14:48:28   : Log Export Date {yyyy-MM-dd HH:mm:ss}
PROV.           : PROVINCE
UWI.   30/3-4 R   : UNIQUE WELL ID
API.            : API NUMBER
#==================================================================
~Curve
DEPT .m                   : DEPTH
Lithology_geolink ._      : Lithology_geolink
CALI .in                  : CALI
DRHO .g/cm3               : DRHO
NPHI .m3/m3               : NPHI
RHOB .g/cm3               : RHOB
GR .gAPI                  : GR
DTC .us/ft                : DTC
DTE .us/ft                : DTE
RDEP .ohm.m               : RDEP
SP .mV                    : SP
RSHA .ohm.m               : RSHA
RMED .ohm.m               : RMED
~Parameter
#==================================================================
~Ascii
# ...
 2745.7497559 13.000000000 12.560999870 0.1899999976 0.2344100028 2.8299999237 84.371002197 101.54529572 95.915580750 1.8120000362 79.079002380 2.1459999084 1.6399999857
 2745.8747559 13.000000000 12.562000275 0.1749999970 0.2395999879 2.8399999142 85.031997681 101.60379791 95.881698608 1.8099999428 78.878997803 2.1099998951 1.6430000067
 2746.0002441 13.000000000 12.562000275 0.1519999951 0.2438400090 2.8329999447 84.563003540 101.16725159 95.527938843 1.8049999475 78.649002075 2.0850000381 1.6410000324
 2746.1252441 13.000000000 12.564999580 0.1280000061 0.2440299988 2.8039999008 83.527999878 100.56214142 94.978507996 1.7999999523 78.435997009 2.0729999542 1.6390000582
 2746.2502441 13.000000000 12.571000099 0.1019999981 0.2391600013 2.7509999275 82.950996399 100.29457092 94.480949402 1.7940000296 78.319999695 2.0729999542 1.6380000114
 2746.3750000 13.000000000 12.576000214 0.0769999996 0.2306199968 2.6789999008 83.277000427 99.967575073 94.394226074 1.7860000134 78.347999573 2.0759999752 1.6369999647
 2746.5000000 13.000000000 12.579000473 0.0549999997 0.2222400159 2.6080000401 84.402000427 100.46175385 94.843109131 1.7760000229 78.472999573 2.0780000687 1.6339999437
 2746.6250000 13.000000000 12.578000069 0.0379999988 0.2161400020 2.5539999008 85.930999756 101.18098450 95.562759399 1.7649999857 78.615997314 2.0780000687 1.6299999952
 2746.7500000 13.000000000 12.574999809 0.0280000009 0.2136300057 2.5230000019 87.435997009 101.93513489 96.324493408 1.7519999743 78.679000854 2.0759999752 1.6250000000
 2746.8750000 13.000000000 12.569000244 0.0280000009 0.2166699916 2.5099999905 88.489997864 102.54523468 96.948333740 1.7389999628 78.621002197 2.0699999332 1.6210000515
 2747.0000000 13.000000000 12.562000275 0.0280000009 0.2245000005 2.5009999275 88.721000671 102.80179596 97.341949463 1.7259999514 78.505996704 2.0550000668 1.6189999580
 2747.1250000 13.000000000 12.553999901 0.0230000000 0.2357899994 2.4879999161 87.889999390 103.05764008 97.437461853 1.7120000124 78.432998657 2.0339999199 1.6160000563
 2747.2497559 13.000000000 12.545000076 0.0120000001 0.2489200085 2.4679999352 86.013000488 103.01180267 97.306465149 1.7000000477 78.499000549 2.0099999905 1.6089999676
 2747.3747559 13.000000000 12.531999588 -0.004000000 0.2633900046 2.4440000057 83.906997681 102.65573120 97.011955261 1.6879999638 78.724998474 1.9889999628 1.5980000496
 2747.4997559 13.000000000 12.517000198 -0.023000000 0.2740399837 2.4189999104 82.676002502 102.24858856 96.646903992 1.6790000200 79.025001526 1.9750000238 1.5859999657
 2747.6250000 13.000000000 12.501999855 -0.041999999 0.2801199853 2.3989999294 82.833000183 102.04357147 96.329277039 1.6740000248 79.305999756 1.9659999609 1.5750000477
 2747.7500000 13.000000000 12.494999886 -0.055000000 0.2828299999 2.3880000114 83.844001770 101.78601074 96.221870422 1.6720000505 79.499000549 1.9630000591 1.5690000057
 2747.8752441 13.000000000 12.500000000 -0.056000002 0.2835000157 2.3900001049 84.745002747 102.06278229 96.440208435 1.6699999571 79.597000122 1.9609999657 1.5659999847
 2748.0002441 13.000000000 12.516000748 -0.048000000 0.2827399969 2.3959999084 85.375000000 102.38919830 96.882385254 1.6660000086 79.636001587 1.9600000381 1.5609999895
 2748.1247559 13.000000000 12.539999008 -0.034000002 0.2780900002 2.4110000134 86.077003479 102.93699646 97.427551270 1.6599999666 79.649002075 1.9609999657 1.5520000458
 2748.2497559 13.000000000 12.566999435 -0.022000000 0.2674099803 2.4279999733 87.172996521 103.60018158 97.968788147 1.6529999971 79.655998230 1.9609999657 1.5390000343
 2748.3752441 13.000000000 12.588000298 -0.017000001 0.2526199818 2.4389998913 88.497001648 103.94274139 98.418380737 1.6440000534 79.654998779 1.9609999657 1.5249999762
 2748.5002441 13.000000000 12.597998619 -0.017999999 0.2408099920 2.4430000782 89.416999817 104.45145416 98.729019165 1.6369999647 79.622001648 1.9609999657 1.5130000114
 2748.6252441 13.000000000 12.593000412 -0.025000000 0.2342799902 2.4409999847 89.385002136 104.65106964 98.957191467 1.6330000162 79.529998779 1.9609999657 1.5069999695
 2748.7500000 13.000000000 12.578000069 -0.032000002 0.2312400043 2.4349999428 88.416999817 104.66899872 99.111251831 1.6310000420 79.352996826 1.9600000381 1.5039999485
 2748.8750000 13.000000000 12.562000275 -0.035000000 0.2291900069 2.4279999733 87.160003662 104.73273468 99.184539795 1.6310000420 79.105003357 1.9620000124 1.5049999952
 2749.0000000 13.000000000 12.555000305 -0.033000000 0.2262400091 2.4249999523 86.225997925 104.88564301 99.167518616 1.6319999695 78.841003418 1.9670000076 1.5060000420
 2749.1250000 13.000000000 12.557000160 -0.026000001 0.2228199989 2.4279999733 85.757003784 104.55252075 99.050674438 1.6339999437 78.625999451 1.9720000029 1.5069999695
 2749.2500000 13.000000000 12.564999580 -0.017000001 0.2200499922 2.4340000153 85.287002563 104.61240387 98.869438171 1.6369999647 78.524002075 1.9709999561 1.5069999695
 2749.3750000 13.000000000 12.576000214 -0.010000000 0.2185000032 2.4389998913 84.166000366 104.38948822 98.702011108 1.6410000324 78.600997925 1.9600000381 1.5080000162
 2749.5000000 13.000000000 12.584000587 -0.007000000 0.2180500031 2.4400000572 82.222000122 104.22740173 98.571800232 1.6480000019 78.949996948 1.9490000010 1.5089999437
 2749.6250000 13.000000000 12.588999748 -0.008000000 0.2192799896 2.4389998913 80.135002136 104.16968536 98.459129333 1.6549999714 79.627998352 1.9490000010 1.5119999647
 2749.7497559 13.000000000 12.588999748 -0.010000000 0.2229599953 2.4370000362 78.776000977 103.95985413 98.307357788 1.6629999876 80.486000061 1.9650000334 1.5160000324
 2749.8747559 13.000000000 12.585000038 -0.011000000 0.2294899970 2.4379999638 78.774002075 103.56847382 98.017051697 1.6729999781 81.143997192 1.9900000095 1.5210000277
 2750.0000000 13.000000000 12.579999924 -0.011000000 0.2375600040 2.4400000572 80.809997559 103.34430695 97.606056213 1.6820000410 81.325996399 2.0050001144 1.5260000229
 2750.1250000 13.000000000 12.571999550 -0.014000000 0.2463400066 2.4409999847 84.597000122 102.86073303 97.175209045 1.6900000572 80.991996765 2.0030000210 1.5290000439
 2750.2502441 13.000000000 12.557999611 -0.020000000 0.2567499876 2.4379999638 88.996002197 102.42698669 96.821662903 1.6950000525 80.333999634 1.9880000353 1.5299999714
 2750.3752441 13.000000000 12.534999847 -0.027000001 0.2668099999 2.4330000877 92.253997803 102.27993011 96.627754211 1.6979999542 79.708000183 1.9739999771 1.5269999504
 2750.4997559 13.000000000 12.510999680 -0.030999999 0.2732599974 2.4279999733 92.791999817 102.08499908 96.634452820 1.6990000010 79.302001953 1.9700000286 1.5210000277
 2750.6250000 13.000000000 12.493000031 -0.029999999 0.2721699774 2.4260001183 90.453002930 102.46392822 96.839172363 1.7000000477 79.095001221 1.9730000496 1.5160000324
 2750.7502441 13.000000000 12.493000031 -0.027000001 0.2633999884 2.4260001183 86.685997009 102.70686340 97.132423401 1.7009999752 79.013000488 1.9800000191 1.5119999647
 2750.8752441 13.000000000 12.510000229 -0.026000001 0.2533499897 2.4260001183 83.916000366 103.08267975 97.455612183 1.7029999495 79.009002686 1.9830000401 1.5140000582
 2751.0002441 13.000000000 12.534999847 -0.028999999 0.2486100048 2.4260001183 83.456001282 103.54109955 97.759384155 1.7050000429 79.023002625 1.9809999466 1.5190000534
 2751.1250000 13.000000000 12.555000305 -0.034000002 0.2512100041 2.4249999523 84.913002014 103.81024933 98.001243591 1.7070000172 79.002998352 1.9750000238 1.5279999971
 2751.2500000 13.000000000 12.565999985 -0.035999998 0.2590700090 2.4249999523 87.303001404 103.69187164 98.123298645 1.7059999704 78.922996521 1.9689999819 1.5369999409
 2751.3750000 13.000000000 12.569999695 -0.029999999 0.2666200101 2.4370000362 89.085998535 103.73043823 98.096458435 1.7039999962 78.790000916 1.9630000591 1.5449999571
 2751.5000000 13.000000000 12.574000359 -0.017000001 0.2696999907 2.4600000381 89.639999390 103.49044037 97.935050964 1.7009999752 78.632003784 1.9579999447 1.5529999733
 2751.6250000 13.000000000 12.585000038 -0.003000000 0.2682699859 2.4849998951 89.682998657 103.27330017 97.673248291 1.6990000010 78.478996277 1.9509999752 1.5590000153
