# LAS format log file from PETREL
# Project units are specified as depth units
#==================================================================
~Version information
VERS.   2.0:
WRAP.   NO:
#==================================================================
~Well
STRT .m      3891.7941895 :
STOP .m      4561.5922852 :
STEP .m     0.00000000 :
NULL .        -999.250000 :
COMP.           : COMPANY
WELL.  30/3-5S   : WELL
FLD.            : FIELD
LOC.            : LOCATION
SRVC.           : SERVICE COMPANY
DATE.  2018-09-11 14:48:29   : Log Export Date {yyyy-MM-dd HH:mm:ss}
PROV.           : PROVINCE
UWI.   30/3-5 S   : UNIQUE WELL ID
API.            : API NUMBER
#==================================================================
~Curve
DEPT .m                   : DEPTH
Lithology_geolink ._      : Lithology_geolink
CALI .in                  : CALI
DRHO .g/cm3               : DRHO
NPHI .m3/m3               : NPHI
RHOB .g/cm3               : RHOB
PEF .b/e                  : PEF
GR .gAPI                  : GR
DTC .us/ft                : DTC
DTE .us/ft                : DTE
RDEP .ohm.m               : RDEP
RMED .ohm.m               : RMED
~Parameter
#==================================================================
~Ascii
# ...
 4023.9250488 7.0000000000 9.1406002045 -0.003200000 0.3429840207 2.5108480453 3.5895869732 115.05470276 95.326675415 87.531600952 2.9753000736 3.3436999321
 4024.0773926 7.0000000000 9.1129999161 -0.000800000 0.3489456475 2.5256624222 3.4567875862 111.18229675 96.080421448 88.395919800 3.0671000481 3.3861000538
 4024.2297363 7.0000000000 9.1291999817 0.0012000001 0.3569200039 2.5310471058 3.5239634514 106.68229675 96.920951843 89.011573792 3.1022999287 3.3519001007
 4024.3820801 6.0000000000 9.1295003891 0.0020000001 0.3568066955 2.5289452076 3.5731012821 105.93509674 97.160125732 89.127227783 3.1171000004 3.2846999168
 4024.5346680 6.0000000000 9.1360998154 0.0060000001 0.3446190953 2.5281157494 3.5918345451 107.21350098 96.428573608 88.643806458 3.1556999683 3.2318999767
 4024.6870117 6.0000000000 9.1406002045 0.0115000000 0.3432160616 2.5341870785 3.5680437088 103.17189789 95.756851196 87.652648926 3.2156000137 3.2188000679
 4024.8393555 6.0000000000 9.1406002045 0.0104999999 0.3441443443 2.5404291153 3.6195194721 97.328102112 94.629623413 86.847724915 3.2676000595 3.2574999332
 4024.9916992 6.0000000000 9.1406002045 0.0096000005 0.3408060670 2.5409665108 3.6700689793 97.193702698 94.106796265 86.362022400 3.3076000214 3.3496000767
 4025.1442871 6.0000000000 9.1406002045 0.0065000001 0.3343689144 2.5367720127 3.5901191235 101.61979675 93.931686401 85.995635986 3.3682000637 3.4832000732
 4025.2966309 6.0000000000 9.1406002045 0.0063000000 0.3369686604 2.5372376442 3.5513467789 104.33850098 93.496826172 85.816223145 3.4537000656 3.6291999817
 4025.4489746 6.0000000000 9.1295995712 0.0062000002 0.3488807678 2.5431914330 3.5535295010 104.28119659 93.583923340 85.626075745 3.5234000683 3.7506999969
 4025.6013184 6.0000000000 9.1360998154 0.0082000000 0.3502044380 2.5532650948 3.6223614216 104.41690063 92.973968506 85.303573608 3.5673000813 3.8206000328
 4025.7536621 6.0000000000 9.1406002045 0.0059000002 0.3450378180 2.5615077019 3.5949456692 103.98699951 92.799583435 85.034790039 3.5780999660 3.8303999901
 4025.9062500 6.0000000000 9.1406002045 0.0034000000 0.3370954692 2.5648725033 3.3934106827 103.48439789 92.973968506 85.060348511 3.5629000664 3.7962999344
 4026.0585938 6.0000000000 9.1406002045 -0.002000000 0.3356418610 2.5634953976 3.2978687286 101.25000000 92.799728394 85.107688904 3.5387001038 3.7388999462
 4026.2109375 6.0000000000 9.1406002045 -0.005300000 0.3299248219 2.5617017746 3.2770087719 101.26039886 93.061096191 85.194702148 3.5257000923 3.6791999340
 4026.3632813 6.0000000000 9.1406002045 -0.007800000 0.3195500076 2.5634553432 3.3977644444 102.51100159 93.322105408 85.498008728 3.5027000904 3.6303000450
 4026.5158691 6.0000000000 9.1239995956 -0.006900000 0.3170903325 2.5656967163 3.4443986416 102.34380341 94.193923950 86.186447144 3.4179999828 3.5964000225
 4026.6682129 6.0000000000 9.1226997375 -0.005500000 0.3303397596 2.5629632473 3.4291093349 101.01820374 94.772750854 87.179397583 3.3589999676 3.5727000237
 4026.8205566 6.0000000000 9.1360998154 -0.006800000 0.3515523374 2.5558896065 3.3519663811 98.570297241 96.047950745 88.295944214 3.3420999050 3.5469999313
 4026.9729004 6.0000000000 9.1406002045 -0.005200000 0.3701086044 2.5504961014 3.3535969257 99.300498962 96.955673218 89.035575867 3.3371000290 3.5127999783
 4027.1254883 6.0000000000 9.1406002045 -0.003600000 0.3779901266 2.5472314358 3.4862654209 99.361999512 96.803825378 89.027008057 3.3331999779 3.4714999199
 4027.2778320 6.0000000000 9.1019001007 -0.004000000 0.3805920482 2.5411052704 3.6646344662 100.23179626 96.285156250 88.406570435 3.3306000233 3.4423999786
 4027.4301758 6.0000000000 9.0361003876 -0.004600000 0.3808152676 2.5393726826 3.8857140541 100.06770325 93.322525024 85.783248901 3.3231999874 3.4493999481
 4027.5825195 6.0000000000 8.9989995956 -0.004600000 0.3757640421 2.5639388561 4.3890414238 99.635299683 88.965728760 81.211349487 3.3231000900 3.5076999664
 4027.7348633 6.0000000000 8.9921998978 -0.004000000 0.3594549298 2.6155898571 4.7740321159 98.367202759 85.655296326 77.747085571 3.3975000381 3.5985000134
 4027.8874512 6.0000000000 8.9921998978 0.0000000000 0.3262928426 2.6430685520 4.6640248299 92.606796265 85.008399963 77.284454346 3.4858000278 3.6712000370
 4028.0397949 6.0000000000 8.9921998978 -0.000800000 0.2890953124 2.6213400364 4.1037750244 84.195297241 87.985794067 79.989875793 3.4835000038 3.6728999615
 4028.1921387 16.000000000 8.9921998978 -0.003900000 0.2724363506 2.5742027760 3.7553334236 74.364601135 92.046875000 84.328002930 3.4284000397 3.5954999924
 4028.3444824 16.000000000 8.9921998978 0.0003000000 0.2850341201 2.5503633022 3.6699876785 75.627799988 95.855476379 88.010940552 3.4184999466 3.4832999706
 4028.4970703 16.000000000 9.0143003464 0.0068999999 0.3229191601 2.5443437099 3.6202235222 86.140602112 97.505073547 89.465950012 3.4633998871 3.3924999237
 4028.6494141 7.0000000000 9.0788002014 0.0062000002 0.3624190092 2.5419452190 3.6563687325 100.68489838 97.300743103 89.523696899 3.4333999157 3.3512001038
 4028.8017578 7.0000000000 9.1182003021 0.0057000001 0.3770574927 2.5397503376 3.7249224186 106.33850098 97.327697754 89.468399048 3.3420999050 3.3561999798
 4028.9541016 7.0000000000 9.1360998154 0.0074000000 0.3744559586 2.5381388664 3.9672162533 109.47049713 96.925453186 89.352722168 3.2750999928 3.3861999512
 4029.1066895 7.0000000000 9.1406002045 0.0076000001 0.3680388033 2.5318367481 4.1066708565 110.29689789 97.161117554 89.311355591 3.2500998974 3.4144999981
 4029.2590332 6.0000000000 9.1406002045 0.0086000003 0.3668431342 2.5300397873 4.0808749199 108.32810211 97.474800110 89.457496643 3.2377998829 3.4149999619
 4029.4113770 6.0000000000 9.1406002045 0.0104000000 0.3614084125 2.5355348587 3.8903808594 106.23439789 96.978591919 89.130325317 3.2453999519 3.3803000450
 4029.5637207 6.0000000000 9.1406002045 0.0110999998 0.3466497660 2.5391690731 3.7817883492 103.29530334 96.459442139 88.406372070 3.2790999413 3.3340001106
 4029.7160645 6.0000000000 9.1406002045 0.0100999996 0.3286789358 2.5327517986 3.7623383999 104.61460114 96.024002075 88.267295837 3.3159000874 3.3134000301
 4029.8686523 6.0000000000 9.1406002045 0.0094999997 0.3189639747 2.5185883045 3.7839000225 102.28649902 95.500900269 87.869728088 3.3248000145 3.3533999920
 4030.0209961 6.0000000000 9.1406002045 0.0109000001 0.3166407347 2.5079193115 3.9326140881 100.67189789 95.382278442 87.568649292 3.3104000092 3.4623999596
 4030.1733398 6.0000000000 9.1406002045 0.0109999999 0.3307589591 2.5055515766 4.1675119400 96.755203247 95.002319336 87.301467896 3.3046998978 3.6038000584
 4030.3256836 6.0000000000 9.1406002045 0.0098000001 0.3447531462 2.5074825287 4.1034717560 91.067596436 94.898597717 87.034332275 3.2978000641 3.7074000835
 4030.4782715 6.0000000000 9.1406002045 0.0077999998 0.3534188569 2.5127189159 3.7883238792 87.604202271 95.208900452 87.669097900 3.2602999210 3.7116999626
 4030.6306152 6.0000000000 9.1406002045 0.0089999996 0.3524013162 2.5191588402 3.5232937336 88.380203247 96.890243530 89.196853638 3.2170000076 3.6145999432
 4030.7829590 6.0000000000 9.1571998596 0.0052000000 0.3542486727 2.5244078636 3.4624743462 96.437500000 98.550697327 90.547721863 3.2023000717 3.4688000679
 4030.9353027 7.0000000000 9.1751003265 0.0051000002 0.3666216433 2.5283522606 3.4985039234 106.49939728 99.857727051 92.211746216 3.1749000549 3.3296999931
 4031.0878906 7.0000000000 9.2184000015 0.0068999999 0.3745615780 2.5272984505 3.6410570145 115.52860260 101.68885803 93.692237854 3.1308999062 3.2260000706
 4031.2402344 7.0000000000 9.5000000000 0.0098000001 0.3680144846 2.5154373646 4.0257248878 120.98439789 102.73320007 94.895248413 3.1075000763 3.1631999016
 4031.3925781 7.0000000000 9.4820995331 0.0057999999 0.3593376279 2.4956302643 4.3005433083 125.10939789 103.05412292 95.074851990 3.1145999432 3.1359999180
 4031.5449219 7.0000000000 9.2248001099 0.0035000001 0.3618484139 2.4872295856 4.3344225883 124.89489746 101.37166595 93.776046753 3.1205000877 3.1391999722
