# LAS format log file from PETREL
# Project units are specified as depth units
#==================================================================
~Version information
VERS.   2.0:
WRAP.   NO:
#==================================================================
~Well
STRT .m      200.91401672 :
STOP .m      3436.5195313 :
STEP .m     0.00000000 :
NULL .        -999.250000 :
COMP.           : COMPANY
WELL.  30/3-3   : WELL
FLD.            : FIELD
LOC.            : LOCATION
SRVC.           : SERVICE COMPANY
DATE.  2018-09-11 14:48:28   : Log Export Date {yyyy-MM-dd HH:mm:ss}
PROV.           : PROVINCE
UWI.   30/3-3   : UNIQUE WELL ID
API.            : API NUMBER
#==================================================================
~Curve
DEPT .m                   : DEPTH
Lithology_geolink ._      : Lithology_geolink
CALI .in                  : CALI
DRHO .g/cm3               : DRHO
NPHI .m3/m3               : NPHI
RHOB .g/cm3               : RHOB
PEF .b/e                  : PEF
GR .gAPI                  : GR
DTC .us/ft                : DTC
DTE .us/ft                : DTE
RDEP .ohm.m               : RDEP
SP .mV                    : SP
RSHA .ohm.m               : RSHA
RMED .ohm.m               : RMED
~Parameter
#==================================================================
~Ascii
# ...
 630.07257080  -999.250000 10.640999794 0.0630260333  -999.250000 2.0641584396 2.2774035931 80.625000000 135.69946289 135.42878723 2.4979999065 57.625000000 3.2230000496 2.3239886761
 630.22497559  -999.250000 10.804999352 0.1279996037  -999.250000 2.1068105698 2.2730128765 85.500000000 137.23043823 137.01686096 2.4670000076 55.187999725 2.8949999809 2.2402355671
 630.37738037  -999.250000 10.609000206 0.1270112246  -999.250000 2.0532379150 2.1643493176 86.875000000 139.18798828 138.90354919 2.4549999237 55.687999725 2.6740000248 2.2190589905
 630.52978516  -999.250000 10.765999794 0.1549891829  -999.250000 2.0201454163 2.0553493500 89.938003540 141.09359741 140.77885437 2.4430000782 55.312999725 2.4820001125 2.1332409382
 630.68218994  -999.250000 11.047000885 0.1279735714  -999.250000 1.9204404354 1.9642915726 89.688003540 142.94549561 142.61944580 2.4470000267 55.562999725 1.9309999943 2.0701766014
 630.83459473  -999.250000 11.047000885 0.0949463323  -999.250000 1.8722114563 2.0248045921 94.563003540 142.11305237 141.80513000 2.4470000267 54.562999725 2.1019999981 2.0291149616
 630.98699951  -999.250000 10.711000443 0.0279743709  -999.250000 1.8660241365 2.2024297714 93.375000000 140.22846985 139.91764832 2.4279999733 54.812999725 2.4709999561 2.0838458538
 631.13934326  -999.250000 10.718999863 -0.004002003  -999.250000 1.9605814219 2.4501061440 95.063003540 139.25387573 138.95021057 2.4140000343 53.687999725 2.6210000515 2.2066059113
 631.29174805  -999.250000 11.632999420 -0.009000000  -999.250000 2.0605595112 2.3423929214 93.188003540 139.46514893 139.15550232 2.4000000954 54.562999725 2.8910000324 2.2867436409
 631.44415283  -999.250000 11.647999763 -0.008991990  -999.250000 2.0719516277 2.2114720345 92.750000000 139.23744202 139.00360107 2.3949999809 54.812999725 2.6909999847 2.3667438030
 631.59655762  -999.250000 11.961000443 0.0110144168  -999.250000 2.0660264492 2.1273028851 91.813003540 139.93125916 139.61117554 2.3929998875 55.750000000 2.8320000172 2.3540418148
 631.74896240  -999.250000 11.569999695 0.0470068082  -999.250000 2.0759558678 2.1499171257 91.750000000 141.22615051 140.89918518 2.4140000343 55.625000000 2.8399999142 2.2662467957
 631.90136719  -999.250000 11.140999794 0.0640024096  -999.250000 2.0570836067 2.1739134789 86.313003540 141.54983521 141.24278259 2.4379999638 56.250000000 2.8159999847 2.1722633839
 632.05377197  -999.250000 12.156000137 0.0700020045  -999.250000 2.0370881557 2.2297980785 83.938003540 141.55659485 141.25000000 2.4379999638 55.437999725 2.5699999332 2.1131653786
 632.20617676  -999.250000 11.109000206 0.0750136226  -999.250000 2.0041453838 2.1582307816 82.688003540 141.55659485 141.25000000 2.4240000248 55.312999725 2.4630000591 2.1289551258
 632.35858154  -999.250000 10.546999931 0.1089943871  -999.250000 2.0308809280 2.1879038811 83.063003540 140.56602478 140.29071045 2.4019999504 55.125000000 2.2560000420 2.1519355774
 632.51098633  -999.250000 10.421999931 0.0949859768  -999.250000 2.0200483799 2.1600897312 86.875000000 138.67486572 138.36517334 2.4100000858 55.750000000 2.5209999084 2.1839103699
 632.66339111  -999.250000 10.444999695 0.0599871837  -999.250000 2.0329427719 2.3085227013 84.563003540 138.05326843 137.83261108 2.4300000668 55.500000000 2.5179998875 2.2029469013
 632.81579590  -999.250000 10.359000206 0.0440112129  -999.250000 2.0588855743 2.3359134197 89.750000000 136.99125671 136.72143555 2.4570000172 56.125000000 2.7639999390 2.2708091736
 632.96820068  -999.250000 10.546999931 0.0580288321  -999.250000 2.0858809948 2.2751955986 85.438003540 135.16094971 134.84594727 2.4790000916 55.875000000 3.2579998970 2.3338234425
 633.12054443  -999.250000 11.078000069 0.0939903855  -999.250000 2.1128809452 2.2520830631 87.438003540 133.89637756 133.58203125 2.4960000515 56.375000000 3.1930000782 2.3569264412
 633.27294922  -999.250000 10.812999725 0.0700104162  -999.250000 2.0681982040 2.2848811150 85.188003540 133.69306946 133.37927246 2.5020000935 56.250000000 3.2929999828 2.3849103451
 633.42535400  -999.250000 10.663999557 0.0959875882  -999.250000 2.1406784058 2.4215061665 79.688003540 136.01962280 135.69702148 2.4939999580 56.625000000 3.1250000000 2.3999519348
 633.57775879  -999.250000 10.750000000 0.0650124103  -999.250000 2.1021718979 2.2994432449 79.188003540 139.09916687 138.82261658 2.4709999561 56.750000000 2.9530000687 2.3421857357
 633.73016357  -999.250000 11.055000305 0.0959883854  -999.250000 2.1268899441 2.2810647488 77.688003540 141.38359070 141.07444763 2.4509999752 56.125000000 2.3750000000 2.1845061779
 633.88256836  -999.250000 11.171999931 0.0669951960  -999.250000 2.0632820129 2.2481188774 80.313003540 143.18533325 142.92245483 2.4159998894 55.750000000 1.4529999495 2.0493786335
 634.03497314  -999.250000 11.069999695 0.0549867824  -999.250000 2.0659868717 2.3625853062 81.625000000 144.09945679 143.78515625 2.3789999485 56.125000000 2.2750000954 2.0001373291
 634.18737793  -999.250000 10.633000374 0.0219931919  -999.250000 2.0699822903 2.4566612244 82.813003540 143.65339661 143.36682129 2.3299999237 55.750000000 2.6410000324 2.0019943714
 634.33978271  -999.250000 10.578000069 0.0050036041  -999.250000 2.0819470882 2.4340736866 89.438003540 144.51664734 144.24716187 2.3010001183 55.375000000 2.6429998875 2.0249357224
 634.49218750  -999.250000 10.593998909 0.0140056070  -999.250000 2.0999205112 2.3851568699 89.125000000 145.58554077 145.26268005 2.2890000343 55.625000000 2.4609999657 2.0100419521
 634.64459229  -999.250000 10.875000000 0.0280084144  -999.250000 2.1019911766 2.3012692928 88.500000000 145.20028687 144.91880798 2.2969999313 54.750000000 1.8409999609 2.0000281334
 634.79699707  -999.250000 11.055000305 0.0489863828  -999.250000 2.1149427891 2.2850513458 87.438003540 142.91989136 142.64134216 2.3129999638 54.750000000 2.1600000858 2.0329074860
 634.94940186  -999.250000 11.272999763 0.0319823809  -999.250000 2.1040484905 2.3567693233 87.378807068 142.16864014 141.87332153 2.3220193386 55.125000000 1.6855590343 2.0798680782
 635.10180664  -999.250000 11.343999863 0.0099911895  -999.250000 2.1069869995 2.4935610294 92.122398376 140.17153931 139.93685913 2.3460071087 56.125000000 2.3833611012 2.1717419624
 635.25415039  -999.250000 10.718999863 -0.001000000  -999.250000 2.1249206066 2.5428233147 88.875572205 139.01954651 138.74099731 2.3550047874 56.375000000 2.8339819908 2.2457630634
 635.40655518  -999.250000 10.546999931 -0.000999199  -999.250000 2.1429204941 2.5350289345 90.311630249 138.00312805 137.68434143 2.3670117855 56.625000000 2.7890157700 2.2639422417
 635.55895996  -999.250000 10.546999931 0.0010008010  -999.250000 2.1459867954 2.5001261234 86.876579285 137.79701233 137.50360107 2.3960094452 56.250000000 2.8280754089 2.2480511665
 635.71136475  -999.250000 10.546999931 0.0030012014  -999.250000 2.1479911804 2.4551620483 90.813278198 137.45182800 137.15119934 2.4200124741 55.750000000 3.0159082413 2.2599616051
 635.86376953  -999.250000 10.546999931 0.0060024029  -999.250000 2.1579558849 2.4938592911 91.499221802 136.22038269 135.90393066 2.4510056973 55.250000000 2.7871024609 2.2729635239
 636.01617432  -999.250000 10.546999931 0.0119983982  -999.250000 2.1799032688 2.4820432663 89.562103271 135.31834412 135.03683472 2.4650046825 56.250000000 3.0429728031 2.2929439545
 636.16857910  -999.250000 10.508001328 0.0080008013  -999.250000 2.1780087948 2.5487585068 87.311698914 135.76440430 135.48918152 2.4770069122 56.250000000 2.9748401642 2.3089551926
 636.32098389  -999.250000 10.508001328 0.0100004002  -999.250000 2.1680440903 2.5390319824 84.065704346 135.83335876 135.58720398 2.4940023422 56.250000000 2.5761778355 2.3109943867
 636.47338867  -999.250000 10.508001328 0.0110040046  -999.250000 2.1520705223 2.5938239098 90.812454224 136.59211731 136.26989746 2.5000016689 56.500000000 3.0199327469 2.3199746609
 636.62579346  -999.250000 10.563000679 0.0210016016  -999.250000 2.1559822559 2.5331954956 89.439628601 137.77487183 137.49026489 2.5040016174 56.875000000 2.8519434929 2.3160111904
