# LAS format log file from PETREL
# Project units are specified as depth units
#==================================================================
~Version information
VERS.   2.0:
WRAP.   NO:
#==================================================================
~Well
STRT .m      579.75000000 :
STOP .m      3292.5014648 :
STEP .m     0.00000000 :
NULL .        -999.250000 :
COMP.           : COMPANY
WELL.  30/3-4R   : WELL
FLD.            : FIELD
LOC.            : LOCATION
SRVC.           : SERVICE COMPANY
DATE.  2018-09-11 14:48:28   : Log Export Date {yyyy-MM-dd HH:mm:ss}
PROV.           : PROVINCE
UWI.   30/3-4 R   : UNIQUE WELL ID
API.            : API NUMBER
#==================================================================
~Curve
DEPT .m                   : DEPTH
Lithology_geolink ._      : Lithology_geolink
CALI .in                  : CALI
DRHO .g/cm3               : DRHO
NPHI .m3/m3               : NPHI
RHOB .g/cm3               : RHOB
GR .gAPI                  : GR
DTC .us/ft                : DTC
DTE .us/ft                : DTE
RDEP .ohm.m               : RDEP
SP .mV                    : SP
RSHA .ohm.m               : RSHA
RMED .ohm.m               : RMED
~Parameter
#==================================================================
~Ascii
# ...
 939.74993896  -999.250000 17.063999176 -0.035999998  -999.250000 2.0250000954 67.998001099 145.14710999 141.23551941 1.4559999704 65.860000610 1.1069999933 0.8009999990
 939.87487793  -999.250000 17.193000793 -0.035999998  -999.250000 2.0230000019 69.202003479 144.37826538 140.45466614 1.4570000172 67.380996704 1.1150000095 0.8069999814
 940.00012207  -999.250000 17.291999817 -0.037999999  -999.250000 2.0220000744 70.702003479 143.65419006 139.69696045 1.4589999914 67.558998108 1.1289999485 0.8140000105
 940.12512207  -999.250000 17.353000641 -0.041999999  -999.250000 2.0209999084 72.015998840 143.06898499 139.12455750 1.4609999657 66.569000244 1.1449999809 0.8209999800
 940.25006104  -999.250000 17.378999710 -0.044000000  -999.250000 2.0190000534 72.832000732 142.73371887 138.79104614 1.4639999866 64.593002319 1.1579999924 0.8280000091
 940.37506104  -999.250000 17.385000229 -0.041999999  -999.250000 2.0139999390 73.166999817 142.59454346 138.64228821 1.4680000544 61.839000702 1.1640000343 0.8339999914
 940.50000000  -999.250000 17.385000229 -0.039999999  -999.250000 2.0079998970 72.916000366 142.58604431 138.63905334 1.4739999771 58.749000549 1.1649999619 0.8410000205
 940.62500000  -999.250000 17.384000778 -0.039999999  -999.250000 2.0030000210 72.121002197 142.67523193 138.74884033 1.4789999723 55.818000793 1.1640000343 0.8489999771
 940.74993896  -999.250000 17.382999420 -0.044000000  -999.250000 1.9980000257 71.190002441 142.91960144 138.96084595 1.4830000401 53.622001648 1.1660000086 0.8579999804
 940.87487793  -999.250000 17.381999969 -0.050999999  -999.250000 1.9950000048 70.625999451 143.16407776 139.20803833 1.4850000143 52.831001282 1.1699999571 0.8659999967
 940.99987793  -999.250000 17.381999969 -0.055000000  -999.250000 1.9939999580 70.540000916 143.29603577 139.33883667 1.4889999628 53.717998505 1.1759999990 0.8759999871
 941.12487793  -999.250000 17.384000778 -0.057999998  -999.250000 1.9939999580 70.596000671 143.20942688 139.27639771 1.4939999580 56.131999969 1.1840000153 0.8880000114
 941.25012207  -999.250000 17.388000488 -0.059999999  -999.250000 1.9919999838 70.302001953 142.93415833 139.03111267 1.5030000210 59.379001617 1.1929999590 0.9060000181
 941.37512207  -999.250000 17.391000748 -0.061999999  -999.250000 1.9880000353 69.733001709 142.60671997 138.69662476 1.5130000114 62.307998657 1.2050000429 0.9290000200
 941.50006104  -999.250000 17.392999649 -0.064000003  -999.250000 1.9839999676 69.452003479 142.40907288 138.48625183 1.5219999552 64.086997986 1.2220000029 0.9549999833
 941.62506104  -999.250000 17.393999100 -0.064000003  -999.250000 1.9839999676 69.932998657 142.56047058 138.62126160 1.5279999971 64.337997437 1.2410000563 0.9810000062
 941.75000000  -999.250000 17.392999649 -0.061999999  -999.250000 1.9859999418 71.071998596 143.11337280 139.18190002 1.5310000181 62.950000763 1.2589999437 1.0049999952
 941.87506104  -999.250000 17.392999649 -0.059999999  -999.250000 1.9910000563 72.013999939 143.99819946 140.06729126 1.5299999714 60.210998535 1.2699999809 1.0230000019
 941.99987793  -999.250000 17.391000748 -0.061999999  -999.250000 1.9919999838 72.049003601 145.03828430 141.09623718 1.5269999504 56.769001007 1.2760000229 1.0369999409
 942.12493896  -999.250000 17.388000488 -0.068000004  -999.250000 1.9859999418 71.116996765 145.96862793 142.06002808 1.5240000486 53.467998505 1.2769999504 1.0470000505
 942.24987793  -999.250000 17.382999420 -0.075000003  -999.250000 1.9730000496 69.569000244 146.50633240 142.55763245 1.5199999809 51.527999878 1.2749999762 1.0520000458
 942.37487793  -999.250000 17.377000809 -0.078000002  -999.250000 1.9579999447 68.117996216 146.50675964 142.56259155 1.5149999857 51.825000763 1.2699999809 1.0549999475
 942.50012207  -999.250000 17.371000290 -0.079000004  -999.250000 1.9459999800 67.461997986 146.08143616 142.14382935 1.5089999437 53.951999664 1.2599999905 1.0599999428
 942.62506104  -999.250000 17.368000031 -0.082999997  -999.250000 1.9390000105 68.013999939 145.41157532 141.48211670 1.4980000257 57.006000519 1.2480000257 1.0670000315
 942.75006104  -999.250000 17.370000839 -0.092000000  -999.250000 1.9379999638 69.796997070 144.71676636 140.80915833 1.4789999723 59.924999237 1.2380000353 1.0779999495
 942.87500000  -999.250000 17.382999420 -0.104000002  -999.250000 1.9459999800 71.976997375 144.27687073 140.36541748 1.4509999752 62.040000916 1.2350000143 1.0880000591
 943.00000000  -999.250000 17.413999557 -0.108000003  -999.250000 1.9600000381 73.781997681 144.23689270 140.29034424 1.4170000553 63.332000732 1.2369999886 1.0900000334
 943.12500000  -999.250000 17.468999863 -0.101999998  -999.250000 1.9750000238 74.763000488 144.40570068 140.47563171 1.3830000162 63.836997986 1.2389999628 1.0820000172
 943.24993896  -999.250000 17.548999786 -0.083999999  -999.250000 1.9919999838 74.930000305 144.69613647 140.78372192 1.3539999723 63.376998901 1.2289999723 1.0679999590
 943.37487793  -999.250000 17.638999939 -0.066000000  -999.250000 2.0039999485 74.725997925 145.01376343 141.09132385 1.3350000381 61.755001068 1.2029999495 1.0559999943
 943.49987793  -999.250000 17.721000671 -0.056000002  -999.250000 2.0079998970 74.411003113 145.25512695 141.31800842 1.3270000219 59.226001740 1.1660000086 1.0549999475
 943.62512207  -999.250000 17.784000397 -0.057999998  -999.250000 2.0090000629 74.230003357 145.40098572 141.44447327 1.3279999495 56.408000946 1.1299999952 1.0700000525
 943.75012207  -999.250000 17.829000473 -0.068999998  -999.250000 2.0069999695 74.344001770 145.42799377 141.49862671 1.3359999657 54.069999695 1.1050000191 1.1039999723
 943.87506104  -999.250000 17.861000061 -0.082999997  -999.250000 2.0069999695 74.569999695 145.39961243 141.47395325 1.3459999561 52.632999420 1.0959999561 1.1510000229
 944.00006104  -999.250000 17.888000488 -0.093000002  -999.250000 2.0099999905 74.605003357 145.31469727 141.36901855 1.3530000448 52.016998291 1.0989999771 1.1990000010
 944.12500000  -999.250000 17.916000366 -0.097000003  -999.250000 2.0150001049 74.339996338 145.15281677 141.18940735 1.3580000401 52.145000458 1.1130000353 1.2359999418
 944.24993896  -999.250000 17.947000504 -0.097999997  -999.250000 2.0199999809 74.110000610 144.90844727 140.94503784 1.3639999628 53.196998596 1.1299999952 1.2510000467
 944.37487793  -999.250000 17.979000092 -0.101000004  -999.250000 2.0220000744 74.263000488 144.61825562 140.67488098 1.3750000000 55.313999176 1.1419999599 1.2430000305
 944.49993896  -999.250000 18.007999420 -0.105999999  -999.250000 2.0199999809 74.723999023 144.35974121 140.41598511 1.3930000067 58.106998444 1.1410000324 1.2239999771
 944.62487793  -999.250000 18.027999878 -0.108999997  -999.250000 2.0169999599 74.888999939 144.11532593 140.17424011 1.4170000553 60.959999084 1.1280000210 1.2009999752
 944.74987793  -999.250000 18.034999847 -0.104999997  -999.250000 2.0169999599 74.044998169 143.88435364 139.94703674 1.4409999847 63.180999756 1.1100000143 1.1749999523
 944.87512207  -999.250000 18.028999329 -0.094999999  -999.250000 2.0220000744 72.463996887 143.68539429 139.72657776 1.4589999914 64.432998657 1.0970000029 1.1419999599
 945.00006104  -999.250000 18.010000229 -0.085000001  -999.250000 2.0290000439 70.847000122 143.44102478 139.50352478 1.4689999819 64.886001587 1.0939999819 1.1009999514
 945.12506104  -999.250000 17.975000381 -0.079000004  -999.250000 2.0339999199 69.736000061 143.23756409 139.31187439 1.4700000286 64.626998901 1.0970000029 1.0549999475
 945.25000000  -999.250000 17.917999268 -0.077000000  -999.250000 2.0360000134 69.115997314 143.19398499 139.27447510 1.4689999819 63.514999390 1.1009999514 1.0110000372
 945.37506104  -999.250000 17.833000183 -0.075000003  -999.250000 2.0360000134 68.769996643 143.38079834 139.45256042 1.4700000286 61.467998505 1.1009999514 0.9760000110
 945.50000000  -999.250000 17.728000641 -0.071999997  -999.250000 2.0339999199 68.647003174 143.80764771 139.85655212 1.4759999514 58.915000916 1.0959999561 0.9509999752
 945.62493896  -999.250000 17.611999512 -0.067000002  -999.250000 2.0309998989 68.680999756 144.39421082 140.44030762 1.4850000143 56.660999298 1.0930000544 0.9330000281
