# LAS format log file from PETREL
# Project units are specified as depth units
#==================================================================
~Version information
VERS.   2.0:
WRAP.   NO:
#==================================================================
~Well
STRT .m      236.19400024 :
STOP .m      3572.9916992 :
STEP .m     0.00000000 :
NULL .        -999.250000 :
COMP.           : COMPANY
WELL.  30/3-2R   : WELL
FLD.            : FIELD
LOC.            : LOCATION
SRVC.           : SERVICE COMPANY
DATE.  2018-09-11 14:48:27   : Log Export Date {yyyy-MM-dd HH:mm:ss}
PROV.           : PROVINCE
UWI.   30/3-2 R   : UNIQUE WELL ID
API.            : API NUMBER
#==================================================================
~Curve
DEPT .m                   : DEPTH
Lithology_geolink ._      : Lithology_geolink
CALI .in                  : CALI
DRHO .g/cm3               : DRHO
NPHI .m3/m3               : NPHI
RHOB .g/cm3               : RHOB
GR .gAPI                  : GR
DTC .us/ft                : DTC
RDEP .ohm.m               : RDEP
SP .mV                    : SP
RSHA .ohm.m               : RSHA
RMED .ohm.m               : RMED
~Parameter
#==================================================================
~Ascii
# ...
 1790.6739502  -999.250000 12.918999672 -0.006000000 0.4653213620 2.0369951725 54.745819092 160.34376526 0.5630032420  -999.250000  -999.250000 0.7200088501
 1790.8264160  -999.250000 12.959000587 -0.008000000 0.4795701802 2.0340046883 49.528396606 160.83259583 0.5600023866  -999.250000  -999.250000 0.7100079656
 1790.9787598  -999.250000 13.140999794 -0.007000000 0.5046432614 2.0389919281 47.903919220 161.17872620 0.5570023656  -999.250000  -999.250000 0.7040048242
 1791.1312256  -999.250000 13.241000175 -0.006000000 0.5211396217 2.0380017757 45.320903778 161.29791260 0.5520039797  -999.250000  -999.250000 0.7030007839
 1791.2835693  -999.250000 13.149000168 -0.006000000 0.5146467686 2.0370016098 50.250099182 161.29698181 0.5490024090  -999.250000  -999.250000 0.7079960108
 1791.4359131  -999.250000 13.163998604 -0.008000000 0.4856662154 2.0399928093 50.373798370 161.43777466 0.5470032096  -999.250000  -999.250000 0.7119936347
 1791.5883789  -999.250000 13.045000076 -0.012000000 0.4684461057 2.0469887257 48.876579285 161.52293396 0.5469999909  -999.250000  -999.250000 0.7149975896
 1791.7407227  -999.250000 13.065999985 -0.015000000 0.4885708690 2.0499927998 50.845252991 161.53996277 0.5460016131  -999.250000  -999.250000 0.7110064030
 1791.8931885  -999.250000 13.069000244 -0.015000000 0.5145856738 2.0490016937 52.407649994 161.76681519 0.5430023670  -999.250000  -999.250000 0.7070032358
 1792.0455322  -999.250000 13.061000824 -0.014000000 0.5091087222 2.0440118313 54.466449738 162.34507751 0.5400048494  -999.250000  -999.250000 0.7129904032
 1792.1979980  -999.250000 13.107000351 -0.012000000 0.4700015783 2.0350143909 51.279697418 163.17433167 0.5409992337  -999.250000  -999.250000 0.7100023627
 1792.3503418  -999.250000 13.095001221 -0.013000000 0.4470205903 2.0280170441 49.655498505 163.80349731 0.5429983735  -999.250000  -999.250000 0.6930136681
 1792.5028076  -999.250000 13.048999786 -0.007000000 0.4477835000 2.0250048637 49.030948639 163.66711426 0.5499944091  -999.250000  -999.250000 0.6710176468
 1792.6551514  -999.250000 13.036000252 0.0060000001 0.4624541998 2.0240023136 48.999298096 162.25512695 0.5559951663  -999.250000  -999.250000 0.6680023670
 1792.8076172  -999.250000 13.015000343 0.0209999997 0.4926796257 2.0249984264 48.120899200 159.87290955 0.5589976311  -999.250000  -999.250000 0.7049703598
 1792.9599609  -999.250000 12.947999954 0.0209999997 0.5298795700 2.0429568291 45.561397552 157.77568054 0.5639960170  -999.250000  -999.250000 0.7459671497
 1793.1124268  -999.250000 12.843999863 0.0040000002 0.5667601228 2.0929198265 43.560398102 157.22644043 0.5709943771  -999.250000  -999.250000 0.7669832110
 1793.2647705  -999.250000 12.768000603 0.0000000000 0.5668425560 2.1359310150 41.940052032 158.34609985 0.5799927711  -999.250000  -999.250000 0.7550095916
 1793.4171143  -999.250000 12.740999222 0.0010000000 0.5575680137 2.1369976997 44.501602173 159.93545532 0.5909823775  -999.250000  -999.250000 0.7480112314
 1793.5695801  -999.250000 12.718999863 0.0010000000 0.5551422238 2.0970640182 46.496471405 160.95716858 0.5989935398  -999.250000  -999.250000 0.7480000257
 1793.7219238  -999.250000 12.755999565 -0.004000000 0.5579076409 2.0670719147 42.092327118 161.29745483 0.5980015993  -999.250000  -999.250000 0.7619776130
 1793.8743896  -999.250000 12.769000053 -0.007000000 0.5549404025 2.0669999123 39.999900818 161.59976196 0.5979999900  -999.250000  -999.250000 0.7590023875
 1794.0267334  -999.250000 12.696998596 -0.006000000 0.5305086374 2.0709905624 39.877502441 162.13813782 0.5979999900  -999.250000  -999.250000 0.7540079951
 1794.1791992  -999.250000 12.602000237 -0.005000000 0.5163747072 2.0700016022 43.003479004 162.62760925 0.5940032005  -999.250000  -999.250000 0.7410104275
 1794.3315430  -999.250000 12.470000267 -0.005000000 0.5222673416 2.0590264797 47.342548370 163.02568054 0.5900031924  -999.250000  -999.250000 0.7400007844
 1794.4840088  -999.250000 12.425000191 -0.005000000 0.5439453125 2.0520112514 45.531997681 163.25881958 0.5880016088  -999.250000  -999.250000 0.7330055833
 1794.6363525  -999.250000 12.461999893 -0.004000000 0.5597180724 2.0520000458 46.154319763 163.65768433 0.5850023627  -999.250000  -999.250000 0.7200104594
 1794.7888184  -999.250000 12.442999840 -0.006000000 0.5448423028 2.0529983044 44.066253662 164.20057678 0.5840007663  -999.250000  -999.250000 0.7070104480
 1794.9411621  -999.250000 12.335000992 -0.010000000 0.5524752140 2.0450193882 46.097759247 164.41282654 0.5889959931  -999.250000  -999.250000 0.7010048032
 1795.0936279  -999.250000 12.321000099 -0.011000000 0.5465039015 2.0370128155 50.783500671 163.78250122 0.5959944129  -999.250000  -999.250000 0.7109920382
 1795.2459717  -999.250000 12.369999886 -0.009000000 0.5177477002 2.0360016823 52.343875885 162.68388367 0.6029943824  -999.250000  -999.250000 0.7249888182
 1795.3983154  -999.250000 12.409000397 -0.004000000 0.4774650335 2.0469734669 52.182067871 161.45697021 0.6089904308  -999.250000  -999.250000 0.7549519539
 1795.5507813  -999.250000 12.371000290 -0.004000000 0.4587907493 2.0649712086 44.777542114 160.77455139 0.6179927588  -999.250000  -999.250000 0.7799799442
 1795.7031250  -999.250000 12.291999817 -0.004000000 0.4847069383 2.0819592476 40.471126556 160.10307312 0.6239904165  -999.250000  -999.250000 0.8069567680
 1795.8555908  -999.250000 12.064000130 -0.007000000 0.5058287978 2.0889887810 43.130508423 159.76226807 0.6289960146  -999.250000  -999.250000 0.8040024042
 1796.0079346  -999.250000 11.777000427 -0.009000000 0.5167919397 2.0740358829 50.003101349 160.23124695 0.6339920163  -999.250000  -999.250000 0.7870272398
 1796.1604004  -999.250000 12.149999619 -0.007000000 0.5191528201 2.0550305843 53.873523712 161.31912231 0.6389960051  -999.250000  -999.250000 0.7640184164
 1796.3127441  -999.250000 12.310999870 -0.001000000 0.4976939559 2.0430288315 52.028594971 162.64393616 0.6429967880  -999.250000  -999.250000 0.7530088425
 1796.4652100  -999.250000 12.407000542 -0.001000000 0.4776664972 2.0429999828 49.028820038 163.22354126 0.6459976435  -999.250000  -999.250000 0.7629920244
 1796.6175537  -999.250000 12.465999603 -0.003000000 0.4608068466 2.0459928513 46.309844971 163.27694702 0.6499967575  -999.250000  -999.250000 0.7739911675
 1796.7700195  -999.250000 12.446999550 -0.010000000 0.4568746686 2.0529887676 42.372947693 162.96226501 0.6509992480  -999.250000  -999.250000 0.7899872065
 1796.9223633  -999.250000 12.354000092 -0.012000000 0.4722711742 2.0589857101 41.093101501 162.45040894 0.6500007510  -999.250000  -999.250000 0.7870023847
 1797.0748291  -999.250000 12.319999695 -0.013000000 0.4987347722 2.0570030212 39.980110168 162.08628845 0.6470023990  -999.250000  -999.250000 0.8119799495
 1797.2271729  -999.250000 12.317999840 -0.013000000 0.5266399980 2.0500111580 46.907249451 161.89714050 0.6370080113  -999.250000  -999.250000 0.8219920397
 1797.3796387  -999.250000 12.390000343 -0.009000000 0.5140700936 2.0390176773 48.476707458 161.58125305 0.6230112314  -999.250000  -999.250000 0.7930232286
 1797.5319824  -999.250000 12.399000168 -0.006000000 0.4766962528 2.0350065231 53.276039124 161.48405457 0.6100104451  -999.250000  -999.250000 0.7360456586
 1797.6843262  -999.250000 12.447999001 -0.005000000 0.4595286250 2.0290143490 47.094028473 161.42111206 0.6040095687  -999.250000  -999.250000 0.6860800385
 1797.8367920  -999.250000 12.401000023 -0.005000000 0.4828020036 2.0290000439 47.128105164 161.00134277 0.5970056057  -999.250000  -999.250000 0.6600208879
 1797.9891357  -999.250000 12.401000023 -0.003000000 0.5227321386 2.0290000439 51.001602173 159.87281799 0.5910096169  -999.250000  -999.250000 0.6570048332
 1798.1416016  -999.250000 12.340999603 0.0000000000 0.5254080892 2.0339918137 53.001377106 158.88179016 0.5850048065  -999.250000  -999.250000 0.6739863753
 1798.2939453  -999.250000 12.298999786 0.0000000000 0.5105442405 2.0339999199 54.712898254 158.56350708 0.5770128369  -999.250000  -999.250000 0.7069471478
