# LAS format log file from PETREL
# Project units are specified as depth units
#==================================================================
~Version information
VERS.   2.0:
WRAP.   NO:
#==================================================================
~Well
STRT .m      3891.7941895 :
STOP .m      4561.5922852 :
STEP .m     0.00000000 :
NULL .        -999.250000 :
COMP.           : COMPANY
WELL.  30/3-5S   : WELL
FLD.            : FIELD
LOC.            : LOCATION
SRVC.           : SERVICE COMPANY
DATE.  2018-09-11 14:48:29   : Log Export Date {yyyy-MM-dd HH:mm:ss}
PROV.           : PROVINCE
UWI.   30/3-5 S   : UNIQUE WELL ID
API.            : API NUMBER
#==================================================================
~Curve
DEPT .m                   : DEPTH
Lithology_geolink ._      : Lithology_geolink
CALI .in                  : CALI
DRHO .g/cm3               : DRHO
NPHI .m3/m3               : NPHI
RHOB .g/cm3               : RHOB
PEF .b/e                  : PEF
GR .gAPI                  : GR
DTC .us/ft                : DTC
DTE .us/ft                : DTE
RDEP .ohm.m               : RDEP
RMED .ohm.m               : RMED
~Parameter
#==================================================================
~Ascii
# ...
 4505.8139648 6.0000000000 8.5703001022 0.0022000000 0.2576799691 2.6985762119 4.3443884850 86.239601135 81.020347595 83.948547363 4.9479889870 4.8940000534
 4505.9663086 6.0000000000 8.5703001022 0.0006000000 0.2855631709 2.6525795460 4.3091444969 92.213500977 82.411376953 85.490318298 4.8189926147 4.5349998474
 4506.1186523 7.0000000000 8.5703001022 0.0024000001 0.2982568443 2.6230566502 4.2452173233 102.59380341 81.815155029 84.776596069 4.4735579491 4.2564997673
 4506.2709961 7.0000000000 8.6311998367 0.0100999996 0.3008511961 2.6205468178 4.1909179688 112.06770325 81.161422729 84.033073425 4.1491751671 4.0756998062
 4506.4233398 7.0000000000 8.7336997986 0.0155999996 0.2978462279 2.6268646717 4.1369185448 116.03119659 80.925354004 84.102600098 4.0166001320 3.9828000069
 4506.5756836 7.0000000000 8.8264999390 0.0126999998 0.2969661653 2.6290087700 4.2217550278 115.58070374 81.899032593 84.849708557 4.0265002251 3.9518001080
 4506.7280273 7.0000000000 8.8515996933 0.0093999999 0.2998237312 2.6232249737 4.2187500000 113.08850098 81.539222717 84.708915710 4.0833001137 3.9583001137
 4506.8808594 7.0000000000 8.8515996933 0.0083999997 0.3050134182 2.6150665283 4.1138319969 111.23040009 80.802627563 83.873771667 4.1516785622 3.9948000908
 4507.0332031 7.0000000000 8.8570995331 0.0076000001 0.3039982617 2.6055140495 4.0559644699 109.17449951 79.871772766 82.538055420 4.2387423515 4.0798001289
 4507.1855469 6.0000000000 8.8150997162 0.0068999999 0.2964435816 2.5945894718 4.0839467049 105.35679626 77.787750244 80.705947876 4.3768715858 4.2505002022
 4507.3378906 6.0000000000 8.7747001648 0.0062000002 0.2854827940 2.5846540928 4.1751551628 101.31770325 76.245498657 79.208869934 4.5554428101 4.5299000740
 4507.4902344 6.0000000000 8.8542003632 0.0063000000 0.2780403793 2.5775971413 4.2548575401 97.000000000 75.859916687 78.445243835 4.7872099876 4.9088997841
 4507.6425781 6.0000000000 9.0012998581 0.0065000001 0.2773999572 2.5665423870 4.2372331619 91.260398865 75.667175293 78.402496338 5.0088000298 5.3095998764
 4507.7949219 6.0000000000 9.2074003220 0.0074000000 0.2752965987 2.5468459129 4.3332333565 90.367202759 75.859916687 78.439849854 5.1726999283 5.5973000526
 4507.9472656 6.0000000000 9.0243997574 0.0082999999 0.2711181939 2.5268554688 4.5904445648 91.192703247 75.570800781 78.203826904 5.2757000923 5.6789999008
 4508.0996094 6.0000000000 8.8662996292 0.0070000002 0.2651771605 2.5295164585 5.1373195648 92.486801147 75.617950439 78.254829407 5.3340997696 5.5780000687
 4508.2524414 6.0000000000 8.7495002747 0.0098999999 0.2668905556 2.5617744923 5.6083483696 92.937500000 76.098251343 78.842048645 5.2667069435 5.3882999420
 4508.4047852 6.0000000000 8.7330999374 0.0135000004 0.2786749601 2.5992741585 5.4644055367 93.557296753 77.453002930 80.263725281 5.0817775726 5.1869997978
 4508.5571289 6.0000000000 8.8306999207 0.0114000002 0.2879668176 2.6153695583 4.8680262566 96.114601135 78.904129028 81.812324524 4.9498381615 4.9960999489
 4508.7094727 6.0000000000 8.9556999207 0.0043000001 0.2898619175 2.6123528481 4.3874950409 99.364601135 80.293899536 82.983627319 4.7745718956 4.8113999367
 4508.8618164 6.0000000000 9.0530996323 0.0038000001 0.2881489098 2.6066935062 4.1701974869 104.69529724 80.679496765 83.578353882 4.5787148476 4.6222000122
 4509.0141602 7.0000000000 9.1389999390 0.0115999999 0.2896924019 2.6028199196 4.2303438187 108.49220276 80.775894165 83.507522583 4.3962001801 4.4363999367
 4509.1665039 7.0000000000 9.0644998550 0.0219000001 0.2960830331 2.5934705734 4.5231370926 112.72129822 80.197502136 83.135749817 4.3077998161 4.2694001198
 4509.3188477 7.0000000000 8.7025003433 0.0317000002 0.2991939783 2.5854353905 4.8155050278 114.65619659 80.056304932 82.810852051 4.2957000732 4.1479001045
 4509.4716797 7.0000000000 8.4650001526 0.0397999994 0.3014441133 2.5844359398 4.7625699043 117.49040222 79.820030212 82.795722961 4.2857322693 4.0866999626
 4509.6240234 7.0000000000 8.5158996582 0.0410999991 0.3055109680 2.5942180157 4.3522510529 114.62239838 80.330551147 83.135620117 4.2646045685 4.0991001129
 4509.7763672 7.0000000000 8.7815999985 0.0326000005 0.3129541278 2.6028666496 3.9979529381 111.84899902 80.390304565 83.394577026 4.2663683891 4.1757998466
 4509.9287109 7.0000000000 9.0410003662 0.0250000004 0.3206881285 2.6026439667 3.8220591545 110.35679626 80.679519653 83.368026733 4.3500919342 4.2860999107
 4510.0810547 7.0000000000 9.0152997971 0.0152000003 0.3249221146 2.5923616886 3.7963240147 133.64770508 79.767173767 82.874572754 4.4410209656 4.3949999809
 4510.2333984 7.0000000000 8.7274999619 0.0097000012 0.3227211833 2.5836279392 3.9048085213 129.88040161 79.484725952 82.248977661 4.4787268639 4.4784002304
 4510.3857422 7.0000000000 8.5530996323 0.0115999999 0.3186222315 2.5847811699 4.0075120926 125.16719818 79.137199402 81.929954529 4.4871001244 4.5331997871
 4510.5380859 7.0000000000 8.5455999374 0.0107000005 0.3154586256 2.5861999989 3.9567308426 120.17240143 79.522796631 82.422172546 4.4938001633 4.5606999397
 4510.6904297 7.0000000000 8.6929998398 0.0063000000 0.3108312786 2.5865292549 3.7369291782 115.79750061 79.664772034 82.533905029 4.5015997887 4.5692000389
 4510.8432617 7.0000000000 8.9495000839 0.0031999999 0.3058677614 2.5891668797 3.6963140965 112.65209961 79.079727173 82.017745972 4.6012849808 4.5731000900
 4510.9956055 6.0000000000 9.0921001434 0.0037000000 0.3032494783 2.5937955379 3.8448829651 110.87920380 78.462493896 81.243820190 4.7212095261 4.5963997841
 4511.1479492 6.0000000000 9.2389001846 0.0033000000 0.3082515895 2.5899841785 4.0402646065 109.94689941 77.691329956 80.643745422 4.8176727295 4.6607999802
 4511.3002930 6.0000000000 8.9792003632 0.0027000001 0.3123641610 2.5766005516 4.1340146065 109.11669922 77.209396362 80.328720093 4.8715071678 4.7859997749
 4511.4526367 6.0000000000 8.6522998810 0.0020000001 0.3143560886 2.5629730225 4.1217198372 108.20929718 77.498596191 80.182777405 4.9049911499 4.9608998299
 4511.6049805 6.0000000000 8.5868997574 0.0024000001 0.3136383295 2.5577380657 3.9414999485 107.56400299 77.498596191 80.136001587 4.9334001541 5.1483998299
 4511.7573242 6.0000000000 8.7100000381 0.0041999999 0.3058413863 2.5616357327 3.7549579144 107.78579712 77.355621338 80.130096436 4.9690999985 5.3000001907
 4511.9096680 6.0000000000 8.9127998352 0.0037000000 0.2967673540 2.5620996952 3.6557993889 109.31349945 77.069671631 80.130500793 5.0468997955 5.3868999481
 4512.0620117 6.0000000000 9.0822000504 -0.000500000 0.2934440970 2.5528576374 3.7585637569 111.86370087 77.448684692 80.130897522 5.1187000275 5.4061999321
 4512.2148438 7.0000000000 8.8535003662 -0.003700000 0.3119802773 2.5399999619 3.9009540081 114.53759766 77.348373413 80.131301880 5.1561255455 5.3784999847
 4512.3671875 7.0000000000 8.6813001633 -0.006300000 0.3266469240 2.5315046310 3.9617762566 116.47689819 77.498596191 80.131698608 5.1640558243 5.3312001228
 4512.5195313 7.0000000000 8.6894998550 -0.007900000 0.3286741972 2.5348093510 4.0322952271 117.52709961 77.402198792 80.132102966 5.1501731873 5.2887001038
 4512.6718750 7.0000000000 8.8083000183 -0.007800000 0.3184309602 2.5459396839 4.1944484711 118.13790131 77.209396362 80.132499695 5.1417608261 5.2607002258
 4512.8242188 7.0000000000 8.9511995316 -0.002900000 0.3086107075 2.5569472313 4.3194360733 118.67549896 77.498596191 80.132896423 5.1295056343 5.2511000633
 4512.9765625 7.0000000000 8.9921998978 0.0009000000 0.3062404692 2.5622518063 4.2683458328 119.01290131 77.498596191 80.133300781 5.1001000404 5.2500000000
 4513.1289063 7.0000000000 8.9921998978 -0.000500000 0.3045759499 2.5636622906 4.0993089676 118.73480225 77.402198792 80.133697510 5.1146998405 5.2500000000
 4513.2812500 7.0000000000 8.9645004272 -0.000400000 0.3091338575 2.5671582222 4.0736179352 117.86540222 77.209396362 80.134101868 5.1553997993 5.2610998154
 4513.4340820 7.0000000000 8.8977003098 0.0005000000 0.3140359819 2.5675613880 4.3003931046 116.82289886 77.448043823 80.134498596 5.2456111908 5.2849998474
