# LAS format log file from PETREL
# Project units are specified as depth units
#==================================================================
~Version information
VERS.   2.0:
WRAP.   NO:
#==================================================================
~Well
STRT .m      579.75000000 :
STOP .m      3292.5014648 :
STEP .m     0.00000000 :
NULL .        -999.250000 :
COMP.           : COMPANY
WELL.  30/3-4R   : WELL
FLD.            : FIELD
LOC.            : LOCATION
SRVC.           : SERVICE COMPANY
DATE.  2018-09-11 14:48:28   : Log Export Date {yyyy-MM-dd HH:mm:ss}
PROV.           : PROVINCE
UWI.   30/3-4 R   : UNIQUE WELL ID
API.            : API NUMBER
#==================================================================
~Curve
DEPT .m                   : DEPTH
Lithology_geolink ._      : Lithology_geolink
CALI .in                  : CALI
DRHO .g/cm3               : DRHO
NPHI .m3/m3               : NPHI
RHOB .g/cm3               : RHOB
GR .gAPI                  : GR
DTC .us/ft                : DTC
DTE .us/ft                : DTE
RDEP .ohm.m               : RDEP
SP .mV                    : SP
RSHA .ohm.m               : RSHA
RMED .ohm.m               : RMED
~Parameter
#==================================================================
~Ascii
# ...
 3105.7507324 5.0000000000 8.4820003510 -0.004000000 0.1890800148 2.4389998913 86.911003113 80.013092041 78.483009338 7.7109999657 96.973999023 9.4479999542 7.7969999313
 3105.8752441 5.0000000000 8.4759998322 -0.003000000 0.1910099983 2.4409999847 87.344001770 80.117858887 78.690856934 7.6250000000 96.627998352 9.4359998703 7.7199997902
 3106.0002441 5.0000000000 8.4720001221 -0.002000000 0.1909499913 2.4409999847 86.697998047 80.296051025 78.943656921 7.5390000343 95.916999817 9.3159999847 7.6300001144
 3106.1254883 5.0000000000 8.4709997177 0.0000000000 0.1900200099 2.4379999638 85.012001038 80.491943359 79.218223572 7.4629998207 94.609001160 9.1370000839 7.5279998779
 3106.2500000 5.0000000000 8.4709997177 0.0010000000 0.1898800135 2.4340000153 82.667999268 80.719276428 79.467239380 7.4060001373 92.505996704 8.9449996948 7.4210000038
 3106.3750000 2.0000000000 8.4729995728 0.0020000001 0.1912499964 2.4289999008 80.655998230 80.965026855 79.636451721 7.3699998856 90.132003784 8.7500000000 7.3369998932
 3106.5002441 2.0000000000 8.4770002365 0.0020000001 0.1931200027 2.4240000248 79.844001770 80.982292175 79.651824951 7.3649997711 88.488998413 8.5509996414 7.3109998703
 3106.6252441 2.0000000000 8.4829998016 -0.002000000 0.1942900121 2.4179999828 79.883003235 80.702552795 79.366157532 7.3930001259 88.362998962 8.3850002289 7.3689999580
 3106.7502441 2.0000000000 8.4899997711 -0.010000000 0.1942799985 2.4110000134 79.679000854 80.059593201 78.626113892 7.4600000381 90.007003784 8.3479995728 7.5219998360
 3106.8752441 2.0000000000 8.4969997406 -0.022000000 0.1934199929 2.4059998989 78.554000854 78.843643188 77.442764282 7.5689997673 92.648002625 8.5659999847 7.7519998550
 3107.0002441 2.0000000000 8.5019998550 -0.033000000 0.1909800023 2.4089999199 76.531997681 77.231391907 75.932601929 7.7410001755 95.072998047 9.0889997482 8.0410003662
 3107.1250000 2.0000000000 8.5059995651 -0.039000001 0.1847900003 2.4210000038 74.267997742 75.775535583 74.310096741 8.0069999695 96.549003601 9.8509998322 8.4079999924
 3107.2500000 2.0000000000 8.5069999695 -0.037999999 0.1741600037 2.4389998913 72.468002319 74.405693054 72.949279785 8.4280004501 96.888999939 10.605999947 8.9259996414
 3107.3750000 2.0000000000 8.5080003738 -0.034000002 0.1621299982 2.4530000687 71.552001953 73.362724304 71.966506958 9.0080003738 96.403999329 11.071000099 9.6610002518
 3107.5000000 2.0000000000 8.5080003738 -0.030999999 0.1531700045 2.4660000801 71.713996887 72.562454224 71.204338074 9.7159996033 95.387001038 11.355999947 10.557999611
 3107.6250000 2.0000000000 8.5080003738 -0.032000002 0.1480599940 2.4790000916 72.905998230 71.763404846 70.468925476 10.411999702 93.865997314 11.854000092 11.468999863
 3107.7500000 16.000000000 8.5080003738 -0.033000000 0.1438400000 2.4990000725 75.064002991 70.841346741 69.607154846 10.930000305 91.789001465 13.048000336 12.121000290
 3107.8750000 16.000000000 8.5089998245 -0.028000001 0.1360500008 2.5239999294 77.643997192 70.151878357 68.622627258 11.194000244 89.309997559 15.048000336 12.255000114
 3108.0000000 16.000000000 8.5100002289 -0.017000001 0.1259099990 2.5450000763 80.113998413 69.373298645 67.935806274 11.190999985 87.086997986 16.913000107 11.913999557
 3108.1247559 16.000000000 8.5109996796 -0.005000000 0.1177600026 2.5480000973 82.269996643 69.453865051 67.980453491 10.998000145 86.016998291 17.027999878 11.253999710
 3108.2497559 5.0000000000 8.5120000839 0.0000000000 0.1162800044 2.5299999714 84.100997925 70.500205994 68.984313965 10.668999672 86.796997070 14.937000275 10.439000130
 3108.3747559 5.0000000000 8.5109996796 -0.002000000 0.1254599988 2.4949998856 85.226997375 72.338279724 70.876731873 10.251999855 89.139999390 12.338999748 9.5970001221
 3108.4997559 5.0000000000 8.5080003738 -0.007000000 0.1419000030 2.4619998932 85.065002441 74.615661621 73.306083679 9.7449998856 91.894996643 10.342000008 8.8090000153
 3108.6247559 5.0000000000 8.5039997101 -0.012000000 0.1604299992 2.4349999428 83.504997253 77.261825562 75.741203308 9.1770000458 94.055000305 9.0550003052 8.1400003433
 3108.7497559 5.0000000000 8.5019998550 -0.017999999 0.1752300113 2.4179999828 81.288002014 79.059425354 77.582405090 8.6070003510 94.848999023 8.3330001831 7.6319999695
 3108.8747559 5.0000000000 8.5019998550 -0.023000000 0.1834900081 2.4100000858 79.661003113 80.216659546 78.720703125 8.0970001221 93.990997314 7.9699997902 7.2989997864
 3108.9995117 5.0000000000 8.5039997101 -0.025000000 0.1878000051 2.4079999924 79.523002625 80.768531799 79.244522095 7.7010002136 91.818000793 7.8049998283 7.1100001335
 3109.1245117 5.0000000000 8.5080003738 -0.023000000 0.1891799867 2.4110000134 80.823997498 80.815086365 79.330024719 7.4400000572 88.765998840 7.7760000229 7.0390000343
 3109.2495117 2.0000000000 8.5100002289 -0.016000001 0.1878300160 2.4170000553 82.398002625 80.619400024 79.157798767 7.3229999542 85.541999817 7.8569998741 7.0599999428
 3109.3745117 2.0000000000 8.5100002289 -0.007000000 0.1841199994 2.4279999733 82.592002869 80.041648865 78.832015991 7.3049998283 83.288002014 8.0310001373 7.1449999809
 3109.4995117 2.0000000000 8.5089998245 0.0010000000 0.1799099892 2.4400000572 80.883003235 79.682380676 78.430519104 7.3499999046 82.858001709 8.2700004578 7.2620000839
 3109.6247559 2.0000000000 8.5080003738 0.0040000002 0.1767300069 2.4500000477 78.342002869 79.331481934 77.983016968 7.4180002213 84.484001160 8.5459995270 7.3920001984
 3109.7497559 2.0000000000 8.5069999695 0.0040000002 0.1756300032 2.4579999447 76.635002136 78.901802063 77.530708313 7.4840002060 87.635002136 8.8170003891 7.5120000839
 3109.8742676 5.0000000000 8.5059995651 0.0000000000 0.1768800020 2.4609999657 76.578002930 78.449203491 77.120170593 7.5399999619 91.036003113 9.0369997025 7.5999999046
 3109.9992676 5.0000000000 8.5059995651 -0.005000000 0.1789599955 2.4619998932 77.892997742 78.253517151 76.821662903 7.5819997787 93.656997681 9.1960000992 7.6529998779
 3110.1245117 5.0000000000 8.5069999695 -0.009000000 0.1804800034 2.4609999657 79.608001709 77.885162354 76.694473267 7.6139998436 95.041000366 9.2939996719 7.6799998283
 3110.2490234 5.0000000000 8.5069999695 -0.012000000 0.1806800067 2.4600000381 81.316001892 78.071739197 76.763900757 7.6440000534 95.219001770 9.3129997253 7.7010002136
 3110.3740234 5.0000000000 8.5080003738 -0.014000000 0.1802300066 2.4600000381 83.281997681 78.474388123 76.991073608 7.6820001602 94.582000732 9.2200002670 7.7459998131
 3110.4992676 5.0000000000 8.5080003738 -0.014000000 0.1804999858 2.4590001106 85.537002563 78.773918152 77.300209045 7.7329998016 93.323997498 9.0380001068 7.8289999962
 3110.6242676 5.0000000000 8.5069999695 -0.012000000 0.1822599918 2.4560000896 87.293998718 79.072761536 77.587173462 7.7960000038 91.524002075 8.8620004654 7.9450001717
 3110.7492676 5.0000000000 8.5050001144 -0.008000000 0.1852100044 2.4530000687 87.786003113 79.164337158 77.631317139 7.8689999580 89.683998108 8.8369998932 8.0790004730
 3110.8737793 5.0000000000 8.5050001144 -0.005000000 0.1871899962 2.4530000687 87.214996338 78.646377563 77.389152527 7.9479999542 88.473999023 9.0469999313 8.2159996033
 3110.9990234 5.0000000000 8.5050001144 -0.003000000 0.1859700084 2.4539999962 86.033996582 78.070793152 76.862228394 8.0319995880 87.918998718 9.4189996719 8.3529996872
 3111.1240234 5.0000000000 8.5050001144 -0.005000000 0.1811400056 2.4579999447 84.657997131 77.484024048 76.141601563 8.1219997406 87.751998901 9.8000001907 8.4940004349
 3111.2490234 5.0000000000 8.5059995651 -0.009000000 0.1745000035 2.4639999866 83.279998779 76.725837708 75.368621826 8.2200002670 87.886001587 10.048999786 8.6309995651
 3111.3740234 5.0000000000 8.5069999695 -0.012000000 0.1685799956 2.4719998837 82.233001709 76.139701843 74.713592529 8.3319997787 88.535003662 10.197999954 8.7480001450
 3111.4990234 2.0000000000 8.5080003738 -0.013000000 0.1645999849 2.4800000191 81.434997559 75.642486572 74.293930054 8.4759998322 89.908996582 10.376999855 8.8520002365
 3111.6240234 2.0000000000 8.5080003738 -0.012000000 0.1627700031 2.4849998951 80.555000305 75.353195190 74.072265625 8.6719999313 91.902999878 10.616999626 8.9849996567
