# LAS format log file from PETREL
# Project units are specified as depth units
#==================================================================
~Version information
VERS.   2.0:
WRAP.   NO:
#==================================================================
~Well
STRT .m      579.75000000 :
STOP .m      3292.5014648 :
STEP .m     0.00000000 :
NULL .        -999.250000 :
COMP.           : COMPANY
WELL.  30/3-4R   : WELL
FLD.            : FIELD
LOC.            : LOCATION
SRVC.           : SERVICE COMPANY
DATE.  2018-09-11 14:48:28   : Log Export Date {yyyy-MM-dd HH:mm:ss}
PROV.           : PROVINCE
UWI.   30/3-4 R   : UNIQUE WELL ID
API.            : API NUMBER
#==================================================================
~Curve
DEPT .m                   : DEPTH
Lithology_geolink ._      : Lithology_geolink
CALI .in                  : CALI
DRHO .g/cm3               : DRHO
NPHI .m3/m3               : NPHI
RHOB .g/cm3               : RHOB
GR .gAPI                  : GR
DTC .us/ft                : DTC
DTE .us/ft                : DTE
RDEP .ohm.m               : RDEP
SP .mV                    : SP
RSHA .ohm.m               : RSHA
RMED .ohm.m               : RMED
~Parameter
#==================================================================
~Ascii
# ...
 3285.7500000  -999.250000 8.3389997482 0.1560000032 0.0380599983 2.5929999352 38.995998383  -999.250000  -999.250000 1.3450000286 91.416999817 5.1989998817 1.5399999619
 3285.8750000  -999.250000 8.3389997482 0.1640000045 0.0380900018 2.6099998951 38.995998383  -999.250000  -999.250000 1.3450000286 93.093002319 6.6119999886 1.5390000343
 3286.0000000  -999.250000 8.3389997482 0.1689999998 0.0386800021 2.6210000515 38.995998383  -999.250000  -999.250000 1.3450000286 93.455001831 8.0000000000 1.5390000343
 3286.1250000  -999.250000 8.3389997482 0.1710000038 0.0405700020 2.6259999275 38.995998383  -999.250000  -999.250000 1.3450000286 92.456001282 9.0620002747 1.5390000343
 3286.2500000  -999.250000 8.3389997482 0.1679999977 0.0474999994 2.6289999485 38.995998383  -999.250000  -999.250000 1.3450000286 90.861000061 9.6330003738 1.5390000343
 3286.3750000  -999.250000 8.3389997482 0.1630000025 0.1056200042 2.6289999485 38.995998383  -999.250000  -999.250000 1.3439999819 89.763000488 9.8479995728 1.5390000343
 3286.5000000  -999.250000 8.3389997482 0.1599999964 0.1797400117 2.6289999485 38.995998383  -999.250000  -999.250000 1.3439999819 89.732002258 9.9259996414 1.5379999876
 3286.6247559  -999.250000 8.3389997482 0.1609999985 0.1797599941 2.6289999485 38.995998383  -999.250000  -999.250000 1.3439999819 90.696998596 9.9530000687 1.5379999876
 3286.7497559  -999.250000 8.3389997482 0.1650000066 0.1797299981 2.6289999485 38.995998383  -999.250000  -999.250000 1.3439999819 92.057998657 9.9639997482 1.5379999876
 3286.8747559  -999.250000 8.3389997482 0.1669999957 0.1797100008 2.6280000210 38.995998383  -999.250000  -999.250000 1.3439999819 93.108001709 9.9709997177 1.5379999876
 3286.9997559  -999.250000 8.3389997482 0.1630000025 0.1797100008 2.6210000515 38.995998383  -999.250000  -999.250000 1.3439999819 93.763000488 9.9770002365 1.5379999876
 3287.1247559  -999.250000 8.3389997482 0.1539999992 0.1797299981 2.6089999676 38.995998383  -999.250000  -999.250000 1.3450000286 94.334999084 9.9790000916 1.5379999876
 3287.2497559  -999.250000 8.3389997482 0.1430000067 0.1797699928 2.5969998837 38.995998383  -999.250000  -999.250000 1.3450000286 94.963996887 9.9759998322 1.5379999876
 3287.3750000  -999.250000 8.3389997482 0.1379999965 0.1797999889 2.5920000076 38.995998383  -999.250000  -999.250000 1.3450000286 95.339996338 9.9720001221 1.5379999876
 3287.5000000  -999.250000 8.3389997482 0.1379999965 0.1798100024 2.5920000076 38.995998383  -999.250000  -999.250000 1.3459999561 95.123001099 9.9670000076 1.5379999876
 3287.6245117  -999.250000 8.3389997482 0.1400000006 0.1798100024 2.5950000286 38.995998383  -999.250000  -999.250000 1.3459999561 94.071998596 9.9639997482 1.5379999876
 3287.7497559  -999.250000 8.3389997482 0.1410000026 0.1797900051 2.5969998837 38.995998383  -999.250000  -999.250000 1.3450000286 92.055999756 9.9639997482 1.5379999876
 3287.8747559  -999.250000 8.3389997482 0.1400000006 0.1797800064 2.5969998837 38.995998383  -999.250000  -999.250000 1.3450000286 89.578002930 9.9650001526 1.5379999876
 3287.9992676  -999.250000 8.3389997482 0.1420000046 0.1797699928 2.5959999561 38.995998383  -999.250000  -999.250000 1.3439999819 87.663002014 9.9659996033 1.5379999876
 3288.1242676  -999.250000 8.3389997482 0.1439999938 0.1797599941 2.5940001011 38.995998383  -999.250000  -999.250000 1.3439999819 87.137001038 9.9659996033 1.5379999876
 3288.2495117  -999.250000 8.3389997482 0.1459999979 0.1797599941 2.5910000801 38.995998383  -999.250000  -999.250000 1.3430000544 88.247001648 9.9639997482 1.5379999876
 3288.3745117  -999.250000 8.3389997482 0.1469999999 0.1797299981 2.5899999142 38.995998383  -999.250000  -999.250000 1.3439999819 90.137001038 9.9619998932 1.5379999876
 3288.4995117  -999.250000 8.3389997482 0.1490000039 0.1796999872 2.5910000801 38.995998383  -999.250000  -999.250000 1.3439999819 91.438003540 9.9610004425 1.5390000343
 3288.6242676  -999.250000 8.3389997482 0.1519999951 0.1796599925 2.5940001011 38.995998383  -999.250000  -999.250000 1.3439999819 91.385002136 9.9610004425 1.5390000343
 3288.7492676  -999.250000 8.3389997482 0.1570000052 0.1796400100 2.5959999561 38.995998383  -999.250000  -999.250000 1.3439999819 90.241996765 9.9630002975 1.5379999876
 3288.8742676  -999.250000 8.3389997482 0.1580000073 0.1796299964 2.5950000286 38.995998383  -999.250000  -999.250000 1.3439999819 89.011001587 9.9650001526 1.5379999876
 3288.9992676  -999.250000 8.3389997482 0.1570000052 0.1796400100 2.5929999352 38.995998383  -999.250000  -999.250000 1.3439999819 87.971000671 9.9659996033 1.5369999409
 3289.1242676  -999.250000 8.3389997482 0.1529999971 0.1796599925 2.5899999142 38.995998383  -999.250000  -999.250000 1.3439999819 86.695999146 9.9650001526 1.5369999409
 3289.2492676  -999.250000 8.3389997482 0.1509999931 0.1796599925 2.5880000591 38.995998383  -999.250000  -999.250000 1.3439999819 84.681999207 9.9630002975 1.5369999409
 3289.3742676  -999.250000 8.3389997482 0.1509999931 0.1796599925 2.5880000591 38.995998383  -999.250000  -999.250000 1.3439999819 82.059997559 9.9619998932 1.5369999409
 3289.4990234  -999.250000 8.3389997482 0.1519999951 0.1796599925 2.5880000591 38.995998383  -999.250000  -999.250000 1.3439999819 79.586997986 9.9630002975 1.5379999876
 3289.6240234  -999.250000 8.3389997482 0.1539999992 0.1796400100 2.5889999866 38.995998383  -999.250000  -999.250000 1.3439999819 77.953002930 9.9659996033 1.5379999876
 3289.7490234  -999.250000 8.3389997482 0.1539999992 0.1796400100 2.5910000801 38.995998383  -999.250000  -999.250000 1.3439999819 77.346000671 9.9700002670 1.5379999876
 3289.8740234  -999.250000 8.3389997482 0.1509999931 0.1796500087 2.5929999352 38.995998383  -999.250000  -999.250000 1.3439999819 77.268997192 9.9720001221 1.5379999876
 3289.9990234  -999.250000 8.3389997482 0.1459999979 0.1796699911 2.5959999561 38.995998383  -999.250000  -999.250000 1.3439999819 77.268997192 9.9720001221 1.5379999876
 3290.1240234  -999.250000 8.3389997482 0.1410000026 0.1796800047 2.6010000706 38.995998383  -999.250000  -999.250000 1.3439999819 77.268997192 9.9700002670 1.5379999876
 3290.2490234  -999.250000 8.3389997482 0.1379999965 0.1796800047 2.6070001125 38.995998383  -999.250000  -999.250000 1.3439999819 77.268997192 9.9680004120 1.5379999876
 3290.3740234  -999.250000 8.3389997482 0.1369999945 0.1796699911 2.6080000401 38.995998383  -999.250000  -999.250000 1.3439999819 77.268997192 9.9639997482 1.5379999876
 3290.4987793  -999.250000 8.3389997482 0.1330000013 0.1796699911 2.6019999981 38.995998383  -999.250000  -999.250000 1.3439999819 77.268997192 9.9589996338 1.5379999876
 3290.6237793  -999.250000 8.3389997482 0.1289999932 0.1796900034 2.6970000267 38.995998383  -999.250000  -999.250000 1.3439999819 77.268997192 9.9540004730 1.5379999876
 3290.7487793  -999.250000 8.3389997482 0.1319999993 0.1797100008 3.0639998913 38.995998383  -999.250000  -999.250000 1.3439999819 77.268997192 9.9519996643 1.5379999876
 3290.8737793  -999.250000 8.3389997482 1.8279999495 0.1797199994 3.8459999561 38.995998383  -999.250000  -999.250000 1.3439999819 77.268997192 9.9540004730 1.5379999876
 3290.9987793  -999.250000 8.3389997482 3.0520000458 0.1797199994 4.3010001183 38.995998383  -999.250000  -999.250000 1.3439999819 77.268997192 9.9580001831 1.5379999876
 3291.1237793  -999.250000 8.3389997482 3.6040000916 0.1797100008 4.3619999886 38.995998383  -999.250000  -999.250000 1.3439999819 77.268997192 9.9619998932 1.5379999876
 3291.2487793  -999.250000 8.3389997482 3.8599998951 0.1797100008 4.2189998627 38.995998383  -999.250000  -999.250000 1.3439999819 77.268997192 9.9659996033 1.5379999876
 3291.3735352  -999.250000 8.3389997482 3.7869999409 0.1797199994 3.9600000381 38.995998383  -999.250000  -999.250000 1.3439999819 77.268997192 9.9659996033 1.5379999876
 3291.4985352  -999.250000 8.3389997482 3.4110000134 0.1797500104 3.5429999828 38.995998383  -999.250000  -999.250000 1.3439999819 77.268997192 9.9639997482 1.5379999876
 3291.6235352  -999.250000 8.3389997482 2.6730000973 0.1797900051 2.9040000439 38.995998383  -999.250000  -999.250000 1.3439999819 77.268997192 9.9630002975 1.5379999876
