# LAS format log file from PETREL
# Project units are specified as depth units
#==================================================================
~Version information
VERS.   2.0:
WRAP.   NO:
#==================================================================
~Well
STRT .m      200.91401672 :
STOP .m      3436.5195313 :
STEP .m     0.00000000 :
NULL .        -999.250000 :
COMP.           : COMPANY
WELL.  30/3-3   : WELL
FLD.            : FIELD
LOC.            : LOCATION
SRVC.           : SERVICE COMPANY
DATE.  2018-09-11 14:48:28   : Log Export Date {yyyy-MM-dd HH:mm:ss}
PROV.           : PROVINCE
UWI.   30/3-3   : UNIQUE WELL ID
API.            : API NUMBER
#==================================================================
~Curve
DEPT .m                   : DEPTH
Lithology_geolink ._      : Lithology_geolink
CALI .in                  : CALI
DRHO .g/cm3               : DRHO
NPHI .m3/m3               : NPHI
RHOB .g/cm3               : RHOB
PEF .b/e                  : PEF
GR .gAPI                  : GR
DTC .us/ft                : DTC
DTE .us/ft                : DTE
RDEP .ohm.m               : RDEP
SP .mV                    : SP
RSHA .ohm.m               : RSHA
RMED .ohm.m               : RMED
~Parameter
#==================================================================
~Ascii
# ...
 1709.6745605  -999.250000 16.547000885 0.0090008005  -999.250000 2.0879969597 16.174228668 21.843261719 149.78448486 147.96226501 0.6229928136 62.150001526 0.7419406772 0.6260248423
 1709.8269043  -999.250000 16.577999115 0.0099975979  -999.250000 2.0969781876 25.199901581 20.920999527 149.19799805 147.19505310 0.6139832139 63.650005341 0.6679111123 0.6279968023
 1709.9793701  -999.250000 16.733999252 0.0069943913  -999.250000 2.1079823971 40.072105408 19.672302246 149.65333557 147.75601196 0.5929960012 62.150001526 0.5570015907 0.6260015965
 1710.1317139  -999.250000 17.343999863 -0.000004808  -999.250000 2.0980241299 63.903903961 20.047214508 149.77960205 147.89079285 0.5880016088 61.650001526 0.5590753555 0.6090136766
 1710.2841797  -999.250000 17.562999725 -0.006001601  -999.250000 2.0620577335 73.734062195 20.318603516 149.54788208 147.52532959 0.5899935961 61.900001526 0.6529775858 0.6020056009
 1710.4365234  -999.250000 17.641000748 -0.006996795  -999.250000 2.0320720673 58.177040100 23.812185287 150.94488525 149.03739929 0.5859912038 63.150005341 0.6389960051 0.6079951525
 1710.5889893  -999.250000 17.718999863 -0.002991994  -999.250000 2.0310015678 49.488243103 22.803155899 154.24690247 152.27360535 0.5750063658 61.150001526 0.6339375377 0.6209895611
 1710.7413330  -999.250000 17.608999252 0.0020000001  -999.250000 2.0459640026 42.151199341 26.640010834 153.96343994 151.90660095 0.5789775848 62.150001526 0.5952740908 0.6180023551
 1710.8937988  -999.250000 17.733999252 0.0019951963  -999.250000 2.0789470673 32.419021606 25.406051636 148.81410217 147.02822876 0.5509808064 63.150005341 0.9365804195 0.6319888234
 1711.0461426  -999.250000 17.733999252 -0.001002404  -999.250000 2.1448941231 31.192195892 25.435970306 149.05915833 146.98107910 0.5390015841 62.650001526 0.6749030352 0.6230072379
 1711.1984863  -999.250000 17.516000748 -0.004000801  -999.250000 2.1859016418 40.179687500 22.905750275 149.99984741 148.08474731 0.5409792066 62.899997711 0.5539071560 0.6239984035
 1711.3509521  -999.250000 18.358999252 -0.005000801  -999.250000 2.1410720348 58.515914917 22.595815659 155.15855408 153.12513733 0.5149976015 62.650001526 0.4380584955 0.5870296359
 1711.5032959  -999.250000 18.656000137 -0.006002402  -999.250000 2.0532114506 65.883049011 24.860750198 159.93852234 158.04107666 0.5120000243 62.650001526 0.5110504031 0.5290928483
 1711.6557617  -999.250000 18.172000885 -0.009003204  -999.250000 1.9970897436 49.705017090 27.047239304 160.85597229 158.93049622 0.5119944215 61.650001526 0.5740841627 0.5080168247
 1711.8081055  -999.250000 18.812999725 -0.013001601  -999.250000 1.9820359945 32.264850616 27.346288681 158.76304626 156.74275208 0.5049951673 62.150001526 0.6789936423 0.5109951496
 1711.9605713  -999.250000 18.875000000 -0.014997596  -999.250000 1.9879903793 29.597738266 30.203073502 156.03810120 154.22912598 0.4990032315 61.150001526 0.6709294915 0.5199927688
 1712.1129150  -999.250000 18.218999863 -0.011995997  -999.250000 1.9969784021 48.016719818 30.296762466 155.16587830 153.07574463 0.5029951930 61.400001526 0.5828878880 0.5439807773
 1712.2653809  -999.250000 18.125000000 -0.007000000  -999.250000 1.9940047264 100.09543610 29.999950409 156.07769775 154.20855713 0.4970128238 60.900001526 0.4431578517 0.5549911857
 1712.4177246  -999.250000 18.641000748 -0.007004007  -999.250000 1.9810311794 111.82606506 29.939514160 155.98568726 154.02186584 0.5130096078 60.400001526 0.6400560737 0.5440088511
 1712.5701904  -999.250000 18.406000137 -0.012004804  -999.250000 1.9780048132 66.973587036 31.831476212 155.86650085 153.79043579 0.5249951482 60.900001526 0.7099230886 0.5410023928
 1712.7225342  -999.250000 17.937999725 -0.014997596  -999.250000 1.9919663668 43.018333435 33.999473572 153.41183472 151.56657410 0.5220048428 61.400001526 0.6619655490 0.5400007963
 1712.8750000  -999.250000 18.125000000 -0.011990393  -999.250000 2.0049793720 38.441059113 33.341449738 151.60467529 149.61032104 0.5279983878 61.900001526 0.6189471483 0.5549880266
 1713.0273438  -999.250000 17.547000885 -0.005999199  -999.250000 2.0059983730 33.486000061 31.751052856 151.57093811 149.69380188 0.5270032287 61.150001526 0.5860296488 0.5460072160
 1713.1798096  -999.250000 17.952999115 -0.005003202  -999.250000 2.0000095367 28.489608765 33.066501617 152.97000122 151.00915527 0.5310240388 62.899997711 0.6230720878 0.5310119987
 1713.3321533  -999.250000 17.952999115 -0.006999199  -999.250000 1.9940096140 24.502733231 35.250301361 154.98703003 153.02893066 0.5460096002 62.899997711 0.6679943800 0.5080184340
 1713.4844971  -999.250000 17.906000137 -0.005993595  -999.250000 2.0079662800 22.922973633 35.622222900 157.12461853 154.95982361 0.5580064058 61.650001526 0.6610864997 0.5050048232
 1713.6369629  -999.250000 18.187999725 0.0020168270  -999.250000 2.0689022541 22.887639999 32.153221130 156.59748840 154.73756409 0.5659951568 61.650001526 0.7688637972 0.5359751582
 1713.7893066  -999.250000 18.077999115 0.0230120104  -999.250000 2.1627743244 19.942596436 28.690225601 155.64019775 153.82263184 0.5599983931 62.400001526 0.5990552306 0.6068863273
 1713.9417725  -999.250000 18.422000885 0.0379895829  -999.250000 2.1849646568 15.694616318 31.468437195 154.22306824 152.14128113 0.5580048561 61.400001526 0.6679839492 0.6679511070
 1714.0941162  -999.250000 18.437999725 0.0249847881  -999.250000 2.0962138176 12.722613335 30.766775131 152.44293213 150.62069702 0.5640088320 60.900001526 0.6479831934 0.6510272622
 1714.2465820  -999.250000 18.422000885 0.0059927884  -999.250000 1.9971586466 12.240100861 31.733022690 152.75318909 150.74678040 0.5749895573 62.899997711 0.6269967556 0.5630705357
 1714.3989258  -999.250000 18.233999252 -0.003000000  -999.250000 1.9600889683 12.365634918 30.519868851 153.23051453 151.18641663 0.5619943738 62.400001526 0.6229872108 0.5410176516
 1714.5513916  -999.250000 18.250000000 -0.003001601  -999.250000 1.9669888020 11.910509109 35.341049194 153.59103394 151.80886841 0.5549696088 60.400001526 0.6072049737 0.5380023718
 1714.7037354  -999.250000 17.608999252 -0.004001603  -999.250000 1.9789711237 12.229988098 33.496944427 153.36465454 151.50668335 0.5359935760 62.400001526 0.7349295020 0.5439952016
 1714.8562012  -999.250000 17.891000748 -0.006001601  -999.250000 1.9819952250 14.718528748 29.683820724 153.82322693 151.85025024 0.5279808044 61.650001526 0.6472017765 0.5529927611
 1715.0085449  -999.250000 17.672000885 -0.007000000  -999.250000 1.9859902859 20.040000916 27.081054688 154.30378723 152.39918518 0.5159943700 61.900001526 0.7729126811 0.5549983978
 1715.1610107  -999.250000 18.375000000 -0.007004804  -999.250000 1.9949855804 25.036207199 30.894628525 154.77653503 152.69097900 0.5090079904 61.650001526 0.6638702750 0.5579976439
 1715.3133545  -999.250000 18.141000748 -0.010003204  -999.250000 1.9989935160 29.533988953 33.155521393 155.61340332 153.74551392 0.5139992237 61.650001526 0.5830777287 0.5580000281
 1715.4656982  -999.250000 18.406000137 -0.014002402  -999.250000 1.9930144548 34.510288239 32.560710907 156.55374146 154.58992004 0.5130040050 60.400001526 0.6799415350 0.5599967837
 1715.6181641  -999.250000 17.641000748 -0.016999200  -999.250000 1.9840143919 38.612182617 29.700895309 158.21421814 156.28564453 0.5179983974 61.150001526 0.6070528626 0.5360192657
 1715.7705078  -999.250000 17.875000000 -0.016000001  -999.250000 1.9889879227 36.341693878 27.078712463 160.93475342 158.90963745 0.5159983635 59.650001526 0.6729535460 0.5210240483
 1715.9229736  -999.250000 18.172000885 -0.016000001  -999.250000 2.0029776096 30.962877274 27.969701767 161.22572327 159.43693542 0.5140039921 59.900001526 0.6149944067 0.5229983926
 1716.0753174  -999.250000 18.062999725 -0.016000001  -999.250000 2.0099830627 27.067039490 28.844011307 159.24540710 157.24450684 0.5189864039 60.900001526 0.6079639792 0.5459631681
 1716.2277832  -999.250000 18.172000885 -0.015999200  -999.250000 2.0020129681 23.370058060 28.857471466 157.09313965 155.16662598 0.5020151734 61.400001526 0.5630208850 0.5539935827
