# LAS format log file from PETREL
# Project units are specified as depth units
#==================================================================
~Version information
VERS.   2.0:
WRAP.   NO:
#==================================================================
~Well
STRT .m      236.19400024 :
STOP .m      3572.9916992 :
STEP .m     0.00000000 :
NULL .        -999.250000 :
COMP.           : COMPANY
WELL.  30/3-2R   : WELL
FLD.            : FIELD
LOC.            : LOCATION
SRVC.           : SERVICE COMPANY
DATE.  2018-09-11 14:48:27   : Log Export Date {yyyy-MM-dd HH:mm:ss}
PROV.           : PROVINCE
UWI.   30/3-2 R   : UNIQUE WELL ID
API.            : API NUMBER
#==================================================================
~Curve
DEPT .m                   : DEPTH
Lithology_geolink ._      : Lithology_geolink
CALI .in                  : CALI
DRHO .g/cm3               : DRHO
NPHI .m3/m3               : NPHI
RHOB .g/cm3               : RHOB
GR .gAPI                  : GR
DTC .us/ft                : DTC
RDEP .ohm.m               : RDEP
SP .mV                    : SP
RSHA .ohm.m               : RSHA
RMED .ohm.m               : RMED
~Parameter
#==================================================================
~Ascii
# ...
 2855.4926758 18.000000000 20.881999969 -0.093999997 0.5493600368 1.5550143719 53.687999725 101.22116089 1.2879999876 74.502510071 0.2129999995 1.8409999609
 2855.6450195 18.000000000 20.822999954 -0.085000001 0.5547900200 1.5709743500 55.969001770 103.78888702 1.4229999781 74.563896179 0.2319999933 2.0980000496
 2855.7973633 3.0000000000 16.135000229 -0.048999999 0.5707499981 1.6766608953 48.844001770 102.52407074 1.6979999542 75.497001648 0.3009999990 2.0799999237
 2855.9499512 3.0000000000 13.737000465 -0.001000000 0.5787599683 1.8796746731 44.030998230 99.208328247 2.4159998894 75.546920776 0.5889999866 2.0350000858
 2856.1022949 3.0000000000 15.047999382 0.0240000002 0.5416499972 2.0627067089 36.937999725 97.759323120 4.1290001869 74.843132019 0.4160000086 2.4860000610
 2856.2546387 3.0000000000 15.354000092 0.0260000005 0.4324599802 2.0889582634 37.812999725 97.954681396 5.5120000839 74.753143311 1.4049999714 2.0820000172
 2856.4069824 3.0000000000 15.497999191 0.0140000004 0.2993800044 2.0600926876 35.844001770 96.556488037 6.2849998474 76.619010925 4.5329999924 2.2170000076
 2856.5595703 3.0000000000 15.628000259 0.0049999999 0.2345299870 2.0320448875 36.312999725 91.517082214 5.5739998817 77.152153015 6.6269998550 4.3750000000
 2856.7119141 3.0000000000 15.777999878 0.0040000002 0.2601099908 2.0110335350 44.687999725 84.456329346 3.5980000496 73.707534790 5.9359998703 12.116999626
 2856.8642578 3.0000000000 15.987999916 0.0049999999 0.3442299962 1.9860399961 52.000000000 82.737739563 3.4879999161 77.855331421 4.6220002174 11.156000137
 2857.0166016 3.0000000000 16.114999771 -0.003000000 0.4017900229 1.9610400200 58.905998230 89.160682678 5.6370000839 75.145362854 0.5780000091 4.1950001717
 2857.1689453 6.0000000000 16.187000275 -0.023000000 0.4580399990 1.8962080479 61.094001770 101.63498688 11.133000374 73.871070862 0.2109999955 2.2339999676
 2857.3215332 6.0000000000 17.645000458 -0.032000002 0.4422000051 1.9259519577 66.625000000 109.34668732 12.343999863 73.697273254 1.1749999523 2.4800000191
 2857.4738770 6.0000000000 15.484001160 -0.041000001 0.4197999835 1.9998813868 67.063003540 104.53075409 6.2810001373 73.900672913 5.5850000381 3.3650000095
 2857.6262207 6.0000000000 15.005000114 -0.054000001 0.3546999991 1.9620609283 62.469001770 96.778427124 2.2620000839 74.281387329 5.8569998741 7.8239998817
 2857.7785645 18.000000000 17.312999725 -0.064999998 0.3060199916 1.8194576502 55.937999725 97.185653687 1.6829999685 73.924148560 6.0479998589 7.0549998283
 2857.9311523 18.000000000 18.153999329 -0.066000000 0.2680999935 1.7031857967 47.500000000 106.89541626 1.9980000257 74.483100891 5.2540001869 2.5469999313
 2858.0834961 18.000000000 18.172000885 -0.057000000 0.3050799966 1.6970096827 46.000000000 114.56970215 2.3829998970 74.371185303 3.5050001144 1.5110000372
 2858.2358398 18.000000000 19.273000717 -0.054000001 0.4099200070 1.7109775543 43.562999725 115.53946686 2.5060000420 74.988006592 0.2469999939 1.4559999704
 2858.3881836 18.000000000 17.268999100 -0.061999999 0.5174800158 1.6950511932 50.405998230 114.45947266 3.1989998817 75.442543030 0.2099999934 1.5210000277
 2858.5407715 18.000000000 16.819999695 -0.074000001 0.5565599799 1.6420848370 50.530998230 114.19541931 2.0920000076 75.529861450 0.4589999914 1.8960000277
 2858.6931152 18.000000000 17.718000412 -0.083999999 0.5288100243 1.5950753689 52.905998230 111.20379639 1.4750000238 75.869461060 0.8980000019 2.7339999676
 2858.8454590 18.000000000 17.837999344 -0.075999998 0.4905899763 1.5770288706 52.155998230 103.51533508 1.4630000591 76.490997314 0.3190000057 2.9839999676
 2858.9978027 18.000000000 18.250999451 -0.061000001 0.4766100049 1.6269198656 56.030998230 94.937751770 1.6360000372 75.170120239 0.2870000005 2.6349999905
 2859.1503906 18.000000000 20.024000168 -0.052999999 0.4843800068 1.6789168119 59.469001770 89.740310669 1.6339999437 74.544998169 0.3709999919 2.5209999084
 2859.3027344 18.000000000 17.017000198 -0.048999999 0.5041000247 1.7239278555 57.437999725 89.740982056 1.6280000210 73.822158813 0.3759999871 2.5309998989
 2859.4550781 18.000000000 15.024001122 -0.041999999 0.5597000122 1.7469631433 55.312999725 92.447654724 1.7350000143 74.144477844 0.2739999890 2.5269999504
 2859.6074219 18.000000000 15.892000198 -0.032000002 0.5718700290 1.7799470425 54.719001770 97.132484436 1.9889999628 74.071121216 0.2759999931 2.5510001183
 2859.7597656 18.000000000 17.108999252 -0.030999999 0.5791800022 1.8427984715 65.375000000 103.45671844 2.7109999657 74.568405151 0.2720000148 2.3910000324
 2859.9123535 18.000000000 18.333000183 -0.039000001 0.5330300331 1.9268654585 70.125000000 106.63293457 2.7769999504 74.685813904 0.2549999952 1.9639999866
 2860.0646973 6.0000000000 19.524000168 -0.024000000 0.5264899731 2.0647788048 73.250000000 105.77239227 2.8459999561 76.913421631 0.2840000093 3.1129999161
 2860.2170410 6.0000000000 17.069000244 -0.007000000 0.4922700226 2.2047755718 69.563003540 99.889434814 2.5250000954 75.970520020 0.4079999924 3.3910000324
 2860.3693848 6.0000000000 15.116001129 -0.003000000 0.4502600133 2.1880543232 68.438003540 93.052917480 2.4570000172 77.122299194 0.7770000100 3.7479999065
 2860.5219727 6.0000000000 17.222000122 -0.016000001 0.4333900213 2.0602049828 68.000000000 87.923202515 2.4430000782 76.558906555 1.0080000162 3.7890000343
 2860.6743164 18.000000000 16.982000351 -0.030999999 0.4248899817 1.9102402925 69.625000000 85.990089417 2.4059998989 76.110717773 0.3600000143 3.8050000668
 2860.8266602 18.000000000 16.396999359 -0.045000002 0.4527300000 1.8211425543 65.688003540 91.362365723 2.3810000420 76.078056335 0.2969999909 3.8650000095
 2860.9790039 18.000000000 16.618999481 -0.059999999 0.5002599955 1.7223168612 61.155998230 105.17069244 1.8960000277 75.982307434 0.4589999914 3.8610000610
 2861.1315918 18.000000000 18.301000595 -0.070000000 0.5246799588 1.6421281099 52.469001770 121.38204956 2.1719999313 75.382965088 0.2460000068 3.2070000172
 2861.2839355 5.0000000000 20.044000626 -0.075000003 0.4991700053 1.6020641327 51.469001770 129.09664917 2.3980000019 74.824890137 0.2360000014 2.2090001106
 2861.4362793 5.0000000000 20.944000244 -0.088000000 0.4489600062 1.6389408112 53.094001770 127.90093994 2.5840001106 74.530471802 0.3849999905 2.7320001125
 2861.5886230 5.0000000000 21.773002625 -0.088000000 0.4499800205 1.7737836838 61.187999725 122.18816376 3.4570000172 73.927970886 1.5240000486 11.944999695
 2861.7409668 5.0000000000 15.928999901 -0.039999999 0.4856000245 2.0301775932 72.063003540 113.43108368 3.6930000782 73.070747375 5.3319997787 14.531000137
 2861.8935547 6.0000000000 13.217000008 0.0199999996 0.5106199980 2.2206954956 74.688003540 106.95734406 4.4689998627 73.631103516 9.0430002213 15.109000206
 2862.0458984 6.0000000000 13.101999283 0.0299999993 0.5268200040 2.0852179527 65.625000000 107.65785980 5.1909999847 76.166931152 14.402000427 16.391000748
 2862.1982422 6.0000000000 13.220000267 0.0060000001 0.5576599836 1.8613588810 54.844001770 112.55413818 5.1020002365 75.525001526 6.5789999962 17.922000885
 2862.3505859 6.0000000000 13.347998619 -0.018999999 0.5837399960 1.7682975531 47.312999725 112.78129578 5.3130002022 77.193000793 6.6030001640 17.702999115
 2862.5031738 18.000000000 14.711000443 -0.028999999 0.5277299881 1.8338942528 46.875000000 107.25186920 15.944999695 76.166000366 0.6890000105 17.547000885
 2862.6555176 18.000000000 16.542999268 -0.017000001 0.4568899870 1.9947420359 41.905998230 103.03575897 2000.0000000 75.842002869 0.4519999921 18.077999115
 2862.8078613 18.000000000 14.491999626 -0.024000000 0.4616199732 1.9860143661 42.155998230 101.04817200 4.0469999313 74.934997559 1.4670000076 8.2810001373
 2862.9602051 18.000000000 13.887999535 -0.039999999 0.5278199911 1.8125568628 44.312999725 98.099449158 3.6659998894 74.704002380 2.2269999981 5.6170001030
 2863.1127930 18.000000000 15.506999969 -0.054000001 0.5632799864 1.6842051744 44.844001770 100.73773956 3.8180000782 75.083000183 1.2089999914 6.8049998283
