# LAS format log file from PETREL
# Project units are specified as depth units
#==================================================================
~Version information
VERS.   2.0:
WRAP.   NO:
#==================================================================
~Well
STRT .m      200.91401672 :
STOP .m      3436.5195313 :
STEP .m     0.00000000 :
NULL .        -999.250000 :
COMP.           : COMPANY
WELL.  30/3-3   : WELL
FLD.            : FIELD
LOC.            : LOCATION
SRVC.           : SERVICE COMPANY
DATE.  2018-09-11 14:48:28   : Log Export Date {yyyy-MM-dd HH:mm:ss}
PROV.           : PROVINCE
UWI.   30/3-3   : UNIQUE WELL ID
API.            : API NUMBER
#==================================================================
~Curve
DEPT .m                   : DEPTH
Lithology_geolink ._      : Lithology_geolink
CALI .in                  : CALI
DRHO .g/cm3               : DRHO
NPHI .m3/m3               : NPHI
RHOB .g/cm3               : RHOB
PEF .b/e                  : PEF
GR .gAPI                  : GR
DTC .us/ft                : DTC
DTE .us/ft                : DTE
RDEP .ohm.m               : RDEP
SP .mV                    : SP
RSHA .ohm.m               : RSHA
RMED .ohm.m               : RMED
~Parameter
#==================================================================
~Ascii
# ...
 3218.4350586 6.0000000000 9.1090002060 -0.001009600 0.2949607074 2.6349744797  -999.250000 92.127403259 85.008956909 84.901321411 4.6129937172 31.325000763 7.4490880966 6.3017187119
 3218.5876465 6.0000000000 9.1169996262 -0.006993590 0.3075871468 2.6190159321  -999.250000 93.620590210 84.439651489 84.329666138 4.6090002060 28.200000763 7.5058846474 6.7506136894
 3218.7399902 6.0000000000 9.1090002060 -0.003003205 0.3007659316 2.6289904118  -999.250000 90.874397278 83.727249146 83.785316467 4.6090884209 29.075000763 8.6791105270 7.1333379745
 3218.8923340 6.0000000000 9.1090002060 -0.004993590 0.2963774502 2.6229968071  -999.250000 90.501205444 83.246444702 83.337547302 4.6641745567 29.825000763 8.1248750687 7.3442435265
 3219.0446777 6.0000000000 9.1090002060 -0.001004808 0.2924956381 2.6209807396  -999.250000 91.249496460 83.238800049 83.207496643 4.7732067108 30.200000763 8.0470371246 7.4962067604
 3219.1972656 6.0000000000 9.1090002060 -0.003990400 0.2973553538 2.6090447903  -999.250000 90.944000244 83.107521057 83.082099915 4.9023265839 31.575002670 8.0715513229 7.6252880096
 3219.3496094 6.0000000000 9.1090002060 -0.001000000 0.2963384092 2.6230223179  -999.250000 92.805091858 82.767303467 82.781463623 5.0041813850 30.825000763 8.5563640594 7.7147679329
 3219.5019531 6.0000000000 9.1090002060 -0.001001603 0.2856353223 2.6369872093  -999.250000 87.873596191 82.422424316 82.381439209 5.1171636581 27.075000763 9.4054117203 7.5702567101
 3219.6542969 6.0000000000 9.1090002060 -0.001996795 0.2841721773 2.6289870739  -999.250000 86.998397827 82.286918640 82.375000000 5.2189183235 28.950000763 9.0380105972 7.7309455872
 3219.8068848 6.0000000000 9.1090002060 0.0000000000 0.2817799151 2.6209936142  -999.250000 86.010398865 82.389762878 82.463012695 5.1680641174 28.200000763 8.4225244522 8.3190011978
 3219.9592285 6.0000000000 9.1090002060 0.0000048077 0.2900657654 2.6190319061  -999.250000 89.252006531 82.755874634 82.842247009 5.1880993843 25.950000763 8.5855503082 8.0068740845
 3220.1115723 6.0000000000 9.1090002060 0.0030000000 0.2954413295 2.6390030384  -999.250000 90.497299194 83.465835571 83.375419617 5.2500000000 28.825000763 8.3050374985 7.3055624962
 3220.2639160 6.0000000000 9.1090002060 0.0029951923 0.3051924706 2.6409935951  -999.250000 88.813606262 83.711975098 83.708908081 5.2499566078 30.200000763 8.3282384872 7.6565880775
 3220.4165039 6.0000000000 9.1090002060 -0.000025600 0.3090353906 2.6369488239  -999.250000 89.190200806 84.053169250 83.960693359 5.2231602669 30.325000763 8.4781236649 8.0228013992
 3220.5688477 6.0000000000 9.1090002060 -0.008009615 0.2997742295 2.6210031509  -999.250000 89.887016296 83.955802917 84.034667969 5.2730188370 31.075000763 8.8291893005 7.9612369537
 3220.7211914 6.0000000000 9.1090002060 -0.014003205 0.2944034040 2.6229839325  -999.250000 97.372993469 83.719612122 83.745712280 5.2849502563 31.950000763 9.5700378418 8.1091136932
 3220.8735352 6.0000000000 9.1090002060 -0.015993591 0.2861315906 2.6129999161  -999.250000 96.135719299 83.481124878 83.372207642 5.2539744377 32.950000763 9.5964164734 8.1798372269
 3221.0258789 7.0000000000 9.1169996262 -0.012001603 0.2865902781 2.6129903793  -999.250000 102.81340790 83.007942200 82.953811646 5.2380256653 26.575000763 11.101611137 8.0780258179
 3221.1784668 7.0000000000 9.1169996262 -0.012987200 0.2773846090 2.6070129871  -999.250000 103.06420135 82.869415283 82.937835693 5.2540993690 30.200000763 10.857399940 8.0944480896
 3221.3308105 7.0000000000 9.1090002060 -0.009000000 0.2866106629 2.6110064983  -999.250000 103.43399811 83.467544556 83.403129578 5.2850942612 31.950000763 10.359338760 8.2344760895
 3221.4831543 7.0000000000 9.1169996262 -0.008995192 0.2847012877 2.6150064468  -999.250000 100.93219757 83.477302551 83.515884399 5.3442625999 32.450000763 10.570663452 8.5311508179
 3221.6354980 6.0000000000 9.1090002060 -0.006004808 0.2943940163 2.6190063953  -999.250000 97.323417664 83.946662903 84.036056519 5.5082435608 33.200000763 10.984113693 8.6244487762
 3221.7880859 6.0000000000 9.1090002060 -0.009006400 0.2832516730 2.6229870319  -999.250000 103.79679871 84.291275024 84.211853027 5.6606879234 33.325000763 11.054574966 8.2817010880
 3221.9404297 6.0000000000 9.1169996262 -0.011004807 0.2939218581 2.6189904213  -999.250000 98.750000000 84.194458008 84.284553528 5.8747177124 26.950000763 10.922187805 8.5018529892
 3222.0927734 6.0000000000 9.1090002060 -0.013991987 0.2880806029 2.6129968166  -999.250000 98.742485046 83.958129883 83.951736450 5.6987500191 29.950000763 11.040326118 9.6546859741
 3222.2451172 6.0000000000 9.1090002060 -0.008996795 0.2851286829 2.6110129356  -999.250000 94.068107605 83.250267029 83.322952271 5.5429811478 33.075000763 11.867863655 8.8353738785
 3222.3977051 6.0000000000 9.1090002060 -0.006996800 0.2753735483 2.6190192699  -999.250000 97.258003235 82.638191223 82.626045227 5.5309743881 32.700000763 12.406150818 8.4446249008
 3222.5500488 6.0000000000 9.1090002060 -0.006006410 0.2719442248 2.6250030994  -999.250000 99.751403809 82.289772034 82.290458679 5.5229883194 29.200000763 12.452323914 8.3280382156
 3222.7023926 6.0000000000 9.1090002060 -0.010004807 0.2666172385 2.6269905567  -999.250000 100.62289429 82.284805298 82.171554565 5.5159549713 28.575000763 12.031012535 8.3519878387
 3222.8547363 6.0000000000 9.1020002365 -0.012995193 0.2720028758 2.6210095882  -999.250000 99.313301086 82.284805298 82.380363464 5.4880752563 31.950000763 12.037909508 8.3438234329
 3223.0070801 6.0000000000 9.1169996262 -0.010004807 0.2822346687 2.6269872189  -999.250000 99.497795105 82.754158020 82.752395630 5.5348939896 32.450000763 11.358963013 8.2343015671
 3223.1596680 6.0000000000 9.1020002365 -0.012984000 0.2836360037 2.6190063953  -999.250000 98.134597778 83.335411072 83.348762512 5.4688749313 32.950000763 11.334624290 8.4213504791
 3223.3120117 6.0000000000 9.1090002060 -0.008000000 0.2724600136 2.6210064888  -999.250000 101.12429810 83.944541931 84.033706665 5.4299807549 33.325000763 10.904610634 8.2187738419
 3223.4643555 6.0000000000 9.1020002365 -0.007990385 0.2724756598 2.6250257492  -999.250000 100.69351196 84.423652649 84.343139648 5.4179248810 33.200000763 10.039150238 8.0779762268
 3223.6166992 7.0000000000 9.1020002365 -0.002000000 0.2774135470 2.6410081387  -999.250000 104.13101196 84.900756836 84.874816895 5.3708491325 36.200000763 10.132862091 8.0628557205
 3223.7692871 7.0000000000 9.1090002060 -0.001996800 0.3002477288 2.6460192204  -999.250000 107.86620331 85.243797302 85.341690063 5.2768144608 35.075000763 10.047348976 7.9722862244
 3223.9216309 7.0000000000 9.1020002365 -0.001003205 0.2915726602 2.6519999504  -999.250000 105.12079620 85.617897034 85.655700684 5.2189741135 32.325000763 10.155950546 7.7499008179
 3224.0739746 7.0000000000 9.1090002060 -0.003000000 0.3065727055 2.6519856453  -999.250000 102.49449158 85.858573914 85.766273499 5.2029695511 32.575000763 10.125012398 7.6880435944
 3224.2263184 7.0000000000 9.1020002365 -0.003000000 0.2856681645 2.6429998875  -999.250000 99.069610596 86.331756592 86.286163330 5.1840801239 32.450000763 10.134226799 7.7150564194
 3224.3789063 7.0000000000 9.1020002365 -0.002996800 0.2943783700 2.6429615021  -999.250000 103.18640137 86.203193665 86.153663635 5.2342400551 32.450000763 10.904700279 7.7510495186
 3224.5312500 7.0000000000 9.1090002060 -0.001996795 0.2837157845 2.6310000420  -999.250000 102.67868805 85.633140564 85.624565125 5.3090691566 32.075000763 12.988718987 8.0789022446
 3224.6835938 6.0000000000 9.1090002060 -0.000004808 0.2890537381 2.6309905052  -999.250000 96.867286682 85.154533386 85.247009277 5.3520436287 33.325000763 10.944712639 8.6417627335
 3224.8359375 6.0000000000 9.1090002060 -0.003003205 0.2871068716 2.6250030994  -999.250000 92.059700012 85.146888733 85.047752380 5.3790884018 30.075000763 10.765610695 9.1164112091
 3224.9882813 6.0000000000 9.1169996262 -0.005008013 0.2861456871 2.6270031929  -999.250000 90.007514954 85.146888733 85.036239624 5.4340739250 31.200000763 10.523100853 8.7494487762
