# LAS format log file from PETREL
# Project units are specified as depth units
#==================================================================
~Version information
VERS.   2.0:
WRAP.   NO:
#==================================================================
~Well
STRT .m      200.91401672 :
STOP .m      3436.5195313 :
STEP .m     0.00000000 :
NULL .        -999.250000 :
COMP.           : COMPANY
WELL.  30/3-3   : WELL
FLD.            : FIELD
LOC.            : LOCATION
SRVC.           : SERVICE COMPANY
DATE.  2018-09-11 14:48:28   : Log Export Date {yyyy-MM-dd HH:mm:ss}
PROV.           : PROVINCE
UWI.   30/3-3   : UNIQUE WELL ID
API.            : API NUMBER
#==================================================================
~Curve
DEPT .m                   : DEPTH
Lithology_geolink ._      : Lithology_geolink
CALI .in                  : CALI
DRHO .g/cm3               : DRHO
NPHI .m3/m3               : NPHI
RHOB .g/cm3               : RHOB
PEF .b/e                  : PEF
GR .gAPI                  : GR
DTC .us/ft                : DTC
DTE .us/ft                : DTE
RDEP .ohm.m               : RDEP
SP .mV                    : SP
RSHA .ohm.m               : RSHA
RMED .ohm.m               : RMED
~Parameter
#==================================================================
~Ascii
# ...
 415.49328613  -999.250000 10.961000443 0.0099999998  -999.250000 2.0738604069 2.3663568497 81.563003540 146.29772949 146.03753662 3.1459999084 49.937999725 2.7190001011 2.6877787113
 415.64566040  -999.250000 10.953000069 0.0140000004  -999.250000 2.1038498878 2.3421101570 84.063003540 144.63497925 144.34393311 3.1289999485 49.687999725 3.6480000019 2.7707006931
 415.79806519  -999.250000 10.953000069 0.0120000001  -999.250000 2.1189248562 2.3907842636 75.188003540 144.07234192 143.78025818 3.1210000515 49.187999725 2.9800000191 2.8158466816
 415.95046997  -999.250000 10.953000069 0.0070094117  -999.250000 2.0861651897 2.2794933319 76.063003540 144.26364136 143.97721863 3.1270000935 49.125000000 3.5139999390 2.8399181366
 416.10287476  -999.250000 10.921999931 0.0540084131  -999.250000 2.0213122368 2.2989118099 75.250000000 144.03564453 143.77278137 3.1600000858 48.312999725 2.7929999828 2.7792077065
 416.25527954  -999.250000 10.796999931 0.0960046053  -999.250000 1.9612883329 2.3199074268 76.563003540 144.69958496 144.41314697 3.1679999828 51.875000000 3.2869999409 2.7949457169
 416.40768433  -999.250000 10.727000237 0.1190020069  -999.250000 1.9520432949 2.3498678207 73.250000000 144.86024475 144.56817627 3.1760001183 48.500000000 1.9930000305 2.7710816860
 416.56008911  -999.250000 10.718999863 0.1289823651  -999.250000 2.0306203365 2.3768811226 72.875000000 144.98025513 144.69343567 3.1760001183 48.937999725 1.9049999714 2.8158466816
 416.71246338  -999.250000 10.727000237 0.0849945918  -999.250000 2.0956745148 2.2913787365 75.063003540 145.91522217 145.65568542 3.1500000954 47.750000000 3.4630000591 2.8090252876
 416.86486816  -999.250000 10.750000000 0.0579889864  -999.250000 2.1696295738 2.3377931118 79.563003540 146.46133423 146.16688538 3.1329998970 47.937999725 2.4409999847 2.7581734657
 417.01727295  -999.250000 10.758000374 0.0030020024  -999.250000 2.1560699940 2.3668723106 82.938003540 146.61933899 146.31817627 3.1229999065 48.250000000 2.8789999485 2.7251121998
 417.16967773  -999.250000 10.772999763 0.0129993996  -999.250000 2.1948125362 2.4137930870 82.188003540 146.47726440 146.18182373 3.1170001030 48.250000000 2.8570001125 2.6781599522
 417.32208252  -999.250000 10.772999763 0.0099997995  -999.250000 2.1890287399 2.4279382229 79.375000000 146.41508484 146.14382935 3.1070001125 49.312999725 3.2560000420 2.6720204353
 417.47448730  -999.250000 10.765999794 0.0089987982  -999.250000 2.1860144138 2.4668281078 78.688003540 145.71560669 145.42771912 3.1110000610 49.562999725 3.3670001030 2.6660203934
 417.62689209  -999.250000 10.765999794 0.0060112136  -999.250000 2.1621153355 2.4918899536 80.500000000 145.55274963 145.25370789 3.0980000496 49.187999725 3.6070001125 2.7417414188
 417.77926636  -999.250000 10.765999794 0.0340098143  -999.250000 2.1659798622 2.4322643280 80.813003540 145.46255493 145.16278076 3.0840001106 49.312999725 3.0350000858 2.7699046135
 417.93167114  -999.250000 10.694999695 0.0829985961  -999.250000 2.1948547363 2.3573305607 82.438003540 145.11120605 144.82937622 3.0780000687 48.500000000 3.0209999084 2.8068740368
 418.08407593  -999.250000 10.647999763 0.0759909898  -999.250000 2.1930100918 2.2932820320 82.875000000 144.98646545 144.68182373 3.0629999638 48.625000000 2.7599999905 2.7681326866
 418.23648071  -999.250000 10.640999794 0.0309931915  -999.250000 2.1701107025 2.3417842388 81.688003540 145.91465759 145.60281372 3.0450000763 48.625000000 3.1250000000 2.7480680943
 418.38888550  -999.250000 10.640999794 -0.002999600  -999.250000 2.1580576897 2.3420000076 79.250000000 146.83973694 146.54951477 3.0450000763 49.812999725 3.9159998894 2.7171056271
 418.54129028  -999.250000 10.640999794 -0.000999600  -999.250000 2.1739230156 2.3459823132 78.500000000 146.62796021 146.34468079 3.0309998989 52.625000000 3.7679998875 2.7070341110
 418.69369507  -999.250000 10.765999794 -0.000002002  -999.250000 2.1759905815 2.3788611889 83.313003540 146.62278748 146.32191467 3.0120000839 53.250000000 3.4709999561 2.6761057377
 418.84606934  -999.250000 10.828000069 -0.005001402  -999.250000 2.1779899597 2.4915022850 82.938003540 146.30261230 146.00746155 2.9979999065 52.250000000 3.3069999218 2.6351397038
 418.99847412  -999.250000 10.758000374 -0.011998799  -999.250000 2.1680500507 2.5079293251 81.563003540 146.46965027 146.17434692 2.9730000496 50.062999725 3.5020000935 2.6170613766
 419.15087891  -999.250000 10.758000374 -0.005997998  -999.250000 2.1719806194 2.5368721485 79.313003540 146.85220337 146.57975769 2.9430000782 50.375000000 3.3889999390 2.6329455376
 419.30328369  -999.250000 10.750000000 0.0040002004  -999.250000 2.1779711246 2.4493875504 79.625000000 147.03555298 146.74626160 2.9159998894 50.312999725 3.5230000019 2.6559216976
 419.45568848  -999.250000 10.772999763 0.0050040055  -999.250000 2.1580960751 2.4509911537 77.813003540 147.12730408 146.83721924 2.9059998989 48.375000000 3.4979999065 2.6051735878
 419.60809326  -999.250000 10.812999725 0.0249991994  -999.250000 2.1679518223 2.4201366901 74.500000000 147.56591797 147.25793457 2.9040000439 52.437999725 2.9590001106 2.5661327839
 419.76049805  -999.250000 10.781001091 0.0230064075  -999.250000 2.1391394138 2.4837307930 73.188003540 147.57640076 147.30287170 2.9179999828 53.000000000 3.3050000668 2.5470645428
 419.91287231  -999.250000 10.741999626 0.0389977992  -999.250000 2.1519348621 2.5248193741 75.438003540 146.99423218 146.69302368 2.9260001183 51.750000000 2.6519999504 2.5529794693
 420.06527710  -999.250000 10.718999863 0.0280014034  -999.250000 2.1330950260 2.5508856773 79.688003540 146.86396790 146.55650330 2.9340000153 49.000000000 3.0350000858 2.5878808498
 420.21768188  -999.250000 10.694999695 0.0350002013  -999.250000 2.1479279995 2.5390529633 80.375000000 146.24943542 145.94302368 2.9430000782 49.062999725 3.1329998970 2.6248741150
 420.37008667  -999.250000 10.750000000 0.0359979942  -999.250000 2.1599423885 2.5101277828 83.875000000 146.43864441 146.15531921 2.9509999752 48.125000000 3.2969999313 2.6638672352
 420.52249146  -999.250000 10.819999695 0.0259975977  -999.250000 2.1639807224 2.4651980400 81.500000000 146.03646851 145.74214172 2.9609999657 48.625000000 2.5179998875 2.7227993011
 420.67489624  -999.250000 11.086000443 0.0140012018  -999.250000 2.1659903526 2.4042687416 81.438003540 145.38630676 145.08671570 2.9860000610 48.437999725 2.3199999332 2.7479147911
 420.82727051  -999.250000 11.093999863 0.0170008019  -999.250000 2.1699800491 2.3303260803 79.938003540 145.39962769 145.10617065 2.9979999065 49.187999725 3.2829999924 2.7151188850
 420.97967529  -999.250000 11.093999863 0.0210042056  -999.250000 2.1640300751 2.2583169937 78.000000000 146.09956360 145.82228088 3.0020000935 49.312999725 3.1989998817 2.6821122169
 421.13208008  -999.250000 11.093999863 0.0419965945  -999.250000 2.1580300331 2.3127577305 77.000000000 146.64013672 146.34507751 3.0039999485 50.375000000 3.3320000172 2.6391463280
 421.28448486  -999.250000 10.750000000 0.0249975976  -999.250000 2.1211779118 2.2990617752 74.000000000 147.38009644 147.07228088 2.9939999580 49.375000000 2.7090001106 2.5821940899
 421.43688965  -999.250000 10.687999725 0.0129979979  -999.250000 2.1070673466 2.3378281593 77.875000000 147.19383240 146.89756775 2.9549999237 49.000000000 2.6840000153 2.5740270615
 421.58929443  -999.250000 10.694999695 0.0030018026  -999.250000 2.1149616241 2.3031542301 76.875000000 146.46081543 146.17771912 2.9300000668 50.000000000 2.6500000954 2.6048943996
 421.74169922  -999.250000 10.734000206 0.0120012015  -999.250000 2.1478414536 2.3886210918 78.688003540 146.73512268 146.43972778 2.9159998894 52.375000000 2.6040000916 2.5840716362
 421.89407349  -999.250000 10.758000374 0.0150018018  -999.250000 2.1559598446 2.4427621365 76.813003540 147.78997803 147.49291992 2.8849999905 49.375000000 2.7969999313 2.5431478024
 422.04647827  -999.250000 10.906000137 0.0240050070  -999.250000 2.1410751343 2.4668943882 78.875000000 148.10597229 147.81434631 2.8829998970 49.687999725 3.1659998894 2.4961600304
