# LAS format log file from PETREL
# Project units are specified as depth units
#==================================================================
~Version information
VERS.   2.0:
WRAP.   NO:
#==================================================================
~Well
STRT .m      579.75000000 :
STOP .m      3292.5014648 :
STEP .m     0.00000000 :
NULL .        -999.250000 :
COMP.           : COMPANY
WELL.  30/3-4R   : WELL
FLD.            : FIELD
LOC.            : LOCATION
SRVC.           : SERVICE COMPANY
DATE.  2018-09-11 14:48:28   : Log Export Date {yyyy-MM-dd HH:mm:ss}
PROV.           : PROVINCE
UWI.   30/3-4 R   : UNIQUE WELL ID
API.            : API NUMBER
#==================================================================
~Curve
DEPT .m                   : DEPTH
Lithology_geolink ._      : Lithology_geolink
CALI .in                  : CALI
DRHO .g/cm3               : DRHO
NPHI .m3/m3               : NPHI
RHOB .g/cm3               : RHOB
GR .gAPI                  : GR
DTC .us/ft                : DTC
DTE .us/ft                : DTE
RDEP .ohm.m               : RDEP
SP .mV                    : SP
RSHA .ohm.m               : RSHA
RMED .ohm.m               : RMED
~Parameter
#==================================================================
~Ascii
# ...
 759.75000000  -999.250000 21.857000351 0.0099999998  -999.250000 2.0820000172 62.923000336 151.65592957 147.76132202 0.7400000095 78.570999146 0.5820000172 0.3379999995
 759.87493896  -999.250000 21.854999542 0.0109999999  -999.250000 2.0999999046 62.747001648 150.94500732 146.98788452 0.7659999728 79.950996399 0.5799999833 0.3510000110
 759.99987793  -999.250000 21.853000641 0.0160000008  -999.250000 2.1199998856 61.909000397 150.35533142 146.42599487 0.8159999847 80.193000793 0.5770000219 0.3650000095
 760.12487793  -999.250000 21.850999832 0.0250000004  -999.250000 2.1380000114 61.131999969 150.27821350 146.31329346 0.8830000162 79.807998657 0.5749999881 0.3790000081
 760.25012207  -999.250000 21.850999832 0.0379999988  -999.250000 2.1500000954 61.009998322 150.58792114 146.66032410 0.9530000091 79.096000671 0.5720000267 0.3970000148
 760.37512207  -999.250000 21.850999832 0.0430000015  -999.250000 2.1400001049 61.243000031 151.25564575 147.34829712 1.0049999952 77.842002869 0.5720000267 0.4169999957
 760.50006104  -999.250000 21.851999283 0.0329999998  -999.250000 2.1070001125 61.223999023 152.05273438 148.12680054 1.0199999809 75.844001770 0.5759999752 0.4350000024
 760.62506104  -999.250000 21.851999283 0.0089999996  -999.250000 2.0569999218 60.558998108 152.56015015 148.62519836 1.0030000210 73.259002686 0.5839999914 0.4429999888
 760.75000000  -999.250000 21.851999283 -0.022000000  -999.250000 2.0060000420 59.294998169 152.02030945 148.06300354 0.9629999995 70.855003357 0.5950000286 0.4329999983
 760.87493896  -999.250000 21.853000641 -0.046000000  -999.250000 1.9789999723 58.046001434 150.13996887 146.21702576 0.9269999862 69.783996582 0.6019999981 0.4070000052
 760.99993896  -999.250000 21.854999542 -0.055000000  -999.250000 1.9880000353 57.257999420 147.56124878 143.62528992 0.9110000134 70.512001038 0.6000000238 0.3770000041
 761.12493896  -999.250000 21.854000092 -0.046000000  -999.250000 2.0309998989 56.957000732 145.14074707 141.18992615 0.9190000296 72.772003174 0.5879999995 0.3510000110
 761.24987793  -999.250000 21.850999832 -0.022000000  -999.250000 2.0959999561 57.013000488 143.81378174 139.89418030 0.9440000057 75.646003723 0.5709999800 0.3339999914
 761.37487793  -999.250000 21.847000122 0.0070000002  -999.250000 2.1470000744 57.317001343 144.50257874 140.62300110 0.9610000253 77.953002930 0.5559999943 0.3280000091
 761.50012207  -999.250000 21.844999313 0.0230000000  -999.250000 2.1610000134 57.942001343 147.54196167 143.58695984 0.9470000267 79.178001404 0.5469999909 0.3300000131
 761.62512207  -999.250000 21.846000671 0.0230000000  -999.250000 2.1359999180 58.813999176 151.08084106 147.11309814 0.8960000277 79.181999207 0.5450000167 0.3400000036
 761.75006104  -999.250000 21.847999573 0.0130000003  -999.250000 2.0969998837 59.719001770 153.96842957 150.00451660 0.8280000091 77.947998047 0.5469999909 0.3560000062
 761.87512207  -999.250000 21.850000381 0.0049999999  -999.250000 2.0620000362 60.505001068 155.58247375 151.63301086 0.7680000067 75.761001587 0.5519999862 0.3709999919
 762.00006104  -999.250000 21.849000931 0.0030000000  -999.250000 2.0399999619 61.048000336 155.81600952 151.90563965 0.7319999933 73.222999573 0.5559999943 0.3810000122
 762.12487793  -999.250000 21.846000671 0.0030000000  -999.250000 2.0250000954 61.292999268 155.08294678 151.15986633 0.7229999900 71.130996704 0.5580000281 0.3819999993
 762.24993896  -999.250000 21.844999313 -0.002000000  -999.250000 2.0069999695 61.236999512 154.25843811 150.30383301 0.7429999709 70.412002563 0.5580000281 0.3750000000
 762.37487793  -999.250000 21.847000122 -0.018999999  -999.250000 1.9800000191 60.844001770 153.68394470 149.73692322 0.7799999714 71.357002258 0.5569999814 0.3630000055
 762.49987793  -999.250000 21.850999832 -0.039999999  -999.250000 1.9509999752 60.041000366 153.41616821 149.50248718 0.8230000138 73.304000854 0.5559999943 0.3510000110
 762.62512207  -999.250000 21.854999542 -0.057000000  -999.250000 1.9309999943 59.057998657 153.39965820 149.50440979 0.8539999723 75.342002869 0.5569999814 0.3400000036
 762.75012207  -999.250000 21.857000351 -0.064000003  -999.250000 1.9270000458 58.366001129 153.49461365 149.54724121 0.8579999804 76.411003113 0.5590000153 0.3330000043
 762.87506104  -999.250000 21.854999542 -0.057000000  -999.250000 1.9340000153 58.172000885 153.25080872 149.30982971 0.8410000205 75.903999329 0.5619999766 0.3300000131
 763.00006104  -999.250000 21.850999832 -0.041000001  -999.250000 1.9550000429 58.400001526 152.69808960 148.74780273 0.8140000105 74.124000549 0.5659999847 0.3319999874
 763.12500000  -999.250000 21.846000671 -0.022000000  -999.250000 1.9859999418 58.743000031 151.94837952 148.01095581 0.7879999876 71.818000793 0.5680000186 0.3389999866
 763.25000000  -999.250000 21.843000412 -0.006000000  -999.250000 2.0199999809 58.922000885 151.24839783 147.33044434 0.7699999809 70.149002075 0.5669999719 0.3490000069
 763.37493896  -999.250000 21.842000961 0.0070000002  -999.250000 2.0529999733 58.881999969 150.90013123 146.97251892 0.7590000033 70.208000183 0.5619999766 0.3600000143
 763.49993896  -999.250000 21.843999863 0.0170000009  -999.250000 2.0780000687 58.916999817 151.19540405 147.23596191 0.7559999824 72.024002075 0.5569999814 0.3670000136
 763.62487793  -999.250000 21.846000671 0.0219999999  -999.250000 2.0869998932 59.348999023 152.15664673 148.20549011 0.7590000033 74.859001160 0.5509999990 0.3689999878
 763.74987793  -999.250000 21.847000122 0.0170000009  -999.250000 2.0750000477 60.119998932 153.52578735 149.59704590 0.7649999857 77.494003296 0.5469999909 0.3619999886
 763.87512207  -999.250000 21.847000122 0.0020000001  -999.250000 2.0390000343 60.759998322 154.98117065 151.05516052 0.7730000019 78.939002991 0.5460000038 0.3499999940
 764.00012207  -999.250000 21.847000122 -0.018999999  -999.250000 1.9950000048 60.784999847 156.14471436 152.20172119 0.7810000181 79.125999451 0.5490000248 0.3339999914
 764.12506104  -999.250000 21.847000122 -0.039999999  -999.250000 1.9570000172 59.979000092 156.65069580 152.71372986 0.7900000215 78.470001221 0.5540000200 0.3179999888
 764.25012207  -999.250000 21.847999573 -0.052999999  -999.250000 1.9340000153 58.507999420 156.11288452 152.18019104 0.7979999781 77.541999817 0.5600000024 0.3030000031
 764.37493896  -999.250000 21.849000931 -0.052000001  -999.250000 1.9349999428 57.022998810 154.89556885 151.00111389 0.8059999943 76.592002869 0.5659999847 0.2919999957
 764.50000000  -999.250000 21.847999573 -0.039999999  -999.250000 1.9539999962 56.080001831 153.49057007 149.58413696 0.8140000105 75.411003113 0.5699999928 0.2840000093
 764.62493896  -999.250000 21.846000671 -0.021000000  -999.250000 1.9869999886 55.833000183 152.21435547 148.27864075 0.8220000267 73.771003723 0.5730000138 0.2779999971
 764.74987793  -999.250000 21.843000412 0.0000000000  -999.250000 2.0260000229 56.180000305 151.28227234 147.36233521 0.8289999962 71.665000916 0.5730000138 0.2739999890
 764.87487793  -999.250000 21.840999603 0.0130000003  -999.250000 2.0629999638 56.655998230 150.88949585 147.02203369 0.8320000172 69.514999390 0.5690000057 0.2720000148
 765.00012207  -999.250000 21.840999603 0.0189999994  -999.250000 2.0910000801 56.937000275 151.18450928 147.24319458 0.8309999704 67.892997742 0.5640000105 0.2720000148
 765.12512207  -999.250000 21.843000412 0.0209999997  -999.250000 2.1059999466 57.037998199 151.77497864 147.80967712 0.8249999881 67.278999329 0.5580000281 0.2739999890
 765.25006104  -999.250000 21.844999313 0.0240000002  -999.250000 2.1110000610 57.087001801 152.53501892 148.57469177 0.8149999976 68.052001953 0.5529999733 0.2779999971
 765.37512207  -999.250000 21.846000671 0.0309999995  -999.250000 2.1040000916 57.195999146 153.31484985 149.38116455 0.8019999862 70.013999939 0.5509999990 0.2820000052
 765.50006104  -999.250000 21.846000671 0.0350000001  -999.250000 2.0899999142 57.569999695 153.93969727 150.06562805 0.7879999876 72.246002197 0.5519999862 0.2860000134
 765.62500000  -999.250000 21.847000122 0.0350000001  -999.250000 2.0739998817 58.377998352 154.33049011 150.38845825 0.7770000100 73.669998169 0.5540000200 0.2899999917
