# LAS format log file from PETREL
# Project units are specified as depth units
#==================================================================
~Version information
VERS.   2.0:
WRAP.   NO:
#==================================================================
~Well
STRT .m      200.91401672 :
STOP .m      3436.5195313 :
STEP .m     0.00000000 :
NULL .        -999.250000 :
COMP.           : COMPANY
WELL.  30/3-3   : WELL
FLD.            : FIELD
LOC.            : LOCATION
SRVC.           : SERVICE COMPANY
DATE.  2018-09-11 14:48:28   : Log Export Date {yyyy-MM-dd HH:mm:ss}
PROV.           : PROVINCE
UWI.   30/3-3   : UNIQUE WELL ID
API.            : API NUMBER
#==================================================================
~Curve
DEPT .m                   : DEPTH
Lithology_geolink ._      : Lithology_geolink
CALI .in                  : CALI
DRHO .g/cm3               : DRHO
NPHI .m3/m3               : NPHI
RHOB .g/cm3               : RHOB
PEF .b/e                  : PEF
GR .gAPI                  : GR
DTC .us/ft                : DTC
DTE .us/ft                : DTE
RDEP .ohm.m               : RDEP
SP .mV                    : SP
RSHA .ohm.m               : RSHA
RMED .ohm.m               : RMED
~Parameter
#==================================================================
~Ascii
# ...
 3433.0141602  -999.250000 10.305000305 1.3430000544 0.2392600030 6.1020002365  -999.250000 46.937999725  -999.250000  -999.250000 5.2699999809 31.700000763 4.0630002022 7.1560001373
 3433.1665039  -999.250000 10.305000305 0.9800000191 0.2392600030 5.3629999161  -999.250000 46.937999725  -999.250000  -999.250000 5.2930002213 28.825000763 4.0630002022 7.1719999313
 3433.3190918  -999.250000 10.305000305 0.6010000110 0.2690399885 4.6090002060  -999.250000 46.937999725  -999.250000  -999.250000 5.2699999809 27.950000763 4.0630002022 7.2230000496
 3433.4714355  -999.250000 10.305000305 -0.637000024 0.2690399885 0.9710000157  -999.250000 46.937999725  -999.250000  -999.250000 5.2500000000 28.075000763 4.0630002022 7.2109999657
 3433.6237793  -999.250000 10.305000305 -0.020000000 0.2690399885 1.5870000124  -999.250000 46.937999725  -999.250000  -999.250000 5.2420001030 28.575000763 4.0630002022 7.1449999809
 3433.7761230  -999.250000 10.305000305 -0.020000000 0.2690399885 1.5870000124  -999.250000 46.937999725  -999.250000  -999.250000 5.2500000000 28.075000763 4.0630002022 7.1129999161
 3433.9287109  -999.250000 10.305000305 -0.020000000 0.2690399885 1.5870000124  -999.250000 46.937999725  -999.250000  -999.250000 5.2620000839 28.700000763 4.0630002022 7.1719999313
 3434.0810547  -999.250000 10.305000305 -0.020000000 0.2690399885 1.5870000124  -999.250000 46.937999725  -999.250000  -999.250000 5.2769999504 28.325000763 4.0630002022 7.1760001183
 3434.2333984  -999.250000 10.305000305 -0.020000000 0.2690399885 1.5870000124  -999.250000 46.937999725  -999.250000  -999.250000 5.2810001373 27.825000763 4.0630002022 7.1760001183
 3434.3857422  -999.250000 10.305000305  -999.250000  -999.250000  -999.250000  -999.250000 46.937999725  -999.250000  -999.250000 5.2769999504 29.200000763 4.0630002022 7.2150001526
 3434.5383301  -999.250000 10.305000305  -999.250000  -999.250000  -999.250000  -999.250000 46.937999725  -999.250000  -999.250000 5.2729997635 29.575000763 4.0630002022 7.2109999657
 3434.6906738  -999.250000 10.305000305  -999.250000  -999.250000  -999.250000  -999.250000 46.937999725  -999.250000  -999.250000 5.2620000839 29.575000763 4.0630002022 7.2109999657
 3434.8430176  -999.250000 10.305000305  -999.250000  -999.250000  -999.250000  -999.250000 46.937999725  -999.250000  -999.250000 393.50000000 28.825000763 4.0630002022 7.1719999313
 3434.9953613  -999.250000 10.305000305  -999.250000  -999.250000  -999.250000  -999.250000 46.937999725  -999.250000  -999.250000 393.50000000 27.950000763 4.0630002022 7.1719999313
 3435.1477051  -999.250000 10.305000305  -999.250000  -999.250000  -999.250000  -999.250000 46.937999725  -999.250000  -999.250000 388.00000000 28.450000763 4.0630002022 7.1719999313
 3435.3002930  -999.250000 10.305000305  -999.250000  -999.250000  -999.250000  -999.250000 46.937999725  -999.250000  -999.250000 392.50000000 28.950000763 4.0630002022 7.1719999313
 3435.4526367  -999.250000 10.305000305  -999.250000  -999.250000  -999.250000  -999.250000 46.937999725  -999.250000  -999.250000 397.00000000 31.325000763 4.0630002022 7.1719999313
 3435.6049805  -999.250000 10.305000305  -999.250000  -999.250000  -999.250000  -999.250000 46.937999725  -999.250000  -999.250000 399.25000000 31.449998856 4.0630002022 7.1719999313
 3435.7573242  -999.250000 10.305000305  -999.250000  -999.250000  -999.250000  -999.250000 46.937999725  -999.250000  -999.250000 397.00000000 30.325000763 4.0630002022 7.1719999313
 3435.9099121  -999.250000 10.305000305  -999.250000  -999.250000  -999.250000  -999.250000 46.937999725  -999.250000  -999.250000 394.75000000 28.825000763 4.0630002022 7.1719999313
 3436.0622559  -999.250000 10.305000305  -999.250000  -999.250000  -999.250000  -999.250000 46.937999725  -999.250000  -999.250000 391.25000000 27.325000763 4.0630002022 7.1719999313
 3436.2145996  -999.250000 10.305000305  -999.250000  -999.250000  -999.250000  -999.250000 46.937999725  -999.250000  -999.250000 390.25000000 29.325000763 4.0630002022 7.1719999313
 3436.3669434  -999.250000 10.305000305  -999.250000  -999.250000  -999.250000  -999.250000 46.937999725  -999.250000  -999.250000 391.25000000 28.825000763 4.0630002022 7.1719999313
 3436.5195313  -999.250000 10.305000305  -999.250000  -999.250000  -999.250000  -999.250000  -999.250000  -999.250000  -999.250000  -999.250000 33.625000000  -999.250000  -999.250000
