# LAS format log file from PETREL
# Project units are specified as depth units
#==================================================================
~Version information
VERS.   2.0:
WRAP.   NO:
#==================================================================
~Well
STRT .m      200.91401672 :
STOP .m      3436.5195313 :
STEP .m     0.00000000 :
NULL .        -999.250000 :
COMP.           : COMPANY
WELL.  30/3-3   : WELL
FLD.            : FIELD
LOC.            : LOCATION
SRVC.           : SERVICE COMPANY
DATE.  2018-09-11 14:48:28   : Log Export Date {yyyy-MM-dd HH:mm:ss}
PROV.           : PROVINCE
UWI.   30/3-3   : UNIQUE WELL ID
API.            : API NUMBER
#==================================================================
~Curve
DEPT .m                   : DEPTH
Lithology_geolink ._      : Lithology_geolink
CALI .in                  : CALI
DRHO .g/cm3               : DRHO
NPHI .m3/m3               : NPHI
RHOB .g/cm3               : RHOB
PEF .b/e                  : PEF
GR .gAPI                  : GR
DTC .us/ft                : DTC
DTE .us/ft                : DTE
RDEP .ohm.m               : RDEP
SP .mV                    : SP
RSHA .ohm.m               : RSHA
RMED .ohm.m               : RMED
~Parameter
#==================================================================
~Ascii
# ...
 3003.8559570 3.0000000000 8.2500000000 0.0210223999 0.1845864505 2.3359999657  -999.250000 39.894901276 85.845603943 80.065635681 2.6616864204 30.450000763 3.6724321842 3.2089552879
 3004.0083008 3.0000000000 8.2189998627 0.0280032065 0.1880110651 2.3420000076  -999.250000 36.429309845 85.628105164 79.870368958 2.5639228821 31.449998856 2.5607485771 3.1950447559
 3004.1606445 3.0000000000 8.1560001373 0.0299983975 0.1924003661 2.3440001011  -999.250000 31.003028870 85.489318848 79.760902405 2.5159487724 30.075000763 2.4037275314 3.2227404118
 3004.3129883 3.0000000000 8.1330003738 0.0289919861 0.1987347007 2.3550000191  -999.250000 22.916418076 85.855773926 80.171302795 2.4839038849 27.325000763 2.2340319157 3.0605931282
 3004.4653320 3.0000000000 8.1409997940 0.0239983983 0.2001859099 2.3440001011  -999.250000 19.436721802 85.628105164 79.792137146 2.4239406586 31.575002670 2.2539405823 2.8065800667
 3004.6179199 3.0000000000 8.1020002365 0.0229615998 0.1958023608 2.3180000782  -999.250000 18.637199402 84.350807190 78.566436768 2.3868432045 34.450000763 2.2171247005 2.5449137688
 3004.7702637 3.0000000000 8.1479997635 0.0109871794 0.1962712407 2.2790000439  -999.250000 17.451171875 84.530761719 78.667495728 2.3378782272 30.575000763 2.2559311390 2.5180206299
 3004.9226074 3.0000000000 8.1409997940 0.0029967949 0.1923909783 2.2639999390  -999.250000 16.314876556 84.198822021 78.573028564 2.2619087696 29.575000763 2.2129681110 2.5309758186
 3005.0749512 3.0000000000 8.1479997635 0.0010080129 0.1957718283 2.2709999084  -999.250000 17.493341446 84.427093506 78.694488525 2.2050464153 29.075000763 2.1927788258 2.5158863068
 3005.2275391 3.0000000000 8.1560001373 0.0060032001 0.1869724542 2.2890000343  -999.250000 23.324199677 86.305816650 80.537422180 2.2341439724 28.325000763 2.0567600727 2.4449136257
 3005.3798828 3.0000000000 8.1409997940 0.0069935899 0.1791835725 2.2929999828  -999.250000 26.816102982 88.916748047 83.077606201 2.2790513039 26.325000763 2.6052515507 2.4179968834
 3005.5322266 3.0000000000 8.1020002365 0.0029983975 0.1758253872 2.2850000858  -999.250000 28.751928329 90.226722717 84.449584961 2.3110802174 29.325000763 2.7625257969 2.4161183834
 3005.6845703 3.0000000000 8.1090002060 0.0019967949 0.1899963319 2.2869999409  -999.250000 29.952222824 90.860046387 85.219017029 2.3609166145 31.075000763 3.0897114277 2.4901473522
 3005.8371582 3.0000000000 8.0939998627 -0.000012800 0.2076045275 2.2890000343  -999.250000 29.458797455 91.573913574 85.776054382 2.3087537289 33.575000763 2.9067616463 2.5820639133
 3005.9895020 3.0000000000 8.0939998627 -0.003998398 0.2251913846 2.2660000324  -999.250000 26.274690628 91.586509705 85.715164185 2.2319071293 30.325000763 1.8981827497 2.6018238068
 3006.1418457 3.0000000000 8.2419996262 -0.003016026 0.2442073077 2.2090001106  -999.250000 22.344150543 91.442588806 85.828247070 2.1738462448 26.575000763 2.0115466118 2.4914872646
 3006.2941895 3.0000000000 8.2270002365 -0.012988782 0.2651196420 2.1459999084  -999.250000 22.436269760 91.349624634 85.663688660 2.0778751373 27.575000763 1.7288781404 2.1716217995
 3006.4465332 3.0000000000 8.1639995575 -0.005993590 0.2587696314 2.1540000439  -999.250000 21.357898712 91.582305908 85.766098022 1.9998798370 30.075000763 1.6529487371 1.9357115030
 3006.5991211 3.0000000000 8.1879997253 -0.001961600 0.2523696721 2.1879999638  -999.250000 20.669450760 91.820800781 86.153884888 1.9248591661 26.575000763 1.6210896969 1.7559424639
 3006.7514648 3.0000000000 8.2189998627 0.0100032045 0.2378212959 2.2379999161  -999.250000 19.877429962 90.978881836 85.300643921 1.8810385466 25.575000763 1.6488237381 1.7379664183
 3006.9038086 3.0000000000 8.2030000687 0.0119983973 0.2475412339 2.2420001030  -999.250000 21.393379211 89.701156616 83.891014099 1.9051009417 31.575002670 1.5391201973 1.7169855833
 3007.0561523 3.0000000000 8.2110004425 0.0110016027 0.2416530401 2.2439999580  -999.250000 22.872570038 88.038337708 82.356582642 1.9681266546 28.950000763 1.6165881157 1.7081826925
 3007.2087402 3.0000000000 8.1879997253 0.0120000001 0.2269772142 2.2420001030  -999.250000 21.355350494 84.962966919 79.033256531 2.0473294258 27.450000763 3.2283663750 1.8230559826
 3007.3610840 3.0000000000 8.1879997253 0.0120000001 0.2117811143 2.2539999485  -999.250000 20.217798233 82.096755981 76.283882141 2.1502692699 27.825000763 3.0331730843 2.1530110836
 3007.5134277 3.0000000000 8.1879997253 0.0120160254 0.1849958450 2.2869999409  -999.250000 19.472053528 79.344093323 73.600196838 2.3183140755 28.450000763 4.3857421875 2.7843155861
 3007.6657715 3.0000000000 8.2340002060 0.0220128205 0.1649758369 2.3459999561  -999.250000 21.379858017 77.545997620 71.746711731 2.5142996311 27.200000763 3.6009824276 3.6048974991
 3007.8183594 3.0000000000 8.2500000000 0.0299679991 0.1449847966 2.3889999390  -999.250000 24.403350830 77.983299255 72.354141235 2.7009072304 26.200000763 2.9665424824 4.1626176834
 3007.9707031 3.0000000000 8.2810001373 0.0199903846 0.1376906037 2.3980000019  -999.250000 23.577974319 79.397476196 73.758605957 2.6714742184 25.950000763 2.8232243061 3.7305386066
 3008.1230469 3.0000000000 8.2729997635 0.0139967958 0.1357478201 2.3959999084  -999.250000 23.555612564 81.169258118 75.522888184 2.3436620235 28.325000763 2.3391489983 2.8187291622
 3008.2753906 3.0000000000 8.2729997635 0.0120080132 0.1382222772 2.3849999905  -999.250000 18.949945450 83.671455383 77.939987183 2.1327867508 26.700000763 1.8086506128 2.0264711380
 3008.4277344 3.0000000000 8.2729997635 0.0169968009 0.1514200717 2.3589999676  -999.250000 17.044626236 86.293151855 80.333221436 1.9998656511 25.325000763 1.5912415981 1.6968768835
 3008.5803223 3.0000000000 8.2810001373 0.0149999997 0.1670720279 2.3340001106  -999.250000 15.562999725 87.276611328 81.611648560 1.9158542156 25.325000763 1.7420561314 1.6200096607
 3008.7326660 3.0000000000 8.3199996948 0.0149951922 0.1841097474 2.3139998913  -999.250000 15.564826965 87.857971191 82.134017944 1.8248445988 26.575000763 1.7769342661 1.6260417700
 3008.8850098 3.0000000000 8.3050003052 0.0119855767 0.1933834553 2.2929999828  -999.250000 16.704177856 88.240715027 82.616500854 1.7280689478 29.700000763 1.7359678745 1.6520015001
 3009.0373535 3.0000000000 8.2729997635 0.0030016026 0.2006737590 2.2699999809  -999.250000 17.442457199 88.013107300 82.361724854 1.7710032463 29.950000763 1.7161971331 1.6531778574
 3009.1899414 3.0000000000 8.2889995575 0.0039968002 0.1987417191 2.2620000839  -999.250000 20.230298996 87.774597168 81.971115112 1.7730640173 26.200000763 1.8392688036 1.7642048597
 3009.3422852 3.0000000000 8.3199996948 0.0030032052 0.2011067420 2.2620000839  -999.250000 23.754482269 87.536102295 81.860069275 1.7930561304 27.950000763 1.9236747026 1.8281538486
 3009.4946289 3.0000000000 8.3280000687 0.0049903844 0.1879899949 2.2679998875  -999.250000 26.547552109 87.160369873 81.427429199 1.8280447721 25.325000763 2.3441185951 1.9242228270
 3009.6469727 3.0000000000 8.3050003052 -0.000998397 0.1879852861 2.2699999809  -999.250000 26.891550064 87.525230408 81.454673767 1.8560528755 28.325000763 2.4176025391 2.0633189678
 3009.7995605 3.0000000000 8.3199996948 0.0000224000 0.1865646243 2.2890000343  -999.250000 27.227600098 87.531898499 81.815254211 1.8891440630 29.950000763 2.1698241234 2.2621569633
 3009.9519043 3.0000000000 8.3520002365 0.0070096157 0.1958492100 2.3090000153  -999.250000 25.232048035 88.469078064 82.742279053 1.9341250658 26.575000763 2.1147179604 2.3106923103
 3010.1042480 3.0000000000 8.3439998627 0.0130032049 0.2060484588 2.3199999332  -999.250000 24.011041641 88.814704895 83.171295166 2.0120818615 24.950000763 1.9387948513 2.1186666489
 3010.2565918 3.0000000000 8.3439998627 0.0149983969 0.2055746764 2.3139998913  -999.250000 20.923902512 89.194786072 83.362693787 2.0630016327 24.825000763 1.8114407063 1.9110753536
 3010.4091797 3.0000000000 8.3360004425 0.0140032005 0.2070135623 2.2969999313  -999.250000 22.109050751 88.497360229 82.821174622 2.0639390945 25.325000763 2.0864927769 1.9589343071
