# LAS format log file from PETREL
# Project units are specified as depth units
#==================================================================
~Version information
VERS.   2.0:
WRAP.   NO:
#==================================================================
~Well
STRT .m      200.91401672 :
STOP .m      3436.5195313 :
STEP .m     0.00000000 :
NULL .        -999.250000 :
COMP.           : COMPANY
WELL.  30/3-3   : WELL
FLD.            : FIELD
LOC.            : LOCATION
SRVC.           : SERVICE COMPANY
DATE.  2018-09-11 14:48:28   : Log Export Date {yyyy-MM-dd HH:mm:ss}
PROV.           : PROVINCE
UWI.   30/3-3   : UNIQUE WELL ID
API.            : API NUMBER
#==================================================================
~Curve
DEPT .m                   : DEPTH
Lithology_geolink ._      : Lithology_geolink
CALI .in                  : CALI
DRHO .g/cm3               : DRHO
NPHI .m3/m3               : NPHI
RHOB .g/cm3               : RHOB
PEF .b/e                  : PEF
GR .gAPI                  : GR
DTC .us/ft                : DTC
DTE .us/ft                : DTE
RDEP .ohm.m               : RDEP
SP .mV                    : SP
RSHA .ohm.m               : RSHA
RMED .ohm.m               : RMED
~Parameter
#==================================================================
~Ascii
# ...
 1280.5159912  -999.250000 17.547000885 0.0079991994  -999.250000 2.0579617023 12.450625420 36.250225067 144.25914001 140.48020935 1.3270096779 57.900001526 2.1371793747 1.1849759817
 1280.6684570  -999.250000 17.500000000 0.0069951927  -999.250000 2.0699710846 7.0453300476 36.532550812 137.99203491 134.30326843 1.3390015364 57.150001526 2.3610143661 1.2369166613
 1280.8208008  -999.250000 17.391000748 0.0009959936  -999.250000 2.0620255470 4.7678227425 38.468750000 137.15637207 133.42481995 1.3409975767 57.400001526 2.3781137466 1.3946204185
 1280.9732666  -999.250000 17.562999725 -0.004003203  -999.250000 2.0410504341 4.6670789719 38.155948639 139.71939087 136.07048035 1.3381121159 58.150001526 1.2736501694 1.5337772369
 1281.1256104  -999.250000 17.672000885 -0.005998398  -999.250000 2.0240542889 6.2637195587 38.123649597 141.39979553 137.66299438 1.4080232382 57.150001526 1.6792091131 1.4482065439
 1281.2780762  -999.250000 17.547000885 -0.004000000  -999.250000 2.0239999294 7.4470529556 36.442001343 141.90733337 138.22125244 1.4370448589 59.150001526 1.9396445751 1.4240385294
 1281.4304199  -999.250000 17.593999863 -0.004000802  -999.250000 2.0269904137 6.4777784348 38.936897278 141.09419250 137.23558044 1.4649767876 57.900001526 1.7182476521 1.3601537943
 1281.5828857  -999.250000 17.468999863 -0.005003202  -999.250000 2.0230095387 4.9592161179 37.564399719 140.26528931 136.53195190 1.4358991385 58.150001526 2.0260152817 1.3949438334
 1281.7352295  -999.250000 17.531000137 -0.006999199  -999.250000 2.0140287876 5.0948901176 38.437824249 140.94264221 137.25219727 1.3730096817 57.150001526 1.4120247364 1.3770288229
 1281.8875732  -999.250000 17.625000000 -0.005997598  -999.250000 2.0100128651 5.9915618896 38.221553802 141.78030396 138.08992004 1.3849896193 57.900001526 1.4432041645 1.3241273165
 1282.0400391  -999.250000 17.641000748 -0.002997596  -999.250000 2.0129904747 7.6047072411 41.407852173 142.95999146 139.26107788 1.3719799519 57.150001526 1.6978733540 1.2880576849
 1282.1923828  -999.250000 17.500000000 0.0000008006  -999.250000 2.0149936676 8.8999252319 43.719753265 143.68528748 139.96807861 1.3469808102 57.650001526 1.5399439335 1.2800191641
 1282.3448486  -999.250000 17.702999115 0.0010008013  -999.250000 2.0189871788 10.095043182 44.655021667 143.35397339 139.50967407 1.3230272532 58.400001526 1.4701683521 1.2580353022
 1282.4971924  -999.250000 17.468999863 0.0020016013  -999.250000 2.0209934711 10.966604233 43.435195923 143.92639160 140.19825745 1.3569959402 58.400001526 1.6799279451 1.2500191927
 1282.6496582  -999.250000 17.547000885 0.0040000002  -999.250000 2.0299782753 11.145856857 39.935920715 144.40966797 140.68690491 1.3519375324 57.650001526 1.5896706581 1.3009182215
 1282.8020020  -999.250000 17.547000885 0.0039951927  -999.250000 2.0389711857 11.985326767 37.344001770 143.13128662 139.45469666 1.2740417719 57.400001526 1.1787916422 1.3179590702
 1282.9544678  -999.250000 17.906000137 -0.002011209  -999.250000 2.0399975777 12.931242943 37.344200134 143.80908203 140.09350586 1.3260239363 58.150001526 0.9195812941 1.2680801153
 1283.1068115  -999.250000 18.233999252 -0.009001602  -999.250000 2.0350160599 11.688996315 37.469829559 144.52018738 140.73661804 1.3410184383 56.150001526 1.2827475071 1.2809687853
 1283.2592773  -999.250000 17.500000000 -0.010991993  -999.250000 2.0300118923 7.8680605888 38.499149323 144.18809509 140.48736572 1.3639743328 56.400001526 2.2149119377 1.2580368519
 1283.4116211  -999.250000 17.500000000 -0.005995994  -999.250000 2.0299999714 4.9813127518 37.967350006 142.77606201 139.13591003 1.3480104208 57.150001526 2.1600224972 1.2300672531
 1283.5640869  -999.250000 17.500000000 -0.001004804  -999.250000 2.0270071030 3.7070193291 35.907398224 140.53236389 136.83171082 1.3609598875 57.650001526 2.1880047321 1.2819166183
 1283.7164307  -999.250000 17.500000000 -0.004002404  -999.250000 2.0190255642 3.4462084770 36.779846191 139.07923889 135.35186768 1.3359814882 57.900001526 2.1908013821 1.3818397522
 1283.8687744  -999.250000 17.468999863 -0.007000000  -999.250000 2.0120224953 3.8513498306 35.346279144 139.29037476 135.61906433 1.3130232096 58.400001526 1.9425163269 1.3760144711
 1284.0212402  -999.250000 17.452999115 -0.006994391  -999.250000 2.0129969120 5.1769375801 38.184394836 141.38987732 137.60070801 1.3420360088 57.650001526 1.3389543295 1.3250818253
 1284.1735840  -999.250000 18.000000000 0.0000024019  -999.250000 2.0239646435 7.5022721291 33.688247681 143.18594360 139.47833252 1.3870215416 56.650001526 1.2822552919 1.3030527830
 1284.3260498  -999.250000 17.483999252 0.0029967949  -999.250000 2.0349647999 7.3231468201 33.997520447 143.69465637 139.99032593 1.4140360355 57.900001526 1.6014165878 1.2620656490
 1284.4783936  -999.250000 17.452999115 -0.001006405  -999.250000 2.0270256996 4.9058766365 30.907577515 142.53260803 138.77798462 1.4590183496 57.650001526 2.1210296154 1.2201008797
 1284.6308594  -999.250000 17.343999863 -0.009003204  -999.250000 1.9980697632 3.5061194897 32.874774933 138.89270020 135.23283386 1.4819407463 58.150001526 2.1579983234 1.2619326115
 1284.7832031  -999.250000 17.422000885 -0.012997598  -999.250000 1.9661024809 3.1263036728 32.594879150 136.24208069 132.53836060 1.4079743624 57.150001526 2.1560223103 1.3996684551
 1284.9356689  -999.250000 17.422000885 -0.009996795  -999.250000 1.9520336390 3.1389894485 33.686645508 136.19720459 132.35990906 1.3760417700 57.400001526 2.1839382648 1.4149758816
 1285.0880127  -999.250000 17.422000885 -0.005999199  -999.250000 1.9500064850 3.0360825062 31.997558594 137.12164307 133.42372131 1.4280143976 57.900001526 2.1069896221 1.3731008768
 1285.2404785  -999.250000 17.375000000 -0.005001601  -999.250000 1.9490023851 3.2058639526 28.953149796 138.66848755 135.02188110 1.4460288286 58.400001526 2.0922210217 1.4059470892
 1285.3928223  -999.250000 17.406000137 -0.006000000  -999.250000 1.9480031729 4.2061977386 29.049343109 140.20979309 136.46989441 1.4640288353 56.900001526 0.9835913181 1.3970215321
 1285.5452881  -999.250000 17.672000885 -0.006000000  -999.250000 1.9569784403 6.5381321907 31.974452972 140.94923401 137.20039368 1.4998959303 57.150001526 1.7205708027 1.4209614992
 1285.6976318  -999.250000 17.375000000 -0.006002404  -999.250000 1.9779328108 7.9278869629 35.375652313 142.24201965 138.56068420 1.4350343943 58.650001526 1.4533950090 1.3740752935
 1285.8500977  -999.250000 17.406000137 -0.009001601  -999.250000 2.0029399395 6.7589373589 36.188697815 142.15759277 138.39653015 1.4778927565 58.650001526 1.9457117319 1.2941281796
 1286.0024414  -999.250000 17.406000137 -0.010000000  -999.250000 2.0179519653 5.0913367271 36.625900269 140.86552429 137.15148926 1.4109438658 56.900001526 1.7661972046 1.2820191383
 1286.1547852  -999.250000 17.327999115 -0.010000801  -999.250000 2.0160064697 4.2940001488 37.750949860 139.90397644 136.19802856 1.3409702778 56.650001526 2.0118350983 1.3019520044
 1286.3072510  -999.250000 18.062999725 -0.011002404  -999.250000 2.0070288181 4.4759998322 38.936397552 141.52461243 137.80451965 1.3040040731 56.150001526 1.8053590059 1.2920160294
 1286.4595947  -999.250000 18.202999115 -0.014000000  -999.250000 1.9970320463 5.7560000420 36.936599731 145.40713501 141.68359375 1.3090152740 56.150001526 1.0062370300 1.2710504532
 1286.6120605  -999.250000 17.718999863 -0.013998398  -999.250000 1.9950047731 7.9299998283 35.186347961 148.87802124 145.23252869 1.3280135393 55.650001526 1.3020473719 1.1721587181
 1286.7644043  -999.250000 18.031000137 -0.011997598  -999.250000 2.0009806156 7.6799998283 33.123600006 149.88153076 146.10888672 1.3449984789 56.650001526 1.3616228104 1.1131417751
 1286.9168701  -999.250000 17.375000000 -0.008999199  -999.250000 2.0039927959 4.9920001030 31.372934341 146.51414490 142.83370972 1.3429960012 58.150001526 2.1389999390 1.1110031605
 1287.0692139  -999.250000 17.375000000 -0.008000801  -999.250000 1.9820704460 3.2260000706 28.794534683 140.72126770 136.99794006 1.3380041122 58.900001526 2.1389229298 1.1878150702
