# LAS format log file from PETREL
# Project units are specified as depth units
#==================================================================
~Version information
VERS.   2.0:
WRAP.   NO:
#==================================================================
~Well
STRT .m      579.75000000 :
STOP .m      3292.5014648 :
STEP .m     0.00000000 :
NULL .        -999.250000 :
COMP.           : COMPANY
WELL.  30/3-4R   : WELL
FLD.            : FIELD
LOC.            : LOCATION
SRVC.           : SERVICE COMPANY
DATE.  2018-09-11 14:48:28   : Log Export Date {yyyy-MM-dd HH:mm:ss}
PROV.           : PROVINCE
UWI.   30/3-4 R   : UNIQUE WELL ID
API.            : API NUMBER
#==================================================================
~Curve
DEPT .m                   : DEPTH
Lithology_geolink ._      : Lithology_geolink
CALI .in                  : CALI
DRHO .g/cm3               : DRHO
NPHI .m3/m3               : NPHI
RHOB .g/cm3               : RHOB
GR .gAPI                  : GR
DTC .us/ft                : DTC
DTE .us/ft                : DTE
RDEP .ohm.m               : RDEP
SP .mV                    : SP
RSHA .ohm.m               : RSHA
RMED .ohm.m               : RMED
~Parameter
#==================================================================
~Ascii
 579.75000000  -999.250000 19.107000351 -1.167000055  -999.250000 1.4930000305 86.348999023 159.74945068 159.62669373  -999.250000  -999.250000 0.2119999975 10000.000000
 579.87500000  -999.250000 19.110000610 -1.172999978  -999.250000 1.4830000401 88.778999329 159.75289917 159.62669373  -999.250000  -999.250000 0.2119999975 10000.000000
 579.99993896  -999.250000 19.111999512 -1.175999999  -999.250000 1.4809999466 89.303001404 159.75289917 159.62669373 2.0220000744 74.291999817 0.2119999975 10000.000000
 580.12493896  -999.250000 19.113000870 -1.167000055  -999.250000 1.4950000048 89.304000854 159.75289917 159.62669373 2.0329999924 76.699996948 0.2119999975 10000.000000
 580.24987793  -999.250000 19.113000870 -1.144999981  -999.250000 1.5290000439 89.075996399 159.75289917 159.62669373 2.0429999828 78.299003601 0.2119999975 10000.000000
 580.37487793  -999.250000 19.113000870 -1.123000026  -999.250000 1.5709999800 88.221000671 159.75289917 159.62669373 2.0529999733 78.878997803 0.2119999975 10000.000000
 580.50012207  -999.250000 19.113000870 -1.118000031  -999.250000 1.6069999933 87.259002686 159.75228882 159.62669373 2.0629999638 78.454002380 0.2119999975 10000.000000
 580.62512207  -999.250000 19.113000870 -1.134999990  -999.250000 1.6299999952 86.628997803 159.74868774 159.62669373 2.0729999542 77.059997559 0.2119999975 10000.000000
 580.75006104  -999.250000 19.113000870 -1.159999967  -999.250000 1.6430000067 87.328002930 159.75192261 159.62669373 2.0829999447 75.197998047 0.2119999975 10000.000000
 580.87506104  -999.250000 19.111999512 -1.167999983  -999.250000 1.6480000019 89.358001709 159.75027466 159.62669373 2.0910000801 73.787002563 0.2119999975 10000.000000
 581.00000000  -999.250000 19.111999512 -1.161000013  -999.250000 1.6410000324 90.547996521 159.75033569 159.62669373 2.0899999142 73.268997192 0.2119999975 10000.000000
 581.12500000  -999.250000 19.110000610 -1.159999967  -999.250000 1.6150000095 91.168998718 159.75289917 159.62669373 2.0889999866 73.552001953 0.2119999975 10000.000000
 581.24993896  -999.250000 19.108999252 -1.179000020  -999.250000 1.5659999847 91.796997070 159.75263977 159.62669373 2.0869998932 74.361999512 0.2119999975 10000.000000
 581.37493896  -999.250000 19.107000351 -1.217000008  -999.250000 1.5080000162 92.788002014 159.74903870 159.62669373 2.0850000381 75.794998169 0.2119999975 10000.000000
 581.49987793  -999.250000 19.106000900 -1.251999974  -999.250000 1.4609999657 93.093002319 159.75157166 159.62669373 2.0850000381 78.234001160 0.2119999975 10000.000000
 581.62512207  -999.250000 19.106000900 -1.271000028  -999.250000 1.4340000153 91.580001831 159.75289917 159.62669373 2.0940001011 81.850997925 0.2119999975 10000.000000
 581.75012207  -999.250000 19.107000351 -1.269999981  -999.250000 1.4279999733 89.397003174 159.75140381 159.62669373 2.1070001125 86.144996643 0.2119999975 10000.000000
 581.87506104  -999.250000 19.108999252 -1.256999969  -999.250000 1.4340000153 88.714996338 159.74920654 159.62669373 2.1199998856 89.910003662 0.2119999975 10000.000000
 582.00006104  -999.250000 19.113000870 -1.240000010  -999.250000 1.4440000057 88.987998962 159.75280762 159.62669373 2.1340000629 92.328002930 0.2119999975 10000.000000
 582.12500000  -999.250000 19.118999481 -1.220000029  -999.250000 1.4620000124 89.828002930 159.75640869 159.62669373 2.1400001049 93.132003784 0.2119999975 10000.000000
 582.25000000  -999.250000 19.124000549 -1.194000006  -999.250000 1.4900000095 91.196998596 159.75184631 159.62669373 2.1250000000 92.321998596 0.2119999975 10000.000000
 582.37493896  -999.250000 19.128000259 -1.174999952  -999.250000 1.5260000229 92.683998108 159.75044250 159.62669373 2.0959999561 90.269996643 0.2119999975 10000.000000
 582.49993896  -999.250000 19.129999161 -1.171000004  -999.250000 1.5620000362 93.485000610 159.75289917 159.62669373 2.0699999332 87.627998352 0.2119999975 10000.000000
 582.62487793  -999.250000 19.129999161 -1.179000020  -999.250000 1.5939999819 93.401000977 159.75254822 159.62669373 2.0580000877 85.142997742 0.2119999975 10000.000000
 582.74987793  -999.250000 19.128999710 -1.190999985  -999.250000 1.6200000048 91.831001282 159.74894714 159.62669373 2.0490000248 83.824996948 0.2119999975 10000.000000
 582.87512207  -999.250000 19.127000809 -1.187999964  -999.250000 1.6380000114 88.055999756 159.75167847 159.62669373 2.0420000553 84.499000549 0.2119999975 10000.000000
 583.00012207  -999.250000 19.125999451 -1.172999978  -999.250000 1.6499999762 84.682998657 159.75289917 159.62669373 2.0380001068 87.091003418 0.2119999975 10000.000000
 583.12506104  -999.250000 19.127000809 -1.154999971  -999.250000 1.6529999971 84.439002991 159.75131226 159.62669373 2.0350000858 91.053001404 0.2119999975 10000.000000
 583.25006104  -999.250000 19.128999710 -1.149999976  -999.250000 1.6410000324 85.032997131 159.74929810 159.62669373 2.0309998989 95.419998169 0.2119999975 10000.000000
 583.37500000  -999.250000 19.131999969 -1.162999988  -999.250000 1.6260000467 86.893997192 159.75289917 159.62669373 2.0280001163 99.064002991 0.2119999975 10000.000000
 583.50000000  -999.250000 19.132999420 -1.177999973  -999.250000 1.6100000143 88.823997498 159.75289917 159.62669373 2.0269999504 101.39399719 0.2119999975 10000.000000
 583.62493896  -999.250000 19.131999969 -1.179999948  -999.250000 1.6019999981 89.464996338 159.75007629 159.62669373 2.0269999504 102.30300140 0.2119999975 10000.000000
 583.74993896  -999.250000 19.129999161 -1.169999957  -999.250000 1.5980000496 89.777999878 159.75053406 159.62669373 2.0260000229 101.88800049 0.2119999975 10000.000000
 583.87487793  -999.250000 19.128000259 -1.161999941  -999.250000 1.6019999981 89.985000610 159.75289917 159.62669373 2.0260000229 100.22399902 0.2119999975 10000.000000
 583.99987793  -999.250000 19.125000000 -1.164000034  -999.250000 1.6109999418 90.190002441 159.75289917 159.62669373 2.0250000954 97.457000732 0.2119999975 10000.000000
 584.12512207  -999.250000 19.124000549 -1.174000025  -999.250000 1.6250000000 90.356002808 159.75289917 159.62669373 2.0250000954 93.887001038 0.2119999975 10000.000000
 584.25006104  -999.250000 19.122999191 -1.182999969  -999.250000 1.6460000277 90.496002197 159.75289917 159.62669373 2.0239999294 90.361000061 0.2119999975 10000.000000
 584.37506104  -999.250000 19.124000549 -1.182999969  -999.250000 1.6720000505 90.117996216 159.75289917 159.62669373 2.0239999294 88.300003052 0.2119999975 10000.000000
 584.50000000  -999.250000 19.125000000 -1.179999948  -999.250000 1.6940000057 89.055999756 159.75122070 159.62669373 2.0230000019 88.421997070 0.2119999975 10000.000000
 584.62500000  -999.250000 19.125999451 -1.177999973  -999.250000 1.7059999704 88.322998047 159.74940491 159.62669373 2.0230000019 90.514999390 0.2119999975 10000.000000
 584.74993896  -999.250000 19.127000809 -1.177000046  -999.250000 1.7079999447 88.443000793 159.75289917 159.62669373 2.0220000744 93.401000977 0.2119999975 10000.000000
 584.87493896  -999.250000 19.128999710 -1.174000025  -999.250000 1.7039999962 90.400001526 159.75289917 159.62669373 2.0220000744 95.496002197 0.2119999975 10000.000000
 584.99987793  -999.250000 19.134000778 -1.172999978  -999.250000 1.7009999752 92.591003418 159.74998474 159.62669373 2.0220000744 96.158996582 0.2119999975 10000.000000
 585.12487793  -999.250000 19.139999390 -1.171000004  -999.250000 1.7039999962 93.538002014 159.74850464 159.62669373 2.0209999084 95.522003174 0.2119999975 10000.000000
 585.25012207  -999.250000 19.143999100 -1.161999941  -999.250000 1.7159999609 93.958999634 159.74984741 159.62669373 2.0209999084 94.097000122 0.2119999975 10000.000000
 585.37512207  -999.250000 19.143999100 -1.139999986  -999.250000 1.7410000563 93.712997437 159.75234985 159.62669373 2.0199999809 92.254997253 0.2119999975 10000.000000
 585.50006104  -999.250000 19.142000198 -1.111999989  -999.250000 1.7669999599 93.094001770 159.74874878 159.62669373 2.0199999809 89.806999207 0.2119999975 10000.000000
 585.62506104  -999.250000 19.136999130 -1.090000033  -999.250000 1.7879999876 92.473999023 159.75187683 159.62669373 2.0190000534 86.484001160 0.2119999975 10000.000000
