# LAS format log file from PETREL
# Project units are specified as depth units
#==================================================================
~Version information
VERS.   2.0:
WRAP.   NO:
#==================================================================
~Well
STRT .m      200.91401672 :
STOP .m      3436.5195313 :
STEP .m     0.00000000 :
NULL .        -999.250000 :
COMP.           : COMPANY
WELL.  30/3-3   : WELL
FLD.            : FIELD
LOC.            : LOCATION
SRVC.           : SERVICE COMPANY
DATE.  2018-09-11 14:48:28   : Log Export Date {yyyy-MM-dd HH:mm:ss}
PROV.           : PROVINCE
UWI.   30/3-3   : UNIQUE WELL ID
API.            : API NUMBER
#==================================================================
~Curve
DEPT .m                   : DEPTH
Lithology_geolink ._      : Lithology_geolink
CALI .in                  : CALI
DRHO .g/cm3               : DRHO
NPHI .m3/m3               : NPHI
RHOB .g/cm3               : RHOB
PEF .b/e                  : PEF
GR .gAPI                  : GR
DTC .us/ft                : DTC
DTE .us/ft                : DTE
RDEP .ohm.m               : RDEP
SP .mV                    : SP
RSHA .ohm.m               : RSHA
RMED .ohm.m               : RMED
~Parameter
#==================================================================
~Ascii
# ...
 2138.8330078 6.0000000000 14.843999863 -0.012000000  -999.250000 2.2479999065  -999.250000 52.375000000 133.81596375 131.10293579 0.7969999909 59.269001007 1.2369999886 0.8069903851
 2138.9853516 6.0000000000 14.438000679 -0.009000000  -999.250000 2.2440128326  -999.250000 50.937999725 134.05895996 131.50907898 0.7929999828 58.769001007 1.2910000086 0.8459374905
 2139.1379395 6.0000000000 15.008000374 -0.004000000  -999.250000 2.2519872189  -999.250000 49.530647278 134.50898743 131.99073792 0.7950096130 58.924999237 1.1751474142 0.8730000257
 2139.2902832 6.0000000000 14.609000206 -0.007000000  -999.250000 2.2460095882  -999.250000 49.312347412 134.51770020 131.82473755 0.8010208011 59.487998962 1.2669583559 0.8730000257
 2139.4426270 6.0000000000 14.586000443 -0.012000000  -999.250000 2.2340192795  -999.250000 48.905998230 133.81596375 131.15625000 0.8140000105 58.362998962 1.2410000563 0.8779920340
 2139.5949707 6.0000000000 14.218999863 -0.011000000  -999.250000 2.2270224094  -999.250000 49.030998230 133.82569885 131.03822327 0.8280000091 58.644001007 1.2480000257 0.8879839778
 2139.7475586 6.0000000000 14.734000206 -0.012000000  -999.250000 2.2230064869  -999.250000 47.621696472 134.97222900 132.41957092 0.8360160589 58.394001007 1.1138060093 0.9089999795
 2139.8999023 6.0000000000 14.625000000 -0.014000000  -999.250000 2.2150127888  -999.250000 45.562599182 136.16436768 133.58508301 0.8460176587 57.144001007 0.9931041598 0.8980000019
 2140.0522461 6.0000000000 14.211000443 -0.017999999  -999.250000 2.2110064030  -999.250000 45.307300568 138.52642822 135.89984131 0.8570144176 57.956001282 1.0579887629 0.8920096159
 2140.2045898 6.0000000000 14.272999763 -0.016000001  -999.250000 2.2070128918  -999.250000 41.750000000 141.37936401 138.85395813 0.8659999967 58.581001282 1.0509999990 0.8870080113
 2140.3571777 6.0000000000 15.383000374 -0.012000000  -999.250000 2.2169840336  -999.250000 42.501651764 141.67959595 139.01594543 0.8770048022 58.519001007 1.0889647007 0.8939999938
 2140.5095215 6.0000000000 14.125000000 -0.009000000  -999.250000 2.2249870300  -999.250000 43.532703400 141.43920898 138.70210266 0.8799951673 58.956001282 1.0671763420 0.8889999986
 2140.6618652 6.0000000000 14.421999931 -0.011000000  -999.250000 2.2339856625  -999.250000 44.597602844 139.79699707 137.10253906 0.8769967556 58.394001007 1.1770784855 0.8690320253
 2140.8142090 6.0000000000 13.968999863 -0.009000000  -999.250000 2.2270112038  -999.250000 46.844001770 138.82914734 136.23126221 0.8750000000 58.581001282 1.2259999514 0.8859727383
 2140.9665527 6.0000000000 14.133000374 -0.008000000  -999.250000 2.2339775562  -999.250000 47.844001770 137.19433594 134.57014465 0.8750000000 58.519001007 1.1510000229 0.9089631438
 2141.1191406 6.0000000000 13.897999763 -0.006000000  -999.250000 2.2339999676  -999.250000 49.718601227 135.73808289 133.09945679 0.8609951735 58.581001282 1.0812083483 0.9559999704
 2141.2714844 6.0000000000 13.812999725 -0.008000000  -999.250000 2.2419872284  -999.250000 49.463752747 135.00846863 132.40563965 0.8579807878 58.019001007 1.2110991478 0.9819583893
 2141.4238281 6.0000000000 14.227000237 -0.011000000  -999.250000 2.2300193310  -999.250000 46.187999725 134.29296875 131.76235962 0.8460000157 58.144001007 1.2730000019 0.9750112295
 2141.5761719 6.0000000000 13.875000000 -0.006000000  -999.250000 2.2290031910  -999.250000 49.905998230 134.30201721 131.66246033 0.8420000076 58.581001282 1.1820000410 0.9540336728
 2141.7287598 6.0000000000 13.827999115 -0.004000000  -999.250000 2.2299983501  -999.250000 48.469554901 134.04573059 131.41540527 0.8740945458 58.144001007 1.1678477526 0.9530000091
 2141.8811035 5.0000000000 14.265999794 -0.003000000  -999.250000 2.2270047665  -999.250000 48.800678253 134.50852966 131.86645508 0.9331058264 57.644001007 1.0729999542 0.9470000267
 2142.0334473 5.0000000000 13.359000206 0.0049999999  -999.250000 2.2789165974  -999.250000 41.122901917 134.98553467 132.36598206 0.9991840124 57.956001282 1.0729103088 0.9400112033
 2142.1857910 5.0000000000 12.937999725 -0.001000000  -999.250000 2.3607375622  -999.250000 39.812999725 130.08241272 127.34621429 1.1139999628 58.737998962 1.0169999599 0.9380032420
 2142.3383789 5.0000000000 12.977000237 0.0010000000  -999.250000 2.4139151573  -999.250000 36.307941437 118.57154846 115.84540558 1.1979598999 59.581001282 19.162956238 1.0240000486
 2142.4907227 16.000000000 13.859000206 0.0030000000  -999.250000 2.3540961742  -999.250000 33.146907806 111.98437500 109.12814331 1.1730015278 58.831001282 3.5563285351 1.4279999733
 2142.6430664 16.000000000 13.413999557 0.0080000004  -999.250000 2.2601506710  -999.250000 27.484174728 115.36840057 112.78402710 1.1740096807 57.831001282 0.6465167999 2.1039168835
 2142.7954102 5.0000000000 13.569999695 0.0109999999  -999.250000 2.2300481796  -999.250000 27.593999863 121.98697662 119.45622253 1.1799999475 56.644001007 0.9689999819 1.8993301392
 2142.9477539 5.0000000000 13.953000069 0.0000000000  -999.250000 2.2230224609  -999.250000 29.968999863 131.48410034 128.89318848 1.1749999523 56.706001282 1.1699999571 1.2730047703
 2143.1003418 5.0000000000 14.718999863 0.0000000000  -999.250000 2.2269935608  -999.250000 36.349010468 136.10067749 133.48513794 1.1739166975 57.706001282 1.0250608921 0.9980000257
 2143.2526855 5.0000000000 14.187999725 0.0000000000  -999.250000 2.2210094929  -999.250000 39.473602295 133.84806824 131.24079895 1.1217744350 58.549999237 1.0629231930 0.8981599808
 2143.4050293 5.0000000000 15.258000374 -0.002000000  -999.250000 2.2130129337  -999.250000 42.344001770 131.22906494 128.70837402 0.9810000062 58.674999237 1.0149999857 0.8989983797
 2143.5573730 6.0000000000 15.241999626 -0.009000000  -999.250000 2.2030320168  -999.250000 43.094001770 133.53797913 130.96894836 0.8980000019 59.799999237 1.0199999809 0.8980016112
 2143.7099609 6.0000000000 14.500000000 -0.010000000  -999.250000 2.2010030746  -999.250000 41.872043610 134.96765137 132.36695862 0.8689807653 59.174999237 1.0539840460 0.8849999905
 2143.8623047 6.0000000000 15.500000000 -0.008000000  -999.250000 2.1990029812  -999.250000 40.033454895 137.80175781 135.28343201 0.8570192456 57.987998962 1.0440561771 0.8989999890
 2144.0146484 6.0000000000 14.078000069 -0.001000000  -999.250000 2.1970031261  -999.250000 41.565048218 139.72819519 137.17874146 0.8690367937 57.612998962 1.0789935589 0.9359408021
 2144.1669922 6.0000000000 13.180001259 0.0020000001  -999.250000 2.1950063705  -999.250000 42.844001770 138.36132813 135.65792847 0.8920000196 58.894001007 1.0750000477 0.9619583488
 2144.3195801 6.0000000000 13.147999763 0.0060000001  -999.250000 2.2399280071  -999.250000 42.560543060 136.71537781 134.08352661 0.9150336981 56.769001007 0.8475000262 0.9309999943
 2144.4719238 6.0000000000 13.875000000 0.0049999999  -999.250000 2.2789375782  -999.250000 41.024688721 134.55935669 131.86343384 0.9360144138 58.174999237 1.7807996273 0.9269999862
 2144.6242676 6.0000000000 13.944999695 0.0000000000  -999.250000 2.3049583435  -999.250000 37.097801208 131.24281311 128.68606567 0.9449855685 58.549999237 1.0325903893 0.9988847971
 2144.7766113 6.0000000000 14.180000305 -0.007000000  -999.250000 2.2620689869  -999.250000 39.469001770 130.24293518 127.69659424 0.9359999895 58.799999237 0.7770000100 1.0938477516
 2144.9289551 6.0000000000 15.156000137 -0.008000000  -999.250000 2.2420639992  -999.250000 35.125000000 131.41961670 128.78068542 0.9409999847 58.831001282 1.0989999771 1.0600544214
 2145.0815430 6.0000000000 13.961000443 -0.010000000  -999.250000 2.2270240784  -999.250000 41.063652039 134.22470093 131.62420654 0.9359951615 59.674999237 1.1081907749 1.0049999952
 2145.2338867 6.0000000000 13.703000069 -0.009000000  -999.250000 2.2190129757  -999.250000 41.475700378 135.44876099 132.88623047 0.9329856038 56.799999237 1.2271871567 0.9470928311
 2145.3862305 6.0000000000 14.421999931 -0.008000000  -999.250000 2.2150063515  -999.250000 45.655998230 133.83430481 130.98376465 0.9240000248 57.862998962 1.3439999819 0.9160496593
