# LAS format log file from PETREL
# Project units are specified as depth units
#==================================================================
~Version information
VERS.   2.0:
WRAP.   NO:
#==================================================================
~Well
STRT .m      200.91401672 :
STOP .m      3436.5195313 :
STEP .m     0.00000000 :
NULL .        -999.250000 :
COMP.           : COMPANY
WELL.  30/3-3   : WELL
FLD.            : FIELD
LOC.            : LOCATION
SRVC.           : SERVICE COMPANY
DATE.  2018-09-11 14:48:28   : Log Export Date {yyyy-MM-dd HH:mm:ss}
PROV.           : PROVINCE
UWI.   30/3-3   : UNIQUE WELL ID
API.            : API NUMBER
#==================================================================
~Curve
DEPT .m                   : DEPTH
Lithology_geolink ._      : Lithology_geolink
CALI .in                  : CALI
DRHO .g/cm3               : DRHO
NPHI .m3/m3               : NPHI
RHOB .g/cm3               : RHOB
PEF .b/e                  : PEF
GR .gAPI                  : GR
DTC .us/ft                : DTC
DTE .us/ft                : DTE
RDEP .ohm.m               : RDEP
SP .mV                    : SP
RSHA .ohm.m               : RSHA
RMED .ohm.m               : RMED
~Parameter
#==================================================================
~Ascii
# ...
 1495.0952148  -999.250000 17.937999725 -0.002000000  -999.250000 1.9479902983 8.2379999161 36.500000000 138.33914185 136.37818909 1.0210000277 57.650001526 1.0609999895 1.0638509989
 1495.2475586  -999.250000 19.500000000 -0.005000000  -999.250000 1.9430159330 7.2280001640 37.125000000 137.75910950 135.88621521 0.9819999933 58.150001526 1.0939999819 0.9951657653
 1495.4000244  -999.250000 20.577999115 -0.007000000  -999.250000 1.9290448427 7.0729999542 37.594001770 140.53791809 138.46047974 0.9520000219 59.150001526 0.8650000095 0.9770288467
 1495.5523682  -999.250000 21.344001770 -0.007000000  -999.250000 1.9110577106 8.6850004196 34.812999725 146.20191956 144.33760071 0.9319999814 58.150001526 0.5370000005 0.9171441197
 1495.7048340  -999.250000 20.437997818 -0.007000000  -999.250000 1.8910480738 14.189999580 35.469001770 153.20764160 151.34774780 0.9240000248 58.400001526 0.5780000091 0.8920400739
 1495.8571777  -999.250000 20.218999863 -0.010000000  -999.250000 1.8780416250 26.377000809 37.219001770 156.15409851 154.22572327 0.9029999971 59.650001526 0.5279999971 0.8590793014
 1496.0096436  -999.250000 21.141000748 -0.012000000  -999.250000 1.8799952269 39.062000275 38.875000000 156.45501709 154.44311523 0.8439999819 59.150001526 0.5000000000 0.8330416679
 1496.1619873  -999.250000 19.733999252 -0.007000000  -999.250000 1.8969454765 50.071998596 34.812999725 153.31016541 151.37423706 0.8220000267 58.400001526 0.4909999967 0.8489615321
 1496.3144531  -999.250000 18.797000885 -0.002000000  -999.250000 1.9149566889 47.409000397 36.687999725 149.50341797 147.43957520 0.8109999895 57.650001526 0.5230000019 0.8729615808
 1496.4667969  -999.250000 18.516000748 -0.001000000  -999.250000 1.9319455624 29.017000198 36.625000000 147.20756531 145.43585205 0.8169999719 58.650001526 0.7929999828 0.8710048199
 1496.6192627  -999.250000 19.468999863 0.0000000000  -999.250000 1.9539470673 15.635999680 40.000000000 147.27531433 145.20050049 0.7969999909 59.650001526 0.9430000186 0.8600176573
 1496.7716064  -999.250000 18.891000748 0.0010000000  -999.250000 1.9749327898 9.9309997559 35.750000000 148.79458618 146.76759338 0.8050000072 59.400001526 0.8669999838 0.8410304785
 1496.9240723  -999.250000 17.608999252 0.0000000000  -999.250000 1.9789903164 7.9029998779 37.469001770 149.41149902 147.60746765 0.7969999909 58.650001526 0.8629999757 0.8200336099
 1497.0764160  -999.250000 17.937999725 -0.002000000  -999.250000 1.9730192423 7.7410001755 37.750000000 148.49092102 146.52430725 0.8100000024 58.400001526 0.8100000024 0.8120127916
 1497.2287598  -999.250000 17.656000137 -0.002000000  -999.250000 1.9730000496 8.2899999619 40.062999725 148.23744202 146.23779297 0.8119999766 58.900001526 0.7459999919 0.8040192127
 1497.3812256  -999.250000 18.000000000 0.0000000000  -999.250000 1.9759902954 8.7309999466 38.655998230 146.59663391 144.71228027 0.8339999914 59.650001526 0.8669999838 0.8099904060
 1497.5335693  -999.250000 17.672000885 -0.004000000  -999.250000 1.9730097055 8.8870000839 41.500000000 145.04843140 143.05393982 0.8370000124 58.400001526 0.9720000029 0.8728486896
 1497.6860352  -999.250000 17.108999252 -0.009000000  -999.250000 1.9640215635 10.468000412 42.594001770 145.94544983 144.10096741 0.8519999981 58.650001526 0.8119999766 0.8799887896
 1497.8383789  -999.250000 17.858999252 -0.011000000  -999.250000 1.9530352354 14.237999916 44.250000000 146.89935303 145.05082703 0.8830000162 59.150001526 0.6230000257 0.9019471407
 1497.9908447  -999.250000 17.452999115 -0.009000000  -999.250000 1.9520024061 17.745000839 43.155998230 146.57003784 144.40756226 0.8830000162 59.400001526 0.8090000153 0.9179743528
 1498.1431885  -999.250000 18.108999252 -0.008000000  -999.250000 1.9619679451 16.511999130 44.562999725 145.51222229 143.67674255 0.8980000019 59.150001526 0.8299999833 0.9160048366
 1498.2956543  -999.250000 18.281000137 -0.010000000  -999.250000 1.9779615402 13.987999916 42.687999725 144.90872192 142.97946167 0.8909999728 59.650001526 0.7820000052 0.9249855876
 1498.4479980  -999.250000 18.547000885 -0.009000000  -999.250000 1.9909584522 14.489999771 41.844001770 144.89286804 142.80581665 0.9350000024 59.650001526 0.7960000038 0.9030528665
 1498.6004639  -999.250000 18.437999725 -0.006000000  -999.250000 1.9939928055 13.491999626 37.687999725 145.71009827 143.87017822 0.9350000024 59.900001526 0.8240000010 0.9449326992
 1498.7528076  -999.250000 20.562999725 -0.002000000  -999.250000 1.9930032492 10.020999908 40.625000000 145.02746582 143.17672729 0.9499999881 59.150001526 1.0889999866 0.9320312142
 1498.9052734  -999.250000 19.796998978 0.0010000000  -999.250000 1.9890096188 7.7979998589 41.219001770 144.78160095 142.74093628 0.9789999723 57.900001526 1.1139999628 0.9549631476
 1499.0576172  -999.250000 17.483999252 0.0020000001  -999.250000 1.9780353308 8.8559999466 42.344001770 143.14006042 141.21228027 0.9580000043 58.900001526 0.8659999967 1.0019246340
 1499.2099609  -999.250000 18.358999252 0.0020000001  -999.250000 1.9600577354 10.862000465 40.000000000 140.89160156 138.85282898 0.9580000043 57.650001526 0.7990000248 0.9680816531
 1499.3624268  -999.250000 18.922000885 0.0000000000  -999.250000 1.9420577288 10.501000404 38.530998230 140.94888306 138.89083862 0.9779999852 58.150001526 1.0130000114 0.9949567318
 1499.5147705  -999.250000 20.202999115 -0.001000000  -999.250000 1.9300384521 8.9899997711 38.469001770 142.24682617 140.46652222 0.9530000091 58.150001526 0.8600000143 0.9700600505
 1499.6672363  -999.250000 19.202999115 -0.001000000  -999.250000 1.9220256805 8.7819995880 37.030998230 143.32110596 141.28730774 0.9729999900 58.900001526 0.8669999838 0.9230753183
 1499.8195801  -999.250000 19.202999115 0.0000000000  -999.250000 1.9160192013 10.524999619 36.937999725 145.32759094 143.24472046 0.9480000138 59.650001526 0.8119999766 0.9479399920
 1499.9720459  -999.250000 18.593999863 0.0020000001  -999.250000 1.9110120535 12.258999825 38.062999725 145.95405579 144.14318848 0.9499999881 59.650001526 0.7419999838 0.9150528908
 1500.1243896  -999.250000 18.327999115 0.0030000000  -999.250000 1.9080096483 14.010000229 36.375000000 146.19953918 144.26516724 0.9359999895 60.400001526 0.7689999938 0.9110096097
 1500.2768555  -999.250000 19.812999725 0.0020000001  -999.250000 1.9119902849 15.895999908 35.594001770 146.44007874 144.30287170 0.9120000005 59.400001526 0.7590000033 0.8940272331
 1500.4291992  -999.250000 20.047000885 0.0000000000  -999.250000 1.9319360256 15.104000092 33.969001770 145.74243164 143.86590576 0.8679999709 59.150001526 0.7659999728 0.8820288777
 1500.5816650  -999.250000 19.641000748 0.0000000000  -999.250000 1.9599326849 13.875000000 37.969001770 147.36364746 145.44943237 0.8550000191 58.900001526 0.7889999747 0.8540448546
 1500.7340088  -999.250000 18.312999725 0.0000000000  -999.250000 1.9719616175 14.348999977 37.155998230 150.54986572 148.69705200 0.8439999819 58.650001526 0.8410000205 0.8400335908
 1500.8864746  -999.250000 19.218999863 -0.003000000  -999.250000 1.9630216360 15.654999733 40.000000000 153.41802979 151.44522095 0.8579999804 59.650001526 0.7070000172 0.8280192614
 1501.0388184  -999.250000 19.031000137 -0.010000000  -999.250000 1.9510383606 14.814000130 37.405998230 153.47892761 151.50000000 0.8209999800 59.900001526 0.8920000196 0.8569535017
 1501.1911621  -999.250000 18.375000000 -0.017000001  -999.250000 1.9509999752 12.623000145 38.375000000 152.30860901 150.45022583 0.8389999866 59.900001526 0.8809999824 0.8260744214
 1501.3436279  -999.250000 18.233999252 -0.020000000  -999.250000 1.9529935122 13.578000069 35.280998230 150.18550110 148.27789307 0.8460000157 60.150001526 0.8429999948 0.8509599566
 1501.4959717  -999.250000 18.891000748 -0.017999999  -999.250000 1.9529999495 16.375000000 35.062999725 149.55554199 147.49761963 0.8299999833 59.650001526 0.8100000024 0.8669615388
 1501.6484375  -999.250000 19.031000137 -0.014000000  -999.250000 1.9589807987 19.888000488 34.312999725 148.14125061 146.39727783 0.8750000000 59.650001526 0.9100000262 0.8480304480
