# LAS format log file from PETREL
# Project units are specified as depth units
#==================================================================
~Version information
VERS.   2.0:
WRAP.   NO:
#==================================================================
~Well
STRT .m      3891.7941895 :
STOP .m      4561.5922852 :
STEP .m     0.00000000 :
NULL .        -999.250000 :
COMP.           : COMPANY
WELL.  30/3-5S   : WELL
FLD.            : FIELD
LOC.            : LOCATION
SRVC.           : SERVICE COMPANY
DATE.  2018-09-11 14:48:29   : Log Export Date {yyyy-MM-dd HH:mm:ss}
PROV.           : PROVINCE
UWI.   30/3-5 S   : UNIQUE WELL ID
API.            : API NUMBER
#==================================================================
~Curve
DEPT .m                   : DEPTH
Lithology_geolink ._      : Lithology_geolink
CALI .in                  : CALI
DRHO .g/cm3               : DRHO
NPHI .m3/m3               : NPHI
RHOB .g/cm3               : RHOB
PEF .b/e                  : PEF
GR .gAPI                  : GR
DTC .us/ft                : DTC
DTE .us/ft                : DTE
RDEP .ohm.m               : RDEP
RMED .ohm.m               : RMED
~Parameter
#==================================================================
~Ascii
# ...
 4466.9516602 5.0000000000 9.3521995544 0.0093000000 0.2100033313 2.4311499596 2.8078262806 68.106796265 74.092552185 76.677276611 6.4523000717 5.8394999504
 4467.1040039 5.0000000000 9.1976995468 0.0096000005 0.2130460739 2.4308750629 2.9355468750 70.119796753 72.489547729 75.011924744 6.5174999237 5.8804001808
 4467.2563477 5.0000000000 9.0032997131 0.0269000009 0.2160436660 2.4272999763 3.2647235394 69.033798218 70.386627197 72.937179565 6.6331000328 5.9155001640
 4467.4091797 5.0000000000 8.9089002609 0.0410999991 0.2177062333 2.4210491180 3.9746971130 69.976600647 70.096199036 72.715721130 6.7659997940 5.9811000824
 4467.5615234 5.0000000000 8.9017000198 0.0423999988 0.2204399854 2.4172282219 4.4748973846 68.739601135 71.198623657 73.661804199 6.8130002022 6.1006999016
 4467.7138672 5.0000000000 8.9284000397 0.0458000004 0.2259414196 2.4280030727 4.1450195313 67.804702759 72.347702026 74.926651001 6.7887001038 6.2512998581
 4467.8662109 5.0000000000 9.0648002625 0.0419999994 0.2231962532 2.4435648918 3.2551019192 66.067703247 73.543304443 76.177474976 6.5946998596 6.3550000191
 4468.0185547 5.0000000000 9.1337995529 0.0275999997 0.2122985274 2.4524948597 2.9119153023 67.632797241 74.781524658 77.504623413 6.2539000511 6.3291001320
 4468.1708984 5.0000000000 9.0797996521 0.0215000007 0.2038627863 2.4487507343 3.1950004101 70.377601624 76.618927002 79.268173218 5.8817000389 6.1259999275
 4468.3232422 5.0000000000 8.7890996933 0.0241000000 0.2068846971 2.4363250732 3.8188099861 71.346298218 77.170104980 80.119522095 5.5631999969 5.7796001434
 4468.4755859 5.0000000000 8.6021003723 0.0176999997 0.2149544805 2.4191498756 4.1926083565 72.900398254 76.618225098 79.167098999 5.3020000458 5.3770999908
 4468.6279297 5.0000000000 8.7694997787 0.0140000004 0.2226152867 2.4115748405 3.9079027176 74.031196594 74.963272095 77.686523438 5.0810999870 5.0060000420
 4468.7807617 5.0000000000 9.0010004044 0.0086000003 0.2282884717 2.4118759632 3.3497784138 75.312500000 74.873428345 77.278610229 4.8424000740 4.7196998596
 4468.9331055 5.0000000000 9.1177997589 0.0016000000 0.2267989367 2.4131889343 2.9323353767 71.632797241 74.643501282 77.180747986 4.6781997681 4.5504999161
 4469.0854492 5.0000000000 9.1406002045 -0.003600000 0.2191603482 2.4198689461 2.6843450069 69.361999512 75.102386475 77.850128174 4.6268000603 4.4951000214
 4469.2377930 5.0000000000 9.1904001236 -0.002800000 0.2127365619 2.4355692863 2.6292254925 68.726600647 76.020851135 78.576774597 4.6265997887 4.5325999260
 4469.3901367 5.0000000000 9.2607002258 0.0027000001 0.2099829465 2.4548802376 2.7168908119 69.403602600 75.835273743 78.623825073 4.6343998909 4.6199998856
 4469.5424805 5.0000000000 9.1540002823 0.0107000005 0.2155145109 2.4650499821 2.9590904713 68.200500488 75.700202942 78.232452393 4.6423001289 4.7147998810
 4469.6948242 5.0000000000 8.8913002014 0.0172000006 0.2219476849 2.4653499126 3.2349760532 69.067703247 75.607200623 78.212585449 4.6472997665 4.7891998291
 4469.8471680 5.0000000000 8.7437000275 0.0156999994 0.2262775451 2.4592251778 3.3451020718 72.214202881 75.329330444 78.050399780 4.6595001221 4.8446002007
 4470.0000000 5.0000000000 9.0396995544 0.0137000000 0.2241999209 2.4600205421 3.1915941238 76.216102600 75.378410339 78.101425171 4.6778998375 4.8952999115
 4470.1523438 5.0000000000 9.3931999207 0.0121999998 0.2195478678 2.4657874107 3.0014209747 76.419296265 75.744155884 78.686172485 4.7002000809 4.9489002228
 4470.3046875 5.0000000000 9.5396995544 0.0087000001 0.2192940265 2.4683961868 2.8620042801 73.166702271 76.251449585 78.944496155 4.7347002029 4.9980001450
 4470.4570313 6.0000000000 9.5625000000 0.0037000000 0.2211596817 2.4669682980 2.8726525307 70.848999023 75.700202942 78.643272400 4.7793002129 5.0310997963
 4470.6093750 6.0000000000 9.3355998993 0.0046000001 0.2234269679 2.4648430347 2.9310460091 71.171897888 75.653602600 78.130996704 4.8039999008 5.0418000221
 4470.7617188 6.0000000000 9.0650997162 0.0057000001 0.2221590430 2.4626448154 3.0054850578 72.960899353 75.376678467 77.977752686 4.8196997643 5.0318999290
 4470.9140625 6.0000000000 9.0199003220 0.0052000000 0.2204972655 2.4600000381 3.0634014606 75.643203735 75.057159424 77.903625488 4.8435997963 5.0163002014
 4471.0664063 6.0000000000 9.0034999847 0.0024999999 0.2244683206 2.4563751221 3.0226862431 77.741203308 75.148750305 77.857574463 4.8737001419 5.0061998367
 4471.2187500 6.0000000000 8.9756002426 -0.001700000 0.2282060385 2.4544248581 2.9616887569 79.976600647 74.780265808 77.704681396 4.8965997696 5.0093998909
 4471.3715820 6.0000000000 8.9854001999 -0.006500000 0.2273818254 2.4553394318 2.8773851395 77.500000000 75.332702637 77.824028015 4.9106001854 5.0338997841
 4471.5239258 6.0000000000 9.0199003220 -0.008300000 0.2227851748 2.4610040188 2.8194360733 75.213500977 75.240852356 77.978652954 4.9250998497 5.0788998604
 4471.6762695 6.0000000000 9.0090999603 -0.007500000 0.2216539979 2.4686608315 2.8257336617 75.520797729 75.102432251 77.942497253 4.9352002144 5.1297001839
 4471.8286133 6.0000000000 8.9778995514 -0.004800000 0.2275129557 2.4695541859 2.8508489132 78.335899353 75.468528748 77.896118164 4.9457998276 5.1722002029
 4471.9809570 5.0000000000 8.8913002014 -0.003700000 0.2326880842 2.4616107941 2.8942933083 78.976600647 75.240852356 77.815505981 4.9630999565 5.1974000931
 4472.1333008 5.0000000000 8.8537998199 -0.004600000 0.2295029908 2.4514904022 2.9568378925 77.484397888 74.965309143 77.745346069 4.9770998955 5.2142000198
 4472.2856445 5.0000000000 8.8791999817 -0.004400000 0.2217465341 2.4489998817 3.0536358356 75.875000000 74.965309143 77.742698669 4.9998002052 5.2381000519
 4472.4379883 5.0000000000 8.9350004196 -0.007100000 0.2183111161 2.4495999813 3.0725660324 75.880798340 75.056030273 77.906051636 5.0411000252 5.2765998840
 4472.5903320 5.0000000000 8.9420995712 -0.013000000 0.2206183821 2.4456999302 2.9944410324 73.539100647 75.329322815 77.863906860 5.0823998451 5.3361001015
 4472.7431641 5.0000000000 8.9153995514 -0.015000000 0.2251088470 2.4423785210 2.9053361416 74.403602600 75.057098389 77.552452087 5.1213998795 5.4218997955
 4472.8955078 5.0000000000 8.8675003052 -0.014000000 0.2303826660 2.4454283714 2.9528496265 74.302101135 74.092948914 76.837203979 5.1743001938 5.5321998596
 4473.0478516 5.0000000000 8.8350000381 -0.011300000 0.2372378260 2.4551143646 3.0287458897 76.416702271 73.450775146 75.964500427 5.2606000900 5.6715002060
 4473.2001953 5.0000000000 8.8281002045 -0.006200000 0.2391166389 2.4667308331 3.0510127544 78.190101624 72.392921448 74.904701233 5.3776001930 5.8282999992
 4473.3525391 5.0000000000 8.8392000198 -0.003300000 0.2364422381 2.4754900932 2.9478979111 77.924499512 71.154945374 73.853424072 5.5275001526 5.9883999825
 4473.5048828 5.0000000000 8.8493003845 -0.000700000 0.2284149379 2.4803750515 2.8723230362 76.403602600 70.700096130 73.350776672 5.7097997665 6.1374998093
 4473.6572266 5.0000000000 8.9069004059 0.0015000000 0.2203113437 2.4798250198 2.8422474861 74.679702759 70.560249329 73.130325317 5.8846001625 6.2571997643
 4473.8095703 5.0000000000 8.9020004272 -0.000300000 0.2109277099 2.4751749039 2.8659856319 74.231796265 70.477905273 72.910850525 6.0222997665 6.3417000771
 4473.9624023 5.0000000000 8.8629999161 -0.003400000 0.2051833868 2.4705708027 2.8820550442 73.851600647 70.144462585 72.658546448 6.1277999878 6.4019999504
 4474.1147461 5.0000000000 8.8515996933 -0.002200000 0.2032656968 2.4674477577 2.8558630943 72.270797729 70.425895691 73.101745605 6.2227001190 6.4566998482
 4474.2670898 5.0000000000 8.8515996933 -0.003700000 0.2010779828 2.4579095840 2.7974696159 70.359397888 72.025474548 74.676101685 6.2969999313 6.5197000504
 4474.4194336 5.0000000000 8.8515996933 -0.006800000 0.1968612969 2.4475123882 2.7380371094 72.424499512 73.219772339 75.696495056 6.3385000229 6.5694999695
 4474.5717773 5.0000000000 8.8515996933 -0.006400000 0.1953872889 2.4473853111 2.6626226902 72.393203735 73.541778564 75.996299744 6.3337998390 6.5543999672
