# LAS format log file from PETREL
# Project units are specified as depth units
#==================================================================
~Version information
VERS.   2.0:
WRAP.   NO:
#==================================================================
~Well
STRT .m      200.91401672 :
STOP .m      3436.5195313 :
STEP .m     0.00000000 :
NULL .        -999.250000 :
COMP.           : COMPANY
WELL.  30/3-3   : WELL
FLD.            : FIELD
LOC.            : LOCATION
SRVC.           : SERVICE COMPANY
DATE.  2018-09-11 14:48:28   : Log Export Date {yyyy-MM-dd HH:mm:ss}
PROV.           : PROVINCE
UWI.   30/3-3   : UNIQUE WELL ID
API.            : API NUMBER
#==================================================================
~Curve
DEPT .m                   : DEPTH
Lithology_geolink ._      : Lithology_geolink
CALI .in                  : CALI
DRHO .g/cm3               : DRHO
NPHI .m3/m3               : NPHI
RHOB .g/cm3               : RHOB
PEF .b/e                  : PEF
GR .gAPI                  : GR
DTC .us/ft                : DTC
DTE .us/ft                : DTE
RDEP .ohm.m               : RDEP
SP .mV                    : SP
RSHA .ohm.m               : RSHA
RMED .ohm.m               : RMED
~Parameter
#==================================================================
~Ascii
# ...
 2567.9914551 13.000000000 13.258000374 -0.012000000  -999.250000 2.4489870071  -999.250000 47.187999725 107.09307861 103.24665833 1.5420000553 60.237998962 2.5899999142 1.7910000086
 2568.1440430 13.000000000 13.250000000 -0.016000001  -999.250000 2.4549903870  -999.250000 48.250000000 107.32341766 103.51167297 1.5310000181 60.581001282 2.7230000496 1.7740000486
 2568.2963867 13.000000000 13.250000000 -0.014000000  -999.250000 2.4549999237  -999.250000 47.344001770 107.56191254 103.72786713 1.5269999504 61.487998962 2.6659998894 1.7640000582
 2568.4487305 13.000000000 13.258000374 -0.010000000  -999.250000 2.4530031681  -999.250000 46.187999725 107.09867096 103.08399963 1.5210000277 60.299999237 2.5959999561 1.7669999599
 2568.6010742 13.000000000 13.258000374 -0.004000000  -999.250000 2.4530000687  -999.250000 45.812999725 107.32304382 103.41284943 1.5210000277 60.237998962 2.8259999752 1.7500000000
 2568.7536621 13.000000000 13.250000000 -0.003000000  -999.250000 2.4510030746  -999.250000 45.062999725 107.96549988 104.20815277 1.5369999409 60.081001282 2.7339999676 1.7450000048
 2568.9060059 13.000000000 13.258000374 0.0000000000  -999.250000 2.4509999752  -999.250000 48.405998230 107.17198944 103.29481506 1.5410000086 60.081001282 2.7850000858 1.7840000391
 2569.0583496 13.000000000 13.250000000 -0.008000000  -999.250000 2.4470064640  -999.250000 49.344001770 106.62286377 102.61988068 1.5520000458 59.456001282 2.8299999237 1.8009999990
 2569.2106934 13.000000000 13.258000374 -0.012000000  -999.250000 2.4489934444  -999.250000 47.655998230 105.67824554 101.87260437 1.5679999590 59.206001282 2.7890000343 1.8140000105
 2569.3632813 13.000000000 13.258000374 -0.022000000  -999.250000 2.4320271015  -999.250000 44.344001770 105.12181091 101.34052277 1.5770000219 61.019001007 2.8889999390 1.8339999914
 2569.5156250 13.000000000 13.250000000 -0.016000001  -999.250000 2.4319999218  -999.250000 43.062999725 104.94613647 101.12071228 1.5920000076 61.362998962 2.9879999161 1.8409999609
 2569.6679688 13.000000000 13.258000374 -0.016000001  -999.250000 2.4260096550  -999.250000 45.562999725 105.01174927 101.01107025 1.6100000143 61.894001007 2.8519999981 1.8719999790
 2569.8203125 13.000000000 13.258000374 -0.009000000  -999.250000 2.4389791489  -999.250000 48.937999725 105.57802582 101.68347931 1.6119999886 60.424999237 2.9409999847 1.9220000505
 2569.9726563 13.000000000 13.250000000 -0.008000000  -999.250000 2.4429872036  -999.250000 51.250000000 106.59111786 102.70166016 1.6269999743 59.987998962 2.8239998817 1.8960000277
 2570.1252441 13.000000000 13.258000374 -0.007000000  -999.250000 2.4449968338  -999.250000 51.437999725 107.31423950 103.50977325 1.6430000067 59.362998962 2.7149999142 1.8650000095
 2570.2775879 13.000000000 13.258000374 -0.012000000  -999.250000 2.4390094280  -999.250000 52.469001770 107.56191254 103.62268829 1.6440000534 59.237998962 2.7969999313 1.8450000286
 2570.4299316 13.000000000 13.258000374 -0.011000000  -999.250000 2.4389998913  -999.250000 50.469001770 106.39683533 102.60921478 1.6469999552 59.581001282 2.8340001106 1.8389999866
 2570.5822754 13.000000000 13.258000374 -0.015000000  -999.250000 2.4360096455  -999.250000 49.219001770 106.60744476 102.74665833 1.6579999924 59.519001007 2.8069999218 1.8430000544
 2570.7348633 13.000000000 13.258000374 -0.010000000  -999.250000 2.4449856281  -999.250000 44.030998230 106.37848663 102.66252136 1.6499999762 59.269001007 2.7969999313 1.8849999905
 2570.8872070 13.000000000 13.258000374 -0.012000000  -999.250000 2.4430031776  -999.250000 46.000000000 107.07573700 103.11646271 1.6399999857 60.894001007 2.7850000858 1.9049999714
 2571.0395508 13.000000000 13.258000374 -0.010000000  -999.250000 2.4430000782  -999.250000 46.905998230 108.02514648 104.22836304 1.6430000067 59.862998962 2.6679999828 1.9049999714
 2571.1918945 13.000000000 13.258000374 -0.014000000  -999.250000 2.4320352077  -999.250000 50.562999725 108.51058197 104.73118591 1.6369999647 59.924999237 2.6579999924 1.8739999533
 2571.3444824 13.000000000 13.258000374 -0.015000000  -999.250000 2.4389886856  -999.250000 48.000000000 108.69135284 104.77691650 1.6330000162 59.549999237 2.7339999676 1.8320000172
 2571.4968262 13.000000000 13.258000374 -0.008000000  -999.250000 2.4509806633  -999.250000 48.187999725 107.35428619 103.32302094 1.6269999743 60.737998962 2.7709999084 1.8029999733
 2571.6491699 13.000000000 13.258000374 -0.011000000  -999.250000 2.4509999752  -999.250000 44.969001770 106.69245148 102.80391693 1.5950000286 60.394001007 2.7479999065 1.7960000038
 2571.8015137 13.000000000 13.258000374 -0.010000000  -999.250000 2.4509999752  -999.250000 44.530998230 105.37577057 101.46339417 1.5740000010 60.299999237 2.7660000324 1.8480000496
 2571.9538574 13.000000000 13.272999763 -0.023000000  -999.250000 2.4380414486  -999.250000 42.312999725 105.18490601 101.41076660 1.5820000172 60.174999237 2.7109999657 1.8580000401
 2572.1064453 13.000000000 13.281000137 -0.021000000  -999.250000 2.4379999638  -999.250000 44.719001770 106.58488464 102.48728180 1.5800000429 59.112998962 2.6779999733 1.8029999733
 2572.2587891 13.000000000 13.272999763 -0.022000000  -999.250000 2.4300129414  -999.250000 45.469001770 106.61240387 102.74535370 1.5820000172 60.299999237 2.6519999504 1.7940000296
 2572.4111328 13.000000000 13.272999763 -0.018999999  -999.250000 2.4319968224  -999.250000 46.219001770 106.37848663 102.61857605 1.5829999447 61.424999237 2.7300000191 1.7960000038
 2572.5634766 13.000000000 13.265998840 -0.017000001  -999.250000 2.4409711361  -999.250000 44.187999725 106.37390137 102.51123047 1.5829999447 61.174999237 2.8459999561 1.7960000038
 2572.7160645 13.000000000 13.272999763 -0.018999999  -999.250000 2.4340112209  -999.250000 43.125000000 106.84181976 102.78910828 1.5820000172 60.894001007 2.8949999809 1.7910000086
 2572.8684082 13.000000000 13.272999763 -0.017999999  -999.250000 2.4409887791  -999.250000 45.094001770 106.85099792 103.13629913 1.5859999657 60.456001282 2.8829998970 1.7910000086
 2573.0207520 13.000000000 13.272999763 -0.013000000  -999.250000 2.4429969788  -999.250000 45.812999725 107.08491516 103.30904388 1.5880000591 60.737998962 2.8180000782 1.7940000296
 2573.1730957 13.000000000 13.272999763 -0.005000000  -999.250000 2.4609422684  -999.250000 47.812999725 106.62232971 102.89291382 1.5870000124 59.987998962 2.7149999142 1.7879999876
 2573.3256836 13.000000000 13.272999763 -0.004000000  -999.250000 2.4570064545  -999.250000 46.812999725 107.24891663 103.16410828 1.5859999657 60.019001007 2.6740000248 1.8409999609
 2573.4780273 13.000000000 13.281000137 -0.003000000  -999.250000 2.4570000172  -999.250000 51.155998230 107.09280396 103.33563995 1.6089999676 59.706001282 2.7400000095 1.8380000591
 2573.6303711 13.000000000 13.272999763 -0.008000000  -999.250000 2.4450192451  -999.250000 49.875000000 107.15490723 103.32163239 1.6109999418 60.174999237 2.8519999981 1.8940000534
 2573.7827148 13.000000000 13.272999763 -0.007000000  -999.250000 2.4529871941  -999.250000 49.875000000 107.02507019 103.31287384 1.6139999628 60.144001007 2.8220000267 1.8969999552
 2573.9353027 13.000000000 13.272999763 -0.014000000  -999.250000 2.4470095634  -999.250000 48.437999725 107.55605316 103.60173798 1.6109999418 60.456001282 2.8610000610 1.9049999714
 2574.0876465 13.000000000 13.272999763 -0.016000001  -999.250000 2.4450030327  -999.250000 49.375000000 107.09867096 103.22146606 1.6119999886 60.456001282 2.8650000095 1.8990000486
 2574.2399902 13.000000000 13.272999763 -0.017000001  -999.250000 2.4430031776  -999.250000 48.125000000 107.15490723 103.41574097 1.6169999838 60.237998962 2.7929999828 1.8990000486
 2574.3923340 13.000000000 13.272999763 -0.010000000  -999.250000 2.4410030842  -999.250000 43.469001770 106.79076385 102.92891693 1.6109999418 60.362998962 2.7460000515 1.9079999924
 2574.5446777 13.000000000 13.272999763 -0.008000000  -999.250000 2.4449870586  -999.250000 43.500000000 106.14888000 102.07171631 1.6109999418 60.519001007 2.7149999142 1.9010000229
