# LAS format log file from PETREL
# Project units are specified as depth units
#==================================================================
~Version information
VERS.   2.0:
WRAP.   NO:
#==================================================================
~Well
STRT .m      3891.7941895 :
STOP .m      4561.5922852 :
STEP .m     0.00000000 :
NULL .        -999.250000 :
COMP.           : COMPANY
WELL.  30/3-5S   : WELL
FLD.            : FIELD
LOC.            : LOCATION
SRVC.           : SERVICE COMPANY
DATE.  2018-09-11 14:48:29   : Log Export Date {yyyy-MM-dd HH:mm:ss}
PROV.           : PROVINCE
UWI.   30/3-5 S   : UNIQUE WELL ID
API.            : API NUMBER
#==================================================================
~Curve
DEPT .m                   : DEPTH
Lithology_geolink ._      : Lithology_geolink
CALI .in                  : CALI
DRHO .g/cm3               : DRHO
NPHI .m3/m3               : NPHI
RHOB .g/cm3               : RHOB
PEF .b/e                  : PEF
GR .gAPI                  : GR
DTC .us/ft                : DTC
DTE .us/ft                : DTE
RDEP .ohm.m               : RDEP
RMED .ohm.m               : RMED
~Parameter
#==================================================================
~Ascii
 3891.7941895 7.0000000000 8.4218997955 -1.019999981 0.4986865819 2.0000000000 49.007461548 34.843399048 137.94032288 137.84060669 9.5618000031 1950.0000000
 3891.9465332 7.0000000000 8.4218997955 -1.022400022 0.4867351651 2.0000000000 36.455802917 38.378601074 138.11177063 137.84060669 9.5390996933 1950.0000000
 3892.0988770 7.0000000000 8.4496002197 -1.016199946 0.4776836336 2.0000000000 22.977890015 60.232498169 137.94018555 137.84060669 9.5666999817 1950.0000000
 3892.2514648 7.0000000000 8.5163002014 -1.015900016 0.4692924917 2.0000000000 25.323499680 58.009101868 138.11177063 137.84060669 9.5172996521 1950.0000000
 3892.4038086 7.0000000000 8.4561004639 -1.016800046 0.4652736783 2.0000000000 36.490032196 55.489601135 137.94032288 137.84060669 9.4645004272 1950.0000000
 3892.5561523 7.0000000000 8.4218997955 -1.017899990 0.4715138376 2.0000000000 43.112430573 53.356800079 138.11810303 137.84060669 9.3148002625 1950.0000000
 3892.7084961 7.0000000000 8.4218997955 -1.011000037 0.4806759059 2.0000000000 35.121219635 55.708999634 137.95916748 137.84060669 9.1637001038 1950.0000000
 3892.8610840 7.0000000000 8.4218997955 -1.003200054 0.4763573706 2.0000000000 28.294271469 59.438800812 138.19137573 137.84060669 9.2190999985 1950.0000000
 3893.0134277 7.0000000000 8.4273996353 -0.978399992 0.4661624432 2.0000000000 25.522075653 61.730499268 138.09339905 137.84060669 9.3021001816 1950.0000000
 3893.1657715 7.0000000000 8.4242000580 -0.958299994 0.4622273743 2.0000000000 21.933944702 60.744800568 137.94032288 137.84060669 9.2594003677 1950.0000000
 3893.3181152 7.0000000000 8.4218997955 -0.950100005 0.4702089429 2.0000000000 21.953125000 57.932201385 138.11190796 137.84060669 9.3064002991 1950.0000000
 3893.4707031 7.0000000000 8.4273996353 -0.943000019 0.4788826704 2.0000000000 23.886167526 55.880199432 137.94032288 137.84060669 9.3580999374 1950.0000000
 3893.6230469 7.0000000000 8.4242000580 -0.947499990 0.4866118133 2.0000000000 26.798349380 54.343799591 138.11177063 137.84060669 9.3228998184 1950.0000000
 3893.7753906 7.0000000000 8.4218997955 -0.967800021 0.4896972179 2.0000000000 28.249725342 54.880199432 137.93420410 137.84060669 9.1995000839 1950.0000000
 3893.9277344 7.0000000000 8.4218997955 -0.987600029 0.4912174940 2.0000000000 38.582332611 55.347698212 138.09973145 137.84060669 9.2116003036 1950.0000000
 3894.0803223 7.0000000000 8.4218997955 -0.990199983 0.4952261150 2.0000000000 51.217548370 55.441398621 137.95967102 137.84060669 9.2067003250 1950.0000000
 3894.2326660 7.0000000000 8.4218997955 -0.994400024 0.5000147223 2.0000000000 47.356651306 53.852901459 138.11177063 137.84060669 9.1012001038 1950.0000000
 3894.3850098 7.0000000000 8.4218997955 -0.999199986 0.5053471923 2.0000000000 38.394130707 54.626300812 137.94032288 137.84060669 8.9794998169 1950.0000000
 3894.5373535 7.0000000000 8.4385004044 -0.992999971 0.4963705838 2.0000000000 29.734100342 54.908901215 138.11177063 137.84060669 9.0504999161 1950.0000000
 3894.6896973 7.0000000000 8.4342002869 -0.980400026 0.4704355597 2.0000000000 19.601161957 55.157798767 137.94018555 137.84060669 9.1159000397 1950.0000000
 3894.8422852 7.0000000000 8.4296998978 -0.973800004 0.4507396817 2.0000000000 17.672725677 54.205699921 138.11177063 137.84060669 9.1250000000 1950.0000000
 3894.9946289 7.0000000000 8.4242000580 -0.968599975 0.4509176314 2.0000000000 20.989049911 54.414100647 137.94032288 137.84060669 9.1195001602 1950.0000000
 3895.1469727 7.0000000000 8.4273996353 -0.973800004 0.4657711387 2.0000000000 27.724458694 54.643199921 138.11177063 137.84060669 9.0120000839 1950.0000000
 3895.2993164 7.0000000000 8.4242000580 -0.983900011 0.4859048426 2.0000000000 28.031801224 55.156600952 137.94018555 137.84060669 8.9355001450 1950.0000000
 3895.4519043 7.0000000000 8.4218997955 -1.003100038 0.4922944307 2.0000000000 28.794019699 58.628898621 138.11177063 137.84060669 8.9218997955 1950.0000000
 3895.6042480 7.0000000000 8.4218997955 -1.009799957 0.4851653576 2.0000000000 31.563199997 61.385398865 137.94032288 137.84060669 8.8610000610 1950.0000000
 3895.7565918 7.0000000000 8.5103998184 -1.004899979 0.4606855214 2.0000000000 30.106519699 59.954399109 138.11177063 137.84060669 8.9245004654 1950.0000000
 3895.9089355 7.0000000000 8.4914999008 -0.997399986 0.4552450776 2.0000000000 19.021059036 55.716098785 137.94032288 137.84060669 9.0383996964 1950.0000000
 3896.0615234 7.0000000000 8.4411001205 -1.021999955 0.4774962366 2.0000000000 14.793394089 51.964599609 138.11135864 137.84060669 9.0868997574 1950.0000000
 3896.2138672 7.0000000000 8.4407997131 -1.026200056 0.4965841770 2.0000000000 15.947462082 51.819000244 137.94032288 137.84060669 9.0937995911 1950.0000000
 3896.3662109 7.0000000000 8.4342002869 -1.018399954 0.4926813245 2.0000000000 21.206830978 51.735698700 138.19749451 137.84060669 9.1104001999 1950.0000000
 3896.5185547 7.0000000000 8.4242000580 -1.051900029 0.4833178222 2.0000000000 26.075395584 50.986999512 138.11810303 137.84060669 9.1449003220 1950.0000000
 3896.6708984 7.0000000000 8.4273996353 -1.066799998 0.4875676036 2.0000000000 29.767879486 50.351299286 137.95306396 137.84060669 9.1063995361 1950.0000000
 3896.8234863 7.0000000000 8.4242000580 -1.052399993 0.4949716330 2.0000000000 28.802299500 49.567699432 138.09339905 137.84060669 9.0139999390 1950.0000000
 3896.9758301 7.0000000000 8.4218997955 -1.060299993 0.4930888712 2.0000000000 26.910957336 50.950500488 137.94032288 137.84060669 8.9787998199 1950.0000000
 3897.1281738 7.0000000000 8.4218997955 -1.063199997 0.4936414063 2.0000000000 24.614858627 51.403598785 138.11177063 137.84060669 9.1480998993 1950.0000000
 3897.2805176 7.0000000000 8.4273996353 -1.039600015 0.4970336854 2.0000000000 24.761768341 53.438899994 137.94630432 137.84060669 9.1965999603 1950.0000000
 3897.4331055 7.0000000000 8.4296998978 -1.021999955 0.4942837059 2.0000000000 26.034755707 55.042999268 138.13015747 137.84060669 9.0326004028 1950.0000000
 3897.5854492 7.0000000000 8.4242000580 -1.016299963 0.4787572622 2.0000000000 27.358724594 59.261699677 137.93420410 137.84060669 8.9465999603 1950.0000000
 3897.7377930 7.0000000000 8.4385004044 -1.014700055 0.4695075154 2.0000000000 32.519805908 61.428398132 138.09339905 137.84060669 9.0425996780 1950.0000000
 3897.8901367 7.0000000000 8.4342002869 -1.015200019 0.4698919058 2.0000000000 34.513496399 61.279899597 137.94644165 137.84060669 9.1024999619 1950.0000000
 3898.0427246 7.0000000000 8.4242000580 -1.005399942 0.4792472422 2.0000000000 33.596904755 58.599899292 138.12971497 137.84060669 9.2367000580 1950.0000000
 3898.1950684 7.0000000000 8.4218997955 -0.991800010 0.4910416007 2.0000000000 43.908500671 56.765598297 137.94032288 137.84060669 9.4495000839 1950.0000000
 3898.3474121 7.0000000000 8.4218997955 -0.980000019 0.4879588783 2.0000000000 177.27278137 54.467399597 138.10543823 137.84060669 9.6595001221 1950.0000000
 3898.4997559 7.0000000000 8.4218997955 -0.975300014 0.4799021482 2.0000000000 275.34536743 53.125000000 137.92747498 137.84060669 9.8902997971 1950.0000000
 3898.6520996 7.0000000000 8.4273996353 -0.979900002 0.4721099436 2.0000000000 84.202621460 51.887298584 138.13029480 137.84060669 10.193499565 1950.0000000
 3898.8046875 7.0000000000 8.4242000580 -0.984799981 0.4779372811 2.0000000000 33.785049438 52.464801788 137.94032288 137.84060669 10.383099556 1950.0000000
 3898.9570313 6.0000000000 8.4218997955 -0.994599998 0.4828597009 2.0000000000 25.118389130 51.546901703 138.11177063 137.84060669 10.549200058 1950.0000000
 3899.1093750 6.0000000000 8.4218997955 -0.995999992 0.4912750423 2.0000000000 25.008138657 52.615898132 137.94032288 137.84060669 10.695599556 1950.0000000
 3899.2617188 6.0000000000 8.4273996353 -0.990800023 0.5034419298 2.0000000000 25.946489334 53.967899323 138.11190796 137.84060669 10.595899582 1950.0000000
 3899.4143066 6.0000000000 8.4242000580 -1.010699987 0.5034586191 2.0000000000 22.429838181 58.411499023 137.94032288 137.84060669 10.688500404 1950.0000000
