# LAS format log file from PETREL
# Project units are specified as depth units
#==================================================================
~Version information
VERS.   2.0:
WRAP.   NO:
#==================================================================
~Well
STRT .m      236.19400024 :
STOP .m      3572.9916992 :
STEP .m     0.00000000 :
NULL .        -999.250000 :
COMP.           : COMPANY
WELL.  30/3-2R   : WELL
FLD.            : FIELD
LOC.            : LOCATION
SRVC.           : SERVICE COMPANY
DATE.  2018-09-11 14:48:27   : Log Export Date {yyyy-MM-dd HH:mm:ss}
PROV.           : PROVINCE
UWI.   30/3-2 R   : UNIQUE WELL ID
API.            : API NUMBER
#==================================================================
~Curve
DEPT .m                   : DEPTH
Lithology_geolink ._      : Lithology_geolink
CALI .in                  : CALI
DRHO .g/cm3               : DRHO
NPHI .m3/m3               : NPHI
RHOB .g/cm3               : RHOB
GR .gAPI                  : GR
DTC .us/ft                : DTC
RDEP .ohm.m               : RDEP
SP .mV                    : SP
RSHA .ohm.m               : RSHA
RMED .ohm.m               : RMED
~Parameter
#==================================================================
~Ascii
# ...
 2497.9624023 13.000000000 15.218999863 0.0549999997 0.3809999824 2.3980000019 55.629806519 107.85399628 1.2450000048 68.172996521 1.0510785580 1.3159999847
 2498.1147461 13.000000000 15.114999771 0.0309999995 0.3786199987 2.3919999599 58.623397827 106.35399628 1.2319999933 69.000000000 1.0998253822 1.3409999609
 2498.2673340 13.000000000 15.397000313 0.0080000004 0.3835400045 2.3810000420 57.633499146 105.09400177 1.2269999981 69.007003784 0.9912592173 1.3689999580
 2498.4196777 13.000000000 15.350999832 0.0060000001 0.3750799894 2.3810000420 60.279247284 105.14701080 1.2269999981 69.071998596 1.0718749762 1.3990000486
 2498.5720215 13.000000000 15.137000084 0.0060000001 0.3702399731 2.3689999580 59.193756104 106.05400085 1.2460000515 68.250000000 0.9939807653 1.3869999647
 2498.7243652 13.000000000 15.217000008 0.0250000004 0.3854100108 2.3659999371 62.781250000 107.41101074 1.2630000114 68.225997925 0.9815832973 1.3609999418
 2498.8769531 13.000000000 15.305999756 0.0410000011 0.4187999964 2.3849999905 62.941799164 108.94998932 1.2899999619 67.942001343 0.7227808237 1.3339999914
 2499.0292969 13.000000000 15.313999176 0.0299999993 0.4374700189 2.3919999599 64.117591858 110.15900421 1.3129999638 68.858001709 0.9660224319 1.2899999619
 2499.1816406 13.000000000 15.406999588 0.0080000004 0.4015200138 2.3750000000 59.495643616 109.78399658 1.3370000124 68.510002136 0.9802051187 1.2910000086
 2499.3339844 13.000000000 15.475000381 0.0160000008 0.3656499982 2.3849999905 56.778293610 107.30300140 1.3689999580 66.972999573 1.1075032949 1.2890000343
 2499.4863281 13.000000000 15.557999611 0.0649999976 0.3744599819 2.4340000153 55.093799591 103.94499969 1.3309999704 66.634002686 0.7992884517 1.3910000324
 2499.6389160 13.000000000 15.619000435 0.0769999996 0.4011099935 2.4760000706 54.972503662 101.97299957 1.2569999695 66.914001465 1.6025631428 1.5019999743
 2499.7912598 13.000000000 15.524000168 0.0399999991 0.3968800008 2.4079999924 56.069610596 102.23000336 1.2400000095 68.708000183 1.7760704756 1.5889999866
 2499.9436035 13.000000000 15.944999695 0.0140000004 0.3786454201 2.3369998932 60.190502167 105.15499878 1.2359999418 66.910003662 0.5739134550 1.4379999638
 2500.0959473 13.000000000 15.956999779 0.0170000009 0.3695440888 2.3289999962 61.749347687 109.23400116 1.3140000105 68.648002625 0.5204791427 1.3400000334
 2500.2485352 13.000000000 16.117000580 0.0329999998 0.3720371723 2.3740000725 61.327503204 112.30699921 1.3839999437 67.603996277 0.8194863796 1.2450000048
 2500.4008789 13.000000000 16.259000778 0.0240000002 0.3524280190 2.4049999714 56.187446594 112.33799744 1.3760000467 68.771003723 0.9704903960 1.2790000439
 2500.5532227 13.000000000 16.024000168 0.0070000002 0.3262132108 2.4089999199 55.837993622 109.40100098 1.3969999552 68.956001282 0.6532323956 1.3710000515
 2500.7055664 13.000000000 15.647000313 0.0099999998 0.2908426225 2.4419999123 52.092350006 105.01799774 1.4520000219 68.500000000 0.7986730337 1.4329999685
 2500.8581543 13.000000000 15.659000397 0.0299999993 0.2925190926 2.5160000324 51.051197052 99.842002869 1.4680000544 68.523002625 1.2182496786 1.6169999838
 2501.0104980 13.000000000 15.477001190 0.0680000037 0.3078489304 2.5580000877 47.375652313 94.554000854 1.4349999428 68.785003662 1.2965416908 1.8600000143
 2501.1628418 13.000000000 15.457000732 0.0799999982 0.3321215510 2.5659999847 47.788311005 93.138000488 1.4720000029 69.078002930 1.6340384483 1.9400000572
 2501.3151855 13.000000000 15.446000099 0.0920000002 0.3455584347 2.4990000725 52.349761963 95.516998291 1.5069999695 68.662002563 1.6564470530 1.9160000086
 2501.4675293 13.000000000 15.847000122 0.0630000010 0.3507919312 2.4579999447 55.945461273 100.95099640 1.5099999905 68.949996948 0.6889904141 1.5609999895
 2501.6201172 13.000000000 15.751999855 0.0390000008 0.3332052827 2.3840000629 60.584999084 105.76699829 1.4939999580 68.473999023 0.6833360195 1.4370000362
 2501.7724609 13.000000000 15.720000267 0.0219999999 0.3036834300 2.3780000210 57.780097961 108.62200165 1.4919999838 68.223999023 0.7880128026 1.3489999771
 2501.9248047 13.000000000 15.733000755 0.0289999992 0.2996301651 2.3759999275 57.214145660 109.24600220 1.4730000496 68.013000488 0.7959374785 1.3029999733
 2502.0771484 13.000000000 15.590999603 0.0560000017 0.3247304261 2.3970000744 54.193607330 107.71600342 1.3380000591 68.070999146 0.7569791675 1.3439999819
 2502.2297363 13.000000000 15.600999832 0.0509999990 0.3687784672 2.4010000229 57.687797546 106.26499939 1.2860000134 67.500999451 0.7438464165 1.3750000000
 2502.3820801 13.000000000 15.917000771 0.0520000011 0.4212904274 2.3650000095 57.629405975 105.81900024 1.2940000296 66.957000732 0.6961426139 1.4040000439
 2502.5344238 13.000000000 15.658000946 0.0299999993 0.4401871860 2.3629999161 60.369640350 106.66899872 1.2790000439 70.302001953 0.7853333354 1.3719999790
 2502.6867676 13.000000000 15.550999641 0.0189999994 0.4072138071 2.3480000496 57.030097961 107.99299622 1.2710000277 67.763999939 0.9929743409 1.3539999723
 2502.8393555 13.000000000 15.579000473 0.0109999999 0.3596738875 2.3750000000 56.466800690 107.80000305 1.3129999638 67.860000610 0.9773712158 1.3539999723
 2502.9916992 13.000000000 15.532999992 0.0149999997 0.3421979547 2.3889999390 55.782901764 106.48300171 1.3559999466 67.823997498 1.0931891203 1.3969999552
 2503.1440430 13.000000000 15.409999847 0.0340000018 0.3471117914 2.4260001183 56.965194702 104.43099976 1.3999999762 68.360000610 1.2106955051 1.4359999895
 2503.2963867 13.000000000 15.418000221 0.0439999998 0.3295206726 2.4539999962 54.589195251 102.69200134 1.4340000153 68.325996399 1.0207291842 1.5210000277
 2503.4487305 13.000000000 15.656000137 0.0619999990 0.3299514055 2.4879999161 51.592552185 100.44699860 1.4309999943 68.860000610 0.8523104191 1.6150000095
 2503.6013184 13.000000000 15.421999931 0.0850000009 0.3308652043 2.5090000629 50.690402985 98.336997986 1.3539999723 68.750000000 1.0463557243 1.7350000143
 2503.7536621 13.000000000 15.206000328 0.0839999989 0.3403583169 2.5169999599 52.188751221 97.708999634 1.3040000200 68.734001160 1.2678381205 1.6879999638
 2503.9060059 13.000000000 14.979000092 0.0719999969 0.3580630124 2.4820001125 52.656799316 99.622001648 1.3070000410 68.592002869 1.1661955118 1.5529999733
 2504.0583496 13.000000000 15.267999649 0.0410000011 0.3973809481 2.4340000153 53.165012360 104.00700378 1.3400000334 68.359001160 0.6653349400 1.4160000086
 2504.2109375 13.000000000 15.979000092 0.0359999985 0.4227610230 2.4030001163 58.797500610 109.36000061 1.3789999485 68.149002075 0.8744800091 1.4119999409
 2504.3632813 13.000000000 15.557000160 0.0359999985 0.3793681562 2.4110000134 63.938602448 111.68299103 1.3839999437 67.466003418 1.0236474276 1.3960000277
 2504.5156250 13.000000000 15.637998581 0.0289999992 0.3221518397 2.4300000668 64.304641724 111.23101044 1.3750000000 67.283996582 0.8037564158 1.3969999552
 2504.6679688 13.000000000 15.477999687 0.0750000030 0.3108715117 2.4609999657 59.084285736 107.82399750 1.3880000114 67.221000671 0.6522788405 1.3869999647
 2504.8205566 13.000000000 15.390000343 0.1199999973 0.3243969977 2.5079998970 53.024497986 103.16500092 1.3630000353 65.945999146 0.8266367912 1.4750000238
 2504.9729004 13.000000000 15.154999733 0.1239999980 0.3639676273 2.5120000839 51.004405975 99.405998230 1.3400000334 69.544998169 1.0247050524 1.5599999428
 2505.1252441 13.000000000 15.937000275 0.0780000016 0.3687207997 2.4460000992 53.755558014 97.968002319 1.3289999962 74.402000427 0.8410833478 1.6599999666
 2505.2775879 13.000000000 15.440999985 0.0329999998 0.3629481792 2.3910000324 57.224559784 100.74099731 1.3140000105 70.149002075 0.8927692175 1.5030000210
 2505.4301758 13.000000000 15.647998810 0.0370000005 0.3431222737 2.3829998970 60.678100586 105.11900330 1.3250000477 68.087997437 0.7492815852 1.3660000563
 2505.5825195 13.000000000 15.288999557 0.0230000000 0.3438849449 2.4019999504 57.591148376 108.28600311 1.3439999819 67.799003601 0.8371201754 1.2719999552
