# LAS format log file from PETREL
# Project units are specified as depth units
#==================================================================
~Version information
VERS.   2.0:
WRAP.   NO:
#==================================================================
~Well
STRT .m      236.19400024 :
STOP .m      3572.9916992 :
STEP .m     0.00000000 :
NULL .        -999.250000 :
COMP.           : COMPANY
WELL.  30/3-2R   : WELL
FLD.            : FIELD
LOC.            : LOCATION
SRVC.           : SERVICE COMPANY
DATE.  2018-09-11 14:48:27   : Log Export Date {yyyy-MM-dd HH:mm:ss}
PROV.           : PROVINCE
UWI.   30/3-2 R   : UNIQUE WELL ID
API.            : API NUMBER
#==================================================================
~Curve
DEPT .m                   : DEPTH
Lithology_geolink ._      : Lithology_geolink
CALI .in                  : CALI
DRHO .g/cm3               : DRHO
NPHI .m3/m3               : NPHI
RHOB .g/cm3               : RHOB
GR .gAPI                  : GR
DTC .us/ft                : DTC
RDEP .ohm.m               : RDEP
SP .mV                    : SP
RSHA .ohm.m               : RSHA
RMED .ohm.m               : RMED
~Parameter
#==================================================================
~Ascii
# ...
 1611.9086914  -999.250000 13.635999680 -0.011997596 0.4775899947 2.0850408077 37.969001770 145.55775452 0.6139968038  -999.250000  -999.250000 0.8030192256
 1612.0611572  -999.250000 14.295999527 -0.010001601 0.4985100031 2.0810065269 40.125000000 145.49304199 0.6189960241  -999.250000  -999.250000 0.7990032434
 1612.2135010  -999.250000 13.765000343 -0.011998397 0.5045300126 2.0680208206 38.530998230 145.48899841 0.6190000176  -999.250000  -999.250000 0.7940040231
 1612.3658447  -999.250000 13.548999786 -0.015993595 0.5088000298 2.0540335178 35.344001770 146.63116455 0.6170032024  -999.250000  -999.250000 0.8339359164
 1612.5183105  -999.250000 14.063000679 -0.015000801 0.5133399963 2.0420193672 33.219001770 149.08004761 0.6229951978  -999.250000  -999.250000 0.8539839387
 1612.6706543  -999.250000 14.456000328 -0.013003203 0.5221300125 2.0330216885 36.937999725 151.52708435 0.6309871674  -999.250000  -999.250000 0.8380256295
 1612.8231201  -999.250000 14.868000031 -0.012000801 0.5110200047 2.0339982510 38.562999725 152.44926453 0.6359959841  -999.250000  -999.250000 0.8310055733
 1612.9754639  -999.250000 13.567000389 -0.009004803 0.4942899942 2.0569446087 40.780998230 150.92645264 0.6449855566  -999.250000  -999.250000 0.8409839869
 1613.1279297  -999.250000 14.192000389 -0.006002404 0.4663800001 2.0849552155 40.375000000 148.48594666 0.6459992528  -999.250000  -999.250000 0.8849647045
 1613.2802734  -999.250000 13.718998909 0.0039919876 0.4631700218 2.1049520969 39.750000000 146.46762085 0.6460000277  -999.250000  -999.250000 0.8840007782
 1613.4327393  -999.250000 13.677999496 0.0000032026 0.4744699895 2.0890257359 40.750000000 146.13825989 0.6509960294  -999.250000  -999.250000 0.8550232649
 1613.5850830  -999.250000 14.455000877 0.0019983975 0.4735400081 2.0790240765 40.000000000 147.08523560 0.6549967527  -999.250000  -999.250000 0.8260232210
 1613.7375488  -999.250000 13.350998878 0.0020000001 0.4815000296 2.0690159798 41.687999725 148.28004456 0.6500039697  -999.250000  -999.250000 0.8170071840
 1613.8898926  -999.250000 13.210000038 0.0089943903 0.4865499735 2.0839641094 38.969001770 148.72064209 0.6400079727  -999.250000  -999.250000 0.8209967613
 1614.0423584  -999.250000 13.307000160 0.0099991988 0.4930099845 2.0869951248 39.030998230 148.62808228 0.6220144033  -999.250000  -999.250000 0.8110079765
 1614.1947021  -999.250000 13.429000854 -0.001990385 0.5212699771 2.0700271130 32.625000000 148.77987671 0.6080111861  -999.250000  -999.250000 0.7670353055
 1614.3471680  -999.250000 13.220999718 -0.009993595 0.5259000063 2.0500319004 33.687999725 150.05798340 0.5980079770  -999.250000  -999.250000 0.7410207987
 1614.4995117  -999.250000 14.168998718 -0.012997597 0.5204600096 2.0480031967 30.500000000 151.90652466 0.5920048356  -999.250000  -999.250000 0.7190176249
 1614.6518555  -999.250000 13.814001083 -0.010004804 0.5074499846 2.0549831390 34.780998230 153.24186707 0.5870079994  -999.250000  -999.250000 0.7160048485
 1614.8043213  -999.250000 13.645999908 -0.013996796 0.5001199841 2.0460143089 34.437999725 153.34591675 0.5840023756  -999.250000  -999.250000 0.6970152259
 1614.9566650  -999.250000 14.145999908 -0.018991994 0.5156000257 2.0320336819 34.875000000 152.56425476 0.5820032358  -999.250000  -999.250000 0.7089807987
 1615.1091309  -999.250000 13.847999573 -0.027992789 0.5080199838 2.0200192928 34.344001770 151.36096191 0.5879951715  -999.250000  -999.250000 0.7479687929
 1615.2614746  -999.250000 13.824001312 -0.027001603 0.5155400038 2.0209975243 35.187999725 150.82984924 0.5949888229  -999.250000  -999.250000 0.8049087524
 1615.4139404  -999.250000 13.725000381 -0.023003206 0.5227199793 2.0269904137 40.625000000 150.69309998 0.6039927602  -999.250000  -999.250000 0.8169903755
 1615.5662842  -999.250000 13.732001305 -0.016005609 0.5344600081 2.0399687290 41.125000000 150.80590820 0.6179887652  -999.250000  -999.250000 0.7970160246
 1615.7187500  -999.250000 14.114001274 -0.010004804 0.5142599940 2.0459904671 41.719001770 151.21966553 0.6289911866  -999.250000  -999.250000 0.7820119858
 1615.8710938  -999.250000 14.267998695 -0.007002404 0.5082600117 2.0380194187 38.937999725 152.09230042 0.6329967976  -999.250000  -999.250000 0.7909927964
 1616.0235596  -999.250000 15.147999763 -0.003003203 0.4994699955 2.0290143490 37.469001770 153.73268127 0.6389951706  -999.250000  -999.250000 0.7959960103
 1616.1759033  -999.250000 14.256999969 -0.003999199 0.4969900250 2.0260071754 41.250000000 155.84330750 0.6449951530  -999.250000  -999.250000 0.7860080004
 1616.3283691  -999.250000 13.630999565 -0.004000000 0.4875899851 2.0220065117 47.812999725 157.56362915 0.6529936194  -999.250000  -999.250000 0.7680144310
 1616.4807129  -999.250000 13.248998642 -0.006997596 0.5065299869 2.0090208054 55.937999725 158.68110657 0.6569967866  -999.250000  -999.250000 0.7699983716
 1616.6330566  -999.250000 13.449000359 -0.005003202 0.5191400051 2.0070047379 53.155998230 158.95954895 0.6579983830  -999.250000  -999.250000 0.8049439788
 1616.7855225  -999.250000 13.449000359 -0.007997597 0.5118100047 2.0050032139 48.844001770 159.04792786 0.6550023556  -999.250000  -999.250000 0.8469663262
 1616.9378662  -999.250000 13.157999992 -0.008998399 0.4920700192 2.0099880695 45.437999725 159.27461243 0.6530032158  -999.250000  -999.250000 0.8479983807
 1617.0903320  -999.250000 13.076000214 -0.015994392 0.5113000274 1.9960224628 44.969001770 159.98942566 0.6549983621  -999.250000  -999.250000 0.8190232515
 1617.2426758  -999.250000 13.246000290 -0.013004804 0.5019900203 1.9940047264 43.312999725 160.93348694 0.6629871726  -999.250000  -999.250000 0.7780656219
 1617.3951416  -999.250000 13.871999741 -0.015997596 0.4808499813 1.9910048246 43.780998230 161.64543152 0.6629999876  -999.250000  -999.250000 0.7580160499
 1617.5474854  -999.250000 13.258998871 -0.016999200 0.4640800059 1.9979832172 41.125000000 161.62501526 0.6540071964  -999.250000  -999.250000 0.7859776020
 1617.6999512  -999.250000 13.145000458 -0.016000802 0.4772600234 2.0049889088 42.312999725 161.02546692 0.6440079808  -999.250000  -999.250000 0.8519471288
 1617.8522949  -999.250000 13.281999588 -0.011004006 0.4976599813 2.0069952011 46.125000000 160.11573792 0.6360064149  -999.250000  -999.250000 0.8619920015
 1618.0047607  -999.250000 13.652000427 -0.005004804 0.5011199713 2.0139887333 51.937999725 159.37559509 0.6290056109  -999.250000  -999.250000 0.8100416064
 1618.1571045  -999.250000 13.416999817 -0.004000802 0.5037200451 2.0139999390 56.750000000 159.11819458 0.6240040064  -999.250000  -999.250000 0.7600400448
 1618.3095703  -999.250000 13.732999802 -0.004999199 0.5002000332 2.0149984360 54.094001770 159.16993713 0.6180047989  -999.250000  -999.250000 0.7590007782
 1618.4619141  -999.250000 13.586999893 -0.004000802 0.4880199730 2.0159983635 56.250000000 159.38383484 0.6070088148  -999.250000  -999.250000 0.7490079999
 1618.6142578  -999.250000 14.114999771 -0.007993596 0.4988000095 2.0169975758 56.750000000 159.31410217 0.5990127921  -999.250000  -999.250000 0.7460048199
 1618.7667236  -999.250000 13.748000145 -0.008000000 0.5237399936 2.0239887238 53.469001770 159.23605347 0.5960023999  -999.250000  -999.250000 0.7440016270
 1618.9190674  -999.250000 13.171999931 -0.007001602 0.5354300141 2.0329782963 52.875000000 159.02532959 0.5930048227  -999.250000  -999.250000 0.7659647465
 1619.0715332  -999.250000 13.102999687 -0.001004808 0.5324100256 2.0409870148 53.280998230 158.42349243 0.5910016298  -999.250000  -999.250000 0.7779904008
 1619.2238770  -999.250000 13.166000366 0.0029935949 0.5044599771 2.0429952145 59.312999725 157.80700684 0.5910000205  -999.250000  -999.250000 0.7829920053
 1619.3763428  -999.250000 13.091999054 0.0000024038 0.5235700011 2.0350129604 58.905998230 157.16551208 0.5939975977  -999.250000  -999.250000 0.7630160451
 1619.5286865  -999.250000 13.635999680 -0.000999199 0.5494599938 2.0320072174 56.905998230 157.07408142 0.6019935608  -999.250000  -999.250000 0.7649983764
