# LAS format log file from PETREL
# Project units are specified as depth units
#==================================================================
~Version information
VERS.   2.0:
WRAP.   NO:
#==================================================================
~Well
STRT .m      3891.7941895 :
STOP .m      4561.5922852 :
STEP .m     0.00000000 :
NULL .        -999.250000 :
COMP.           : COMPANY
WELL.  30/3-5S   : WELL
FLD.            : FIELD
LOC.            : LOCATION
SRVC.           : SERVICE COMPANY
DATE.  2018-09-11 14:48:29   : Log Export Date {yyyy-MM-dd HH:mm:ss}
PROV.           : PROVINCE
UWI.   30/3-5 S   : UNIQUE WELL ID
API.            : API NUMBER
#==================================================================
~Curve
DEPT .m                   : DEPTH
Lithology_geolink ._      : Lithology_geolink
CALI .in                  : CALI
DRHO .g/cm3               : DRHO
NPHI .m3/m3               : NPHI
RHOB .g/cm3               : RHOB
PEF .b/e                  : PEF
GR .gAPI                  : GR
DTC .us/ft                : DTC
DTE .us/ft                : DTE
RDEP .ohm.m               : RDEP
RMED .ohm.m               : RMED
~Parameter
#==================================================================
~Ascii
# ...
 4202.6904297 2.0000000000 8.4218997955 -0.009500000 0.1454279125 2.4617383480 2.8380596638 27.737600327 64.482673645 70.064125061 13.520799637 16.292299271
 4202.8427734 2.0000000000 8.4329004288 -0.007000000 0.1474920064 2.4736750126 2.9928760529 27.997400284 64.087821960 69.619003296 13.318400383 15.672900200
 4202.9951172 2.0000000000 8.4375000000 -0.005400000 0.1509370059 2.4894814491 3.1479680538 29.275999069 64.260223389 69.592529297 13.001000404 14.819000244
 4203.1474609 2.0000000000 8.4320001602 -0.003500000 0.1566167176 2.4967746735 3.1516926289 31.786500931 64.458274841 69.988220215 12.516599655 13.873999596
 4203.2998047 2.0000000000 8.4242000580 -0.002500000 0.1611805856 2.4951300621 3.0424931049 36.697898865 64.538619995 70.227821350 11.983099937 12.940799713
 4203.4521484 2.0000000000 8.4273996353 -0.003600000 0.1661492735 2.4849801064 3.0180835724 40.544300079 64.736625671 70.437377930 11.507200241 12.101900101
 4203.6044922 2.0000000000 8.4296998978 -0.006600000 0.1704605073 2.4594833851 2.8715443611 41.858100891 66.669448853 72.312324524 11.087200165 11.418899536
 4203.7568359 2.0000000000 8.4242000580 -0.010600000 0.1694857478 2.4234631062 2.7214543819 40.924499512 70.341644287 76.003799438 10.697600365 10.913399696
 4203.9096680 2.0000000000 8.4218997955 -0.013800000 0.1691156179 2.3930923939 2.6889398098 40.402301788 72.843315125 79.044723511 10.342100143 10.570699692
 4204.0620117 5.0000000000 8.4218997955 -0.015400000 0.1817883253 2.3794207573 2.8252704144 43.097698212 73.719528198 79.963729858 9.9600000381 10.307299614
 4204.2143555 5.0000000000 8.4605998993 -0.015699999 0.2087428719 2.3743386269 2.9445111752 45.657501221 73.903923035 80.025756836 9.5946998596 10.035200119
 4204.3666992 5.0000000000 8.4820995331 -0.014000000 0.2315297276 2.3656005859 2.8623173237 50.145801544 74.043800354 80.050399780 9.3760004044 9.7427997589
 4204.5190430 5.0000000000 8.4400997162 -0.012800000 0.2342630625 2.3493649960 2.6899540424 49.381500244 74.275550842 80.588699341 9.2396001816 9.4736003876
 4204.6713867 5.0000000000 8.4218997955 -0.011700000 0.2248896509 2.3325135708 2.5031049252 46.569000244 75.386947632 81.921173096 9.1754999161 9.2988004684
 4204.8237305 2.0000000000 8.4218997955 -0.010200000 0.2161403745 2.3221261501 2.4595584869 41.075500488 76.683174133 83.102500916 9.1807003021 9.2578001022
 4204.9760742 2.0000000000 8.4218997955 -0.007500000 0.2120372802 2.3137896061 2.4707031250 37.863300323 76.871276855 83.538375854 9.1929998398 9.3464002609
 4205.1284180 2.0000000000 8.4218997955 -0.007000000 0.2102707624 2.3024616241 2.5169770718 36.148399353 76.913345337 83.344238281 9.2063999176 9.5212001801
 4205.2812500 1.0000000000 8.4218997955 -0.005800000 0.2116340250 2.2926282883 2.5092022419 35.390300751 76.727951050 83.156478882 9.2608003616 9.7333002090
 4205.4335938 1.0000000000 8.4218997955 -0.005300000 0.2131354362 2.2940874100 2.4688313007 35.989601135 76.775253296 83.030952454 9.3366003036 9.9462995529
 4205.5859375 1.0000000000 8.4218997955 -0.000900000 0.2147332430 2.3102071285 2.4957368374 36.303398132 75.944320679 82.523025513 9.4091997147 10.135100365
 4205.7382813 1.0000000000 8.4218997955 0.0003000000 0.2163475603 2.3260319233 2.5220038891 34.984401703 75.293426514 81.658126831 9.4961004257 10.287099838
 4205.8906250 1.0000000000 8.4218997955 -0.000700000 0.2179087400 2.3342847824 2.5775740147 32.733100891 74.460647583 80.728500366 9.5897998810 10.394499779
 4206.0429688 1.0000000000 8.4218997955 -0.005400000 0.2157027721 2.3382966518 2.6679375172 32.828098297 74.089973450 80.444747925 9.6393003464 10.455100060
 4206.1953125 1.0000000000 8.4218997955 -0.007800000 0.2137126923 2.3466677666 2.7877104282 34.019500732 74.274902344 80.522651672 9.6429004669 10.474300385
 4206.3476563 1.0000000000 8.4218997955 -0.009100000 0.2160777301 2.3568279743 2.8958833218 36.123699188 74.738853455 81.110023499 9.6295995712 10.460000038
 4206.5000000 1.0000000000 8.4218997955 -0.009500000 0.2178858519 2.3561327457 2.8333833218 37.375701904 76.079605103 82.430862427 9.5972995758 10.436499596
 4206.6528320 1.0000000000 8.4218997955 -0.008900000 0.2149293870 2.3496639729 2.7525041103 37.239601135 77.231796265 83.506195068 9.5637998581 10.402000427
 4206.8051758 1.0000000000 8.4218997955 -0.004900000 0.2107863128 2.3405041695 2.6840319633 33.751300812 77.516830444 84.248580933 9.4883003235 10.340800285
 4206.9575195 1.0000000000 8.4218997955 -0.001400000 0.2140568942 2.3306272030 2.6899726391 31.035800934 77.984001160 84.735519409 9.3613004684 10.226200104
 4207.1098633 1.0000000000 8.4218997955 -0.003200000 0.2204676569 2.3159551620 2.6531324387 30.406900406 78.165000916 84.849571228 9.1820001602 10.038100243
 4207.2622070 1.0000000000 8.4218997955 -0.004600000 0.2247135639 2.3043353558 2.5636143684 32.212200165 77.984725952 84.505294800 8.9701004028 9.7663002014
 4207.4145508 1.0000000000 8.4218997955 -0.004600000 0.2273227274 2.3008239269 2.5113880634 31.950500488 76.913047791 83.609024048 8.7679004669 9.4416999817
 4207.5668945 1.0000000000 8.4218997955 -0.007000000 0.2267391235 2.3009545803 2.4873797894 32.151000977 76.497596741 82.940322876 8.5559997559 9.1002998352
 4207.7192383 1.0000000000 8.4218997955 -0.009500000 0.2242900580 2.3031394482 2.5585937500 33.845001221 76.222000122 82.862449646 8.3261995316 8.7620000839
 4207.8720703 1.0000000000 8.4218997955 -0.008300000 0.2201163918 2.3085768223 2.6125676632 35.035900116 76.680603027 83.069816589 8.0583000183 8.4202995300
 4208.0244141 1.0000000000 8.4218997955 -0.006700000 0.2173386216 2.3167796135 2.6575269699 34.307300568 76.910278320 83.326400757 7.7274999619 8.0464000702
 4208.1767578 1.0000000000 8.4218997955 -0.006500000 0.2158866227 2.3232533932 2.6574833393 31.969400406 76.964500427 83.357627869 7.3759999275 7.6209001541
 4208.3291016 1.0000000000 8.4218997955 -0.004700000 0.2146408856 2.3221302032 2.6362805367 31.293600082 76.312721252 82.967453003 7.0078001022 7.1462998390
 4208.4814453 1.0000000000 8.4218997955 -0.003200000 0.2172813416 2.3155503273 2.6644256115 31.210899353 76.269752502 82.569076538 6.6715002060 6.6579999924
 4208.6337891 1.0000000000 8.4218997955 -0.003000000 0.2195257545 2.3103063107 2.7118735313 32.440101624 75.573455811 82.182876587 6.3622999191 6.2056999207
 4208.7861328 1.0000000000 8.4218997955 -0.000400000 0.2215592116 2.3143067360 2.7587139606 32.924499512 74.644653320 80.749977112 6.0327000618 5.8235998154
 4208.9384766 1.0000000000 8.4218997955 0.0015000000 0.2221783847 2.3240802288 2.8532152176 33.459598541 72.884498596 79.010650635 5.6929001808 5.5139999390
 4209.0908203 1.0000000000 8.4218997955 -0.001500000 0.2230760008 2.3333787918 2.9316406250 32.492198944 72.332130432 78.505821228 5.3779001236 5.2498002052
 4209.2436523 1.0000000000 8.4218997955 -0.005900000 0.2199047506 2.3433051109 2.9522862434 31.977800369 72.935699463 78.996330261 5.1090002060 5.0068001747
 4209.3959961 1.0000000000 8.4218997955 -0.009900000 0.2114688009 2.3561017513 2.9332745075 30.541000366 73.995819092 80.325027466 4.8331999779 4.7715001106
 4209.5483398 1.0000000000 8.4218997955 -0.013400000 0.2030182183 2.3685028553 2.9115083218 30.617200851 75.942924500 82.313301086 4.6061000824 4.5536999702
 4209.7006836 1.0000000000 8.4218997955 -0.014800000 0.2021061480 2.3720881939 2.8563013077 28.975900650 77.427276611 83.954322815 4.4085001945 4.3621001244
 4209.8530273 1.0000000000 8.4218997955 -0.015699999 0.2085825056 2.3566381931 2.7447667122 30.777299881 78.072204590 84.647247314 4.2132000923 4.1978998184
 4210.0053711 1.0000000000 8.4218997955 -0.015400000 0.2175260782 2.3296394348 2.6279702187 31.135400772 78.076553345 84.754623413 4.0441999435 4.0500001907
 4210.1577148 1.0000000000 8.4218997955 -0.014400000 0.2220761180 2.3063323498 2.6036658287 32.437500000 78.349853516 84.662681580 3.8942999840 3.9096000195
 4210.3100586 1.0000000000 8.4218997955 -0.012300000 0.2212581635 2.2947542667 2.5985577106 31.975900650 77.798873901 84.420028687 3.7685999870 3.7806000710
