# LAS format log file from PETREL
# Project units are specified as depth units
#==================================================================
~Version information
VERS.   2.0:
WRAP.   NO:
#==================================================================
~Well
STRT .m      579.75000000 :
STOP .m      3292.5014648 :
STEP .m     0.00000000 :
NULL .        -999.250000 :
COMP.           : COMPANY
WELL.  30/3-4R   : WELL
FLD.            : FIELD
LOC.            : LOCATION
SRVC.           : SERVICE COMPANY
DATE.  2018-09-11 14:48:28   : Log Export Date {yyyy-MM-dd HH:mm:ss}
PROV.           : PROVINCE
UWI.   30/3-4 R   : UNIQUE WELL ID
API.            : API NUMBER
#==================================================================
~Curve
DEPT .m                   : DEPTH
Lithology_geolink ._      : Lithology_geolink
CALI .in                  : CALI
DRHO .g/cm3               : DRHO
NPHI .m3/m3               : NPHI
RHOB .g/cm3               : RHOB
GR .gAPI                  : GR
DTC .us/ft                : DTC
DTE .us/ft                : DTE
RDEP .ohm.m               : RDEP
SP .mV                    : SP
RSHA .ohm.m               : RSHA
RMED .ohm.m               : RMED
~Parameter
#==================================================================
~Ascii
# ...
 1299.7497559  -999.250000 17.424999237 0.0390000008  -999.250000 2.1319999695 70.537002563 148.17300415 144.23776245 0.9179999828 46.856998444 1.1380000114 0.9250000119
 1299.8751221  -999.250000 17.422000885 0.0379999988  -999.250000 2.1349999905 70.944000244 147.94042969 144.01591492 0.9010000229 48.236999512 1.1330000162 0.9160000086
 1300.0000000  -999.250000 17.420999527 0.0390000008  -999.250000 2.1370000839 71.794998169 147.93771362 144.00877380 0.8899999857 48.084999084 1.1260000467 0.9070000052
 1300.1251221  -999.250000 17.422000885 0.0410000011  -999.250000 2.1380000114 72.703002930 148.16523743 144.25050354 0.8849999905 46.432998657 1.1180000305 0.8989999890
 1300.2498779  -999.250000 17.426000595 0.0430000015  -999.250000 2.1389999390 73.161003113 148.65304565 144.73519897 0.8889999986 43.986999512 1.1069999933 0.9010000229
 1300.3750000  -999.250000 17.433000565 0.0450000018  -999.250000 2.1370000839 72.960998535 149.31533813 145.34443665 0.8999999762 41.840999603 1.0939999819 0.9240000248
 1300.4997559  -999.250000 17.441999435 0.0450000018  -999.250000 2.1329998970 72.260002136 149.93444824 145.98103333 0.9160000086 40.518001556 1.0809999704 0.9649999738
 1300.6252441  -999.250000 17.458000183 0.0460000001  -999.250000 2.1289999485 71.670997620 150.47994995 146.55976868 0.9330000281 40.068000793 1.0740000010 1.0140000582
 1300.7501221  -999.250000 17.486000061 0.0480000004  -999.250000 2.1250000000 71.791000366 150.87753296 146.95356750 0.9499999881 40.465999603 1.0759999752 1.0479999781
 1300.8748779  -999.250000 17.524999619 0.0489999987  -999.250000 2.1240000725 72.477996826 150.96786499 147.01142883 0.9660000205 41.814998627 1.0880000591 1.0509999990
 1301.0001221  -999.250000 17.565999985 0.0480000004  -999.250000 2.1250000000 73.263000488 150.38150024 146.44354248 0.9829999804 44.087001801 1.1059999466 1.0260000229
 1301.1250000  -999.250000 17.600999832 0.0439999998  -999.250000 2.1270000935 73.800003052 149.33149719 145.42884827 1.0039999485 46.895999908 1.1210000515 0.9900000095
 1301.2500000  -999.250000 17.629999161 0.0410000011  -999.250000 2.1310000420 74.078002930 148.15785217 144.26612854 1.0269999504 49.282001495 1.1299999952 0.9580000043
 1301.3748779  -999.250000 17.663999557 0.0390000008  -999.250000 2.1349999905 74.268997192 147.19177246 143.26747131 1.0520000458 50.215000153 1.1299999952 0.9369999766
 1301.5000000  -999.250000 17.715999603 0.0359999985  -999.250000 2.1359999180 74.502998352 146.68310547 142.70098877 1.0759999752 49.583000183 1.1239999533 0.9240000248
 1301.6247559  -999.250000 17.787000656 0.0309999995  -999.250000 2.1340000629 74.800003052 146.68164063 142.74150085 1.0939999819 47.904998779 1.1180000305 0.9120000005
 1301.7498779  -999.250000 17.864999771 0.0250000004  -999.250000 2.1319999695 75.314002991 147.12873840 143.21157837 1.1039999723 46.042999268 1.1119999886 0.8980000019
 1301.8751221  -999.250000 17.934000015 0.0240000002  -999.250000 2.1310000420 76.077003479 147.68623352 143.74537659 1.1059999466 44.652999878 1.1080000401 0.8790000081
 1301.9998779  -999.250000 17.982999802 0.0320000015  -999.250000 2.1370000839 76.814002991 148.13250732 144.16844177 1.1000000238 43.831001282 1.1059999466 0.8579999804
 1302.1247559  -999.250000 18.010999680 0.0439999998  -999.250000 2.1449999809 77.200996399 148.35142517 144.39292908 1.0880000591 43.546001434 1.1039999723 0.8360000253
 1302.2502441  -999.250000 18.020999908 0.0560000017  -999.250000 2.1489999294 77.212997437 148.34367371 144.41003418 1.0720000267 43.846000671 1.1019999981 0.8149999976
 1302.3750000  -999.250000 18.020999908 0.0599999987  -999.250000 2.1480000019 77.183998108 148.14884949 144.23823547 1.0570000410 44.742000580 1.1000000238 0.7960000038
 1302.5001221  -999.250000 18.016000748 0.0579999983  -999.250000 2.1419999599 77.250000000 147.95211792 144.02658081 1.0449999571 45.908000946 1.0959999561 0.7789999843
 1302.6248779  -999.250000 18.013000488 0.0540000014  -999.250000 2.1370000839 77.226997375 147.87368774 143.94026184 1.0369999409 46.919998169 1.0939999819 0.7630000114
 1302.7500000  -999.250000 18.010999680 0.0489999987  -999.250000 2.1319999695 76.850997925 148.02252197 144.08879089 1.0329999924 47.576000214 1.0930000544 0.7480000257
 1302.8748779  -999.250000 18.007999420 0.0460000001  -999.250000 2.1289999485 76.132003784 148.46038818 144.52192688 1.0329999924 48.141998291 1.0950000286 0.7360000014
 1303.0002441  -999.250000 18.002000809 0.0419999994  -999.250000 2.1270000935 75.386001587 149.14648438 145.20382690 1.0340000391 49.013000488 1.0989999771 0.7269999981
 1303.1251221  -999.250000 17.990999222 0.0390000008  -999.250000 2.1270000935 75.004997253 149.82995605 145.93533325 1.0369999409 50.148998260 1.1059999466 0.7229999900
 1303.2498779  -999.250000 17.976999283 0.0359999985  -999.250000 2.1270000935 75.114997864 150.37257385 146.48017883 1.0390000343 50.951000214 1.1160000563 0.7229999900
 1303.3751221  -999.250000 17.966999054 0.0370000005  -999.250000 2.1259999275 75.638999939 150.66548157 146.77571106 1.0429999828 50.544998169 1.1299999952 0.7260000110
 1303.5000000  -999.250000 17.965999603 0.0410000011  -999.250000 2.1250000000 76.389999390 150.70729065 146.81576538 1.0460000038 48.723999023 1.1460000277 0.7289999723
 1303.6251221  -999.250000 17.972999573 0.0460000001  -999.250000 2.1259999275 77.033996582 150.59791565 146.64741516 1.0499999523 45.963001251 1.1610000134 0.7289999723
 1303.7498779  -999.250000 17.979999542 0.0520000011  -999.250000 2.1300001144 77.253997803 150.30401611 146.32559204 1.0559999943 43.280998230 1.1729999781 0.7279999852
 1303.8750000  -999.250000 17.982000351 0.0579999983  -999.250000 2.1359999180 77.055999756 149.92840576 145.95260620 1.0629999638 41.865001678 1.1799999475 0.7269999981
 1303.9997559  -999.250000 17.979999542 0.0630000010  -999.250000 2.1419999599 76.730003357 149.53804016 145.58462524 1.0729999542 42.339000702 1.1859999895 0.7260000110
 1304.1248779  -999.250000 17.975999832 0.0659999996  -999.250000 2.1440000534 76.558998108 149.18598938 145.24687195 1.0839999914 44.675998688 1.1920000315 0.7269999981
 1304.2501221  -999.250000 17.972000122 0.0649999976  -999.250000 2.1410000324 76.545997620 148.89237976 144.95581055 1.0939999819 48.141998291 1.2009999752 0.7269999981
 1304.3748779  -999.250000 17.959999084 0.0549999997  -999.250000 2.1310000420 76.577003479 148.59953308 144.72062683 1.1009999514 51.388000488 1.2100000381 0.7279999852
 1304.4997559  -999.250000 17.934000015 0.0399999991  -999.250000 2.1199998856 76.511001587 148.49510193 144.55961609 1.1059999466 53.455001831 1.2180000544 0.7289999723
 1304.6252441  -999.250000 17.895999908 0.0280000009  -999.250000 2.1150000095 76.444000244 148.39691162 144.47547913 1.1089999676 53.986000061 1.2250000238 0.7310000062
 1304.7500000  -999.250000 17.857999802 0.0250000004  -999.250000 2.1199998856 76.525001526 148.40299988 144.49194336 1.1130000353 53.062000275 1.2289999723 0.7340000272
 1304.8751221  -999.250000 17.832000732 0.0320000015  -999.250000 2.1310000420 76.691001892 148.53146362 144.61593628 1.1180000305 51.154998779 1.2319999933 0.7350000143
 1305.0000000  -999.250000 17.812999725 0.0399999991  -999.250000 2.1410000324 76.841003418 148.73553467 144.83821106 1.1250000000 48.777000427 1.2330000401 0.7350000143
 1305.1250000  -999.250000 17.784000397 0.0419999994  -999.250000 2.1470000744 76.961997986 149.02888489 145.14326477 1.1360000372 46.344001770 1.2339999676 0.7350000143
 1305.2498779  -999.250000 17.732000351 0.0359999985  -999.250000 2.1449999809 76.992996216 149.40719604 145.46083069 1.1519999504 44.442001343 1.2359999418 0.7369999886
 1305.3752441  -999.250000 17.659999847 0.0250000004  -999.250000 2.1389999390 76.850997925 149.73519897 145.75364685 1.1699999571 43.686000824 1.2380000353 0.7440000176
 1305.5001221  -999.250000 17.586000443 0.0179999992  -999.250000 2.1349999905 76.532997131 149.98614502 145.99926758 1.1890000105 44.419998169 1.2410000563 0.7540000081
 1305.6248779  -999.250000 17.527000427 0.0179999992  -999.250000 2.1359999180 76.132003784 150.14054871 146.17703247 1.2050000429 46.676998138 1.2480000257 0.7649999857
