# LAS format log file from PETREL
# Project units are specified as depth units
#==================================================================
~Version information
VERS.   2.0:
WRAP.   NO:
#==================================================================
~Well
STRT .m      3891.7941895 :
STOP .m      4561.5922852 :
STEP .m     0.00000000 :
NULL .        -999.250000 :
COMP.           : COMPANY
WELL.  30/3-5S   : WELL
FLD.            : FIELD
LOC.            : LOCATION
SRVC.           : SERVICE COMPANY
DATE.  2018-09-11 14:48:29   : Log Export Date {yyyy-MM-dd HH:mm:ss}
PROV.           : PROVINCE
UWI.   30/3-5 S   : UNIQUE WELL ID
API.            : API NUMBER
#==================================================================
~Curve
DEPT .m                   : DEPTH
Lithology_geolink ._      : Lithology_geolink
CALI .in                  : CALI
DRHO .g/cm3               : DRHO
NPHI .m3/m3               : NPHI
RHOB .g/cm3               : RHOB
PEF .b/e                  : PEF
GR .gAPI                  : GR
DTC .us/ft                : DTC
DTE .us/ft                : DTE
RDEP .ohm.m               : RDEP
RMED .ohm.m               : RMED
~Parameter
#==================================================================
~Ascii
# ...
 4241.5522461 5.0000000000 8.8835000992 0.0003000000 0.2217317522 2.5450067520 3.2598528862 83.861999512 84.656677246 73.838424683 6.3990998268 6.6431999207
 4241.7045898 6.0000000000 8.8017997742 0.0001000000 0.2227648348 2.5568563938 3.4417066574 91.513000488 84.254676819 73.810424805 6.3612999916 6.5724000931
 4241.8569336 6.0000000000 8.8421001434 -0.000400000 0.2256002873 2.5734941959 3.6397235394 95.447898865 85.512176514 74.936027527 6.3365998268 6.5230998993
 4242.0092773 6.0000000000 8.9556999207 0.0012000001 0.2336169481 2.5824832916 3.9420073032 93.018203735 86.808547974 76.097221375 6.3319997787 6.5173001289
 4242.1621094 6.0000000000 8.9091997147 0.0037000000 0.2414373308 2.5727281570 4.1967520714 85.622398376 86.637504578 76.044349670 6.3293671608 6.5609998703
 4242.3144531 5.0000000000 8.7586002350 0.0024999999 0.2381634116 2.5532462597 4.3391427994 75.411697388 84.790847778 74.204650879 6.3505682945 6.6529002190
 4242.4667969 5.0000000000 8.6335000992 0.0040000002 0.2222244740 2.5537719727 4.4164414406 66.539100647 81.756271362 71.303871155 6.4346332550 6.7943000793
 4242.6191406 5.0000000000 8.5794000626 0.0098999999 0.2043750584 2.5889084339 4.1862854958 62.925800323 80.224700928 69.499603271 6.6010665894 6.9976000786
 4242.7714844 5.0000000000 8.5757999420 0.0133999996 0.1983439922 2.6319780350 3.9526367188 63.070301056 80.735229492 70.151306152 6.8090071678 7.2699999809
 4242.9238281 5.0000000000 8.6444997787 0.0129000004 0.2139125764 2.6450345516 3.7755653858 66.464797974 82.693473816 71.984603882 6.9984002113 7.5961999893
 4243.0761719 6.0000000000 8.6275997162 0.0089999996 0.2414072305 2.6223559380 3.6658654213 75.807296753 84.575149536 74.138626099 7.1476001740 7.9222002029
 4243.2285156 6.0000000000 8.5817003250 0.0074000000 0.2621628046 2.5975639820 3.6625599861 83.552101135 86.434494019 75.720855713 7.2206997871 8.1649999619
 4243.3813477 6.0000000000 8.6311998367 0.0074999998 0.2634823620 2.5906872749 3.6340143681 89.226600647 86.692321777 76.180938721 7.2956619263 8.2597999573
 4243.5336914 6.0000000000 8.6949996948 0.0097000012 0.2580801249 2.5961794853 3.6459584236 90.413497925 86.956878662 76.255371094 7.4397163391 8.1902999878
 4243.6860352 6.0000000000 8.7109003067 0.0065000001 0.2604328692 2.6005713940 3.5401329994 91.179702759 86.964271545 76.278121948 7.5379614830 8.0012998581
 4243.8383789 6.0000000000 8.7109003067 0.0055000000 0.2666357756 2.6050457954 3.4787535667 91.296897888 87.089149475 76.187828064 7.4945521355 7.7825999260
 4243.9907227 6.0000000000 8.7330999374 0.0063999998 0.2645123899 2.6103050709 3.5107295513 92.427101135 87.011451721 76.284278870 7.3549466133 7.6135997772
 4244.1430664 6.0000000000 8.7256002426 0.0070000002 0.2604124248 2.6115252972 3.6550669670 96.966102600 86.995422363 76.110076904 7.2448539734 7.5233001709
 4244.2954102 6.0000000000 8.7131996155 0.0063000000 0.2552568913 2.6097514629 3.7673971653 100.08589935 86.878875732 76.162124634 7.1993999481 7.4984002113
 4244.4477539 6.0000000000 8.6833000183 0.0091000004 0.2535769343 2.6011602879 3.7134916782 99.447898865 87.534957886 76.677749634 7.1526999474 7.5015997887
 4244.6000977 6.0000000000 8.7548999786 0.0082999999 0.2503280640 2.5884819031 3.5659556389 95.041702271 87.011329651 76.458602905 7.1339998245 7.5093998909
 4244.7529297 6.0000000000 8.7447996140 0.0060000001 0.2526644766 2.5777332783 3.4448742867 92.729202271 87.089149475 76.300628662 7.1799864769 7.5089998245
 4244.9052734 6.0000000000 8.7597999573 0.0081000002 0.2568820119 2.5766179562 3.4555976391 94.432296753 87.143379211 76.481025696 7.2381930351 7.5022997856
 4245.0576172 6.0000000000 8.7292003632 0.0100999996 0.2589399219 2.5800633430 3.5020782948 96.843803406 87.672378540 76.837997437 7.2983117104 7.5000000000
 4245.2099609 6.0000000000 8.7109003067 0.0102000004 0.2638658285 2.5838837624 3.5365083218 100.64320374 87.816101074 77.190925598 7.3331017494 7.5194001198
 4245.3623047 6.0000000000 8.7109003067 0.0088999998 0.2729003131 2.5873687267 3.5222041607 100.21089935 87.948402405 77.214775085 7.3648920059 7.5605001450
 4245.5146484 6.0000000000 8.7109003067 0.0088999998 0.2764884531 2.5924091339 3.5056595802 97.375000000 87.369651794 76.677124023 7.4247999191 7.6213002205
 4245.6669922 6.0000000000 8.7995004654 0.0091000004 0.2661232650 2.5958421230 3.4711537361 97.828102112 86.785156250 75.982704163 7.4425001144 7.6876997948
 4245.8193359 6.0000000000 8.7529001236 0.0105999997 0.2504473627 2.5997748375 3.5208833218 95.984397888 86.262123108 75.700119019 7.4635000229 7.7375001907
 4245.9716797 6.0000000000 8.7131996155 0.0092000002 0.2457487136 2.5988390446 3.5533354282 94.158798218 86.621177673 76.093612671 7.4948000908 7.7554998398
 4246.1245117 6.0000000000 8.7109003067 0.0082999999 0.2531082630 2.5948128700 3.5258977413 88.145797729 87.479598999 76.821716309 7.5427579880 7.7550001144
 4246.2768555 6.0000000000 8.7109003067 0.0076000001 0.2631635368 2.5893244743 3.4408116341 83.064102173 88.156349182 77.509399414 7.5918526649 7.7621998787
 4246.4291992 6.0000000000 8.7220001221 0.0057000001 0.2666721344 2.5840263367 3.4820649624 83.177101135 88.866302490 77.952423096 7.6083455086 7.8015999794
 4246.5815430 6.0000000000 8.8150997162 0.0009000000 0.2634566128 2.5784747601 3.5780186653 84.174499512 88.378074646 77.677299500 7.6538186073 7.8856000900
 4246.7338867 6.0000000000 8.7686004639 0.0007000000 0.2620263696 2.5812103748 3.7958545685 89.200500488 87.663810730 76.807220459 7.7219338417 7.9860000610
 4246.8862305 6.0000000000 8.7178001404 -0.000400000 0.2594700754 2.5954501629 4.0298771858 89.239601135 86.247070313 75.780647278 7.7947998047 8.0710000992
 4247.0385742 6.0000000000 8.7109003067 -0.001500000 0.2541082203 2.6190769672 4.1775841713 87.375000000 85.660552979 74.939476013 7.8136000633 8.1104001999
 4247.1909180 6.0000000000 8.7109003067 -0.001200000 0.2488966882 2.6403930187 4.1481370926 85.697898865 85.231697083 74.620468140 7.8235998154 8.1171998978
 4247.3437500 6.0000000000 8.7109003067 0.0031999999 0.2530158162 2.6477844715 3.9694511890 88.950500488 85.307136536 74.387092590 7.8337340355 8.1171998978
 4247.4960938 6.0000000000 8.7109003067 0.0009000000 0.2646069825 2.6345076561 3.7452049255 93.558700562 83.863563538 73.112754822 7.8442287445 8.1393995285
 4247.6484375 6.0000000000 8.7109003067 0.0008000000 0.2719719112 2.6135528088 3.5570662022 95.919296265 81.874298096 71.024131775 7.8531627655 8.1927003860
 4247.8007813 6.0000000000 8.7109003067 0.0020999999 0.2681660950 2.6021192074 3.4905223846 91.505203247 80.224700928 69.676139832 7.8419098854 8.2607002258
 4247.9531250 6.0000000000 8.6833000183 0.0020000001 0.2556879222 2.6141707897 3.6529948711 84.054702759 80.319625854 69.653152466 7.9391894341 8.3199996948
 4248.1054688 6.0000000000 8.6220998764 0.0022000000 0.2405793220 2.6426782608 3.7750785351 78.403602600 81.303535461 70.811592102 8.2163105011 8.3802003860
 4248.2578125 6.0000000000 8.6789999008 0.0020000001 0.2301311195 2.6605203152 3.8007812500 77.486999512 83.816001892 72.979896545 8.4065999985 8.4980001450
 4248.4101563 6.0000000000 8.7109003067 0.0012000001 0.2319069654 2.6527912617 3.8566706181 81.716102600 85.566802979 75.033828735 8.4287004471 8.7383003235
 4248.5625000 6.0000000000 8.7054004669 -0.002900000 0.2479166687 2.6275017262 3.8966345787 86.739601135 87.011451721 76.066673279 8.3997001648 9.0970001221
 4248.7153320 6.0000000000 8.6976003647 -0.000600000 0.2663008273 2.6083230972 3.8693284988 91.268203735 87.183578491 76.586372375 8.4074172974 9.4600000381
 4248.8676758 6.0000000000 8.6288003922 0.0017000000 0.2769334018 2.6025557518 3.7056665421 94.247001648 87.519989014 76.908477783 8.4742641449 9.6178998947
 4249.0200195 6.0000000000 8.6513996124 0.0044999998 0.2782224417 2.6029202938 3.6724822521 94.804702759 88.140975952 77.212104797 8.2443103790 9.4247999191
 4249.1723633 6.0000000000 8.6995000839 0.0023000001 0.2763374746 2.5997743607 3.7559783459 94.528602600 88.415809631 77.552078247 7.9047346115 8.9485998154
