# LAS format log file from PETREL
# Project units are specified as depth units
#==================================================================
~Version information
VERS.   2.0:
WRAP.   NO:
#==================================================================
~Well
STRT .m      3891.7941895 :
STOP .m      4561.5922852 :
STEP .m     0.00000000 :
NULL .        -999.250000 :
COMP.           : COMPANY
WELL.  30/3-5S   : WELL
FLD.            : FIELD
LOC.            : LOCATION
SRVC.           : SERVICE COMPANY
DATE.  2018-09-11 14:48:29   : Log Export Date {yyyy-MM-dd HH:mm:ss}
PROV.           : PROVINCE
UWI.   30/3-5 S   : UNIQUE WELL ID
API.            : API NUMBER
#==================================================================
~Curve
DEPT .m                   : DEPTH
Lithology_geolink ._      : Lithology_geolink
CALI .in                  : CALI
DRHO .g/cm3               : DRHO
NPHI .m3/m3               : NPHI
RHOB .g/cm3               : RHOB
PEF .b/e                  : PEF
GR .gAPI                  : GR
DTC .us/ft                : DTC
DTE .us/ft                : DTE
RDEP .ohm.m               : RDEP
RMED .ohm.m               : RMED
~Parameter
#==================================================================
~Ascii
# ...
 4288.1865234 7.0000000000 8.7360000610 0.0055999998 0.3241359591 2.6006000042 3.4288923740 107.26014709 93.493324280 82.608009338 5.0736999512 5.1936998367
 4288.3388672 7.0000000000 8.7109003067 0.0049000001 0.3237280846 2.5999438763 3.5105731487 109.48246002 93.296600342 82.529624939 5.0675001144 5.1886000633
 4288.4912109 7.0000000000 8.7109003067 0.0051000002 0.3159803748 2.5966999531 3.6330933571 109.59595490 93.086997986 82.628173828 5.0692000389 5.1847000122
 4288.6435547 7.0000000000 8.7109003067 0.0073000002 0.3050632477 2.5914998055 3.6535456181 111.94654083 93.411819458 82.666549683 5.0703001022 5.1835999489
 4288.7958984 7.0000000000 8.7109003067 0.0076000001 0.2976864874 2.5884499550 3.5587439537 111.69094849 93.761703491 82.885665894 5.0536999702 5.1835999489
 4288.9487305 7.0000000000 8.7109003067 0.0078999996 0.2940715849 2.5942916870 3.4574694633 114.00260162 93.855621338 83.183830261 5.0385999680 5.1835999489
 4289.1010742 7.0000000000 8.7109003067 0.0088000000 0.3027231097 2.6056458950 3.4497759342 114.52339935 94.075096130 83.219429016 5.0378999710 5.1835999489
 4289.2534180 7.0000000000 8.7109003067 0.0063000000 0.3231959343 2.6099684238 3.4489808083 114.78119659 93.864677429 83.226058960 5.0500998497 5.1807999611
 4289.4057617 7.0000000000 8.7109003067 0.0023000001 0.3362505734 2.6058681011 3.5344111919 114.77860260 93.854728699 83.351028442 5.0685000420 5.1824998856
 4289.5581055 7.0000000000 8.7109003067 -0.002000000 0.3316462934 2.5972607136 3.7374987602 114.11412811 94.075096130 83.260200500 5.0880999565 5.2030000687
 4289.7104492 7.0000000000 8.7109003067 -0.002300000 0.3192634881 2.5936222076 3.8780202866 110.30135345 93.492599487 82.753677368 5.1104001999 5.2441000938
 4289.8627930 7.0000000000 8.7109003067 -0.001100000 0.3115414083 2.5933749676 3.7513520718 106.74040985 91.603302002 81.037025452 5.1448998451 5.3077001572
 4290.0151367 6.0000000000 8.7109003067 0.0009000000 0.3022212088 2.5966999531 3.4471154213 101.86194611 89.239898682 78.731575012 5.2171001434 5.3917999268
 4290.1674805 6.0000000000 8.7109003067 0.0018000000 0.2793076932 2.6038000584 3.2217547894 99.177879333 87.809738159 76.880210876 5.3529000282 5.4927000999
 4290.3203125 6.0000000000 8.7109003067 0.0057000001 0.2544885874 2.6120419502 3.1212565899 95.075500488 86.320327759 75.522148132 5.5008001328 5.6119999886
 4290.4726563 6.0000000000 8.6942996979 0.0068999999 0.2341561466 2.6133918762 3.1182579994 95.510398865 85.336547852 74.708702087 5.6398000717 5.7618999481
 4290.6250000 6.0000000000 8.6875000000 0.0049999999 0.2284338027 2.6027629375 3.0599083900 95.825500488 86.066528320 75.200271606 5.7793002129 5.9496998787
 4290.7773438 6.0000000000 8.6985998154 0.0051000002 0.2347337306 2.5916945934 3.0125889778 93.683967590 87.157424927 76.338798523 5.8977999687 6.1627998352
 4290.9296875 6.0000000000 8.6864995956 0.0038999999 0.2358808964 2.5843474865 2.9174053669 91.465408325 87.529525757 77.074272156 6.0015997887 6.3677000999
 4291.0820313 6.0000000000 8.6851997375 0.0040000002 0.2226856202 2.5836501122 2.8543517590 92.862686157 87.699378967 76.960624695 6.0700001717 6.5060000420
 4291.2343750 6.0000000000 8.6985998154 0.0020000001 0.2039165497 2.5842251778 2.8790564537 96.468620300 87.015823364 76.221847534 6.0665001869 6.5391001701
 4291.3867188 6.0000000000 8.6809997559 0.0013000000 0.1942159086 2.5849249363 3.0007512569 95.635513306 85.762176514 75.222099304 6.0336999893 6.4643998146
 4291.5390625 6.0000000000 8.6940002441 -0.001200000 0.1912682652 2.5824749470 3.0943510532 94.638595581 85.111373901 74.200416565 6.0206999779 6.3312001228
 4291.6918945 6.0000000000 8.6864995956 0.0005000000 0.1889488846 2.5807304382 3.0967359543 92.747398376 84.832000732 74.087821960 6.0029001236 6.2032999992
 4291.8442383 6.0000000000 8.6962995529 0.0008000000 0.1939332038 2.5832154751 3.0743000507 93.062500000 85.150253296 74.669570923 5.9517998695 6.1265001297
 4291.9965820 6.0000000000 8.7031002045 0.0014000000 0.2145818174 2.5885725021 3.0474259853 93.101600647 86.344848633 75.458648682 5.8866000175 6.1010999680
 4292.1489258 6.0000000000 8.6809997559 0.0022000000 0.2451840639 2.5953445435 2.9933454990 95.938804626 87.436477661 76.603576660 5.8477997780 6.0977001190
 4292.3012695 6.0000000000 8.6718997955 0.0052000000 0.2705797255 2.6002786160 3.0159442425 101.99356079 88.683074951 77.980346680 5.8371000290 6.0865998268
 4292.4536133 6.0000000000 8.6829004288 0.0026000000 0.2782454491 2.6022498608 3.1056060791 103.55234528 89.259780884 78.849426270 5.7972002029 6.0487999916
 4292.6059570 6.0000000000 8.6764001846 0.0018000000 0.2705993652 2.6054499149 3.2902643681 104.65696716 90.002044678 79.329376221 5.7091999054 5.9907999039
 4292.7583008 6.0000000000 8.6386995316 0.0011000000 0.2594397962 2.6089000702 3.5444712639 103.02346802 90.522415161 79.771438599 5.6160001755 5.9229001999
 4292.9111328 6.0000000000 8.6028995514 0.0011000000 0.2532361150 2.6147420406 3.8455467224 103.98439789 90.599121094 80.173797607 5.5622000694 5.8498001099
 4293.0634766 6.0000000000 8.6436004639 0.0024999999 0.2485763431 2.6204218864 3.7912409306 103.64320374 91.378723145 80.667778015 5.5507998466 5.7838997841
 4293.2158203 6.0000000000 8.6142997742 0.0071000000 0.2414354086 2.6264367104 3.5454602242 104.60420227 91.821769714 81.086006165 5.5507998466 5.7297000885
 4293.3681641 6.0000000000 8.5770998001 0.0093000000 0.2321582735 2.6298582554 3.3279998302 104.92189789 91.064201355 80.634048462 5.5645999908 5.7065000534
 4293.5205078 6.0000000000 8.5703001022 0.0143999998 0.2273262143 2.6315720081 3.3140211105 107.02600098 90.413124084 79.575897217 5.5952000618 5.7336001396
 4293.6728516 6.0000000000 8.5703001022 0.0194000024 0.2297982424 2.6283001900 3.3780202866 106.47660065 89.110847473 78.471275330 5.6497001648 5.8207998276
 4293.8251953 6.0000000000 8.5703001022 0.0185000002 0.2331517339 2.6177749634 3.4414062500 105.43170166 88.535125732 77.905601501 5.7316999435 5.9623999596
 4293.9775391 6.0000000000 8.5703001022 0.0173000004 0.2306274474 2.6077499390 3.5456731319 101.04429626 88.406951904 77.508132935 5.8186998367 6.1268000603
 4294.1298828 6.0000000000 8.5813999176 0.0164000001 0.2190080583 2.6016249657 3.4738581181 96.213500977 88.125823975 77.235282898 5.9128999710 6.2726001740
 4294.2827148 6.0000000000 8.5748996735 0.0116999997 0.2071420103 2.5960605145 3.2290165424 92.281196594 87.736694336 77.064376831 6.0106000900 6.3678002357
 4294.4350586 6.0000000000 8.5703001022 0.0093000000 0.2049652040 2.5909023285 2.9815704823 88.044296265 86.971397400 76.575424194 6.0805997849 6.4017000198
 4294.5874023 6.0000000000 8.5703001022 0.0074000000 0.2176391780 2.5838527679 2.8294770718 86.130203247 86.452774048 75.783401489 6.1114997864 6.3923997879
 4294.7397461 6.0000000000 8.5703001022 0.0066000000 0.2412026972 2.5773074627 2.8295648098 83.395797729 85.694473267 75.153724670 6.0922999382 6.3562998772
 4294.8920898 6.0000000000 8.5703001022 0.0078999996 0.2651032805 2.5735280514 2.9734699726 90.343803406 86.041275024 75.639999390 6.0405001640 6.3077998161
 4295.0444336 7.0000000000 8.5813999176 0.0109000001 0.2780612707 2.5757999420 3.2602834702 98.671897888 87.883071899 77.200019836 6.0040998459 6.2541999817
 4295.1967773 7.0000000000 8.5859003067 0.0111999996 0.2880775332 2.5806000233 3.5641527176 109.17250061 89.520370483 78.879470825 5.9601001740 6.1939997673
 4295.3491211 7.0000000000 8.5915002823 0.0086000003 0.3022758365 2.5832750797 3.6942608356 111.65100098 90.878173828 80.326828003 5.8871998787 6.1203999519
 4295.5019531 7.0000000000 8.5770998001 0.0049999999 0.3113169372 2.5830986500 3.6491136551 112.04689789 92.309013367 81.663497925 5.8134999275 6.0311999321
 4295.6542969 7.0000000000 8.5813999176 0.0020000001 0.2956377864 2.5824961662 3.6620342731 111.66670227 91.542068481 80.931892395 5.7375998497 5.9402999878
 4295.8066406 7.0000000000 8.5748996735 -0.000600000 0.2551836073 2.5829420090 3.8103654385 109.55989838 88.552719116 77.977775574 5.7231001854 5.8808999062
