# LAS format log file from PETREL
# Project units are specified as depth units
#==================================================================
~Version information
VERS.   2.0:
WRAP.   NO:
#==================================================================
~Well
STRT .m      579.75000000 :
STOP .m      3292.5014648 :
STEP .m     0.00000000 :
NULL .        -999.250000 :
COMP.           : COMPANY
WELL.  30/3-4R   : WELL
FLD.            : FIELD
LOC.            : LOCATION
SRVC.           : SERVICE COMPANY
DATE.  2018-09-11 14:48:28   : Log Export Date {yyyy-MM-dd HH:mm:ss}
PROV.           : PROVINCE
UWI.   30/3-4 R   : UNIQUE WELL ID
API.            : API NUMBER
#==================================================================
~Curve
DEPT .m                   : DEPTH
Lithology_geolink ._      : Lithology_geolink
CALI .in                  : CALI
DRHO .g/cm3               : DRHO
NPHI .m3/m3               : NPHI
RHOB .g/cm3               : RHOB
GR .gAPI                  : GR
DTC .us/ft                : DTC
DTE .us/ft                : DTE
RDEP .ohm.m               : RDEP
SP .mV                    : SP
RSHA .ohm.m               : RSHA
RMED .ohm.m               : RMED
~Parameter
#==================================================================
~Ascii
# ...
 1479.7500000  -999.250000 16.993999481 -0.039000001  -999.250000 2.1180000305 54.370998383 134.63139343 130.71559143 0.6840000153 78.806999207 0.6409999728 0.6230000257
 1479.8750000  -999.250000 16.995000839 -0.041999999  -999.250000 2.1199998856 54.679000854 134.89202881 130.96466064 0.6940000057 80.836997986 0.6420000196 0.6449999809
 1480.0000000  -999.250000 16.996000290 -0.048000000  -999.250000 2.1180000305 54.564998627 134.91102600 130.97656250 0.7080000043 82.189002991 0.6439999938 0.6690000296
 1480.1250000  -999.250000 16.996999741 -0.057000000  -999.250000 2.1150000095 54.234001160 134.69801331 130.77340698 0.7260000110 82.211997986 0.6460000277 0.6980000138
 1480.2498779  -999.250000 16.997999191 -0.064000003  -999.250000 2.1170001030 53.902000427 134.39286804 130.41723633 0.7480000257 80.842002869 0.6449999809 0.7310000062
 1480.3752441  -999.250000 16.996999741 -0.061999999  -999.250000 2.1250000000 53.687000275 133.81448364 129.91746521 0.7720000148 78.912002563 0.6439999938 0.7639999986
 1480.5000000  -999.250000 16.996000290 -0.052000001  -999.250000 2.1410000324 53.603000641 133.13713074 129.21264648 0.7960000038 77.371002197 0.6439999938 0.7839999795
 1480.6248779  -999.250000 16.996000290 -0.037999999  -999.250000 2.1619999409 53.603000641 132.12184143 128.19967651 0.8149999976 76.670997620 0.6460000277 0.7829999924
 1480.7501221  -999.250000 16.996000290 -0.027000001  -999.250000 2.1819999218 53.532001495 130.82354736 126.91283417 0.8289999962 76.887001038 0.6480000019 0.7590000033
 1480.8751221  -999.250000 16.997999191 -0.022000000  -999.250000 2.1930000782 53.308998108 129.47201538 125.51651001 0.8370000124 77.833999634 0.6489999890 0.7229999900
 1481.0000000  -999.250000 17.000000000 -0.024000000  -999.250000 2.1970000267 53.012001038 128.31346130 124.35271454 0.8420000076 79.197998047 0.6470000148 0.6890000105
 1481.1250000  -999.250000 17.000999451 -0.029999999  -999.250000 2.1930000782 52.902000427 127.75419617 123.78407288 0.8439999819 80.567001343 0.6430000067 0.6620000005
 1481.2500000  -999.250000 17.000999451 -0.037999999  -999.250000 2.1809999943 53.261001587 127.74665070 123.79077911 0.8439999819 81.228996277 0.6380000114 0.6430000067
 1481.3750000  -999.250000 16.997999191 -0.045000002  -999.250000 2.1649999619 53.972000122 128.08271790 124.16548920 0.8410000205 80.663002014 0.6340000033 0.6269999743
 1481.4998779  -999.250000 16.993999481 -0.050999999  -999.250000 2.1489999294 54.594001770 128.55764771 124.67291260 0.8379999995 79.146003723 0.6320000291 0.6140000224
 1481.6252441  -999.250000 16.995000839 -0.054000001  -999.250000 2.1359999180 54.688999176 129.02507019 125.11087799 0.8360000253 77.391998291 0.6309999824 0.6039999723
 1481.7498779  -999.250000 17.009000778 -0.057000000  -999.250000 2.1259999275 54.215999603 129.24577332 125.30444336 0.8370000124 76.305000305 0.6309999824 0.6000000238
 1481.8747559  -999.250000 17.038000107 -0.061000001  -999.250000 2.1189999580 53.724998474 129.27574158 125.30968475 0.8389999866 76.501998901 0.6340000033 0.6019999981
 1482.0001221  -999.250000 17.080999374 -0.066000000  -999.250000 2.1159999371 53.667999268 129.16094971 125.17928314 0.8429999948 77.913002014 0.6389999986 0.6069999933
 1482.1250000  -999.250000 17.135000229 -0.070000000  -999.250000 2.1180000305 54.034000397 128.93144226 124.95728302 0.8460000157 80.204002380 0.6470000148 0.6119999886
 1482.2500000  -999.250000 17.197999954 -0.072999999  -999.250000 2.1229999065 54.467998505 128.62921143 124.68030548 0.8470000029 82.741996765 0.6579999924 0.6110000014
 1482.3750000  -999.250000 17.264999390 -0.077000000  -999.250000 2.1280000210 54.818000793 128.34939575 124.37186432 0.8470000029 84.600997925 0.6660000086 0.6039999723
 1482.5000000  -999.250000 17.329999924 -0.085000001  -999.250000 2.1289999485 55.313999176 128.04396057 124.13203430 0.8450000286 85.213996887 0.6700000167 0.5910000205
 1482.6248779  -999.250000 17.384000778 -0.097000003  -999.250000 2.1229999065 56.202999115 128.03919983 124.08942413 0.8410000205 84.470001221 0.6679999828 0.5759999752
 1482.7502441  -999.250000 17.420000076 -0.109999999  -999.250000 2.1129999161 57.383998871 128.28543091 124.32689667 0.8330000043 82.706001282 0.6620000005 0.5600000024
 1482.8750000  -999.250000 17.434000015 -0.115999997  -999.250000 2.1029999256 58.448001862 128.75320435 124.83374023 0.8220000267 80.699996948 0.6529999971 0.5440000296
 1482.9998779  -999.250000 17.437000275 -0.112999998  -999.250000 2.0999999046 58.985000610 129.44805908 125.51293182 0.8059999943 78.994003296 0.6449999809 0.5299999714
 1483.1251221  -999.250000 17.434000015 -0.101000004  -999.250000 2.1040000916 58.791000366 130.12153625 126.19207764 0.7879999876 77.830001831 0.6380000114 0.5180000067
 1483.2501221  -999.250000 17.433000565 -0.082999997  -999.250000 2.1159999371 57.902999878 130.64884949 126.67711639 0.7710000277 77.513999939 0.6330000162 0.5090000033
 1483.3750000  -999.250000 17.434999466 -0.068999998  -999.250000 2.1280000210 56.766998291 130.95048523 126.96821594 0.7559999824 78.344001770 0.6299999952 0.5030000210
 1483.5000000  -999.250000 17.440000534 -0.064999998  -999.250000 2.1359999180 55.780998230 131.09452820 127.15028381 0.7450000048 80.174003601 0.6290000081 0.5000000000
 1483.6250000  -999.250000 17.444000244 -0.071000002  -999.250000 2.1349999905 55.243999481 131.22410583 127.34040070 0.7379999757 82.536003113 0.6290000081 0.4990000129
 1483.7500000  -999.250000 17.445999146 -0.085000001  -999.250000 2.1280000210 55.178001404 131.54031372 127.65982056 0.7340000272 84.655998230 0.6299999952 0.4990000129
 1483.8748779  -999.250000 17.444999695 -0.101000004  -999.250000 2.1189999580 55.247001648 132.10740662 128.14131165 0.7340000272 85.667999268 0.6290000081 0.5009999871
 1484.0000000  -999.250000 17.444000244 -0.111000001  -999.250000 2.1140000820 55.132999420 132.55314636 128.62799072 0.7350000143 85.373001099 0.6280000210 0.5040000081
 1484.1248779  -999.250000 17.443000793 -0.114000000  -999.250000 2.1159999371 54.721000671 132.94335938 129.01646423 0.7369999886 84.111999512 0.6269999743 0.5090000033
 1484.2497559  -999.250000 17.444999695 -0.111000001  -999.250000 2.1189999580 54.300998688 133.20907593 129.25570679 0.7390000224 82.531997681 0.6269999743 0.5139999986
 1484.3751221  -999.250000 17.447000504 -0.104999997  -999.250000 2.1240000725 54.233001709 133.22557068 129.34437561 0.7390000224 81.259002686 0.6290000081 0.5189999938
 1484.5000000  -999.250000 17.448999405 -0.098999999  -999.250000 2.1280000210 54.636001587 133.30287170 129.33338928 0.7379999757 80.605003357 0.6340000033 0.5220000148
 1484.6250000  -999.250000 17.450000763 -0.096000001  -999.250000 2.1270000935 55.325000763 133.24520874 129.30007935 0.7360000014 80.622001648 0.6389999986 0.5220000148
 1484.7500000  -999.250000 17.447000504 -0.096000001  -999.250000 2.1240000725 55.854000092 133.21170044 129.27293396 0.7329999804 81.058998108 0.6430000067 0.5199999809
 1484.8750000  -999.250000 17.441999435 -0.100000001  -999.250000 2.1170001030 55.971000671 133.21035767 129.25770569 0.7310000062 81.464996338 0.6470000148 0.5170000196
 1484.9998779  -999.250000 17.443000793 -0.105999999  -999.250000 2.1089999676 55.763000488 133.21620178 129.24914551 0.7289999723 81.628997803 0.6480000019 0.5149999857
 1485.1252441  -999.250000 17.454999924 -0.112999998  -999.250000 2.1029999256 55.626998901 133.20591736 129.23193359 0.7279999852 81.669998169 0.6489999890 0.5149999857
 1485.2501221  -999.250000 17.472000122 -0.115999997  -999.250000 2.1010000706 55.944999695 133.02117920 129.11859131 0.7260000110 81.862998962 0.6499999762 0.5170000196
 1485.3748779  -999.250000 17.482000351 -0.115999997  -999.250000 2.1059999466 56.533000946 132.74433899 128.85649109 0.7220000029 82.263000488 0.6520000100 0.5199999809
 1485.5001221  -999.250000 17.475000381 -0.112999998  -999.250000 2.1110000610 56.931999207 132.38493347 128.44729614 0.7160000205 82.607002258 0.6570000052 0.5239999890
 1485.6251221  -999.250000 17.452999115 -0.108999997  -999.250000 2.1180000305 56.841999054 131.96072388 127.98283386 0.7089999914 82.591003418 0.6610000134 0.5289999843
