# LAS format log file from PETREL
# Project units are specified as depth units
#==================================================================
~Version information
VERS.   2.0:
WRAP.   NO:
#==================================================================
~Well
STRT .m      3891.7941895 :
STOP .m      4561.5922852 :
STEP .m     0.00000000 :
NULL .        -999.250000 :
COMP.           : COMPANY
WELL.  30/3-5S   : WELL
FLD.            : FIELD
LOC.            : LOCATION
SRVC.           : SERVICE COMPANY
DATE.  2018-09-11 14:48:29   : Log Export Date {yyyy-MM-dd HH:mm:ss}
PROV.           : PROVINCE
UWI.   30/3-5 S   : UNIQUE WELL ID
API.            : API NUMBER
#==================================================================
~Curve
DEPT .m                   : DEPTH
Lithology_geolink ._      : Lithology_geolink
CALI .in                  : CALI
DRHO .g/cm3               : DRHO
NPHI .m3/m3               : NPHI
RHOB .g/cm3               : RHOB
PEF .b/e                  : PEF
GR .gAPI                  : GR
DTC .us/ft                : DTC
DTE .us/ft                : DTE
RDEP .ohm.m               : RDEP
RMED .ohm.m               : RMED
~Parameter
#==================================================================
~Ascii
# ...
 4070.5595703 5.0000000000 8.8515996933 0.0496999994 0.2027998418 2.5834095478 4.0832333565 80.562896729 69.954597473 75.791961670 5.4228000641 6.1483001709
 4070.7119141 5.0000000000 8.8515996933 0.0555000007 0.2125621289 2.5850019455 4.2162499428 73.655502319 71.194526672 77.267730713 5.4559998512 6.0426998138
 4070.8642578 5.0000000000 8.8515996933 0.0595999993 0.2401281446 2.5839006901 4.5622372627 72.802101135 72.381355286 78.766273499 5.3246998787 5.7996001244
 4071.0166016 5.0000000000 8.8515996933 0.0511999987 0.2667000592 2.5799517632 5.0184292793 80.750000000 73.000030518 79.221405029 5.1350998878 5.4945998192
 4071.1689453 5.0000000000 8.8515996933 0.0478999987 0.2827864587 2.5817925930 5.0994591713 93.817703247 72.426849365 78.734199524 4.9038000107 5.1838002205
 4071.3215332 7.0000000000 8.8515996933 0.0566000007 0.2937372327 2.5839126110 4.8164873123 103.87370300 72.121673584 78.021697998 4.6880998611 4.8944001198
 4071.4738770 7.0000000000 8.8682003021 0.0582000017 0.2942355573 2.5764210224 4.5583243370 108.34899902 71.635200500 77.628601074 4.5071997643 4.6409997940
 4071.6262207 7.0000000000 8.8584003448 0.0571000017 0.2874810696 2.5748929977 4.6216073036 106.00000000 71.939453125 77.945693970 4.3352999687 4.4264001846
 4071.7785645 6.0000000000 8.9235000610 0.0582000017 0.2846846282 2.5920403004 4.7453675270 102.96089935 72.822662354 78.994049072 4.1799998283 4.2536997795
 4071.9311523 6.0000000000 8.9531002045 0.0498000011 0.2937032878 2.6196742058 4.8579478264 99.946403503 73.751846313 80.093521118 4.0980000496 4.1294999123
 4072.0834961 6.0000000000 8.9807996750 0.0328000002 0.3117031157 2.6448276043 5.1021122932 100.63800049 73.134429932 79.436523438 4.0487999916 4.0506000519
 4072.2358398 6.0000000000 9.0087995529 0.0254999995 0.3258669376 2.6629848480 5.5454788208 101.26820374 72.381332397 78.463821411 4.0130000114 4.0050001144
 4072.3881836 6.0000000000 8.9989995956 0.0183000006 0.3267415166 2.6592736244 5.5870895386 98.505203247 72.027832031 78.087745667 3.9941999912 3.9886000156
 4072.5407715 6.0000000000 8.9921998978 0.0104999999 0.3165679574 2.6353590488 5.0408654213 92.405403137 71.631401062 77.819778442 3.9972000122 3.9960000515
 4072.6931152 6.0000000000 8.9921998978 0.0104999999 0.3017551899 2.6176288128 4.6934061050 86.122200012 72.166076660 78.328125000 3.9986000061 4.0166001320
 4072.8454590 6.0000000000 8.9921998978 0.0127999997 0.2820511460 2.6252377033 4.7047715187 87.119796753 75.121070862 81.238395691 3.9523999691 4.0289998055
 4072.9978027 6.0000000000 9.0254001617 0.0283000004 0.2609642148 2.6400535107 5.2219924927 92.411499023 75.386245728 81.817672729 3.8935000896 4.0022001266
 4073.1501465 6.0000000000 9.0999002457 0.0445999987 0.2498079985 2.5890400410 6.3422036171 97.445297241 74.722740173 81.186668396 3.8673000336 3.9279999733
 4073.3027344 6.0000000000 9.1360998154 0.0361000001 0.2784077525 2.4538106918 7.9433560371 98.192298889 75.472076416 81.903518677 3.8313999176 3.8248000145
 4073.4550781 6.0000000000 9.2458000183 0.0266999993 0.3461386859 2.3437099457 8.5309123993 98.468803406 76.222023010 82.725646973 3.7920999527 3.7265999317
 4073.6074219 6.0000000000 9.4771995544 0.0384999998 0.4053561091 2.3280596733 6.8721203804 100.32550049 74.767547607 81.054328918 3.7729001045 3.6605000496
 4073.7597656 6.0000000000 10.097000122 0.0612999983 0.4306045175 2.3980171680 5.0155563354 100.07029724 72.912078857 78.898170471 3.8013999462 3.6375999451
 4073.9123535 6.0000000000 10.087699890 0.0623000003 0.4304090142 2.4776268005 4.2244968414 96.807998657 71.985328674 78.085220337 3.8629000187 3.6582999229
 4074.0646973 6.0000000000 9.8760004044 0.0647000000 0.4180184901 2.5413253307 4.3525876999 94.695297241 71.635200500 77.913551331 3.9423000813 3.7302000523
 4074.2170410 6.0000000000 9.1751003265 0.0807000026 0.3926126063 2.5843868256 4.4848070145 95.640602112 71.585952759 77.482177734 4.0180001259 3.8652000427
 4074.3693848 6.0000000000 8.8675003052 0.0916000009 0.3471563458 2.6001672745 4.5321388245 98.533798218 71.144073486 76.995452881 4.1359000206 4.0651001930
 4074.5219727 6.0000000000 8.8515996933 0.0966999978 0.3051380515 2.6055757999 4.3697915077 99.588699341 71.189529419 77.057945251 4.2811999321 4.3119001389
 4074.6743164 6.0000000000 8.8626003265 0.1020999998 0.2740977705 2.6162145138 4.1165561676 98.650398254 70.399826050 76.279327393 4.4376997948 4.5638999939
 4074.8266602 6.0000000000 8.8671998978 0.1168999970 0.2532744408 2.6381828785 4.0663781166 97.497398376 69.995201111 75.799179077 4.6227002144 4.7667999268
 4074.9790039 6.0000000000 8.9059000015 0.1111000031 0.2508589029 2.6449391842 4.2477307320 93.690101624 70.306396484 76.295051575 4.7958998680 4.8895001411
 4075.1313477 6.0000000000 8.9329004288 0.1015999988 0.2748182416 2.6362218857 4.9341945648 91.851600647 71.546936035 77.675918579 4.9821000099 4.9456000328
 4075.2839355 6.0000000000 8.8766002655 0.0890000015 0.2981269062 2.6106359959 5.4822564125 90.757202148 72.691276550 79.057746887 5.2606000900 4.9819002151
 4075.4362793 6.0000000000 8.8515996933 0.0804999992 0.2966309488 2.5825364590 5.4370369911 94.934898376 73.222824097 79.392570496 5.5868000984 5.0364999771
 4075.5886230 6.0000000000 8.8515996933 0.0683000013 0.2706903517 2.5620086193 5.0057339668 98.716102600 72.646530151 78.852249146 6.0819997787 5.1293997765
 4075.7409668 6.0000000000 8.8570995331 0.0691000000 0.2420432270 2.5592379570 4.7670521736 102.37760162 71.586799622 77.552978516 7.4939999580 5.2708001137
 4075.8935547 6.0000000000 8.9202995300 0.0716999993 0.2239045650 2.5627586842 4.8306918144 100.32859802 69.601051331 75.511749268 9.5971002579 5.4520998001
 4076.0458984 6.0000000000 8.8955001831 0.0733999982 0.2147784084 2.5631587505 4.9947123528 95.989601135 68.370849609 73.908851624 10.626299858 5.6683001518
 4076.1982422 6.0000000000 8.7587995529 0.0720999986 0.2145453244 2.5601973534 5.2391762733 89.835899353 68.363525391 74.036972046 11.080100060 5.9833998680
 4076.3505859 6.0000000000 8.6279001236 0.0734999999 0.2183790505 2.5567896366 5.6484122276 82.721298218 69.253257751 75.292671204 11.512999535 6.5922999382
 4076.5031738 6.0000000000 8.5770998001 0.0643000007 0.2250176072 2.5383076668 5.1130933762 77.518997192 71.630172729 77.755599976 12.056599617 7.9461002350
 4076.6555176 6.0000000000 8.5703001022 0.0469999984 0.2267919481 2.4912517071 3.6447875500 69.427803040 74.988548279 81.241325378 13.660799980 11.204999924
 4076.8078613 3.0000000000 8.4983997345 0.0252999999 0.2251431495 2.4231276512 2.7257487774 61.644500732 77.153778076 83.819519043 16.231100082 20.735399246
 4076.9602051 3.0000000000 8.4355001450 0.0108000003 0.2194812149 2.3570191860 2.3688025475 52.598999023 78.479400635 84.902603149 20.068399429 71.291702271
 4077.1125488 3.0000000000 8.4107999802 0.0034000000 0.2192394733 2.3054046631 2.3413805962 44.472698212 78.432998657 85.208702087 25.551399231 1407.7004395
 4077.2651367 3.0000000000 8.3176002502 0.0031999999 0.2217974663 2.2713611126 2.4000093937 37.550201416 78.163223267 84.880653381 30.420000076 1950.0000000
 4077.4174805 3.0000000000 8.2812004089 0.0048000002 0.2237092406 2.2521736622 2.4404516220 32.860000610 77.684020996 84.431930542 36.916000366 629.13537598
 4077.5698242 3.0000000000 8.3144998550 0.0077000000 0.2225991488 2.2480545044 2.5683467388 29.708999634 77.242149353 83.774322510 40.169300079 54.526000977
 4077.7221680 3.0000000000 8.3114995956 0.0094999997 0.2230463624 2.2491505146 2.6708796024 30.014999390 76.754554749 83.394889832 41.554698944 35.234401703
 4077.8747559 3.0000000000 8.2881002426 0.0083999997 0.2257335037 2.2481789589 2.7666642666 31.137800217 76.928451538 83.359275818 42.114700317 32.411399841
 4078.0270996 3.0000000000 8.2812004089 0.0074000000 0.2272154987 2.2435517311 2.7831375599 33.686199188 77.025650024 83.399070740 41.833301544 36.602901459
 4078.1794434 3.0000000000 8.2812004089 0.0048000002 0.2296580374 2.2388908863 2.7472112179 33.850299835 77.041732788 83.675918579 40.934898376 47.308601379
