# LAS format log file from PETREL
# Project units are specified as depth units
#==================================================================
~Version information
VERS.   2.0:
WRAP.   NO:
#==================================================================
~Well
STRT .m      200.91401672 :
STOP .m      3436.5195313 :
STEP .m     0.00000000 :
NULL .        -999.250000 :
COMP.           : COMPANY
WELL.  30/3-3   : WELL
FLD.            : FIELD
LOC.            : LOCATION
SRVC.           : SERVICE COMPANY
DATE.  2018-09-11 14:48:28   : Log Export Date {yyyy-MM-dd HH:mm:ss}
PROV.           : PROVINCE
UWI.   30/3-3   : UNIQUE WELL ID
API.            : API NUMBER
#==================================================================
~Curve
DEPT .m                   : DEPTH
Lithology_geolink ._      : Lithology_geolink
CALI .in                  : CALI
DRHO .g/cm3               : DRHO
NPHI .m3/m3               : NPHI
RHOB .g/cm3               : RHOB
PEF .b/e                  : PEF
GR .gAPI                  : GR
DTC .us/ft                : DTC
DTE .us/ft                : DTE
RDEP .ohm.m               : RDEP
SP .mV                    : SP
RSHA .ohm.m               : RSHA
RMED .ohm.m               : RMED
~Parameter
#==================================================================
~Ascii
# ...
 2789.2766113 5.0000000000 13.227000237 -0.008000000  -999.250000 2.5120000839  -999.250000 61.636600494 104.22027588 98.318077087 2.8908176422 56.924999237 5.3466496468 3.8949999809
 2789.4289551 5.0000000000 13.227000237 -0.012000000  -999.250000 2.5000000000  -999.250000 65.248695374 105.16458130 99.330307007 2.8339471817 56.519001007 4.9268703461 3.8399999142
 2789.5812988 5.0000000000 13.234000206 -0.015000000  -999.250000 2.4839999676  -999.250000 64.439102173 105.58191681 99.786735535 2.8009183407 56.456001282 5.4685673714 3.7709999084
 2789.7336426 5.0000000000 13.227000237 -0.010000000  -999.250000 2.4860000610  -999.250000 65.122047424 105.42288208 99.786254883 2.7499663830 56.799999237 5.1988558769 3.7599999905
 2789.8862305 5.0000000000 13.227000237 -0.004000000  -999.250000 2.4920001030  -999.250000 63.286499023 105.48818207 99.847297668 2.7288784981 56.206001282 5.1093521118 3.7639999390
 2790.0385742 5.0000000000 13.344000816 0.0010000000  -999.250000 2.4839999676  -999.250000 65.010215759 106.12400818 100.37455750 2.6910223961 57.112998962 5.2186489105 3.7209999561
 2790.1909180 5.0000000000 13.328000069 0.0010000000  -999.250000 2.4769999981  -999.250000 71.375000000 106.36969757 100.62075806 2.7049870491 56.924999237 5.0006761551 3.5409998894
 2790.3432617 5.0000000000 13.258000374 -0.005000000  -999.250000 2.4790000916  -999.250000 71.368392944 105.90530396 100.27449036 2.6969904900 56.269001007 5.4219245911 3.4690001011
 2790.4956055 5.0000000000 13.242000580 -0.012000000  -999.250000 2.5000000000  -999.250000 67.239585876 104.79477692 99.065872192 2.6909823418 56.612998962 5.3745241165 3.5160000324
 2790.6481934 5.0000000000 13.250000000 -0.014000000  -999.250000 2.5120000839  -999.250000 60.747901917 103.93201447 97.930656433 2.6799871922 56.799999237 5.0781760216 3.7709999084
 2790.8005371 5.0000000000 13.242000580 -0.007000000  -999.250000 2.4979999065  -999.250000 60.102367401 103.75333405 98.016105652 2.6760160923 56.956001282 5.1334133148 3.9900000095
 2790.9528809 5.0000000000 13.227000237 -0.002000000  -999.250000 2.4800000191  -999.250000 65.315406799 104.92188263 99.236335754 2.6860241890 57.456001282 5.3908858299 3.9119999409
 2791.1052246 5.0000000000 13.171999931 -0.001000000  -999.250000 2.4709999561  -999.250000 66.815208435 106.41547394 100.60091400 2.7009904385 56.612998962 5.3202323914 3.6760001183
 2791.2578125 5.0000000000 13.147999763 -0.002000000  -999.250000 2.4820001125  -999.250000 68.189399719 106.37509918 100.53726959 2.6948688030 56.831001282 5.4578995705 3.6189999580
 2791.4101563 5.0000000000 13.140999794 -0.005000000  -999.250000 2.4800000191  -999.250000 68.626205444 105.90530396 100.20227814 2.6540257931 57.894001007 3.2488670349 3.7929999828
 2791.5625000 6.0000000000 13.093999863 -0.006000000  -999.250000 2.4709999561  -999.250000 69.377601624 105.82921600 100.14354706 2.6700530052 57.174999237 5.0357642174 3.6480000019
 2791.7148438 6.0000000000 13.093999863 -0.007000000  -999.250000 2.4609999657  -999.250000 71.002906799 104.95850372 99.262191772 2.7030689716 56.799999237 5.5125880241 3.4409999847
 2791.8674316 6.0000000000 13.086000443 -0.011000000  -999.250000 2.4730000496  -999.250000 72.803199768 101.73683929 96.091720581 2.7462079525 56.612998962 5.8798131943 3.3090000153
 2792.0197754 5.0000000000 12.969000816 -0.013000000  -999.250000 2.4900000095  -999.250000 69.736175537 99.965065002 93.982727051 2.8110048771 57.956001282 6.1318669319 3.3870000839
 2792.1721191 5.0000000000 12.913999557 -0.014000000  -999.250000 2.4960000515  -999.250000 61.118839264 98.059837341 92.218299866 2.8139693737 56.644001007 5.4243288040 3.8670001030
 2792.3244629 5.0000000000 12.944999695 -0.009000000  -999.250000 2.4900000095  -999.250000 57.286659241 98.729087830 92.993141174 2.7949342728 57.956001282 4.3828125000 4.2849998474
 2792.4768066 6.0000000000 12.961000443 -0.011000000  -999.250000 2.4730000496  -999.250000 60.828125000 103.26502991 97.474739075 2.7539710999 57.112998962 4.2668251991 4.2769999504
 2792.6293945 6.0000000000 12.897998810 -0.010000000  -999.250000 2.4609999657  -999.250000 70.260002136 108.42943573 102.67703247 2.7358815670 56.299999237 4.7759695053 3.9119999409
 2792.7817383 6.0000000000 12.828000069 0.0020000001  -999.250000 2.4939999580  -999.250000 73.364280701 111.33214569 105.71513367 2.6989727020 56.487998962 3.2110128403 3.5999999046
 2792.9340820 5.0000000000 12.875000000 0.0049999999  -999.250000 2.5529999733  -999.250000 66.671073914 110.44541168 104.83945465 2.6819934845 56.394001007 4.4690818787 3.3980000019
 2793.0864258 5.0000000000 12.944999695 0.0010000000  -999.250000 2.6329998970  -999.250000 56.113780975 106.74607086 101.11051178 2.6779742241 56.237998962 7.0096826553 3.4449999332
 2793.2390137 5.0000000000 13.062999725 -0.016000001  -999.250000 2.6329998970  -999.250000 49.120300293 103.80195618 97.816032410 2.6619007587 55.362998962 5.5608830452 3.8180000782
 2793.3913574 5.0000000000 13.187999725 -0.004000000  -999.250000 2.5940001011  -999.250000 47.655998230 100.23586273 94.556648254 2.6309280396 56.394001007 3.9698076248 4.3239998817
 2793.5437012 5.0000000000 13.312999725 0.0049999999  -999.250000 2.5369999409  -999.250000 47.661605835 97.749290466 91.939140320 2.5859470367 56.581001282 5.7172784805 4.6909999847
 2793.6960449 5.0000000000 13.406000137 0.0140000004  -999.250000 2.5179998875  -999.250000 51.154594421 97.083366394 91.392387390 2.5529487133 56.081001282 4.6463766098 4.6090002060
 2793.8486328 5.0000000000 13.437999725 -0.003000000  -999.250000 2.4979999065  -999.250000 50.297599792 96.919631958 91.269638062 2.5209136009 56.081001282 5.5038371086 4.3480000496
 2794.0009766 5.0000000000 13.430000305 -0.012000000  -999.250000 2.4920001030  -999.250000 55.467296600 96.835166931 91.162979126 2.4940257072 56.394001007 5.4503111839 4.0780000687
 2794.1533203 5.0000000000 13.421999931 -0.020000000  -999.250000 2.4709999561  -999.250000 54.415615082 98.473770142 92.854019165 2.5101058483 56.424999237 3.7760930061 3.7290000916
 2794.3056641 5.0000000000 13.476999283 -0.016000001  -999.250000 2.4590001106  -999.250000 60.416965485 100.84625244 95.233650208 2.5760159492 56.299999237 4.4593410492 3.2269999981
 2794.4580078 5.0000000000 13.484000206 -0.017000001  -999.250000 2.4509999752  -999.250000 67.256607056 103.30287170 97.311859131 2.5860064030 56.331001282 5.9173994064 2.9279999733
 2794.6105957 6.0000000000 13.484000206 -0.013000000  -999.250000 2.4530000687  -999.250000 71.380401611 103.97758484 98.137855530 2.5898559093 57.112998962 5.5433363914 3.0160000324
 2794.7629395 6.0000000000 13.484000206 -0.014000000  -999.250000 2.4509999752  -999.250000 73.056793213 105.86325836 100.09099579 2.5449969769 55.456001282 5.6478681564 3.5450000763
 2794.9152832 5.0000000000 13.484000206 -0.013000000  -999.250000 2.4449999332  -999.250000 69.190208435 108.47425079 102.86111450 2.5430257320 57.331001282 5.5664582253 3.8980000019
 2795.0676270 5.0000000000 13.484000206 -0.015000000  -999.250000 2.4409999847  -999.250000 70.559494019 108.98908997 103.24637604 2.5591249466 57.549999237 5.8499026299 3.9670000076
 2795.2202148 5.0000000000 13.484000206 -0.017000001  -999.250000 2.4509999752  -999.250000 68.370201111 108.12433624 102.36430359 2.6372303963 56.769001007 4.5447888374 3.8259999752
 2795.3725586 5.0000000000 13.476999283 -0.022000000  -999.250000 2.4590001106  -999.250000 66.868888855 108.04464722 102.30409241 2.7090995312 57.049999237 5.1016554832 3.7109999657
 2795.5249023 5.0000000000 13.484000206 -0.017000001  -999.250000 2.4690001011  -999.250000 63.070011139 107.57490540 101.77704620 2.7710287571 56.362998962 4.8889408112 3.5120000839
 2795.6772461 5.0000000000 13.484000206 -0.018999999  -999.250000 2.4609999657  -999.250000 67.439605713 108.03508759 102.41626740 2.7889630795 56.269001007 6.0970735550 3.5369999409
 2795.8298340 5.0000000000 13.484000206 -0.014000000  -999.250000 2.4590001106  -999.250000 68.443801880 108.57546997 102.65660095 2.7660064697 55.706001282 5.5192480087 3.7539999485
