# LAS format log file from PETREL
# Project units are specified as depth units
#==================================================================
~Version information
VERS.   2.0:
WRAP.   NO:
#==================================================================
~Well
STRT .m      236.19400024 :
STOP .m      3572.9916992 :
STEP .m     0.00000000 :
NULL .        -999.250000 :
COMP.           : COMPANY
WELL.  30/3-2R   : WELL
FLD.            : FIELD
LOC.            : LOCATION
SRVC.           : SERVICE COMPANY
DATE.  2018-09-11 14:48:27   : Log Export Date {yyyy-MM-dd HH:mm:ss}
PROV.           : PROVINCE
UWI.   30/3-2 R   : UNIQUE WELL ID
API.            : API NUMBER
#==================================================================
~Curve
DEPT .m                   : DEPTH
Lithology_geolink ._      : Lithology_geolink
CALI .in                  : CALI
DRHO .g/cm3               : DRHO
NPHI .m3/m3               : NPHI
RHOB .g/cm3               : RHOB
GR .gAPI                  : GR
DTC .us/ft                : DTC
RDEP .ohm.m               : RDEP
SP .mV                    : SP
RSHA .ohm.m               : RSHA
RMED .ohm.m               : RMED
~Parameter
#==================================================================
~Ascii
# ...
 1433.1435547  -999.250000 13.385999680 0.0070000002 0.4714664221 2.0370023251 53.592250824 139.61607361 1.0910015106  -999.250000  -999.250000 1.2711874247
 1433.2960205  -999.250000 13.486999512 0.0060000001 0.4795065224 2.0290129185 51.404144287 143.40496826 1.0780103207  -999.250000  -999.250000 1.2010561228
 1433.4483643  -999.250000 13.913001060 -0.001000000 0.4876683056 2.0090479851 49.095680237 146.58145142 1.0799984932  -999.250000  -999.250000 1.1190656424
 1433.6008301  -999.250000 13.532999992 0.0010000000 0.4980229437 2.0169870853 51.185344696 148.36456299 1.0909911394  -999.250000  -999.250000 1.1419816017
 1433.7531738  -999.250000 13.489999771 0.0099999998 0.4811363518 2.0359544754 49.528869629 147.31483459 1.0810079575  -999.250000  -999.250000 1.1380032301
 1433.9056396  -999.250000 13.222000122 0.0230000000 0.4515767395 2.0629568100 46.867195129 143.98767090 1.0610159636  -999.250000  -999.250000 1.1759696007
 1434.0579834  -999.250000 13.267999649 0.0160000008 0.4308429360 2.0480360985 42.005310059 139.46961975 1.0540056229  -999.250000  -999.250000 1.2289575338
 1434.2104492  -999.250000 13.418000221 0.0049999999 0.4345327914 2.0200448036 48.628551483 135.77795410 1.0420097113  -999.250000  -999.250000 1.2969455719
 1434.3627930  -999.250000 13.237999916 0.0000000000 0.4362801611 2.0020289421 50.844528198 134.92468262 1.0350055695  -999.250000  -999.250000 1.3359687328
 1434.5151367  -999.250000 13.347000122 -0.002000000 0.4364872575 2.0069880486 51.497749329 138.34851074 1.0449839830  -999.250000  -999.250000 1.2740993500
 1434.6676025  -999.250000 13.411999702 -0.003000000 0.4331238866 2.0269680023 48.688575745 144.61497498 1.0719784498  -999.250000  -999.250000 1.2020577192
 1434.8199463  -999.250000 13.604999542 -0.009000000 0.4504667521 2.0349807739 49.406299591 150.04330444 1.0819840431  -999.250000  -999.250000 1.1291168928
 1434.9724121  -999.250000 14.281001091 -0.010000000 0.4963509440 2.0320048332 49.777469635 150.37774658 1.0829991102  -999.250000  -999.250000 1.0900312662
 1435.1247559  -999.250000 13.699000359 -0.008000000 0.5100090504 2.0150408745 45.374824524 146.93852234 1.0710191727  -999.250000  -999.250000 1.1658782959
 1435.2772217  -999.250000 13.168999672 -0.006000000 0.4838927388 1.9960304499 45.154747009 142.01593018 1.0560120344  -999.250000  -999.250000 1.2199567556
 1435.4295654  -999.250000 12.959000587 -0.004000000 0.4499263167 1.9810359478 43.598854065 138.99443054 1.0609959364  -999.250000  -999.250000 1.3409030437
 1435.5820313  -999.250000 12.930999756 -0.002000000 0.4328524768 1.9879888296 49.654720306 137.72402954 1.0929744244  -999.250000  -999.250000 1.2860440016
 1435.7343750  -999.250000 12.909000397 0.0040000002 0.4359195232 2.0089495182 48.068733215 137.34429932 1.1079879999  -999.250000  -999.250000 1.3239696026
 1435.8868408  -999.250000 12.979999542 0.0080000004 0.4228564501 2.0159888268 55.212795258 137.57681274 1.1159936190  -999.250000  -999.250000 1.3180047274
 1436.0391846  -999.250000 13.511000633 0.0000000000 0.4144324064 1.9990408421 51.348533630 137.53602600 1.1150008440  -999.250000  -999.250000 1.3609654903
 1436.1916504  -999.250000 13.262999535 -0.011000000 0.4299055934 1.9800304174 56.997097015 138.31336975 1.1000120640  -999.250000  -999.250000 1.3180344105
 1436.3439941  -999.250000 12.911001205 -0.016000001 0.4458872378 1.9770047665 55.192832947 140.36535645 1.0810152292  -999.250000  -999.250000 1.2550504208
 1436.4964600  -999.250000 12.959000587 -0.013000000 0.4799050391 1.9849872589 61.208244324 142.72810364 1.0750048161  -999.250000  -999.250000 1.2030415535
 1436.6488037  -999.250000 13.091999054 -0.009000000 0.5079777241 1.9899920225 54.501777649 144.08392334 1.0520185232  -999.250000  -999.250000 1.1690273285
 1436.8011475  -999.250000 13.242000580 -0.010000000 0.5051448345 1.9880048037 56.719375610 143.60876465 1.0360256433  -999.250000  -999.250000 1.1699984074
 1436.9536133  -999.250000 13.183999062 -0.012000000 0.4862084389 1.9820096493 57.191005707 143.82383728 1.0280064344  -999.250000  -999.250000 1.2079695463
 1437.1059570  -999.250000 13.019000053 -0.017000001 0.4718186557 1.9650409222 60.936424255 145.06001282 1.0339903831  -999.250000  -999.250000 1.2229760885
 1437.2584229  -999.250000 12.873000145 -0.023000000 0.4951100647 1.9490256310 58.970680237 146.84657288 1.0599790812  -999.250000  -999.250000 1.1640473604
 1437.4107666  -999.250000 12.862999916 -0.025000000 0.5201417208 1.9519928694 61.063549042 147.02970886 1.0849599838  -999.250000  -999.250000 1.1170752048
 1437.5632324  -999.250000 13.409999847 -0.017000001 0.5097377896 1.9809534550 61.749050140 144.02740479 1.1039847136  -999.250000  -999.250000 1.1469758749
 1437.7155762  -999.250000 13.503999710 -0.003000000 0.4694498181 2.0149183273 60.558341980 139.10195923 1.0960063934  -999.250000  -999.250000 1.3068718910
 1437.8680420  -999.250000 12.833999634 0.0030000000 0.4193055928 2.0219888687 54.749851227 135.56582642 1.0830103159  -999.250000  -999.250000 1.4269039631
 1438.0203857  -999.250000 12.668000221 -0.003000000 0.4165962636 2.0040431023 54.658603668 135.88874817 1.0949903727  -999.250000  -999.250000 1.4160088301
 1438.1728516  -999.250000 12.740999222 -0.010000000 0.4619008303 1.9910209179 57.918861389 138.78868103 1.1199799776  -999.250000  -999.250000 1.2611241341
 1438.3251953  -999.250000 13.381999969 -0.012000000 0.4998463690 1.9939928055 65.939254761 142.01741028 1.1170023680  -999.250000  -999.250000 1.2110400200
 1438.4776611  -999.250000 14.253000259 -0.008000000 0.4952667952 2.0039839745 67.495697021 143.74961853 1.1130032539  -999.250000  -999.250000 1.1710320711
 1438.6300049  -999.250000 14.295999527 -0.009000000 0.4745772481 1.9950144291 64.810302734 144.28857422 1.1040071249  -999.250000  -999.250000 1.2709199190
 1438.7823486  -999.250000 13.857000351 -0.016000001 0.4836387038 1.9670672417 61.437572479 143.72990417 1.0880256891  -999.250000  -999.250000 1.2150896788
 1438.9348145  -999.250000 13.528000832 -0.022000000 0.5069838166 1.9610096216 60.903369904 143.09550476 1.0730119944  -999.250000  -999.250000 1.2080055475
 1439.0871582  -999.250000 13.890999794 -0.021000000 0.5117642283 1.9909280539 57.625301361 142.28529358 1.0839823484  -999.250000  -999.250000 1.2040064335
 1439.2396240  -999.250000 14.222999573 -0.012000000 0.5045213699 2.0399215221 58.001003265 141.68048096 1.0710103512  -999.250000  -999.250000 1.2479647398
 1439.3919678  -999.250000 14.043999672 -0.006000000 0.4813345671 2.0609495640 59.250900269 142.07437134 1.0610159636  -999.250000  -999.250000 1.2460032701
 1439.5444336  -999.250000 13.564999580 -0.005000000 0.4621073902 2.0430288315 60.374450684 143.26104736 1.0659959316  -999.250000  -999.250000 1.2200208902
 1439.6967773  -999.250000 13.610000610 -0.007000000 0.4463425279 2.0150673389 59.687072754 143.34693909 1.0679984093  -999.250000  -999.250000 1.1980175972
 1439.8492432  -999.250000 13.359999657 -0.006000000 0.4495421946 2.0060143471 58.538803101 142.71350098 1.0420209169  -999.250000  -999.250000 1.1880079508
 1440.0015869  -999.250000 13.038999557 -0.008000000 0.4758581817 2.0069975853 63.401191711 142.39425659 1.0420000553  -999.250000  -999.250000 1.2289670706
 1440.1540527  -999.250000 13.104999542 -0.015000000 0.4735904932 1.9870320559 57.403396606 143.88081360 1.0589864254  -999.250000  -999.250000 1.2419896126
 1440.3063965  -999.250000 12.965000153 -0.026000001 0.4738650918 1.9620600939 55.777820587 145.98431396 1.0609984398  -999.250000  -999.250000 1.1600656509
 1440.4588623  -999.250000 13.434000015 -0.028999999 0.4552609921 1.9590047598 51.827011108 146.74139404 1.0639976263  -999.250000  -999.250000 1.1100400686
 1440.6112061  -999.250000 13.722001076 -0.017999999 0.4496400356 1.9859566689 60.563098907 145.09532166 1.0659984350  -999.250000  -999.250000 1.1289846897
 1440.7635498  -999.250000 13.935000420 -0.009000000 0.4496731758 2.0039567947 60.688098907 141.80227661 1.0410400629  -999.250000  -999.250000 1.2348302603
