# LAS format log file from PETREL
# Project units are specified as depth units
#==================================================================
~Version information
VERS.   2.0:
WRAP.   NO:
#==================================================================
~Well
STRT .m      579.75000000 :
STOP .m      3292.5014648 :
STEP .m     0.00000000 :
NULL .        -999.250000 :
COMP.           : COMPANY
WELL.  30/3-4R   : WELL
FLD.            : FIELD
LOC.            : LOCATION
SRVC.           : SERVICE COMPANY
DATE.  2018-09-11 14:48:28   : Log Export Date {yyyy-MM-dd HH:mm:ss}
PROV.           : PROVINCE
UWI.   30/3-4 R   : UNIQUE WELL ID
API.            : API NUMBER
#==================================================================
~Curve
DEPT .m                   : DEPTH
Lithology_geolink ._      : Lithology_geolink
CALI .in                  : CALI
DRHO .g/cm3               : DRHO
NPHI .m3/m3               : NPHI
RHOB .g/cm3               : RHOB
GR .gAPI                  : GR
DTC .us/ft                : DTC
DTE .us/ft                : DTE
RDEP .ohm.m               : RDEP
SP .mV                    : SP
RSHA .ohm.m               : RSHA
RMED .ohm.m               : RMED
~Parameter
#==================================================================
~Ascii
# ...
 2025.7501221 19.000000000 12.739999771 0.0049999999 0.3122500181 2.1760001183 67.574996948 138.49876404 132.87788391 0.8309999704 82.625999451 0.9200000167 0.7609999776
 2025.8747559 19.000000000 12.769000053 0.0060000001 0.3148599863 2.1789999008 67.907997131 137.58946228 131.98175049 0.8309999704 82.039001465 0.9139999747 0.7739999890
 2025.9998779 19.000000000 12.786999702 0.0089999996 0.3171800077 2.1870000362 69.321998596 136.62731934 131.05798340 0.8339999914 81.361999512 0.9200000167 0.7889999747
 2026.1251221 19.000000000 12.796999931 0.0109999999 0.3163000047 2.1979999542 71.718002319 135.94955444 130.32464600 0.8439999819 80.694000244 0.9340000153 0.8080000281
 2026.2500000 19.000000000 12.803999901 0.0109999999 0.3131500185 2.2090001106 74.121002197 135.58705139 129.88133240 0.8610000014 80.110000610 0.9499999881 0.8289999962
 2026.3750000 19.000000000 12.814999580 0.0099999998 0.3121999800 2.2170000076 75.216003418 135.29598999 129.54258728 0.8809999824 79.636001587 0.9649999738 0.8500000238
 2026.5000000 19.000000000 12.828000069 0.0080000004 0.3151299953 2.2269999981 74.355003357 134.72763062 129.09448242 0.9010000229 79.253997803 0.9829999804 0.8659999967
 2026.6250000 19.000000000 12.840999603 0.0049999999 0.3214699924 2.2390000820 72.241996765 133.77258301 128.35533142 0.9150000215 78.972000122 1.0119999647 0.8740000129
 2026.7498779 19.000000000 12.850000381 0.0000000000 0.3284800053 2.2520000935 70.555000305 133.01135254 127.25189972 0.9190000296 78.838996887 1.0579999685 0.8700000048
 2026.8752441 19.000000000 12.848999977 -0.008000000 0.3307699859 2.2609999180 70.387001038 131.74647522 126.15254211 0.9150000215 78.904998779 1.1139999628 0.8539999723
 2027.0001221 19.000000000 12.833999634 -0.016000001 0.3271900117 2.2599999905 71.500999451 131.35308838 125.68083191 0.9029999971 79.166999817 1.1610000134 0.8299999833
 2027.1248779 19.000000000 12.803999901 -0.020000000 0.3210200071 2.2490000725 72.711997986 131.66246033 126.02883148 0.8849999905 79.602996826 1.1790000200 0.8000000119
 2027.2501221 19.000000000 12.762999535 -0.018999999 0.3179399967 2.2309999466 73.192001343 132.58106995 127.09004211 0.8619999886 80.176002502 1.1619999409 0.7699999809
 2027.3751221 19.000000000 12.723999023 -0.017000001 0.3227899969 2.2090001106 73.195999146 134.04689026 128.47634888 0.8399999738 80.809997559 1.1180000305 0.7429999709
 2027.5000000 19.000000000 12.700000763 -0.016000001 0.3316299915 2.1860001087 73.108001709 135.39695740 129.53434753 0.8180000186 81.408996582 1.0599999428 0.7239999771
 2027.6250000 19.000000000 12.704000473 -0.017999999 0.3391500115 2.1649999619 72.793998718 135.42657471 129.92530823 0.8000000119 81.890998840 0.9980000257 0.7149999738
 2027.7500000 19.000000000 12.740999222 -0.021000000 0.3380899727 2.1459999084 71.811996460 135.42062378 129.79277039 0.7870000005 82.181999207 0.9409999847 0.7160000205
 2027.8748779 5.0000000000 12.805998802 -0.023000000 0.3302000165 2.1329998970 70.358001709 135.13943481 129.37112427 0.7789999843 82.273002625 0.8970000148 0.7250000238
 2027.9998779 5.0000000000 12.880000114 -0.022000000 0.3270500302 2.1270000935 68.942001343 134.41937256 128.86120605 0.7770000100 82.236999512 0.8719999790 0.7390000224
 2028.1251221 5.0000000000 12.942999840 -0.015000000 0.3318600059 2.1310000420 68.024002075 133.93901062 128.31695557 0.7799999714 82.141998291 0.8659999967 0.7540000081
 2028.2498779 5.0000000000 12.975000381 -0.006000000 0.3428799808 2.1449999809 67.849998474 133.05516052 127.52906799 0.7919999957 82.026000977 0.8799999952 0.7689999938
 2028.3746338 5.0000000000 12.967000008 0.0040000002 0.3484700024 2.1679999828 68.200996399 132.03344727 126.40856171 0.8119999766 81.900001526 0.9110000134 0.7810000181
 2028.5001221 5.0000000000 12.934999466 0.0130000003 0.3417800069 2.1979999542 68.966003418 130.67623901 125.00743866 0.8389999866 81.801002502 0.9530000091 0.7919999957
 2028.6250000 5.0000000000 12.895000458 0.0209999997 0.3253699839 2.2300000191 70.541999817 129.16979980 123.52597809 0.8719999790 81.767997742 0.9980000257 0.8050000072
 2028.7500000 6.0000000000 12.862999916 0.0289999992 0.3065899909 2.2590000629 73.795997620 127.89839935 122.21943665 0.9039999843 81.815002441 1.0279999971 0.8190000057
 2028.8750000 6.0000000000 12.845000267 0.0340000018 0.2916299999 2.2730000019 78.416999817 127.19973755 121.42952728 0.9290000200 81.919998169 1.0319999456 0.8309999704
 2029.0001221 6.0000000000 12.828000069 0.0329999998 0.2822200060 2.2699999809 82.961997986 126.87511444 121.27606201 0.9409999847 82.023002625 1.0190000534 0.8360000253
 2029.1248779 6.0000000000 12.807999611 0.0240000002 0.2782999873 2.2569999695 85.550003052 127.23369598 121.62134552 0.9399999976 82.061996460 1.0080000162 0.8320000172
 2029.2502441 6.0000000000 12.788000107 0.0089999996 0.2814899981 2.2400000095 84.941001892 127.91854095 122.38012695 0.9300000072 81.973999023 1.0119999647 0.8220000267
 2029.3751221 19.000000000 12.781000137 -0.010000000 0.2945199907 2.2230000496 81.857002258 128.88470459 123.48327637 0.9179999828 81.740997314 1.0279999971 0.8119999766
 2029.4998779 19.000000000 12.789999962 -0.027000001 0.3126000166 2.2070000172 77.765998840 130.72299194 124.92066193 0.9060000181 81.386001587 1.0329999924 0.8059999943
 2029.6251221 19.000000000 12.807000160 -0.035999998 0.3278400004 2.1900000572 74.464996338 132.29040527 126.81634521 0.8970000148 80.930999756 1.0160000324 0.8069999814
 2029.7501221 19.000000000 12.814999580 -0.035999998 0.3322800100 2.1740000248 72.843002319 134.63446045 128.94273376 0.8889999986 80.417999268 0.9869999886 0.8119999766
 2029.8750000 19.000000000 12.805000305 -0.028000001 0.3230899870 2.1649999619 72.375999451 136.72421265 130.99600220 0.8809999824 79.893997192 0.9689999819 0.8180000186
 2030.0000000 19.000000000 12.779000282 -0.017999999 0.3121999800 2.1640000343 72.404998779 138.31240845 132.71162415 0.8750000000 79.384002686 0.9689999819 0.8240000010
 2030.1250000 19.000000000 12.748000145 -0.008000000 0.3089900017 2.1689999104 72.402000427 139.48112488 133.85911560 0.8719999790 78.917999268 0.9850000143 0.8299999833
 2030.2501221 19.000000000 12.720001221 -0.002000000 0.3158000112 2.1749999523 72.123001099 139.96472168 134.20021057 0.8759999871 78.572998047 1.0069999695 0.8360000253
 2030.3748779 19.000000000 12.697999954 -0.003000000 0.3273600042 2.1779999733 71.652000427 139.20158386 133.71083069 0.8840000033 78.446998596 1.0279999971 0.8429999948
 2030.5001221 19.000000000 12.684000015 -0.009000000 0.3370299935 2.1819999218 71.362998962 138.17980957 132.60504150 0.8960000277 78.583999634 1.0449999571 0.8510000110
 2030.6248779 19.000000000 12.678000450 -0.014000000 0.3393700123 2.1840000153 71.505996704 136.73182678 131.10270691 0.9129999876 79.091003418 1.0599999428 0.8590000272
 2030.7496338 19.000000000 12.682000160 -0.017999999 0.3311899900 2.1879999638 71.889999390 135.03306580 129.44857788 0.9319999814 80.085998535 1.0729999542 0.8690000176
 2030.8751221 19.000000000 12.694000244 -0.018999999 0.3168799877 2.1919999123 72.188003540 133.73965454 127.88718414 0.9520000219 81.341003418 1.0820000172 0.8809999824
 2031.0000000 19.000000000 12.708999634 -0.020000000 0.3035700023 2.1940000057 72.098999023 132.28559875 126.67539215 0.9729999900 82.378997803 1.0850000381 0.8930000067
 2031.1250000 19.000000000 12.722000122 -0.021000000 0.2980599999 2.1940000057 71.333999634 131.29365540 125.72210693 0.9909999967 82.831001282 1.0870000124 0.9039999843
 2031.2500000 19.000000000 12.730999947 -0.022000000 0.3055399954 2.1930000782 70.081001282 130.53446960 124.92469788 1.0030000210 82.568000793 1.0889999866 0.9110000134
 2031.3751221 19.000000000 12.736000061 -0.017999999 0.3258199990 2.1949999332 69.019996643 129.85205078 124.26381683 1.0110000372 81.885002136 1.0970000029 0.9139999747
 2031.4998779 19.000000000 12.736000061 -0.015000000 0.3465200067 2.2009999752 68.540000916 129.30267334 123.79301453 1.0140000582 81.237998962 1.1089999676 0.9120000005
 2031.6252441 19.000000000 12.732999802 -0.014000000 0.3544300199 2.2090001106 68.696998596 129.49877930 123.69590759 1.0149999857 80.861000061 1.1219999790 0.9079999924
