# LAS format log file from PETREL
# Project units are specified as depth units
#==================================================================
~Version information
VERS.   2.0:
WRAP.   NO:
#==================================================================
~Well
STRT .m      3891.7941895 :
STOP .m      4561.5922852 :
STEP .m     0.00000000 :
NULL .        -999.250000 :
COMP.           : COMPANY
WELL.  30/3-5S   : WELL
FLD.            : FIELD
LOC.            : LOCATION
SRVC.           : SERVICE COMPANY
DATE.  2018-09-11 14:48:29   : Log Export Date {yyyy-MM-dd HH:mm:ss}
PROV.           : PROVINCE
UWI.   30/3-5 S   : UNIQUE WELL ID
API.            : API NUMBER
#==================================================================
~Curve
DEPT .m                   : DEPTH
Lithology_geolink ._      : Lithology_geolink
CALI .in                  : CALI
DRHO .g/cm3               : DRHO
NPHI .m3/m3               : NPHI
RHOB .g/cm3               : RHOB
PEF .b/e                  : PEF
GR .gAPI                  : GR
DTC .us/ft                : DTC
DTE .us/ft                : DTE
RDEP .ohm.m               : RDEP
RMED .ohm.m               : RMED
~Parameter
#==================================================================
~Ascii
# ...
 4334.8208008 6.0000000000 8.6996002197 -0.002200000 0.2721405029 2.6235499382 3.5838341713 90.547096252 99.496894836 76.535476685 8.5481004715 9.0307998657
 4334.9736328 6.0000000000 8.7109003067 -0.002700000 0.2669684589 2.6261191368 3.5714704990 96.263000488 100.08299255 76.985382080 8.5169000626 8.9202003479
 4335.1259766 6.0000000000 8.7109003067 -0.001600000 0.2647814453 2.6318662167 3.6061885357 100.24220276 100.17272186 76.897026062 8.4856996536 8.8464002609
 4335.2783203 6.0000000000 8.6667003632 -0.002500000 0.2653060853 2.6362836361 3.6948053837 99.955703735 99.464523315 76.545059204 8.4600000381 8.8059997559
 4335.4306641 6.0000000000 8.6649999619 -0.001400000 0.2668653131 2.6368820667 3.7261118889 97.020797729 99.709976196 76.494979858 8.4309997559 8.7803001404
 4335.5830078 6.0000000000 8.6995000839 -0.001700000 0.2705871463 2.6326746941 3.6401116848 97.062500000 99.372421265 76.404624939 8.3942003250 8.7512998581
 4335.7353516 6.0000000000 8.7109003067 0.0006000000 0.2739733160 2.6334834099 3.7279646397 98.783798218 99.433670044 76.124679565 8.3330001831 8.7145004272
 4335.8876953 6.0000000000 8.7109003067 0.0034000000 0.2744056284 2.6375250816 3.8817517757 101.70310211 99.280319214 76.081275940 8.2737998962 8.6589002609
 4336.0400391 6.0000000000 8.6942996979 0.0071999999 0.2759855092 2.6429247856 3.9864783287 101.18229675 99.402221680 76.604827881 8.2080001831 8.6073999405
 4336.1923828 6.0000000000 8.6597995758 0.0096000005 0.2836638689 2.6464250088 3.9290864468 97.902801514 100.35321808 77.171493530 8.1265001297 8.5715999603
 4336.3452148 6.0000000000 8.6927003860 0.0107000005 0.2904540300 2.6473824978 3.8718824387 94.067703247 100.29544830 77.051902771 8.0572996140 8.5459003448
 4336.4975586 6.0000000000 8.6942996979 0.0120000001 0.2911068201 2.6492519379 3.7490360737 92.627601624 99.986953735 77.048797607 8.0279998779 8.5225000381
 4336.6499023 6.0000000000 8.7040996552 0.0097000012 0.2876804173 2.6491935253 3.6115159988 93.651000977 100.38755035 77.304626465 7.9875001907 8.4879999161
 4336.8022461 6.0000000000 8.7109003067 0.0060000001 0.2871549428 2.6463072300 3.5046637058 94.611999512 100.47740173 77.517181396 7.9366998672 8.4322996140
 4336.9545898 6.0000000000 8.7109003067 0.0031000001 0.2867158055 2.6409845352 3.5823631287 96.583297729 101.55377197 78.244224548 7.8887000084 8.3531999588
 4337.1069336 6.0000000000 8.7054004669 0.0023000001 0.2845301032 2.6355826855 3.7982602119 97.268203735 102.23290253 78.911170959 7.8529000282 8.2561998367
 4337.2592773 6.0000000000 8.7087001801 -0.000600000 0.2812600434 2.6288750172 3.9619891644 98.622398376 102.04299927 78.973648071 7.7939000130 8.1602001190
 4337.4116211 6.0000000000 8.7109003067 -0.002100000 0.2806716561 2.6244502068 3.9403545856 99.585899353 101.98002625 78.767700195 7.6986999512 8.0719003677
 4337.5639648 6.0000000000 8.7109003067 -0.002000000 0.2852598429 2.6244249344 3.7475962639 102.94170380 101.82494354 78.823554993 7.6125998497 7.9942002296
 4337.7167969 6.0000000000 8.7109003067 -0.001700000 0.2894505858 2.6296660900 3.5286958218 104.60420227 101.86384583 78.864997864 7.5040998459 7.9256000519
 4337.8691406 6.0000000000 8.7109003067 -0.004900000 0.2896190286 2.6331467628 3.5499925613 101.65100098 101.58259583 78.542747498 7.4383001328 7.8592000008
 4338.0214844 6.0000000000 8.6667003632 -0.009000000 0.2823614478 2.6308300495 3.6743540764 96.877601624 101.27682495 78.267593384 7.3926000595 7.7927999496
 4338.1738281 6.0000000000 8.6927003860 -0.008600000 0.2778613269 2.6250605583 3.8506236076 96.057296753 101.49414825 78.550781250 7.3678002357 7.7209000587
 4338.3261719 6.0000000000 8.7220001221 -0.007700000 0.2850815654 2.6196303368 3.9603302479 95.869796753 102.38259888 79.120574951 7.3522000313 7.6465997696
 4338.4785156 6.0000000000 8.6379995346 -0.008800000 0.2982059717 2.6136500835 3.9047586918 97.148399353 102.32500458 79.286682129 7.3034000397 7.5806999207
 4338.6308594 6.0000000000 8.6291999817 -0.004900000 0.3075303435 2.6150498390 3.9220252037 97.085899353 102.31929779 79.125495911 7.2712998390 7.5404000282
 4338.7832031 6.0000000000 8.6850004196 0.0004000000 0.3046457171 2.6195249557 3.9299879074 100.40319824 101.85882568 78.782974243 7.2767000198 7.5311999321
 4338.9360352 6.0000000000 8.7087001801 0.0043000001 0.2999435365 2.6246783733 4.0530972481 102.89320374 101.30629730 78.442123413 7.2645998001 7.5451002121
 4339.0883789 6.0000000000 8.6833000183 0.0063999998 0.3010560572 2.6247403622 3.9528620243 103.66670227 101.27682495 78.285873413 7.3076000214 7.5618000031
 4339.2407227 6.0000000000 8.6110000610 0.0074000000 0.3047496378 2.6228036880 3.7145619392 104.60939789 101.21787262 78.310371399 7.3586001396 7.5636000633
 4339.3930664 6.0000000000 8.6135997772 0.0059000002 0.3017917871 2.6247127056 3.6477928162 101.48439789 101.39839935 78.272850037 7.3600001335 7.5597000122
 4339.5454102 6.0000000000 8.6139001846 0.0035000001 0.2969732881 2.6284849644 3.6456580162 99.885398865 101.73774719 78.548950195 7.3471999168 7.5585999489
 4339.6977539 6.0000000000 8.6093997955 0.0031999999 0.2914757431 2.6306233406 3.7762954235 97.023399353 102.04801941 79.078079224 7.3298997879 7.5613999367
 4339.8500977 6.0000000000 8.6260004044 0.0029000000 0.2876125276 2.6296484470 3.7633714676 97.867202759 102.56727600 79.508476257 7.2827000618 7.5458998680
 4340.0024414 6.0000000000 8.5885000229 0.0030000000 0.2848145962 2.6296672821 3.7028245926 95.190101624 103.24742126 80.237045288 7.2490000725 7.4864997864
 4340.1547852 6.0000000000 8.5924997330 0.0066000000 0.2852032781 2.6345860958 3.7189002037 94.060302734 103.82108307 80.583381653 7.2365999222 7.3762001991
 4340.3076172 6.0000000000 8.5904998779 0.0098000001 0.2875674367 2.6360719204 3.7359838486 93.921897888 103.66474915 80.597702026 7.1735000610 7.2458000183
 4340.4599609 6.0000000000 8.5915002823 0.0093999999 0.2910950482 2.6310875416 3.8976049423 99.080703735 103.89347839 80.988403320 7.0184001923 7.1350998878
 4340.6123047 6.0000000000 8.6324996948 0.0098000001 0.2986931205 2.6255683899 3.9962627888 104.83589935 104.31807709 81.148948669 6.9095001221 7.0666999817
 4340.7646484 6.0000000000 8.6373996735 0.0111999996 0.3081842363 2.6242532730 4.1026015282 107.50779724 104.44742584 81.258094788 6.8452000618 7.0397000313
 4340.9169922 6.0000000000 8.6826000214 0.0120999999 0.3144298494 2.6257090569 4.1122422218 107.15879822 104.34547424 81.426322937 6.7976999283 7.0378999710
 4341.0693359 6.0000000000 8.7087001801 0.0105999997 0.3146941960 2.6284077168 4.0738568306 102.91670227 104.59429932 81.477325439 6.7878999710 7.0418000221
 4341.2216797 6.0000000000 8.7054004669 0.0088000000 0.3141025305 2.6307315826 3.9555287361 100.25000000 104.44742584 81.346420288 6.7807998657 7.0402002335
 4341.3740234 6.0000000000 8.7087001801 0.0074000000 0.3132235408 2.6339964867 3.8840143681 98.971298218 104.28089905 81.216445923 6.7497000694 7.0363001823
 4341.5263672 6.0000000000 8.7054004669 0.0076000001 0.3123977482 2.6387720108 4.0384616852 99.866203308 104.33599091 81.149932861 6.6746001244 7.0406999588
 4341.6791992 6.0000000000 8.6920995712 0.0055000000 0.3081199229 2.6377408504 4.1079478264 101.79170227 104.22572327 81.188850403 6.6069002151 7.0485000610
 4341.8315430 6.0000000000 8.7040996552 0.0066999998 0.2974755764 2.6349363327 4.0251650810 104.72129822 104.26245117 81.310829163 6.5760002136 7.0342001915
 4341.9838867 6.0000000000 8.7109003067 0.0049000001 0.2877972722 2.6293950081 3.7577686310 104.75779724 104.52962494 81.187477112 6.5508999825 6.9748001099
 4342.1362305 6.0000000000 8.6942996979 0.0035999999 0.2901081145 2.6287570000 3.8593187332 103.00260162 104.04109955 80.815505981 6.5346999168 6.8729000092
 4342.2885742 6.0000000000 8.6985998154 0.0020999999 0.3002910912 2.6296150684 4.0394945145 100.17970276 103.34019470 80.339530945 6.5285000801 6.7540998459
 4342.4409180 6.0000000000 8.6920995712 0.0005000000 0.3065100610 2.6291990280 3.9362332821 101.55210114 103.21220398 80.160202026 6.5218000412 6.6496000290
