# LAS format log file from PETREL
# Project units are specified as depth units
#==================================================================
~Version information
VERS.   2.0:
WRAP.   NO:
#==================================================================
~Well
STRT .m      579.75000000 :
STOP .m      3292.5014648 :
STEP .m     0.00000000 :
NULL .        -999.250000 :
COMP.           : COMPANY
WELL.  30/3-4R   : WELL
FLD.            : FIELD
LOC.            : LOCATION
SRVC.           : SERVICE COMPANY
DATE.  2018-09-11 14:48:28   : Log Export Date {yyyy-MM-dd HH:mm:ss}
PROV.           : PROVINCE
UWI.   30/3-4 R   : UNIQUE WELL ID
API.            : API NUMBER
#==================================================================
~Curve
DEPT .m                   : DEPTH
Lithology_geolink ._      : Lithology_geolink
CALI .in                  : CALI
DRHO .g/cm3               : DRHO
NPHI .m3/m3               : NPHI
RHOB .g/cm3               : RHOB
GR .gAPI                  : GR
DTC .us/ft                : DTC
DTE .us/ft                : DTE
RDEP .ohm.m               : RDEP
SP .mV                    : SP
RSHA .ohm.m               : RSHA
RMED .ohm.m               : RMED
~Parameter
#==================================================================
~Ascii
# ...
 2205.7497559 5.0000000000 12.932999611 0.0149999997 0.2731699944 2.3069999218 65.634002686 128.07495117 122.44485474 1.0950000286 69.149002075 1.2829999924 0.9969999790
 2205.8750000 5.0000000000 12.940999985 0.0280000009 0.2807599902 2.3159999847 67.137001038 127.99596405 122.44285583 1.0980000496 69.045997620 1.2819999456 1.0000000000
 2206.0000000 5.0000000000 12.940999985 0.0350000001 0.2922100127 2.3129999638 70.021003723 128.35644531 122.61655426 1.0980000496 69.068000793 1.2749999762 1.0019999743
 2206.1250000 5.0000000000 12.934999466 0.0350000001 0.3035100102 2.3020000458 73.140998840 128.57881165 122.99530792 1.0959999561 69.216003418 1.2630000114 1.0019999743
 2206.2500000 5.0000000000 12.927999496 0.0309999995 0.3106999993 2.2860000134 75.491996765 129.31414795 123.56304932 1.0920000076 69.386001587 1.2469999790 0.9969999790
 2206.3750000 6.0000000000 12.923999786 0.0209999997 0.3118300140 2.2690000534 76.847999573 129.79957581 124.15077209 1.0859999657 69.457000732 1.2319999933 0.9879999757
 2206.5000000 6.0000000000 12.927000046 0.0089999996 0.3108900189 2.2550001144 77.315002441 130.29290771 124.62516785 1.0779999495 69.426002502 1.2209999561 0.9769999981
 2206.6250000 6.0000000000 12.937999725 0.0000000000 0.3095600009 2.2490000725 77.188003540 130.70880127 124.88942719 1.0679999590 69.384002686 1.2159999609 0.9660000205
 2206.7502441 6.0000000000 12.959000587 -0.003000000 0.3045400083 2.2500000000 76.643997192 130.67811584 124.88950348 1.0570000410 69.418998718 1.2150000334 0.9549999833
 2206.8747559 6.0000000000 12.986001015 0.0010000000 0.2947700024 2.2590000629 75.850997925 130.06961060 124.60548401 1.0460000038 69.513000488 1.2150000334 0.9470000267
 2206.9997559 6.0000000000 13.015999794 0.0049999999 0.2883000076 2.2679998875 75.227996826 129.81716919 124.17571259 1.0360000134 69.564002991 1.2150000334 0.9430000186
 2207.1250000 6.0000000000 13.043999672 0.0060000001 0.2905800045 2.2760000229 75.624000549 129.36807251 123.70687866 1.0290000439 69.513999939 1.2120000124 0.9419999719
 2207.2500000 5.0000000000 13.068000793 0.0030000000 0.3017399907 2.2799999714 77.121002197 128.86495972 123.25665283 1.0249999762 69.396003723 1.2100000381 0.9440000057
 2207.3750000 5.0000000000 13.084999084 -0.002000000 0.3160899878 2.2809998989 78.283996582 128.47406006 122.85744476 1.0240000486 69.283996582 1.2109999657 0.9480000138
 2207.5000000 5.0000000000 13.097000122 -0.004000000 0.3244100213 2.2829999924 77.621002197 128.08259583 122.52005005 1.0249999762 69.195999146 1.2159999609 0.9520000219
 2207.6250000 5.0000000000 13.108999252 -0.003000000 0.3240399957 2.2869999409 74.959999084 127.88460541 122.26309967 1.0269999504 69.101997375 1.2250000238 0.9549999833
 2207.7500000 5.0000000000 13.121999741 -0.001000000 0.3187400103 2.2920000553 71.622001648 127.68891144 122.05995178 1.0290000439 68.987998962 1.2359999418 0.9559999704
 2207.8752441 5.0000000000 13.137999535 -0.002000000 0.3129799962 2.2909998894 69.276000977 127.49300385 121.88583374 1.0310000181 68.896003723 1.2439999580 0.9559999704
 2208.0002441 5.0000000000 13.160000801 -0.007000000 0.3062399924 2.2839999199 68.585998535 127.30697632 121.71533966 1.0340000391 68.867996216 1.2489999533 0.9530000091
 2208.1247559 5.0000000000 13.187999725 -0.012000000 0.2985199988 2.2720000744 68.926002502 127.13417816 121.52661896 1.0360000134 68.908996582 1.2480000257 0.9499999881
 2208.2500000 5.0000000000 13.220000267 -0.010000000 0.2922500074 2.2569999695 69.878997803 126.90957642 121.30875397 1.0390000343 68.985000610 1.2419999838 0.9490000010
 2208.3750000 5.0000000000 13.251000404 -0.004000000 0.2889100015 2.2449998856 71.750000000 126.71083069 121.10202026 1.0420000553 69.064002991 1.2330000401 0.9530000091
 2208.5000000 5.0000000000 13.274000168 0.0000000000 0.2874599993 2.2369999886 74.623001099 126.49547577 120.97996521 1.0460000038 69.147003174 1.2269999981 0.9620000124
 2208.6250000 5.0000000000 13.281999588 -0.004000000 0.2883700132 2.2349998951 77.677001953 126.57627869 120.99597931 1.0490000248 69.233001709 1.2280000448 0.9729999900
 2208.7500000 6.0000000000 13.275999069 -0.013000000 0.2924300134 2.2379999161 79.595001221 126.95971680 121.17567444 1.0509999990 69.247001648 1.2369999886 0.9840000272
 2208.8750000 6.0000000000 13.260000229 -0.016000001 0.2994700074 2.2479999065 79.750999451 127.12705994 121.50600433 1.0520000458 69.058998108 1.2460000515 0.9919999838
 2209.0000000 6.0000000000 13.239000320 -0.010000000 0.3057099879 2.2630000114 78.412002563 127.32275391 121.90296936 1.0529999733 68.620002747 1.2489999533 0.9959999919
 2209.1252441 6.0000000000 13.215999603 0.0020000001 0.3067499995 2.2769999504 76.769996643 127.83147430 122.26511383 1.0529999733 67.966003418 1.2439999580 0.9969999790
 2209.2497559 6.0000000000 13.192000389 0.0099999998 0.3003700078 2.2860000134 76.040000916 128.07800293 122.54870605 1.0540000200 67.211997986 1.2350000143 0.9969999790
 2209.3747559 6.0000000000 13.170999527 0.0099999998 0.2907699943 2.2839999199 76.324996948 128.22660828 122.74948883 1.0540000200 66.498001099 1.2259999514 0.9950000048
 2209.5000000 5.0000000000 13.156998634 0.0040000002 0.2839899957 2.2820000648 77.021003723 128.55665588 122.87634277 1.0520000458 65.902000427 1.2189999819 0.9919999838
 2209.6250000 5.0000000000 13.150000572 -0.004000000 0.2812400162 2.2780001163 77.293998718 128.33430481 122.93148041 1.0470000505 65.439002991 1.2159999609 0.9879999757
 2209.7500000 5.0000000000 13.144000053 -0.008000000 0.2815699875 2.2760000229 76.512001038 128.49659729 122.93091583 1.0399999619 65.091003418 1.2130000591 0.9819999933
 2209.8750000 5.0000000000 13.130000114 -0.010000000 0.2854200006 2.2750000954 75.000000000 128.41804504 122.92987061 1.0310000181 64.849998474 1.2109999657 0.9760000110
 2210.0000000 5.0000000000 13.101999283 -0.013000000 0.2927800119 2.2730000019 73.641998291 128.51721191 122.97421265 1.0219999552 64.745002747 1.2089999914 0.9689999819
 2210.1250000 5.0000000000 13.062000275 -0.020000000 0.3022800088 2.2699999809 73.179000854 128.86994934 123.08537292 1.0119999647 64.842002869 1.2059999704 0.9629999995
 2210.2502441 5.0000000000 13.017999649 -0.027000001 0.3113600016 2.2679998875 73.468002319 129.02331543 123.25067902 1.0019999743 65.283996582 1.2020000219 0.9559999704
 2210.3752441 5.0000000000 12.982998848 -0.028000001 0.3154299855 2.2699999809 73.667999268 128.82752991 123.37507629 0.9909999967 66.325996399 1.1979999542 0.9499999881
 2210.4997559 5.0000000000 12.961000443 -0.020000000 0.3112100065 2.2790000439 73.308998108 128.93280029 123.33769226 0.9779999852 67.982002258 1.1959999800 0.9440000057
 2210.6250000 5.0000000000 12.954000473 -0.004000000 0.3000099957 2.2950000763 72.650001526 128.67797852 123.08448029 0.9670000076 69.955001831 1.1950000525 0.9380000234
 2210.7500000 5.0000000000 12.954000473 0.0130000003 0.2883400023 2.3099999428 72.305000305 128.18841553 122.65392303 0.9589999914 71.515998840 1.1970000267 0.9330000281
 2210.8750000 5.0000000000 12.956999779 0.0219999999 0.2839399874 2.3190000057 72.629997253 127.74204254 122.14595032 0.9539999962 71.862998962 1.2000000477 0.9309999943
 2211.0000000 5.0000000000 12.960000038 0.0209999997 0.2875200212 2.3220000267 73.692001343 127.15496063 121.71796417 0.9530000091 70.847999573 1.2059999704 0.9290000200
 2211.1250000 5.0000000000 12.963000298 0.0130000003 0.2965700030 2.3210000992 75.304000854 127.12400055 121.54111481 0.9559999704 68.825996399 1.2139999866 0.9290000200
 2211.2500000 5.0000000000 12.969000816 0.0020000001 0.3053799868 2.3139998913 77.449996948 127.26634216 121.59734344 0.9599999785 66.571998596 1.2230000496 0.9279999733
 2211.3750000 5.0000000000 12.977999687 -0.009000000 0.3063099980 2.3080000877 80.056999207 127.37683105 121.78836823 0.9660000205 64.878997803 1.2300000191 0.9290000200
 2211.5002441 5.0000000000 12.987999916 -0.013000000 0.2999500036 2.3059999943 82.668998718 127.50258636 122.00981903 0.9710000157 63.956001282 1.2339999676 0.9300000072
 2211.6247559 6.0000000000 13.001000404 -0.009000000 0.2909199893 2.3050000668 84.597999573 127.82613373 122.16957855 0.9750000238 63.688003540 1.2359999418 0.9330000281
