# LAS format log file from PETREL
# Project units are specified as depth units
#==================================================================
~Version information
VERS.   2.0:
WRAP.   NO:
#==================================================================
~Well
STRT .m      3891.7941895 :
STOP .m      4561.5922852 :
STEP .m     0.00000000 :
NULL .        -999.250000 :
COMP.           : COMPANY
WELL.  30/3-5S   : WELL
FLD.            : FIELD
LOC.            : LOCATION
SRVC.           : SERVICE COMPANY
DATE.  2018-09-11 14:48:29   : Log Export Date {yyyy-MM-dd HH:mm:ss}
PROV.           : PROVINCE
UWI.   30/3-5 S   : UNIQUE WELL ID
API.            : API NUMBER
#==================================================================
~Curve
DEPT .m                   : DEPTH
Lithology_geolink ._      : Lithology_geolink
CALI .in                  : CALI
DRHO .g/cm3               : DRHO
NPHI .m3/m3               : NPHI
RHOB .g/cm3               : RHOB
PEF .b/e                  : PEF
GR .gAPI                  : GR
DTC .us/ft                : DTC
DTE .us/ft                : DTE
RDEP .ohm.m               : RDEP
RMED .ohm.m               : RMED
~Parameter
#==================================================================
~Ascii
# ...
 4373.6831055 6.0000000000 8.6555995941 0.0007000000 0.2548770905 2.5885455608 3.3209135532 85.515602112 88.380950928 76.528274536 6.2969212532 6.5325999260
 4373.8354492 6.0000000000 8.7269001007 0.0002000000 0.2573739588 2.5877280235 3.2776505947 89.343803406 88.363601685 76.234176636 6.2724604607 6.5124001503
 4373.9877930 6.0000000000 8.7269001007 0.0011000000 0.2522973120 2.5895645618 3.2591977119 92.513000488 88.014579773 76.229301453 6.2600998878 6.5022997856
 4374.1401367 6.0000000000 8.7109003067 0.0004000000 0.2466008216 2.5929746628 3.4417066574 94.559898376 88.180976868 76.386734009 6.2494997978 6.4945001602
 4374.2924805 6.0000000000 8.7109003067 0.0007000000 0.2452791780 2.5937862396 3.4839243889 93.132797241 88.289527893 76.495498657 6.2294998169 6.4784002304
 4374.4453125 6.0000000000 8.7109003067 0.0030000000 0.2557126582 2.5967075825 3.4881248474 91.072898865 88.164253235 76.551277161 6.2060155869 6.4478001595
 4374.5976563 6.0000000000 8.7054004669 0.0027999999 0.2692829669 2.5974717140 3.4679048061 91.316101074 88.292572021 76.700576782 6.1797213554 6.4043002129
 4374.7500000 6.0000000000 8.7087001801 0.0022000000 0.2701543868 2.5964355469 3.4160594940 93.927101135 88.380950928 76.567146301 6.1552071571 6.3519001007
 4374.9023438 6.0000000000 8.7109003067 0.0012000001 0.2638674974 2.5930061340 3.4190392494 98.903602600 88.363601685 76.424468994 6.1261644363 6.3000001907
 4375.0546875 6.0000000000 8.7109003067 -0.002600000 0.2585521042 2.5882961750 3.4387080669 101.22660065 87.977203369 76.303146362 6.0838499069 6.2491998672
 4375.2070313 6.0000000000 8.7109003067 -0.004900000 0.2606722713 2.5878303051 3.5728666782 97.648399353 87.740325928 75.967948914 6.0369677544 6.2012000084
 4375.3593750 6.0000000000 8.7109003067 -0.003900000 0.2608572245 2.5900621414 3.5728709698 93.140602112 86.991653442 75.383346558 5.9958000183 6.1626000404
 4375.5117188 6.0000000000 8.7109003067 -0.001300000 0.2531142235 2.5934317112 3.5108172894 90.786499023 87.006973267 75.236373901 5.9760999680 6.1329998970
 4375.6640625 6.0000000000 8.7109003067 -0.000500000 0.2496310323 2.5955317020 3.4896333218 92.260398865 87.540390015 75.728500366 5.9753999710 6.1167001724
 4375.8168945 6.0000000000 8.6942996979 0.0027000001 0.2522762716 2.5979461670 3.6010615826 94.392402649 88.142974854 76.248901367 5.9710373878 6.1216001511
 4375.9692383 6.0000000000 8.7040996552 0.0074000000 0.2573264539 2.5996842384 3.7507951260 93.963500977 88.603324890 76.512527466 5.9826536179 6.1444001198
 4376.1215820 6.0000000000 8.6887998581 0.0088000000 0.2551761866 2.5965366364 3.6941106319 91.216102600 88.546875000 76.793350220 5.9992527962 6.1799998283
 4376.2739258 6.0000000000 8.6962995529 0.0083999997 0.2514760494 2.5933747292 3.6238420010 88.656196594 88.564399719 77.009300232 5.9843592644 6.2080001831
 4376.4262695 6.0000000000 8.7031002045 0.0126999998 0.2499806136 2.5929961205 3.6557805538 88.044296265 88.089324951 76.474746704 5.9405169487 6.2147998810
 4376.5786133 6.0000000000 8.7031002045 0.0135000004 0.2551870942 2.5908591747 3.7601773739 90.143203735 88.014579773 76.214752197 5.9147000313 6.1872000694
 4376.7309570 6.0000000000 8.6920995712 0.0130000003 0.2581972480 2.5863389969 3.7070312500 91.929702759 88.218124390 76.662925720 5.9074001312 6.1259999275
 4376.8833008 6.0000000000 8.6487998962 0.0130000003 0.2590549290 2.5850913525 3.4935395718 91.869796753 88.638526917 76.890098572 5.8923997879 6.0473999977
 4377.0356445 6.0000000000 8.6106996536 0.0115999999 0.2569044828 2.5898115635 3.3461537361 90.979202271 88.931236267 76.839477539 5.8756999969 5.9791998863
 4377.1884766 6.0000000000 8.5904998779 0.0114000002 0.2539598942 2.5935511589 3.2870280743 87.939102173 88.492401123 76.888351440 5.8656015396 5.9471001625
 4377.3408203 6.0000000000 8.6468000412 0.0114000002 0.2487972230 2.5986192226 3.3131446838 88.229202271 88.492401123 76.806877136 5.8660039902 5.9663000107
 4377.4931641 6.0000000000 8.6995000839 0.0120000001 0.2458026260 2.6063990593 3.4531376362 87.263000488 88.455253601 76.742576599 5.8672709465 6.0264000893
 4377.6455078 6.0000000000 8.7109003067 0.0120000001 0.2467251867 2.6126582623 3.5953087807 85.341102600 88.380950928 76.787704468 5.8894352913 6.1050000191
 4377.7978516 6.0000000000 8.7109003067 0.0129000004 0.2498851418 2.6109790802 3.6196162701 84.236999512 88.455253601 76.702575684 5.9317674637 6.1732001305
 4377.9501953 6.0000000000 8.6942996979 0.0089999996 0.2499470413 2.5964512825 3.5390748978 84.929702759 88.380950928 76.443801880 5.9840002060 6.2163000107
 4378.1025391 6.0000000000 8.6985998154 0.0057000001 0.2463717014 2.5830237865 3.4657452106 86.950500488 88.455253601 76.430168152 6.0248999596 6.2459001541
 4378.2548828 6.0000000000 8.7031002045 0.0046000001 0.2433117032 2.5762162209 3.4365985394 87.315101624 88.380950928 76.651245117 6.0850000381 6.2815999985
 4378.4077148 6.0000000000 8.6754999161 0.0035000001 0.2444883734 2.5754563808 3.3211450577 86.877601624 88.345581055 76.654609680 6.1721382141 6.3400001526
 4378.5600586 6.0000000000 8.6972999573 0.0034000000 0.2450990081 2.5806126595 3.2543005943 88.744796753 87.927330017 76.364227295 6.2464685440 6.4230999947
 4378.7124023 6.0000000000 8.6942996979 0.0024000001 0.2477328479 2.5858435631 3.2534742355 88.367202759 88.014579773 76.290878296 6.2989592552 6.5239000320
 4378.8647461 6.0000000000 8.6875000000 -0.000500000 0.2502128482 2.5878696442 3.3811097145 90.796897888 88.218124390 76.471572876 6.3486270905 6.6321997643
 4379.0170898 6.0000000000 8.6322002411 -0.003100000 0.2498773336 2.5857896805 3.4325482845 90.494796753 88.363601685 76.394676208 6.3883743286 6.7305002213
 4379.1694336 6.0000000000 8.5817003250 -0.003800000 0.2476953566 2.5843114853 3.3582267761 89.476600647 87.831756592 76.004302979 6.4429702759 6.8186998367
 4379.3217773 6.0000000000 8.5703001022 -0.004200000 0.2438148707 2.5899116993 3.3629808426 83.114601135 87.174278259 75.430473328 6.5272998810 6.8990998268
 4379.4741211 6.0000000000 8.5703001022 -0.002500000 0.2413304299 2.6028552055 3.4151141644 81.669296265 86.327629089 74.540756226 6.6100001335 6.9910001755
 4379.6264648 6.0000000000 8.5703001022 0.0022000000 0.2378112823 2.6186118126 3.5015025139 80.752601624 85.543029785 73.748542786 6.6854000092 7.1052999496
 4379.7792969 6.0000000000 8.5703001022 0.0044999998 0.2337919474 2.6282510757 3.5130834579 83.522796631 84.601325989 72.962875366 6.7684659958 7.2378997803
 4379.9316406 6.0000000000 8.5703001022 0.0018000000 0.2321437448 2.6331658363 3.5780811310 83.412101746 84.001533508 72.219429016 6.8514800072 7.3688001633
 4380.0839844 5.0000000000 8.5703001022 0.0037000000 0.2291427553 2.6407523155 3.5940380096 82.502601624 84.259704590 72.115623474 6.9388084412 7.4753999710
 4380.2363281 5.0000000000 8.5703001022 0.0057999999 0.2269401252 2.6456060410 3.5815367699 77.593803406 84.156097412 72.414375305 7.0036954880 7.5454001427
 4380.3886719 5.0000000000 8.5703001022 0.0043000001 0.2325720340 2.6368448734 3.4766502380 75.580703735 84.442550659 72.719024658 7.0334091187 7.5791001320
 4380.5410156 5.0000000000 8.5703001022 0.0012000001 0.2440447360 2.6193411350 3.5183143616 75.341102600 85.071228027 73.235977173 7.0363001823 7.5831999779
 4380.6933594 5.0000000000 8.5703001022 0.0011000000 0.2536996007 2.6024351120 3.4307391644 78.526000977 85.961074829 74.153121948 7.0130000114 7.5515999794
 4380.8457031 5.0000000000 8.5703001022 0.0014000000 0.2545794249 2.5914795399 3.3257212639 78.192703247 86.640602112 74.876052856 6.9651999474 7.4781999588
 4380.9980469 5.0000000000 8.5703001022 0.0022000000 0.2483922094 2.5861430168 3.2139422894 79.846298218 86.991775513 75.156250000 6.8856000900 7.3646001816
 4381.1508789 5.0000000000 8.5703001022 0.0041999999 0.2387278974 2.5851666927 3.2229065895 79.083702087 86.862228394 75.063850403 6.8175768852 7.2200999260
 4381.3032227 5.0000000000 8.5703001022 0.0059000002 0.2303573340 2.5879435539 3.3205504417 79.924499512 86.778289795 74.896476746 6.7479619980 7.0734000206
