# LAS format log file from PETREL
# Project units are specified as depth units
#==================================================================
~Version information
VERS.   2.0:
WRAP.   NO:
#==================================================================
~Well
STRT .m      236.19400024 :
STOP .m      3572.9916992 :
STEP .m     0.00000000 :
NULL .        -999.250000 :
COMP.           : COMPANY
WELL.  30/3-2R   : WELL
FLD.            : FIELD
LOC.            : LOCATION
SRVC.           : SERVICE COMPANY
DATE.  2018-09-11 14:48:27   : Log Export Date {yyyy-MM-dd HH:mm:ss}
PROV.           : PROVINCE
UWI.   30/3-2 R   : UNIQUE WELL ID
API.            : API NUMBER
#==================================================================
~Curve
DEPT .m                   : DEPTH
Lithology_geolink ._      : Lithology_geolink
CALI .in                  : CALI
DRHO .g/cm3               : DRHO
NPHI .m3/m3               : NPHI
RHOB .g/cm3               : RHOB
GR .gAPI                  : GR
DTC .us/ft                : DTC
RDEP .ohm.m               : RDEP
SP .mV                    : SP
RSHA .ohm.m               : RSHA
RMED .ohm.m               : RMED
~Parameter
#==================================================================
~Ascii
# ...
 904.62036133  -999.250000 24.922998428  -999.250000  -999.250000  -999.250000 33.124042511 164.17230225 1.0390421152  -999.250000  -999.250000 1.1860059500
 904.77276611  -999.250000 24.945999146  -999.250000  -999.250000  -999.250000 30.733436584 164.34379578 1.0260260105  -999.250000  -999.250000 1.1850019693
 904.92517090  -999.250000 25.007999420  -999.250000  -999.250000  -999.250000 29.327793121 164.17320251 1.0170179605  -999.250000  -999.250000 1.1889920235
 905.07757568  -999.250000 25.068000793  -999.250000  -999.250000  -999.250000 28.813175201 163.93118286 1.0120099783  -999.250000  -999.250000 1.1820141077
 905.22998047  -999.250000 25.040000916  -999.250000  -999.250000  -999.250000 29.250181198 163.54330444 1.0110020638  -999.250000  -999.250000 1.1640360355
 905.38238525  -999.250000 24.981000900  -999.250000  -999.250000  -999.250000 29.701646805 162.93849182 1.0139940977  -999.250000  -999.250000 1.1570140123
 905.53479004  -999.250000 25.048999786  -999.250000  -999.250000  -999.250000 26.327974319 162.20857239 1.0149979591  -999.250000  -999.250000 1.1649839878
 905.68719482  -999.250000 25.115999222  -999.250000  -999.250000  -999.250000 26.266000748 161.45260620 1.0149999857  -999.250000  -999.250000 1.1879539490
 905.83959961  -999.250000 25.065002441  -999.250000  -999.250000  -999.250000 26.268365860 160.72257996 1.0169959068  -999.250000  -999.250000 1.2089579105
 905.99200439  -999.250000 25.076000214  -999.250000  -999.250000  -999.250000 29.218675613 160.27935791 1.0179984570  -999.250000  -999.250000 1.2389519215
 906.14440918  -999.250000 25.173999786  -999.250000  -999.250000  -999.250000 28.812599182 160.28199768 1.0229920149  -999.250000  -999.250000 1.2629615068
 906.29675293  -999.250000 25.090999603  -999.250000  -999.250000  -999.250000 28.312767029 160.52270508 1.0319819450  -999.250000  -999.250000 1.2669919729
 906.44915771  -999.250000 25.218000412  -999.250000  -999.250000  -999.250000 27.733798981 160.11148071 1.0539559126  -999.250000  -999.250000 1.2620099783
 906.60156250  -999.250000 25.587999344  -999.250000  -999.250000  -999.250000 27.234600067 158.89047241 1.0929219723  -999.250000  -999.250000 1.2639960051
 906.75396729  -999.250000 25.572999954  -999.250000  -999.250000  -999.250000 28.733798981 156.51484680 1.1508839130  -999.250000  -999.250000 1.2679920197
 906.90637207  -999.250000 25.607999802  -999.250000  -999.250000  -999.250000 28.235908508 152.75753784 1.2178659439  -999.250000  -999.250000 1.2849658728
 907.05877686  -999.250000 25.854000092  -999.250000  -999.250000  -999.250000 33.002414703 148.06762695 1.3158037663  -999.250000  -999.250000 1.3119459152
 907.21118164  -999.250000 26.086000443  -999.250000  -999.250000  -999.250000 39.035842896 144.54582214 1.4187937975  -999.250000  -999.250000 1.4018197060
 907.36358643  -999.250000 26.649000168  -999.250000  -999.250000  -999.250000 51.125350952 140.40931702 1.4948477745  -999.250000  -999.250000 1.6265494823
 907.51599121  -999.250000 27.520999908  -999.250000  -999.250000  -999.250000 52.001399994 136.59605408 1.5798298120  -999.250000  -999.250000 1.8066395521
 907.66839600  -999.250000 28.204999924  -999.250000  -999.250000  -999.250000 55.498687744 135.64376831 1.6847896576  -999.250000  -999.250000 1.8319499493
 907.82080078  -999.250000 28.118999481  -999.250000  -999.250000  -999.250000 52.220176697 138.90937805 1.7937817574  -999.250000  -999.250000 1.7152342796
 907.97320557  -999.250000 27.243999481  -999.250000 0.5655882955  -999.250000 55.154495239 144.40658569 1.8738397360  -999.250000  -999.250000 1.5772763491
 908.12561035  -999.250000 26.357000351  -999.250000 0.5807895064  -999.250000 53.279022217 148.00012207 1.9009567499  -999.250000  -999.250000 1.5131025314
 908.27801514  -999.250000 25.791000366 -1.080000043 0.5720979571 1.5871537924 50.813476563 148.92227173 1.8970063925  -999.250000  -999.250000 1.4820497036
 908.43035889  -999.250000 25.566999435 -1.105000019 0.5953360200 1.6179131269 51.406700134 147.04225159 1.8740459681  -999.250000  -999.250000 1.5169298649
 908.58276367  -999.250000 25.763999939 -1.161000013 0.6153904200 1.5721106529 53.159263611 143.94572449 1.8510459661  -999.250000  -999.250000 1.6098138094
 908.73516846  -999.250000 25.934999466 -1.164000034 0.6409100294 1.6777452230 61.314502716 141.64376831 1.8440140486  -999.250000  -999.250000 1.6968258619
 908.88757324  -999.250000 25.871000290 -1.123999953 0.6284057498 1.6949591637 65.062606812 140.94383240 1.8619639874  -999.250000  -999.250000 1.7598738670
 909.03997803  -999.250000 25.711999893 -1.111999989 0.6105948091 1.7049759626 64.060722351 141.91284180 1.8769699335  -999.250000  -999.250000 1.7639920712
 909.19238281  -999.250000 25.554000854 -1.075000048 0.5790977478 1.6970192194 58.374050140 144.94834900 1.8859820366  -999.250000  -999.250000 1.7570140362
 909.34478760  -999.250000 25.395999908 -1.082000017 0.5638279915 1.6511105299 55.999713898 149.33248901 1.8850020170  -999.250000  -999.250000 1.7500140667
 909.49719238  -999.250000 25.270002365 -1.103999972 0.5612807870 1.6300504208 55.280223846 153.50863647 1.8700300455  -999.250000  -999.250000 1.7200601101
 909.64959717  -999.250000 25.170000076 -1.126999974 0.5619204640 1.6100480556 53.343238831 156.01799011 1.8540320396  -999.250000  -999.250000 1.6641122103
 909.80200195  -999.250000 25.312999725 -1.123999953 0.5705932379 1.6469110250 51.439727783 156.06697083 1.8290500641  -999.250000  -999.250000 1.6031222343
 909.95440674  -999.250000 25.525999069 -1.072999954 0.5899112821 1.6898967028 55.754379272 154.03761292 1.7910760641  -999.250000  -999.250000 1.5720621347
 910.10681152  -999.250000 25.660999298 -1.037999988 0.5826703906 1.7219231129 61.219753265 151.69688416 1.7540740967  -999.250000  -999.250000 1.5759919882
 910.25921631  -999.250000 25.521999359 -1.024999976 0.5579827428 1.7539230585 62.149665833 150.81369019 1.7090721130  -999.250000  -999.250000 1.5889791250
 910.41156006  -999.250000 25.356000900 -1.049000025 0.5186998248 1.7579888105 54.248748779 151.87672424 1.6830520630  -999.250000  -999.250000 1.5720341206
 910.56396484  -999.250000 25.058000565 -1.118000031 0.5060619116 1.6732382774 51.125324249 154.54679871 1.6730200052  -999.250000  -999.250000 1.5380680561
 910.71636963  -999.250000 24.954000473 -1.144999981 0.5084587932 1.6520503759 51.937786102 157.62829590 1.6640180349  -999.250000  -999.250000 1.4940880537
 910.86877441  -999.250000 25.018997192 -1.065999985 0.5070005059 1.7228294611 51.405059814 159.93025208 1.6460360289  -999.250000  -999.250000 1.4989899397
 911.02117920  -999.250000 25.349000931 -0.992999971 0.5200593472 1.7629039288 49.062698364 160.42340088 1.6380159855  -999.250000  -999.250000 1.5409159660
 911.17358398  -999.250000 26.093999863 -1.000000000 0.5067397952 1.7649952173 48.312862396 158.47833252 1.6280200481  -999.250000  -999.250000 1.5759298801
 911.32598877  -999.250000 26.889999390 -1.100000024 0.5189966559 1.6881849766 47.970691681 154.55212402 1.6459640265  -999.250000  -999.250000 1.5759999752
 911.47839355  -999.250000 26.934999466 -1.207999945 0.5522401333 1.6680480242 52.187625885 150.41731262 1.6889139414  -999.250000  -999.250000 1.5819879770
 911.63079834  -999.250000 26.591999054 -1.258999944 0.6022607684 1.6410648823 51.251514435 147.40740967 1.7329119444  -999.250000  -999.250000 1.6269098520
 911.78320313  -999.250000 26.972000122 -1.218000054 0.6195088029 1.7098342180 55.029872894 146.27890015 1.7729198933  -999.250000  -999.250000 1.7337857485
 911.93560791  -999.250000 27.906000137 -1.138000011 0.6018826962 1.6970312595 52.218162537 146.59573364 1.8288878202  -999.250000  -999.250000 1.8387897015
 912.08801270  -999.250000 27.924999237 -1.100999951 0.5792050958 1.6541033983 50.125324249 147.35038757 1.9038498402  -999.250000  -999.250000 1.8799178600
 912.24041748  -999.250000 27.743999481 -1.139000058 0.5834602118 1.5332907438 50.532226563 146.82443237 1.9668990374  -999.250000  -999.250000 1.8230912685
