# LAS format log file from PETREL
# Project units are specified as depth units
#==================================================================
~Version information
VERS.   2.0:
WRAP.   NO:
#==================================================================
~Well
STRT .m      3891.7941895 :
STOP .m      4561.5922852 :
STEP .m     0.00000000 :
NULL .        -999.250000 :
COMP.           : COMPANY
WELL.  30/3-5S   : WELL
FLD.            : FIELD
LOC.            : LOCATION
SRVC.           : SERVICE COMPANY
DATE.  2018-09-11 14:48:29   : Log Export Date {yyyy-MM-dd HH:mm:ss}
PROV.           : PROVINCE
UWI.   30/3-5 S   : UNIQUE WELL ID
API.            : API NUMBER
#==================================================================
~Curve
DEPT .m                   : DEPTH
Lithology_geolink ._      : Lithology_geolink
CALI .in                  : CALI
DRHO .g/cm3               : DRHO
NPHI .m3/m3               : NPHI
RHOB .g/cm3               : RHOB
PEF .b/e                  : PEF
GR .gAPI                  : GR
DTC .us/ft                : DTC
DTE .us/ft                : DTE
RDEP .ohm.m               : RDEP
RMED .ohm.m               : RMED
~Parameter
#==================================================================
~Ascii
# ...
 4109.4213867 18.000000000 10.266599655 0.0017000000 0.5019484758 1.7221647501 4.0063099861 82.325500488 98.621078491 106.95256042 5.8418002129 5.4727997780
 4109.5737305 18.000000000 10.273400307 0.0049000001 0.4979815185 1.7315503359 4.3374400139 79.450500488 97.245872498 105.61959839 5.9717001915 5.6308999062
 4109.7265625 18.000000000 10.162799835 0.0055999998 0.4812770784 1.7739974260 5.1725258827 81.020797729 97.953628540 106.30218506 6.3030500412 5.8983998299
 4109.8789063 18.000000000 10.238900185 0.0200999994 0.4676856697 1.8920274973 6.6883263588 83.875000000 95.500839233 103.76282501 6.6926255226 5.9416999817
 4110.0312500 18.000000000 10.411000252 0.0527000017 0.4589213729 2.0768754482 8.3357248306 85.503601074 92.039093018 99.910102844 6.9169950485 5.5711002350
 4110.1835938 18.000000000 11.119500160 0.0794999972 0.4594361484 2.2560501099 9.1887521744 86.122398376 88.372261047 95.978660583 6.5083460808 4.9857997894
 4110.3359375 6.0000000000 11.872099876 0.0882000029 0.4644798934 2.3459050655 9.4656448364 92.005203247 84.574523926 91.736808777 5.6490969658 4.4948000908
 4110.4882813 6.0000000000 12.302700043 0.0885999948 0.4576376379 2.3677918911 10.256040573 96.411499023 80.165901184 86.996986389 4.7746000290 4.2287998199
 4110.6406250 6.0000000000 12.492500305 0.0733999982 0.4205600023 2.3521494865 10.677283287 100.12760162 80.525375366 87.277374268 4.0805001259 4.1248002052
 4110.7929688 6.0000000000 12.387399673 0.0577999987 0.3600409329 2.3254084587 10.900239944 100.02860260 81.154449463 88.009773254 3.7318999767 4.0640001297
 4110.9453125 6.0000000000 11.974000931 0.0474999994 0.3128872216 2.3244609833 9.0913457870 101.00520325 79.130722046 85.843971252 3.6170001030 3.9500000477
 4111.0981445 6.0000000000 11.639999390 0.0379999988 0.2995837033 2.3753514290 6.3232545853 104.98960114 76.695732117 83.105628967 3.5656735897 3.7732000351
 4111.2504883 6.0000000000 11.207900047 0.0366999991 0.3147607148 2.4750416279 4.4261631966 106.59660339 75.310012817 81.554023743 3.5263211727 3.5906999111
 4111.4028320 6.0000000000 9.7343997955 0.0381000005 0.3323426843 2.5634472370 3.8343725204 107.75000000 74.954284668 81.462554932 3.5019414425 3.4753999710
 4111.5551758 6.0000000000 9.1155996323 0.0217000004 0.3320848048 2.5904567242 3.7719287872 105.26560211 75.900459290 82.409065247 3.5461609364 3.4658000469
 4111.7075195 6.0000000000 9.1080999374 0.0127999997 0.3242706060 2.5831108093 3.8894793987 106.14320374 77.332160950 83.644119263 3.6275434494 3.5583999157
 4111.8598633 6.0000000000 9.1337995529 0.0111999996 0.3231658041 2.5649857521 4.1516823769 106.77860260 78.188652039 84.674026489 3.7035000324 3.7155001163
 4112.0122070 6.0000000000 9.1239995956 0.0178999994 0.3343970180 2.5171561241 4.6484375000 106.90879822 79.218391418 86.146026611 3.7923998833 3.8763000965
 4112.1645508 6.0000000000 9.0452003479 0.0198999997 0.3549222350 2.4281666279 5.2217550278 108.15100098 81.457626343 88.459877014 3.8506999016 3.9772000313
 4112.3173828 6.0000000000 8.9989995956 0.0206000004 0.4063050449 2.3166794777 5.3072791100 112.43229675 85.126159668 92.390365601 3.9356942177 3.9972000122
 4112.4697266 6.0000000000 8.9921998978 0.0170000009 0.4723795056 2.1945230961 4.4142127037 116.78910065 89.608207703 96.888557434 4.0900349617 3.9725999832
 4112.6220703 6.0000000000 9.0199003220 0.0131000001 0.5090648532 2.1174156666 3.2699568272 115.32209778 90.024505615 97.796119690 4.2880916595 3.9697999954
 4112.7744141 6.0000000000 9.1972999573 0.0057999999 0.4880327284 2.1117973328 2.6394855976 106.76820374 86.307899475 93.597518921 4.4731268883 4.0612001419
 4112.9267578 6.0000000000 9.5644998550 0.0055000000 0.4335943758 2.1765117645 2.5514008999 99.924499512 83.037193298 90.173858643 4.7621755600 4.3024001122
 4113.0791016 6.0000000000 9.4660997391 0.0044000000 0.3998351395 2.2470188141 2.9156837463 96.028602600 81.913452148 88.866470337 5.0032415390 4.7188000679
 4113.2314453 6.0000000000 9.2919998169 -0.001000000 0.3866496086 2.3100509644 3.6436452866 94.752601624 81.455673218 88.475746155 4.9850001335 5.2400999069
 4113.3837891 6.0000000000 9.1802997589 0.0097000012 0.3787005842 2.3898434639 4.9948916435 94.669296265 80.345573425 87.075851440 4.9198999405 5.6529998779
 4113.5361328 6.0000000000 9.2425003052 0.0705000013 0.3714568913 2.4812180996 5.7764425278 94.643203735 79.220375061 85.812622070 4.8702998161 5.6637001038
 4113.6889648 6.0000000000 9.1815996170 0.1137999967 0.3677159250 2.4938821793 5.7302684784 100.55729675 77.327651978 84.148933411 4.7300286293 5.2154998779
 4113.8413086 6.0000000000 9.1517000198 0.1133999974 0.3784963489 2.4066050053 6.4755105972 106.71880341 76.927436829 83.390869141 4.4263596535 4.5543999672
 4113.9936523 6.0000000000 9.2005996704 0.1077999994 0.3875333965 2.3123090267 7.6992440224 109.80149841 76.830436707 83.150642395 3.9467542171 3.9691998959
 4114.1459961 6.0000000000 9.3239002228 0.0993999988 0.3957147598 2.2702054977 8.6221208572 108.35679626 76.570999146 82.923263550 3.7461748123 3.5938999653
 4114.2983398 6.0000000000 9.4059000015 0.0733999982 0.3910188973 2.2945432663 7.6586537361 107.32289886 76.705879211 83.156822205 3.8319003582 3.4361000061
 4114.4506836 6.0000000000 9.4218997955 0.0491000041 0.3733749688 2.3604910374 5.9369506836 109.64060211 77.604370117 84.290641785 3.8943998814 3.4525001049
 4114.6030273 6.0000000000 9.4329004288 0.0318999998 0.3562147021 2.3990242481 5.2524037361 110.35939789 79.446876526 86.226051331 3.9105999470 3.5785999298
 4114.7553711 6.0000000000 9.1386995316 0.0151000004 0.3486904204 2.3705627918 4.9020433426 109.98439789 80.345573425 86.950798035 3.9625000954 3.7516999245
 4114.9077148 6.0000000000 8.8993997574 0.0076000001 0.3399957716 2.3402204514 4.8170070648 105.04949951 79.357025146 86.106170654 4.0529999733 3.9402999878
 4115.0605469 6.0000000000 8.8515996933 0.0115999999 0.3270974159 2.3672051430 5.0571665764 99.166702271 77.507301331 84.203193665 4.2569208145 4.1455001831
 4115.2128906 6.0000000000 8.8515996933 0.0368000008 0.3194108605 2.4586415291 5.3667492867 92.819297791 75.755477905 82.136413574 4.4504261017 4.3705000877
 4115.3652344 6.0000000000 8.8515996933 0.0775000006 0.3282505274 2.5440087318 5.8588366508 95.921897888 74.906799316 81.017768860 4.5831098557 4.5757999420
 4115.5175781 6.0000000000 8.8515996933 0.0969000012 0.3380209506 2.5576508045 6.3626174927 104.33070374 75.272720337 81.576095581 4.6172175407 4.6908998489
 4115.6699219 6.0000000000 8.8515996933 0.1159000024 0.3461861014 2.5315632820 6.7141799927 111.40879822 77.154815674 83.470993042 4.6227517128 4.6898999214
 4115.8222656 6.0000000000 8.8515996933 0.1307999939 0.3554070890 2.5009424686 6.2612442970 112.85160065 78.817779541 85.305946350 4.6388001442 4.6076998711
 4115.9746094 6.0000000000 8.8515996933 0.1322000027 0.3663723469 2.4761817455 5.6328125000 115.16670227 80.705123901 87.574249268 4.6556000710 4.5227999687
 4116.1269531 6.0000000000 8.9400997162 0.1103999987 0.3769546449 2.4350013733 5.1475362778 117.82550049 82.900794983 89.882369995 4.6546001434 4.5000000000
 4116.2797852 6.0000000000 8.9876003265 0.0860999972 0.3977995515 2.4097948074 4.9559669495 120.53649902 84.959640503 91.856445313 4.6643018723 4.5913000107
 4116.4321289 6.0000000000 8.9645004272 0.0491999984 0.4359065890 2.4177589417 4.5983572006 118.94010162 86.137680054 93.633956909 4.9456686974 4.8309001923
 4116.5844727 6.0000000000 9.2080001831 0.0251000002 0.4664440751 2.4779813290 4.3559317589 117.31690216 86.332473755 93.543518066 5.2473897934 5.2133002281
 4116.7368164 6.0000000000 9.3900003433 0.0176999997 0.4622853696 2.5389363766 4.1542468071 113.74220276 83.994560242 91.161186218 5.3687005043 5.6514000893
 4116.8891602 6.0000000000 9.5048999786 0.0097000012 0.4209079742 2.5573527813 3.9593663216 100.06770325 80.096900940 86.755882263 5.4314398766 5.9860000610
 4117.0415039 6.0000000000 9.4338998795 0.0049999999 0.3688847423 2.5443506241 3.7204349041 87.296897888 76.745582581 83.085968018 5.5691876411 6.1118001938
