# LAS format log file from PETREL
# Project units are specified as depth units
#==================================================================
~Version information
VERS.   2.0:
WRAP.   NO:
#==================================================================
~Well
STRT .m      236.19400024 :
STOP .m      3572.9916992 :
STEP .m     0.00000000 :
NULL .        -999.250000 :
COMP.           : COMPANY
WELL.  30/3-2R   : WELL
FLD.            : FIELD
LOC.            : LOCATION
SRVC.           : SERVICE COMPANY
DATE.  2018-09-11 14:48:27   : Log Export Date {yyyy-MM-dd HH:mm:ss}
PROV.           : PROVINCE
UWI.   30/3-2 R   : UNIQUE WELL ID
API.            : API NUMBER
#==================================================================
~Curve
DEPT .m                   : DEPTH
Lithology_geolink ._      : Lithology_geolink
CALI .in                  : CALI
DRHO .g/cm3               : DRHO
NPHI .m3/m3               : NPHI
RHOB .g/cm3               : RHOB
GR .gAPI                  : GR
DTC .us/ft                : DTC
RDEP .ohm.m               : RDEP
SP .mV                    : SP
RSHA .ohm.m               : RSHA
RMED .ohm.m               : RMED
~Parameter
#==================================================================
~Ascii
# ...
 3562.7812500  -999.250000 8.9770002365 0.0230000000 0.2207200080 2.5920000076  -999.250000 65.000000000 3.1839871407 144.16603088 1.3309198618 3.0902225971
 3562.9335938  -999.250000 9.0039997101 0.0299999993 0.2277700007 2.5940001011  -999.250000 65.000000000 3.1759841442 144.18898010 1.2809535265 3.2293846607
 3563.0861816  -999.250000 9.0659999847 0.0299999993 0.2256699950 2.5850000381  -999.250000 65.000000000 3.1659743786 144.18197632 1.2518848181 3.4696817398
 3563.2385254  -999.250000 9.0860004425 0.0250000004 0.2268300056 2.5920000076  -999.250000 65.000000000 3.1580495834 144.17398071 1.2160880566 3.6820833683
 3563.3908691  -999.250000 9.0860004425 0.0179999992 0.2265599966 2.5950000286  -999.250000 65.000000000 3.1890447140 144.16598511 1.2710673809 3.7337307930
 3563.5432129  -999.250000 9.0959997177 0.0209999997 0.2255699933 2.6159999371  -999.250000 65.000000000 3.2170560360 144.15798950 1.3130624294 3.5657339096
 3563.6958008  -999.250000 9.1129999161 0.0390000008 0.2217600048 2.6189999580  -999.250000 65.000000000 3.2521312237 144.15007019 1.3524607420 3.3997569084
 3563.8481445  -999.250000 9.1719999313 0.0540000014 0.2200499922 2.6059999466  -999.250000 65.000000000 3.2929935455 144.17398071 1.4956105947 3.3240094185
 3564.0004883  -999.250000 9.2349996567 0.0529999994 0.2201399952 2.5929999352  -999.250000 65.000000000 3.2889664173 144.16598511 1.2519663572 3.3300094604
 3564.1528320  -999.250000 9.3059997559 0.0460000001 0.2191399932 2.5980000496  -999.250000 65.000000000 3.2680623531 144.15798950 0.6078124642 3.3358685970
 3564.3051758  -999.250000 9.3730001450 0.0540000014 0.2202799916 2.6040000916  -999.250000 65.000000000 3.3070368767 144.14996338 0.4913092852 3.2538301945
 3564.4577637  -999.250000 9.3870000839 0.0549999997 0.2196100056 2.5929999352  -999.250000 65.000000000 3.3299744129 144.13494873 0.6839264035 3.1480000019
 3564.6101074  -999.250000 9.3999996185 0.0489999987 0.2190800160 2.5940001011  -999.250000 65.000000000 3.3219504356 144.11897278 0.6609006524 3.1482162476
 3564.7624512  -999.250000 9.3509998322 0.0350000001 0.2165200114 2.5920000076  -999.250000 65.000000000 3.2909278870 144.10302734 0.5989214778 3.2831008434
 3564.9147949  -999.250000 9.3149995804 0.0189999994 0.2213200033 2.5899999142  -999.250000 65.000000000 3.2459599972 144.11903381 0.5500048399 3.3458333015
 3565.0673828  -999.250000 9.3129997253 0.0130000003 0.2225399911 2.5859999657  -999.250000 65.000000000 3.2210128307 144.13494873 0.5531727672 3.2414274216
 3565.2197266  -999.250000 9.3240003586 0.0120000001 0.2259099931 2.6050000191  -999.250000 65.000000000 3.2250399590 144.11897278 0.6073220968 3.0629150867
 3565.3720703  -999.250000 9.4099998474 0.0320000015 0.2270500064 2.6359999180  -999.250000 65.000000000 3.2501153946 144.10296631 0.8084519506 3.0101747513
 3565.5244141  -999.250000 9.2869997025 0.0419999994 0.2290399969 2.6449999809  -999.250000 65.000000000 3.3221106529 144.08802795 1.0902547836 3.1192789078
 3565.6770020  -999.250000 9.2799997330 0.0489999987 0.2290800065 2.6250000000  -999.250000 65.000000000 3.3911375999 144.10304260 1.2473999262 3.2935504913
 3565.8293457  -999.250000 9.3149995804 0.0260000005 0.2214999944 2.5840001106  -999.250000 65.000000000 3.4340834618 144.11903381 0.7487099767 3.4653716087
 3565.9816895  -999.250000 9.3140001297 0.0020000001 0.2221017927 2.5620000362  -999.250000 65.000000000 3.4860594273 144.13496399 0.5680032372 3.6975672245
 3566.1337891  -999.250000 9.3190002441 -0.005000000 0.2294500023 2.5659935474  -999.250000 65.000000000 3.5230000019 144.11900330 0.5699999928 4.0510001183
 3566.2861328  -999.250000 9.3479995728 0.0040000002 0.2316699922 2.5939552784  -999.250000 65.000000000 3.6559998989 144.10299683 0.5299999714 4.4689998627
 3566.4384766  -999.250000 9.3590002060 0.0240000002 0.2297500074 2.6149327755  -999.250000 65.000000000 3.8610000610 144.11900330 0.4830000103 4.3629999161
 3566.5910645  -999.250000 9.3590002060 0.0299999993 0.2202199996 2.6159999371  -999.250000 65.000000000 4.1370000839 144.10299683 0.4569999874 3.8770000935
 3566.7434082  -999.250000 9.3219995499 0.0250000004 0.2207700014 2.6070001125  -999.250000 65.000000000 4.2189998627 144.11900330 0.4550000131 3.9570000172
 3566.8957520  -999.250000 9.3129997253 0.0199999996 0.2238900065 2.6070001125  -999.250000 65.000000000 4.0939998627 144.10299683 0.4550000131 4.1880002022
 3567.0480957  -999.250000 9.2740001678 0.0250000004 0.2299099863 2.6099998951  -999.250000 65.000000000 4.0159997940 144.08799744 0.4550000131 3.9960000515
 3567.2006836  -999.250000 9.2969999313 0.0309999995 0.2285600156 2.6070001125  -999.250000 65.000000000 3.9939999580 144.10299683 0.3980000019 3.8340001106
 3567.3530273  -999.250000 9.2969999313 0.0359999985 0.2275300026 2.6110000610  -999.250000 65.000000000 3.9860000610 144.08000183 0.3519999981 3.7769999504
 3567.5053711  -999.250000 9.3000001907 0.0379999988 0.2275599986 2.6250000000  -999.250000 65.000000000 3.9839999676 144.05700684 0.3210000098 3.7579998970
 3567.6577148  -999.250000 9.3479995728 0.0379999988 0.2288299948 2.6489999294  -999.250000 65.000000000 3.9769999981 144.06399536 0.3440000117 3.7579998970
 3567.8103027  -999.250000 9.4359998703 0.0419999994 0.2266300023 2.6530001163  -999.250000 65.000000000 3.9769999981 144.07200623 0.3569999933 3.7539999485
 3567.9626465  -999.250000 9.4300003052 0.0340000018 0.2247299999 2.6380000114  -999.250000 65.000000000 3.9709999561 144.08799744 0.3860000074 3.7500000000
 3568.1149902  -999.250000 9.4250001907 0.0260000005 0.2246100008 2.6280000210  -999.250000 65.000000000 3.9749999046 144.10299683 0.4379999936 3.7539999485
 3568.2673340  -999.250000 9.4010000229 0.0240000002 0.2247400135 2.6370000839  -999.250000 65.000000000 3.9630000591 144.11900330 0.4020000100 3.7579998970
 3568.4196777  -999.250000 9.3850002289 0.0350000001 0.2250799984 2.6610000134  -999.250000 65.000000000 3.9570000172 144.10299683 0.3930000067 3.7539999485
 3568.5722656  -999.250000 9.3950004578 0.0469999984 0.2249500155 2.6670000553  -999.250000 65.000000000 3.9449999332 144.08799744 0.3889999986 3.7539999485
 3568.7246094  -999.250000 9.3999996185 0.0390000008 0.2247800082 2.6449999809  -999.250000 65.000000000 3.9389998913 144.10299683 0.3869999945 3.7500000000
 3568.8769531  -999.250000 9.3830003738 0.0219999999 0.2250900120 2.6270000935  -999.250000 65.000000000 3.9470000267 144.11900330 0.3860000074 3.7539999485
 3569.0292969  -999.250000 9.3830003738 0.0179999992 0.2250999957 2.6240000725  -999.250000 65.000000000 3.9530000687 144.10299683 0.4329999983 3.7539999485
 3569.1818848  -999.250000 9.3800001144 0.0189999994 0.2250999957 2.6319999695  -999.250000 65.000000000 3.9489998817 144.11900330 0.4460000098 3.7500000000
 3569.3342285  -999.250000 9.3719997406 0.0189999994 0.2250999957 2.6329998970  -999.250000 65.000000000 3.9509999752 144.10299683 0.4079999924 3.7479999065
 3569.4865723  -999.250000 9.3669996262 0.0130000003 0.2250999957 2.6229999065  -999.250000 65.000000000 3.9449999332 144.08799744 0.3829999864 3.7479999065
 3569.6389160  -999.250000 9.3669996262 0.0140000004 0.2250999957 2.6280000210  -999.250000 65.000000000 3.9489998817 144.10299683 0.3829999864 3.7500000000
 3569.7915039  -999.250000 9.3669996262 0.0140000004 0.2250999957 2.6229999065  -999.250000 65.000000000 3.9449999332 144.08000183 0.3819999993 3.7500000000
 3569.9438477  -999.250000 9.3669996262 0.0099999998 0.2250999957 2.6199998856  -999.250000 65.000000000 3.9449999332 144.09599304 0.3810000122 3.7539999485
 3570.0961914  -999.250000 9.3669996262 0.0049999999 0.2250999957 2.6070001125  -999.250000 65.000000000 3.9449999332 144.07200623 0.3810000122 3.7539999485
 3570.2485352  -999.250000 9.3669996262 -0.001000000 0.2250999957 2.6019999981  -999.250000 65.000000000 3.9449999332 144.08799744 0.3829999864 3.7539999485
 3570.4011230  -999.250000 9.3719997406 -0.001000000 0.2250999957 2.5940001011  -999.250000 65.000000000 3.9449999332 144.10299683 0.3799999952 3.7539999485
