# LAS format log file from PETREL
# Project units are specified as depth units
#==================================================================
~Version information
VERS.   2.0:
WRAP.   NO:
#==================================================================
~Well
STRT .m      3891.7941895 :
STOP .m      4561.5922852 :
STEP .m     0.00000000 :
NULL .        -999.250000 :
COMP.           : COMPANY
WELL.  30/3-5S   : WELL
FLD.            : FIELD
LOC.            : LOCATION
SRVC.           : SERVICE COMPANY
DATE.  2018-09-11 14:48:29   : Log Export Date {yyyy-MM-dd HH:mm:ss}
PROV.           : PROVINCE
UWI.   30/3-5 S   : UNIQUE WELL ID
API.            : API NUMBER
#==================================================================
~Curve
DEPT .m                   : DEPTH
Lithology_geolink ._      : Lithology_geolink
CALI .in                  : CALI
DRHO .g/cm3               : DRHO
NPHI .m3/m3               : NPHI
RHOB .g/cm3               : RHOB
PEF .b/e                  : PEF
GR .gAPI                  : GR
DTC .us/ft                : DTC
DTE .us/ft                : DTE
RDEP .ohm.m               : RDEP
RMED .ohm.m               : RMED
~Parameter
#==================================================================
~Ascii
# ...
 3938.4287109 7.0000000000 8.4987001419 -0.973900020 0.4113077521 2.0000000000 27.504407883 50.652301788 138.22706604 137.84060669 9.4489002228 1950.0000000
 3938.5810547 7.0000000000 8.4967002869 -0.969699979 0.4217083752 2.0000000000 32.802585602 49.828098297 138.04634094 137.84060669 9.5523996353 1950.0000000
 3938.7333984 7.0000000000 8.4701004028 -0.977500021 0.4413009286 2.0000000000 32.916816711 49.455699921 138.31256104 137.84060669 9.6044998169 1950.0000000
 3938.8859863 7.0000000000 8.4940996170 -0.990100026 0.4466705918 2.0000000000 28.803134918 49.304698944 138.21496582 137.84060669 9.5752000809 1950.0000000
 3939.0383301 7.0000000000 8.4689998627 -0.995599985 0.4445146024 2.0000000000 23.319475174 51.199199677 138.06489563 137.84060669 9.5103998184 1950.0000000
 3939.1906738 7.0000000000 8.4807996750 -1.004099965 0.4404332340 2.0000000000 24.904823303 52.376300812 138.22706604 137.84060669 9.5309000015 1950.0000000
 3939.3430176 6.0000000000 8.5032997131 -1.014000058 0.4354914129 2.0000000000 26.738456726 53.615898132 138.04634094 137.84060669 9.4527997971 1950.0000000
 3939.4956055 6.0000000000 8.5188999176 -1.025200009 0.4184556901 2.0000000000 26.433694839 51.428398132 138.23277283 137.84060669 9.1871995926 1950.0000000
 3939.6479492 6.0000000000 8.5123996735 -1.042000055 0.3902389109 2.0000000000 17.569025040 49.900699615 138.06529236 137.84060669 9.1048002243 1950.0000000
 3939.8002930 6.0000000000 8.5298995972 -1.040899992 0.3650821447 2.0000000000 22.312425613 48.191398621 138.23330688 137.84060669 9.1702003479 1950.0000000
 3939.9526367 6.0000000000 8.5390996933 -1.027699947 0.3513255119 2.0000000000 69.171699524 47.473999023 138.05885315 137.84060669 9.1787004471 1950.0000000
 3940.1049805 6.0000000000 8.5334997177 -1.058699965 0.3511218727 2.0000000000 466.77685547 46.286499023 138.21534729 137.84060669 9.1607999802 1950.0000000
 3940.2575684 6.0000000000 8.5423002243 -1.066799998 0.3670243323 2.0000000000 638.98437500 45.413799286 138.06529236 137.84060669 9.1451997757 1950.0000000
 3940.4099121 6.0000000000 8.5247001648 -1.055799961 0.3946278095 2.0000000000 62.278293610 46.378898621 138.22706604 137.84060669 9.1904001236 1950.0000000
 3940.5622559 6.0000000000 8.5156002045 -1.057999969 0.4123978913 2.0000000000 47.396583557 47.507801056 138.04634094 137.84060669 9.2274999619 1950.0000000
 3940.7145996 6.0000000000 8.5377998352 -1.061100006 0.4021463394 2.0000000000 49.512420654 50.194000244 138.22706604 137.84060669 9.3228998184 1950.0000000
 3940.8671875 6.0000000000 8.5468997955 -1.019999981 0.3914675117 2.0000000000  -999.250000 49.925800323 138.04676819 137.84060669 9.5143003464 1950.0000000
 3941.0195313 6.0000000000 8.5192003250 -1.001399994 0.3911206722 2.0000000000  -999.250000 49.494899750 138.23330688 137.84060669 9.5559997559 1950.0000000
 3941.1718750 6.0000000000 8.5132999420 -1.007099986 0.4067477286 2.0000000000 219.99058533 47.915401459 138.05885315 137.84060669 9.6520004272 1950.0000000
 3941.3242188 6.0000000000 8.5267000198 -1.006100059 0.4176727831 2.0000000000 59.130432129 46.364601135 138.30064392 137.84060669 9.7451000214 1950.0000000
 3941.4768066 6.0000000000 8.5201997757 -0.998199999 0.4170444906 2.0000000000 24.790014267 46.376300812 138.23277283 137.84060669 9.7821998596 1950.0000000
 3941.6291504 6.0000000000 8.5432996750 -0.997099996 0.4102056324 2.0000000000 20.708999634 47.040699005 138.06529236 137.84060669 9.8166999817 1950.0000000
 3941.7814941 6.0000000000 8.5270004272 -0.997900009 0.3915424049 2.0000000000 17.665113449 46.917999268 138.22706604 137.84060669 9.9387998581 1950.0000000
 3941.9338379 6.0000000000 8.5212001801 -0.995500028 0.3781882823 2.0000000000 19.689453125 46.936199188 138.04634094 137.84060669 9.9511995316 1950.0000000
 3942.0861816 6.0000000000 8.5399999619 -0.998099983 0.3847066462 2.0000000000 20.727163315 46.291698456 138.22706604 137.84060669 9.8655996323 1950.0000000
 3942.2387695 6.0000000000 8.5412998199 -1.000100017 0.4135820568 2.0000000000 24.811449051 48.440399170 138.05281067 137.84060669 9.7472000122 1950.0000000
 3942.3911133 6.0000000000 8.5223999023 -0.996999979 0.4444307387 2.0000000000 29.020107269 47.931301117 138.24494934 137.84060669 9.7552003860 1950.0000000
 3942.5434570 6.0000000000 8.5321998596 -1.000900030 0.4469434023 2.0000000000 29.671424866 47.710899353 138.04029846 137.84060669 9.7734003067 1950.0000000
 3942.6958008 6.0000000000 8.4836997986 -1.008700013 0.4288486540 2.0000000000 29.010616302 46.502601624 138.21534729 137.84060669 9.6849002838 1950.0000000
 3942.8483887 6.0000000000 8.4554004669 -1.005699992 0.4107823670 2.0000000000 19.811798096 45.118499756 138.06529236 137.84060669 9.6760997772 1950.0000000
 3943.0007324 6.0000000000 8.5528001785 -0.991699994 0.4018159509 2.0000000000 20.005250931 43.917400360 138.23330688 137.84060669 9.5878000259 1950.0000000
 3943.1530762 6.0000000000 8.5107002258 -0.993200004 0.3929353654 2.0000000000 22.022436142 43.097698212 138.05885315 137.84060669 9.6353998184 1950.0000000
 3943.3054199 6.0000000000 8.4709997177 -0.991599977 0.3719920814 2.0000000000 26.116460800 42.264301300 138.21534729 137.84060669 9.6662998199 1950.0000000
 3943.4580078 6.0000000000 8.4854001999 -0.976599991 0.3508038223 2.0000000000 29.768980026 40.450500488 138.05923462 137.84060669 9.6695995331 1950.0000000
 3943.6103516 6.0000000000 8.4976997375 -0.971499979 0.3478728533 2.0000000000 28.180400848 37.686100006 138.22152710 137.84060669 9.6497001648 1950.0000000
 3943.7626953 6.0000000000 8.5387001038 -0.986800015 0.3665692508 2.0000000000 25.833883286 36.635398865 138.07727051 137.84060669 9.7236003876 1950.0000000
 3943.9150391 6.0000000000 8.5657997131 -0.996100008 0.3911339641 2.0000000000 23.752729416 37.779899597 138.21534729 137.84060669 9.9127998352 1950.0000000
 3944.0673828 6.0000000000 8.5592002869 -0.999700010 0.4006647170 2.0000000000 29.906801224 41.358100891 138.06489563 137.84060669 10.092800140 1950.0000000
 3944.2199707 6.0000000000 8.5490999222 -1.002500057 0.3897849321 2.0000000000 46.557098389 44.222400665 138.31860352 137.84060669 10.229399681 1950.0000000
 3944.3723145 6.0000000000 8.5523996353 -0.995199978 0.3799363375 2.0000000000 78.958236694 45.428699493 138.22706604 137.84060669 10.354200363 1950.0000000
 3944.5246582 6.0000000000 8.5492000580 -0.977999985 0.3773698211 2.0000000000 79.592796326 43.973999023 138.04634094 137.84060669 10.451499939 1950.0000000
 3944.6770020 6.0000000000 8.5412998199 -0.975900054 0.3789058924 2.0000000000 45.779296875 43.834598541 138.23330688 137.84060669 10.482099533 1950.0000000
 3944.8295898 6.0000000000 8.5445995331 -0.978999972 0.3801461160 2.0000000000 43.771686554 44.970001221 138.06529236 137.84060669 10.539699554 1950.0000000
 3944.9819336 6.0000000000 8.5412998199 -0.998799980 0.3857678175 2.0000000000 23.199174881 46.473400116 138.22706604 137.84060669 10.507100105 1950.0000000
 3945.1342773 6.0000000000 8.5612001419 -1.004899979 0.3975877166 2.0000000000 22.909029007 47.424499512 138.04634094 137.84060669 10.307299614 1950.0000000
 3945.2866211 6.0000000000 8.5537004471 -1.014799953 0.4079008400 2.0000000000 30.862655640 46.540401459 138.22706604 137.84060669 10.234399796 1950.0000000
 3945.4392090 6.0000000000 8.5468997955 -1.023699999 0.4157235920 2.0000000000 37.257862091 45.119800568 138.04676819 137.84060669 10.234399796 1950.0000000
 3945.5915527 6.0000000000 8.5523996353 -1.027600050 0.4129841328 2.0000000000 21.096424103 45.937000275 138.23330688 137.84060669 10.212200165 1950.0000000
 3945.7438965 6.0000000000 8.5657997131 -1.057399988 0.4067954421 2.0000000000 15.301056862 45.662799835 138.05885315 137.84060669 10.136699677 1950.0000000
 3945.8962402 6.0000000000 8.5481996536 -1.076900005 0.4063990116 2.0000000000 16.258789063 46.184898376 138.21534729 137.84060669 10.065099716 1950.0000000
 3946.0485840 6.0000000000 8.5501003265 -1.065700054 0.4095243514 2.0000000000 20.681064606 45.667999268 138.05885315 137.84060669 10.024700165 1950.0000000
