# LAS format log file from PETREL
# Project units are specified as depth units
#==================================================================
~Version information
VERS.   2.0:
WRAP.   NO:
#==================================================================
~Well
STRT .m      3891.7941895 :
STOP .m      4561.5922852 :
STEP .m     0.00000000 :
NULL .        -999.250000 :
COMP.           : COMPANY
WELL.  30/3-5S   : WELL
FLD.            : FIELD
LOC.            : LOCATION
SRVC.           : SERVICE COMPANY
DATE.  2018-09-11 14:48:29   : Log Export Date {yyyy-MM-dd HH:mm:ss}
PROV.           : PROVINCE
UWI.   30/3-5 S   : UNIQUE WELL ID
API.            : API NUMBER
#==================================================================
~Curve
DEPT .m                   : DEPTH
Lithology_geolink ._      : Lithology_geolink
CALI .in                  : CALI
DRHO .g/cm3               : DRHO
NPHI .m3/m3               : NPHI
RHOB .g/cm3               : RHOB
PEF .b/e                  : PEF
GR .gAPI                  : GR
DTC .us/ft                : DTC
DTE .us/ft                : DTE
RDEP .ohm.m               : RDEP
RMED .ohm.m               : RMED
~Parameter
#==================================================================
~Ascii
# ...
 4156.0556641 2.0000000000 8.1406002045 0.0281000007 0.1974217743 2.2577140331 4.4524388313 50.363300323 76.992797852 83.346221924 8.7874002457 8.6711997986
 4156.2080078 2.0000000000 8.1406002045 0.0405000001 0.1918311566 2.2743251324 4.6006612778 47.675498962 76.310577393 82.676071167 8.4807996750 8.5817003250
 4156.3603516 2.0000000000 8.1406002045 0.0577000007 0.1886458695 2.2916750908 4.8656849861 47.262001038 75.317176819 81.676048279 8.2575998306 8.4383001328
 4156.5126953 2.0000000000 8.1406002045 0.0731000006 0.1873121560 2.3089749813 5.1240987778 47.055999756 74.730392456 80.939811707 8.1146001816 8.2245998383
 4156.6655273 2.0000000000 8.1406002045 0.0838999972 0.1893719882 2.3306567669 5.2641224861 49.195301056 74.640151978 80.870498657 8.0200004578 7.9847002029
 4156.8178711 2.0000000000 8.1406002045 0.0878000036 0.1959843636 2.3547894955 5.3198242188 50.766899109 75.001846313 81.572547913 7.8881998062 7.7839999199
 4156.9702148 2.0000000000 8.1406002045 0.0930999964 0.2066523135 2.3715472221 5.2508010864 54.772098541 75.906501770 82.444946289 7.7385997772 7.6501998901
 4157.1225586 2.0000000000 8.1406002045 0.0965000018 0.2143861055 2.3717372417 5.1542344093 58.636699677 76.537551880 82.859397888 7.5652999878 7.5700998306
 4157.2749023 2.0000000000 8.1406002045 0.0863000005 0.2151630074 2.3524811268 4.8914136887 59.128898621 75.907798767 82.163299561 7.4397997856 7.5148000717
 4157.4272461 2.0000000000 8.1406002045 0.0851999968 0.2085214257 2.3403999805 4.8502521515 57.100299835 73.825653076 80.169624329 7.3687000275 7.4640002251
 4157.5795898 2.0000000000 8.1406002045 0.0900999978 0.1989307106 2.3558750153 5.2256612778 53.218601227 71.702804565 77.836204529 7.2989001274 7.4049000740
 4157.7319336 5.0000000000 8.1406002045 0.0986000001 0.1892953664 2.4031500816 6.0715146065 51.605499268 70.402229309 76.301055908 7.2330999374 7.3424000740
 4157.8847656 5.0000000000 8.1406002045 0.1042999998 0.1808782518 2.4619400501 6.9641051292 51.446601868 69.760810852 75.774482727 7.1816000938 7.2799000740
 4158.0371094 5.0000000000 8.1406002045 0.1145000011 0.1783769131 2.4999442101 7.6450319290 53.252601624 70.068679810 75.941497803 7.1623997688 7.2230000496
 4158.1894531 5.0000000000 8.1406002045 0.1168000028 0.1841074526 2.4908771515 8.0175657272 56.479198456 70.569046021 76.563705444 7.1435999870 7.1737999916
 4158.3417969 5.0000000000 8.0686998367 0.1307999939 0.1932164133 2.4630105495 8.4279594421 59.226600647 70.211746216 76.307998657 7.1229000092 7.1380000114
 4158.4941406 5.0000000000 8.0114002228 0.1477999985 0.1961086541 2.4498989582 8.8142776489 60.136699677 69.072875977 74.940597534 7.0868000984 7.1178002357
 4158.6464844 5.0000000000 8.0552997589 0.1604000032 0.1897452325 2.4671859741 9.1206073761 58.470001221 67.222373962 72.889472961 7.0493001938 7.1022000313
 4158.7988281 5.0000000000 8.1224002838 0.1806000024 0.1823126227 2.5157499313 9.4753608704 58.059898376 65.563873291 71.133071899 7.0528998375 7.0837998390
 4158.9511719 5.0000000000 8.1406002045 0.1915999949 0.1811465174 2.5672249794 10.070312500 58.453498840 65.022003174 70.557975769 7.0475001335 7.0615000725
 4159.1035156 5.0000000000 8.1406002045 0.1835999936 0.1853398979 2.5996751785 10.962139130 62.015598297 65.332130432 70.940345764 7.0457000732 7.0464000702
 4159.2563477 5.0000000000 8.1406002045 0.1685000062 0.1935972571 2.6086528301 11.255808830 64.942703247 66.858451843 72.419525146 7.0745000839 7.0539999008
 4159.4086914 5.0000000000 8.1295995712 0.1580000073 0.2031521350 2.5966634750 9.7656755447 67.377601624 69.219223022 75.065696716 7.0609998703 7.0806999207
 4159.5610352 5.0000000000 8.0474996567 0.1557999998 0.2093033642 2.5629534721 8.4346580505 67.638000488 71.563095093 77.675376892 7.0314002037 7.1119999886
 4159.7133789 5.0000000000 8.0045995712 0.1474000067 0.2081111223 2.5060098171 7.9098305702 68.721298218 73.646575928 79.744705200 7.0012998581 7.1182999611
 4159.8657227 5.0000000000 8.0000000000 0.1403000057 0.2025872469 2.4412610531 8.0158128738 71.596298218 74.820777893 81.076530457 6.9784002304 7.0728998184
 4160.0180664 5.0000000000 7.9419002533 0.1401000023 0.2019317448 2.3881750107 8.3416538239 72.783798218 75.409255981 81.845581055 6.9560999870 6.9772000313
 4160.1704102 5.0000000000 7.8791999817 0.1471000016 0.2055626363 2.3523750305 8.4344949722 71.635398865 74.322853088 80.653182983 6.9354000092 6.8650999069
 4160.3227539 5.0000000000 7.8687996864 0.1469999999 0.2095441520 2.3320498466 8.4417066574 69.750801086 70.857475281 77.005401611 6.9047999382 6.7711000443
 4160.4750977 5.0000000000 7.8849000931 0.1580000073 0.2072479427 2.3398249149 8.2235574722 68.523399353 67.342895508 73.114509583 6.8889999390 6.7184000015
 4160.6279297 5.0000000000 7.9681000710 0.1817999929 0.2010435164 2.3822402954 8.0164508820 66.877601624 65.546554565 70.992675781 6.8949999809 6.7042999268
 4160.7802734 5.0000000000 8.0221004486 0.1932999939 0.1959882528 2.4440205097 8.2466449738 64.209602356 64.684127808 70.152328491 6.9177999496 6.7196998596
 4160.9326172 5.0000000000 8.1419000626 0.2010000050 0.1918981373 2.5080096722 8.3584489822 62.391899109 64.604774475 69.993148804 7.0226001740 6.7624998093
 4161.0849609 5.0000000000 8.1985998154 0.2067999989 0.1890694052 2.5487701893 8.4497442245 65.541702271 64.906623840 70.365425110 7.1897997856 6.8382000923
 4161.2373047 6.0000000000 8.2031002045 0.2012999952 0.1818054169 2.5567507744 8.2120647430 73.640602112 65.597373962 71.109924316 7.3003001213 6.9573998451
 4161.3896484 6.0000000000 8.2585000992 0.1796000004 0.1760629117 2.5515000820 8.3487424850 83.591102600 66.064773560 71.739822388 7.4071998596 7.1094999313
 4161.5419922 6.0000000000 8.2812004089 0.1782000065 0.1773548275 2.5618500710 8.5174274445 88.911903381 66.469451904 72.265579224 7.5633001328 7.2670998573
 4161.6943359 6.0000000000 8.2812004089 0.1793999970 0.1838070899 2.5696249008 8.3512620926 88.591102600 67.218490601 72.824302673 7.7876000404 7.3843998909
 4161.8471680 6.0000000000 8.2812004089 0.1720000058 0.1862685531 2.5542531013 7.6492886543 85.539100647 66.968002319 72.823875427 7.9201998711 7.4444999695
 4161.9995117 6.0000000000 8.2812004089 0.1572999805 0.1833559126 2.5268130302 7.1677684784 81.046897888 66.976974487 72.437652588 8.0006999969 7.4653000832
 4162.1518555 6.0000000000 8.2812004089 0.1536000073 0.1786110103 2.5155649185 6.5624623299 78.916702271 66.826354980 72.495429993 8.0897998810 7.4963998795
 4162.3041992 6.0000000000 8.2812004089 0.1509999931 0.1759613901 2.5346989632 6.0215721130 79.333297729 68.014778137 73.477378845 8.2500000000 7.6073999405
 4162.4565430 6.0000000000 8.3809003830 0.1428000033 0.1711032391 2.5687148571 5.4439101219 80.908798218 69.568901062 75.402824402 8.5038995743 7.8808999062
 4162.6088867 6.0000000000 8.5048999786 0.1150999963 0.1642278582 2.5743350983 4.4987831116 81.304702759 71.261505127 77.301803589 8.8350000381 8.4247999191
 4162.7612305 6.0000000000 8.5334997177 0.0706999972 0.1654137969 2.5260999203 3.3915264606 82.179702759 72.134201050 78.071075439 9.3304004669 9.3675003052
 4162.9135742 6.0000000000 8.4925003052 0.0232999995 0.1801441461 2.4481501579 2.7152943611 81.853202820 71.813323975 77.888801575 10.068499565 10.776800156
 4163.0659180 6.0000000000 8.4434003830 -0.000500000 0.1911592484 2.3863251209 2.3829627037 78.861999512 71.627738953 77.568687439 11.107099533 12.571299553
 4163.2187500 6.0000000000 8.4242000580 -0.009100000 0.1894041598 2.3547465801 2.3187162876 69.604202271 71.905479431 78.250976563 12.715800285 14.381199837
 4163.3710938 2.0000000000 8.4218997955 -0.008300000 0.1745505035 2.3502268791 2.3030536175 56.643199921 73.727752686 80.123672485 14.642299652 15.756199837
 4163.5234375 2.0000000000 8.4218997955 -0.006600000 0.1599494219 2.3598423004 2.3270921707 46.555999756 76.011871338 82.498100281 16.591100693 16.618499756
 4163.6757813 2.0000000000 8.4218997955 -0.004500000 0.1518430263 2.3687632084 2.3942182064 40.201801300 77.613700867 84.032501221 18.517599106 17.337200165
