# LAS format log file from PETREL
# Project units are specified as depth units
#==================================================================
~Version information
VERS.   2.0:
WRAP.   NO:
#==================================================================
~Well
STRT .m      200.91401672 :
STOP .m      3436.5195313 :
STEP .m     0.00000000 :
NULL .        -999.250000 :
COMP.           : COMPANY
WELL.  30/3-3   : WELL
FLD.            : FIELD
LOC.            : LOCATION
SRVC.           : SERVICE COMPANY
DATE.  2018-09-11 14:48:28   : Log Export Date {yyyy-MM-dd HH:mm:ss}
PROV.           : PROVINCE
UWI.   30/3-3   : UNIQUE WELL ID
API.            : API NUMBER
#==================================================================
~Curve
DEPT .m                   : DEPTH
Lithology_geolink ._      : Lithology_geolink
CALI .in                  : CALI
DRHO .g/cm3               : DRHO
NPHI .m3/m3               : NPHI
RHOB .g/cm3               : RHOB
PEF .b/e                  : PEF
GR .gAPI                  : GR
DTC .us/ft                : DTC
DTE .us/ft                : DTE
RDEP .ohm.m               : RDEP
SP .mV                    : SP
RSHA .ohm.m               : RSHA
RMED .ohm.m               : RMED
~Parameter
#==================================================================
~Ascii
# ...
 844.65185547  -999.250000 19.093999863 -0.005000000  -999.250000 1.3749855757 1.0368541479 20.702999115 159.82475281 159.53021240 0.8809999824 56.250000000 0.5529999733 0.7479888201
 844.80419922  -999.250000 19.077999115 -0.005000000  -999.250000 1.3779879808 1.0758750439 22.187999725 156.70565796 156.42613220 0.8880000114 55.625000000 0.5559999943 0.7649455070
 844.95660400  -999.250000 19.077999115 -0.006000000  -999.250000 1.3809880018 1.0899552107 23.125000000 154.12965393 153.82463074 0.9029999971 55.500000000 0.5659999847 0.8088590503
 845.10900879  -999.250000 19.093999863 -0.005000000  -999.250000 1.3859800100 1.0700641870 21.625000000 151.79989624 151.51483154 0.9200000167 55.062999725 0.5759999752 0.8438878655
 845.26141357  -999.250000 19.093999863 -0.006000000  -999.250000 1.3869959116 1.0450800657 18.718999863 150.46626282 150.17190552 0.9470000267 55.687999725 0.5799999833 0.8639359474
 845.41381836  -999.250000 19.093999863 -0.005000000  -999.250000 1.3860040903 1.0110954046 17.781000137 149.09669495 148.81539917 0.9670000076 54.687999725 0.5720000267 0.8659943938
 845.56622314  -999.250000 19.093999863 -0.006000000  -999.250000 1.3820159435 0.9790896773 17.250000000 148.36686707 148.05172729 0.9829999804 55.812999725 0.5709999800 0.8570252061
 845.71862793  -999.250000 19.093999863 -0.010000000  -999.250000 1.3730360270 0.9590560794 18.391000748 150.10000610 149.85121155 0.9959999919 55.062999725 0.5649999976 0.8360589147
 845.87103271  -999.250000 19.077999115 -0.012000401  -999.250000 1.3690159321 0.9520196319 17.781000137 153.22871399 152.94767761 0.9829999804 56.250000000 0.5569999814 0.8160560727
 846.02343750  -999.250000 19.093999863 -0.012998799  -999.250000 1.3660120964 0.9539943933 19.202999115 157.32031250 156.99842834 0.9819999933 58.250000000 0.5469999909 0.7860841155
 846.17584229  -999.250000 19.077999115 -0.010002003  -999.250000 1.3689879179 0.9559951425 18.875000000 161.49118042 161.19168091 0.9639999866 58.250000000 0.5419999957 0.7441177368
 846.32824707  -999.250000 19.093999863 -0.014998398  -999.250000 1.3630216122 0.9530072212 20.312999725 164.73696899 164.42916870 0.9350000024 56.125000000 0.5410000086 0.7071037292
 846.48065186  -999.250000 19.093999863 -0.013000801  -999.250000 1.3649928570 0.9490095973 18.266000748 164.97676086 164.67463684 0.9169999957 56.000000000 0.5419999957 0.6830673218
 846.63305664  -999.250000 19.077999115 -0.013996797  -999.250000 1.3630071878 0.9430144429 16.250000000 165.44699097 165.16778564 0.8790000081 56.000000000 0.5400000215 0.6790112257
 846.78540039  -999.250000 19.077999115 -0.010002002  -999.250000 1.3669840097 0.9459915757 13.961000443 164.93898010 164.61949158 0.8600000143 56.000000000 0.5389999747 0.6750128269
 846.93780518  -999.250000 19.062999725 -0.015000000  -999.250000 1.3630160093 0.9469972253 15.727000237 163.11402893 162.86071777 0.8500000238 55.750000000 0.5370000005 0.6680223942
 847.09020996  -999.250000 19.077999115 -0.014999199  -999.250000 1.3630000353 0.9529855847 16.312999725 162.54849243 162.24508667 0.8460000157 59.125000000 0.5370000005 0.6670032144
 847.24261475  -999.250000 19.093999863 -0.012997597  -999.250000 1.3639959097 0.9510048032 18.047000885 161.42924500 161.14918518 0.8470000029 59.500000000 0.5389999747 0.6759711504
 847.39501953  -999.250000 19.077999115 -0.007002403  -999.250000 1.3689799309 0.9490048289 18.625000000 159.88873291 159.58810425 0.8489999771 56.375000000 0.5389999747 0.6859679222
 847.54742432  -999.250000 19.093999863 -0.012999600  -999.250000 1.3640199900 0.9460071921 20.312999725 158.28446960 157.98246765 0.8529999852 56.875000000 0.5370000005 0.6999607086
 847.69982910  -999.250000 19.093999863 -0.012000801  -999.250000 1.3649959564 0.9479951859 20.625000000 156.49676514 156.18293762 0.8569999933 56.750000000 0.5360000134 0.7069804072
 847.85223389  -999.250000 19.077999115 -0.013999199  -999.250000 1.3630080223 0.9489976168 20.952999115 156.39901733 156.12490845 0.8629999757 55.500000000 0.5329999924 0.7079972029
 848.00463867  -999.250000 19.093999863 -0.012000801  -999.250000 1.3649920225 0.9509951472 19.562999725 158.49613953 158.18489075 0.8669999838 58.250000000 0.5320000052 0.7109916210
 848.15704346  -999.250000 19.077999115 -0.013999199  -999.250000 1.3630080223 0.9509999752 19.266000748 161.69100952 161.44413757 0.8659999967 60.250000000 0.5310000181 0.7060139775
 848.30944824  -999.250000 19.093999863 -0.011997997  -999.250000 1.3639959097 0.9509999752 17.187999725 165.20104980 164.88777161 0.8629999757 56.250000000 0.5339999795 0.6990196109
 848.46185303  -999.250000 19.093999863 -0.007000801  -999.250000 1.3689819574 0.9500023723 17.187999725 167.37693787 167.09440613 0.8590000272 55.750000000 0.5419999957 0.6890280247
 848.61425781  -999.250000 19.093999863 -0.008001602  -999.250000 1.3689999580 0.9480048418 16.906000137 168.59814453 168.27838135 0.8600000143 55.500000000 0.5299999714 0.6760364175
 848.76666260  -999.250000 19.093999863 -0.009999199  -999.250000 1.3670071363 0.9450072050 16.375000000 166.86705017 166.55621338 0.8619999886 55.875000000 0.5310000181 0.6650308371
 848.91900635  -999.250000 19.093999863 -0.009000400  -999.250000 1.3689919710 0.9469944239 15.500000000 164.49650574 164.17750549 0.8650000095 54.875000000 0.5299999714 0.6650000215
 849.07141113  -999.250000 19.093999863 -0.009999199  -999.250000 1.3670079708 0.9479976296 16.343999863 161.76269531 161.45269775 0.8719999790 55.062999725 0.5299999714 0.6719775796
 849.22381592  -999.250000 19.093999863 -0.007999199  -999.250000 1.3699879646 0.9480000138 17.172000885 157.38883972 157.07894897 0.8750000000 55.312999725 0.5299999714 0.6919358969
 849.37622070  -999.250000 19.093999863 -0.005997597  -999.250000 1.3709959984 0.9430120587 18.906000137 153.85255432 153.61141968 0.8790000081 54.937999725 0.5279999971 0.7129327059
 849.52862549  -999.250000 19.141000748 0.0000000000  -999.250000 1.3779720068 0.9420023561 16.843999863 152.32055664 152.01661682 0.8899999857 58.625000000 0.5289999843 0.7309495211
 849.68103027  -999.250000 19.093999863 -0.000002002  -999.250000 1.3770040274 0.9439951777 17.406000137 152.86804199 152.55752563 0.8939999938 57.000000000 0.5289999843 0.7329943776
 849.83343506  -999.250000 19.093999863 -0.005002803  -999.250000 1.3720200062 0.9469928145 17.391000748 156.08699036 155.76612854 0.8970000148 55.562999725 0.5279999971 0.7359915972
 849.98583984  -999.250000 19.093999863 -0.011999600  -999.250000 1.3650280237 0.9460023642 18.812999725 159.36518860 159.06933594 0.8939999938 55.187999725 0.5299999714 0.7250308394
 850.13824463  -999.250000 19.108999252 -0.010999199  -999.250000 1.3659960032 0.9459999800 17.687999725 162.29356384 162.02320862 0.8799999952 55.187999725 0.5260000229 0.7130336165
 850.29064941  -999.250000 19.077999115 -0.008998798  -999.250000 1.3689879179 0.9440048337 17.062999725 165.97190857 165.66876221 0.8730000257 55.687999725 0.5270000100 0.6880701184
 850.44305420  -999.250000 19.093999863 -0.006000401  -999.250000 1.3719891310 0.9479904175 16.516000748 168.50144958 168.21241760 0.8700000048 55.812999725 0.5279999971 0.6660616994
 850.59545898  -999.250000 19.108999252 -0.006998398  -999.250000 1.3700071573 0.9480000138 17.108999252 168.03201294 167.77861023 0.8679999709 56.250000000 0.5289999843 0.6560280323
 850.74786377  -999.250000 19.093999863 -0.005001602  -999.250000 1.3729891777 0.9470024109 16.875000000 165.45442200 165.16447449 0.8700000048 56.375000000 0.5279999971 0.6569972038
 850.90026855  -999.250000 19.093999863 -0.006998398  -999.250000 1.3700108528 0.9470000267 18.327999115 162.42362976 162.13676453 0.8650000095 56.500000000 0.5260000229 0.6709607840
 851.05261230  -999.250000 19.093999863 -0.005002002  -999.250000 1.3729879856 0.9479972124 18.875000000 158.27770996 157.98454285 0.8610000014 56.750000000 0.5310000181 0.6909359097
 851.20501709  -999.250000 19.093999863 -0.009999599  -999.250000 1.3670240641 0.9489976168 17.406000137 155.27124023 154.97637939 0.8579999804 56.875000000 0.5320000052 0.7069487572
