# LAS format log file from PETREL
# Project units are specified as depth units
#==================================================================
~Version information
VERS.   2.0:
WRAP.   NO:
#==================================================================
~Well
STRT .m      579.75000000 :
STOP .m      3292.5014648 :
STEP .m     0.00000000 :
NULL .        -999.250000 :
COMP.           : COMPANY
WELL.  30/3-4R   : WELL
FLD.            : FIELD
LOC.            : LOCATION
SRVC.           : SERVICE COMPANY
DATE.  2018-09-11 14:48:28   : Log Export Date {yyyy-MM-dd HH:mm:ss}
PROV.           : PROVINCE
UWI.   30/3-4 R   : UNIQUE WELL ID
API.            : API NUMBER
#==================================================================
~Curve
DEPT .m                   : DEPTH
Lithology_geolink ._      : Lithology_geolink
CALI .in                  : CALI
DRHO .g/cm3               : DRHO
NPHI .m3/m3               : NPHI
RHOB .g/cm3               : RHOB
GR .gAPI                  : GR
DTC .us/ft                : DTC
DTE .us/ft                : DTE
RDEP .ohm.m               : RDEP
SP .mV                    : SP
RSHA .ohm.m               : RSHA
RMED .ohm.m               : RMED
~Parameter
#==================================================================
~Ascii
# ...
 1659.7500000  -999.250000 17.041999817 0.0299999993 0.3656499982 2.1689999104 65.682998657 147.93087769 143.97651672 0.5630000234 55.828998566 0.7260000110 0.5289999843
 1659.8751221  -999.250000 17.034999847 0.0289999992 0.3627000153 2.1619999409 66.300003052 148.88931274 144.91914368 0.5540000200 54.622001648 0.7179999948 0.5210000277
 1659.9998779  -999.250000 17.031000137 0.0299999993 0.3534199893 2.1610000134 66.953002930 149.69754028 145.75267029 0.5460000038 52.089000702 0.7120000124 0.5139999986
 1660.1250000  -999.250000 17.033000946 0.0329999998 0.3435699940 2.1640000343 67.129997253 150.31367493 146.39906311 0.5400000215 49.430000305 0.7080000043 0.5090000033
 1660.2501221  -999.250000 17.047000885 0.0359999985 0.3376399875 2.1659998894 66.773002625 150.76295471 146.82490540 0.5360000134 48.175998688 0.7049999833 0.5070000291
 1660.3748779  -999.250000 17.073999405 0.0399999991 0.3383499980 2.1679999828 66.469001770 150.95825195 147.04840088 0.5329999924 49.111000061 0.7049999833 0.5080000162
 1660.4997559  -999.250000 17.110000610 0.0450000018 0.3425899744 2.1700000763 66.833000183 151.06553650 147.14079285 0.5329999924 51.548999786 0.7070000172 0.5120000243
 1660.6251221  -999.250000 17.143999100 0.0500000007 0.3491799831 2.1740000248 67.985000610 151.09367371 147.14208984 0.5339999795 54.305000305 0.7129999995 0.5180000067
 1660.7500000  -999.250000 17.169000626 0.0549999997 0.3626900017 2.1770000458 69.344001770 151.04670715 147.09236145 0.5350000262 56.090000153 0.7220000029 0.5239999890
 1660.8750000  -999.250000 17.183000565 0.0529999994 0.3883100152 2.1800000668 70.155998230 150.95036316 147.02366638 0.5370000005 56.227001190 0.7319999933 0.5279999971
 1661.0000000  -999.250000 17.193000793 0.0469999984 0.4159199893 2.1819999218 70.217002869 150.84994507 146.95182800 0.5389999747 54.946998596 0.7369999886 0.5289999843
 1661.1251221  -999.250000 17.204000473 0.0419999994 0.4307300150 2.1840000153 69.972000122 150.75335693 146.86466980 0.5440000296 52.706001282 0.7369999886 0.5289999843
 1661.2500000  -999.250000 17.216999054 0.0450000018 0.4197300076 2.1909999847 69.878997803 150.65586853 146.72436523 0.5500000119 50.104999542 0.7310000062 0.5270000100
 1661.3752441  -999.250000 17.228000641 0.0560000017 0.3925400078 2.2009999752 69.885002136 150.43977356 146.50489807 0.5559999943 48.131999969 0.7250000238 0.5260000229
 1661.5001221  -999.250000 17.235000610 0.0659999996 0.3732500076 2.2090001106 69.539001465 150.14662170 146.22021484 0.5619999766 47.645999908 0.7210000157 0.5270000100
 1661.6248779  -999.250000 17.235000610 0.0700000003 0.3741299808 2.2100000381 68.541000366 149.85380554 145.90815735 0.5669999719 48.916000366 0.7200000286 0.5329999924
 1661.7501221  -999.250000 17.229000092 0.0670000017 0.3924300075 2.2060000896 67.043998718 149.55964661 145.63093567 0.5699999928 51.493000031 0.7210000157 0.5419999957
 1661.8750000  -999.250000 17.218999863 0.0619999990 0.4118900001 2.2030000687 65.745002747 149.35894775 145.43115234 0.5730000138 54.203998566 0.7279999852 0.5519999862
 1662.0000000  -999.250000 17.207000732 0.0619999990 0.4197899997 2.2049999237 65.245002747 149.16329956 145.20666504 0.5749999881 56.060001373 0.7390000224 0.5580000281
 1662.1250000  -999.250000 17.195999146 0.0630000010 0.4153799713 2.2119998932 65.605003357 148.81930542 144.85917664 0.5780000091 56.529998779 0.7500000000 0.5600000024
 1662.2501221  -999.250000 17.184999466 0.0529999994 0.4037599862 2.2239999771 66.693000793 148.30175781 144.35804749 0.5799999833 55.417999268 0.7549999952 0.5590000153
 1662.3748779  -999.250000 17.177000046 0.0320000015 0.3915800154 2.2409999371 68.025001526 147.72877502 143.76423645 0.5839999914 53.228000641 0.7500000000 0.5569999814
 1662.5000000  -999.250000 17.169000626 0.0140000004 0.3849100173 2.2579998970 69.030998230 147.33631897 143.37147522 0.5870000124 50.828998566 0.7390000224 0.5550000072
 1662.6251221  -999.250000 17.165000916 0.0120000001 0.3871300220 2.2679998875 69.327003479 147.44427490 143.48251343 0.5899999738 48.930999756 0.7289999723 0.5540000200
 1662.7498779  -999.250000 17.165000916 0.0260000005 0.3971399963 2.2609999180 68.847999573 148.06938171 144.15078735 0.5899999738 48.075000763 0.7239999771 0.5509999990
 1662.8747559  -999.250000 17.170000076 0.0419999994 0.4128799736 2.2360000610 68.003997803 149.06774902 145.15563965 0.5879999995 48.397998810 0.7260000110 0.5460000038
 1663.0001221  -999.250000 17.176000595 0.0460000001 0.4283399880 2.2019999027 67.382003784 150.15159607 146.17622375 0.5849999785 49.631000519 0.7319999933 0.5400000215
 1663.1250000  -999.250000 17.179000854 0.0340000018 0.4351400137 2.1719999313 67.463996887 150.83534241 146.87210083 0.5809999704 51.483001709 0.7400000095 0.5360000134
 1663.2500000  -999.250000 17.170999527 0.0149999997 0.4253300130 2.1480000019 68.234001160 150.85539246 146.89035034 0.5770000219 53.541000366 0.7490000129 0.5320000052
 1663.3751221  -999.250000 17.149000168 0.0040000002 0.4011399746 2.1359999180 69.044998169 150.41336060 146.43244934 0.5740000010 55.073001862 0.7570000291 0.5289999843
 1663.4998779  -999.250000 17.114999771 0.0070000002 0.3673300147 2.1380000114 69.375000000 149.67156982 145.67994690 0.5720000267 55.555000305 0.7609999776 0.5260000229
 1663.6250000  -999.250000 17.076999664 0.0189999994 0.3349399865 2.1489999294 69.083000183 148.79054260 144.81410217 0.5720000267 55.110000610 0.7609999776 0.5239999890
 1663.7502441  -999.250000 17.044000626 0.0359999985 0.3159199953 2.1659998894 68.348999023 147.93658447 144.01242065 0.5720000267 54.548000336 0.7570000291 0.5220000148
 1663.8751221  -999.250000 17.020999908 0.0520000011 0.3160699904 2.1819999218 67.528999329 147.35055542 143.46585083 0.5699999928 54.779998779 0.7500000000 0.5210000277
 1663.9998779  -999.250000 17.010000229 0.0649999976 0.3278400004 2.1940000057 66.727996826 147.27780151 143.37254333 0.5669999719 55.783000946 0.7429999709 0.5199999809
 1664.1251221  -999.250000 17.006999969 0.0710000023 0.3439300060 2.1989998817 65.824996948 147.79183960 143.88139343 0.5600000024 56.861000061 0.7379999757 0.5170000196
 1664.2501221  -999.250000 17.009000778 0.0689999983 0.3562200069 2.1989998817 64.857002258 148.87393188 144.97772217 0.5529999733 57.067001343 0.7350000143 0.5120000243
 1664.3750000  -999.250000 17.017999649 0.0619999990 0.3597000241 2.1970000267 64.100997925 150.38302612 146.49761963 0.5460000038 55.991001129 0.7319999933 0.5049999952
 1664.5000000  -999.250000 17.034000397 0.0549999997 0.3599599898 2.1989998817 63.826999664 152.04725647 148.12881470 0.5410000086 54.175998688 0.7260000110 0.4979999959
 1664.6251221  -999.250000 17.056999207 0.0520000011 0.3616899848 2.2049999237 64.097000122 153.31605530 149.34181213 0.5379999876 52.341999054 0.7189999819 0.4909999967
 1664.7498779  -999.250000 17.083000183 0.0540000014 0.3644900024 2.2100000381 64.808998108 153.90127563 149.91941833 0.5379999876 51.082000732 0.7110000253 0.4869999886
 1664.8747559  -999.250000 17.104000092 0.0590000004 0.3686899841 2.2079999447 65.667999268 153.91159058 149.96647644 0.5370000005 50.750999451 0.7059999704 0.4860000014
 1665.0001221  -999.250000 17.117000580 0.0619999990 0.3787599802 2.1989998817 66.440002441 153.58383179 149.66487122 0.5360000134 51.449001312 0.7020000219 0.4850000143
 1665.1248779  -999.250000 17.121999741 0.0630000010 0.3974100053 2.1870000362 67.040000916 153.19349670 149.23670959 0.5339999795 53.152999878 0.7020000219 0.4860000014
 1665.2497559  -999.250000 17.124000549 0.0599999987 0.4217100143 2.1760001183 67.307998657 152.80249023 148.83586121 0.5310000181 55.619998932 0.7049999833 0.4850000143
 1665.3751221  -999.250000 17.127000809 0.0549999997 0.4408700168 2.1679999828 67.195999146 152.40995789 148.48860168 0.5279999971 58.195999146 0.7120000124 0.4830000103
 1665.5000000  -999.250000 17.134000778 0.0520000011 0.4364700019 2.1659998894 66.757003784 152.08456421 148.17668152 0.5249999762 60.192001343 0.7189999819 0.4799999893
 1665.6250000  -999.250000 17.142999649 0.0540000014 0.4143600166 2.1700000763 66.152000427 151.83638000 147.93600464 0.5239999890 61.200000763 0.7210000157 0.4779999852
