# LAS format log file from PETREL
# Project units are specified as depth units
#==================================================================
~Version information
VERS.   2.0:
WRAP.   NO:
#==================================================================
~Well
STRT .m      579.75000000 :
STOP .m      3292.5014648 :
STEP .m     0.00000000 :
NULL .        -999.250000 :
COMP.           : COMPANY
WELL.  30/3-4R   : WELL
FLD.            : FIELD
LOC.            : LOCATION
SRVC.           : SERVICE COMPANY
DATE.  2018-09-11 14:48:28   : Log Export Date {yyyy-MM-dd HH:mm:ss}
PROV.           : PROVINCE
UWI.   30/3-4 R   : UNIQUE WELL ID
API.            : API NUMBER
#==================================================================
~Curve
DEPT .m                   : DEPTH
Lithology_geolink ._      : Lithology_geolink
CALI .in                  : CALI
DRHO .g/cm3               : DRHO
NPHI .m3/m3               : NPHI
RHOB .g/cm3               : RHOB
GR .gAPI                  : GR
DTC .us/ft                : DTC
DTE .us/ft                : DTE
RDEP .ohm.m               : RDEP
SP .mV                    : SP
RSHA .ohm.m               : RSHA
RMED .ohm.m               : RMED
~Parameter
#==================================================================
~Ascii
# ...
 2565.7500000 13.000000000 12.723999023 -0.028999999 0.2645699978 2.5150001049 87.460998535 109.07066345 103.44116211 1.2840000391 72.680000305 1.6119999886 1.2289999723
 2565.8750000 13.000000000 12.732000351 -0.021000000 0.2631199956 2.5090000629 86.893997192 108.45859528 102.84422302 1.2840000391 72.487998962 1.6069999933 1.2269999981
 2566.0000000 13.000000000 12.743999481 -0.009000000 0.2677000165 2.5000000000 87.319999695 107.87455750 102.27529144 1.2849999666 72.588996887 1.5880000591 1.2209999561
 2566.1250000 13.000000000 12.758999825 0.0030000000 0.2741700113 2.4939999580 88.431999207 107.55493164 101.92972565 1.2849999666 72.842002869 1.5620000362 1.2130000591
 2566.2500000 13.000000000 12.772000313 0.0099999998 0.2766200006 2.4930000305 89.666999817 107.50062561 101.97772980 1.2840000391 73.154998779 1.5440000296 1.2070000172
 2566.3747559 13.000000000 12.779999733 0.0109999999 0.2713100016 2.4939999580 90.773002625 108.27663422 102.53304291 1.2790000439 73.449996948 1.5399999619 1.2029999495
 2566.4997559 13.000000000 12.781998634 0.0060000001 0.2619499862 2.4960000515 91.602996826 108.94968414 103.26879120 1.2690000534 73.682998657 1.5490000248 1.2000000477
 2566.6250000 13.000000000 12.779999733 -0.001000000 0.2533099949 2.4939999580 91.967002869 109.53324127 103.94655609 1.2549999952 73.830001831 1.5650000572 1.1970000267
 2566.7500000 13.000000000 12.774000168 -0.008000000 0.2506400049 2.4879999161 91.763999939 110.03756714 104.40722656 1.2380000353 73.870002747 1.5759999752 1.1909999847
 2566.8750000 13.000000000 12.768000603 -0.013000000 0.2578499913 2.4790000916 91.269996643 110.40017700 104.59319305 1.2220000029 73.794998169 1.5720000267 1.1840000153
 2567.0000000 13.000000000 12.767000198 -0.017999999 0.2696100175 2.4679999352 91.161003113 110.15352631 104.58358765 1.2100000381 73.663002014 1.5559999943 1.1759999990
 2567.1250000 13.000000000 12.775000572 -0.025000000 0.2793099880 2.4539999962 92.263000488 110.30372620 104.59054565 1.2029999495 73.543998718 1.5379999876 1.1699999571
 2567.2500000 13.000000000 12.795001030 -0.035000000 0.2819299996 2.4379999638 94.813003540 110.26853180 104.70306396 1.1990000010 73.478996277 1.5269999504 1.1660000086
 2567.3752441 13.000000000 12.819999695 -0.043000001 0.2779799998 2.4260001183 97.786003113 110.37044525 104.87142944 1.1959999800 73.441001892 1.5279999971 1.1629999876
 2567.5002441 13.000000000 12.845000267 -0.046000000 0.2731299996 2.4210000038 99.648002625 110.65493774 105.01299286 1.1920000315 73.390998840 1.5369999409 1.1619999409
 2567.6252441 13.000000000 12.868000031 -0.045000002 0.2684699893 2.4200000763 99.346000671 110.60579681 105.04498291 1.1859999895 73.320999146 1.5460000038 1.1599999666
 2567.7497559 13.000000000 12.887001038 -0.041000001 0.2608700097 2.4219999313 96.976997375 110.60579681 104.90048218 1.1799999475 73.238998413 1.5490000248 1.1579999924
 2567.8750000 13.000000000 12.904999733 -0.037000000 0.2479000092 2.4230000973 93.885002136 110.33259583 104.69205475 1.1759999990 73.160003662 1.5449999571 1.1549999714
 2568.0000000 13.000000000 12.921999931 -0.033000000 0.2370599955 2.4230000973 91.286003113 110.19000244 104.51875305 1.1759999990 73.084999084 1.5349999666 1.1529999971
 2568.1250000 13.000000000 12.937999725 -0.028999999 0.2342900038 2.4249999523 89.791999817 110.17154694 104.43706512 1.1840000153 73.011001587 1.5199999809 1.1540000439
 2568.2500000 13.000000000 12.951999664 -0.023000000 0.2419300079 2.4330000877 89.435997009 110.12799835 104.47122192 1.2039999962 72.953002930 1.5069999695 1.1629999876
 2568.3750000 13.000000000 12.965000153 -0.020000000 0.2667300105 2.4530000687 89.879997253 110.12799835 104.61866760 1.2359999418 72.950996399 1.5110000372 1.1849999428
 2568.5000000 13.000000000 12.976000786 -0.027000001 0.2960599959 2.4800000191 90.611000061 110.35585785 104.73087311 1.2749999762 73.033996582 1.5520000458 1.2220000029
 2568.6250000 13.000000000 12.982998848 -0.045000002 0.3149000108 2.5109999180 90.566001892 110.01460266 104.43259430 1.3150000572 73.202003479 1.6430000067 1.2710000277
 2568.7497559 13.000000000 12.984000206 -0.063000001 0.3118399978 2.5360000134 88.553001404 108.92975616 103.34677887 1.3470000029 73.411003113 1.7810000181 1.3209999800
 2568.8747559 13.000000000 12.979999542 -0.074000001 0.2855699956 2.5380001068 85.083999634 106.96386719 101.30631256 1.3650000095 73.597000122 1.9049999714 1.3530000448
 2569.0000000 13.000000000 12.973999977 -0.075000003 0.2536900043 2.5160000324 81.654998779 104.01797485 98.423851013 1.3680000305 73.727996826 1.9349999428 1.3550000191
 2569.1250000 13.000000000 12.970000267 -0.067000002 0.2332299948 2.4790000916 79.822998047 101.07775116 95.342330933 1.3639999628 73.808998108 1.8509999514 1.3300000429
 2569.2500000 13.000000000 12.968000412 -0.055000000 0.2311500013 2.4449999332 80.686996460 98.897529602 93.382171631 1.3559999466 73.886001587 1.7139999866 1.2910000086
 2569.3750000 13.000000000 12.968000412 -0.046999998 0.2490099967 2.4249999523 83.834999084 98.742752075 93.222999573 1.3470000029 74.007003784 1.6019999981 1.2519999743
 2569.5000000 13.000000000 12.969000816 -0.041999999 0.2747499943 2.4179999828 88.135002136 100.37179565 94.793670654 1.3320000172 74.169998169 1.5390000343 1.2180000544
 2569.6250000 13.000000000 12.970999718 -0.037999999 0.2905699909 2.4189999104 91.896003723 103.08311462 97.579406738 1.3090000153 74.332000732 1.5169999599 1.1909999847
 2569.7502441 13.000000000 12.973999977 -0.037000000 0.2910000086 2.4219999313 93.958999634 106.61821747 100.78541565 1.2769999504 74.457000732 1.5210000277 1.1699999571
 2569.8752441 13.000000000 12.977999687 -0.039999999 0.2796800137 2.4270000458 94.647003174 109.07453918 103.30352783 1.2419999838 74.563003540 1.5349999666 1.1540000439
 2570.0002441 13.000000000 12.982000351 -0.044000000 0.2674500048 2.4309999943 94.593002319 110.43161774 104.83360291 1.2079999447 74.693000793 1.5529999733 1.1430000067
 2570.1247559 13.000000000 12.986001015 -0.044000000 0.2588900030 2.4349999428 94.362998962 111.08036804 105.52252960 1.1799999475 74.855003357 1.5690000057 1.1360000372
 2570.2500000 13.000000000 12.989998817 -0.037999999 0.2544599771 2.4430000782 93.877998352 111.26507568 105.64279175 1.1619999409 74.997001648 1.5779999495 1.1330000162
 2570.3750000 13.000000000 12.994999886 -0.028000001 0.2510000169 2.4539999962 92.919998169 111.08360291 105.51017761 1.1519999504 75.047996521 1.5759999752 1.1310000420
 2570.5000000 13.000000000 12.999999046 -0.017999999 0.2445599884 2.4639999866 92.138000488 111.08360291 105.38858032 1.1490000486 75.004997253 1.5640000105 1.1289999485
 2570.6250000 13.000000000 13.005000114 -0.010000000 0.2368600070 2.4709999561 92.652999878 111.00119781 105.38813019 1.1499999762 74.915000916 1.5479999781 1.1269999743
 2570.7500000 13.000000000 13.010999680 -0.006000000 0.2311500013 2.4709999561 94.801002502 111.15204620 105.52944946 1.1519999504 74.843002319 1.5310000181 1.1250000000
 2570.8750000 13.000000000 13.019000053 -0.007000000 0.2323500067 2.4649999142 97.315002441 111.40405273 105.78575897 1.1540000439 74.815002441 1.5169999599 1.1219999790
 2571.0000000 13.000000000 13.029999733 -0.010000000 0.2419499904 2.4590001106 98.585998535 111.67739105 106.11273193 1.1549999714 74.808998108 1.5089999437 1.1189999580
 2571.1247559 13.000000000 13.041999817 -0.013000000 0.2582399845 2.4560000896 98.007003784 112.26422119 106.46502686 1.1529999971 74.805000305 1.5089999437 1.1169999838
 2571.2497559 13.000000000 13.053999901 -0.009000000 0.2741400003 2.4619998932 96.411003113 112.37174988 106.75598907 1.1510000229 74.804000854 1.5140000582 1.1150000095
 2571.3750000 13.000000000 13.061000824 0.0020000001 0.2815900147 2.4769999981 95.171997070 112.61991882 106.92678070 1.1499999762 74.801002502 1.5210000277 1.1139999628
 2571.5000000 13.000000000 13.059000015 0.0130000003 0.2800199986 2.4909999371 94.795997620 112.54403687 106.94740295 1.1519999504 74.772003174 1.5290000439 1.1169999838
 2571.6250000 13.000000000 13.050000191 0.0170000009 0.2714999914 2.4949998856 94.691001892 112.27799988 106.82880402 1.1590000391 74.688003540 1.5349999666 1.1219999790
