# LAS format log file from PETREL
# Project units are specified as depth units
#==================================================================
~Version information
VERS.   2.0:
WRAP.   NO:
#==================================================================
~Well
STRT .m      579.75000000 :
STOP .m      3292.5014648 :
STEP .m     0.00000000 :
NULL .        -999.250000 :
COMP.           : COMPANY
WELL.  30/3-4R   : WELL
FLD.            : FIELD
LOC.            : LOCATION
SRVC.           : SERVICE COMPANY
DATE.  2018-09-11 14:48:28   : Log Export Date {yyyy-MM-dd HH:mm:ss}
PROV.           : PROVINCE
UWI.   30/3-4 R   : UNIQUE WELL ID
API.            : API NUMBER
#==================================================================
~Curve
DEPT .m                   : DEPTH
Lithology_geolink ._      : Lithology_geolink
CALI .in                  : CALI
DRHO .g/cm3               : DRHO
NPHI .m3/m3               : NPHI
RHOB .g/cm3               : RHOB
GR .gAPI                  : GR
DTC .us/ft                : DTC
DTE .us/ft                : DTE
RDEP .ohm.m               : RDEP
SP .mV                    : SP
RSHA .ohm.m               : RSHA
RMED .ohm.m               : RMED
~Parameter
#==================================================================
~Ascii
# ...
 2385.7500000 13.000000000 13.137999535 -0.017000001 0.2293699980 2.4179999828 95.735000610 111.81946564 106.21417999 1.3990000486 76.181999207 1.5870000124 1.2829999924
 2385.8750000 13.000000000 13.118000031 -0.020000000 0.2395400107 2.4140000343 93.911003113 112.09809875 106.47344971 1.3980000019 76.529998779 1.5900000334 1.2829999924
 2386.0000000 13.000000000 13.097999573 -0.025000000 0.2537199855 2.4079999924 90.866996765 112.17267609 106.60848236 1.4010000229 77.035003662 1.6000000238 1.2860000134
 2386.1250000 13.000000000 13.074998856 -0.029999999 0.2631800175 2.4019999504 87.519996643 112.38674927 106.62121582 1.4090000391 77.735000610 1.6139999628 1.2920000553
 2386.2500000 13.000000000 13.046999931 -0.035999998 0.2646400034 2.3970000744 85.155998230 112.29074860 106.50971222 1.4210000038 78.569999695 1.6299999952 1.2999999523
 2386.3750000 13.000000000 13.012000084 -0.039000001 0.2615999877 2.3980000019 84.241996765 111.81059265 106.30677032 1.4349999428 79.253997803 1.6480000019 1.3090000153
 2386.5002441 13.000000000 12.972998619 -0.035999998 0.2608599961 2.4019999504 84.723999023 111.62110138 106.04206848 1.4490000010 79.513999939 1.6649999619 1.3190000057
 2386.6247559 13.000000000 12.937000275 -0.028000001 0.2657900155 2.4119999409 86.222999573 111.39162445 105.75809479 1.4600000381 79.253997803 1.6829999685 1.3279999495
 2386.7497559 13.000000000 12.906000137 -0.017999999 0.2754700184 2.4249999523 88.339996338 110.98614502 105.49913025 1.4670000076 78.577003479 1.6970000267 1.3339999914
 2386.8750000 13.000000000 12.881999969 -0.011000000 0.2855499983 2.4319999218 90.422996521 111.08266449 105.31628418 1.4730000496 77.763999939 1.7029999495 1.3359999657
 2387.0000000 13.000000000 12.859000206 -0.009000000 0.2905800045 2.4330000877 92.088996887 110.74519348 105.27346039 1.4789999723 77.046997070 1.7000000477 1.3370000124
 2387.1250000 13.000000000 12.833999634 -0.011000000 0.2881699800 2.4279999733 93.351997375 110.96904755 105.33141327 1.4850000143 76.515998840 1.6890000105 1.3370000124
 2387.2500000 13.000000000 12.807000160 -0.015000000 0.2801100016 2.4200000763 94.318000793 111.03593445 105.43907166 1.4919999838 76.174003601 1.6790000200 1.3400000334
 2387.3750000 13.000000000 12.781000137 -0.022000000 0.2697300017 2.4110000134 94.930999756 111.03610992 105.53107452 1.4989999533 75.978996277 1.6770000458 1.3450000286
 2387.5000000 13.000000000 12.758999825 -0.028999999 0.2612499893 2.4019999504 94.884002686 111.36042786 105.54146576 1.5030000210 75.905998230 1.6870000362 1.3509999514
 2387.6252441 13.000000000 12.744999886 -0.035999998 0.2579700053 2.3949999809 94.208999634 111.16435242 105.41287994 1.5060000420 75.946998596 1.7059999704 1.3569999933
 2387.7502441 13.000000000 12.739000320 -0.043000001 0.2611599863 2.3929998875 93.416000366 110.74813843 105.19798279 1.5069999695 76.081001282 1.7269999981 1.3609999418
 2387.8747559 13.000000000 12.739999771 -0.044000000 0.2718299925 2.3970000744 93.055999756 110.63968658 105.02459717 1.5080000162 76.286003113 1.7400000095 1.3639999628
 2388.0000000 13.000000000 12.750000000 -0.039999999 0.2881299853 2.4019999504 93.222000122 110.60079193 104.96134186 1.5110000372 76.533996582 1.7439999580 1.3660000563
 2388.1250000 13.000000000 12.768000603 -0.035000000 0.3062900007 2.4059998989 93.245002747 110.57058716 105.03816986 1.5149999857 76.802001953 1.7380000353 1.3680000305
 2388.2500000 13.000000000 12.793999672 -0.034000002 0.3187199831 2.4059998989 92.472999573 110.90560150 105.23435211 1.5199999809 77.057998657 1.7280000448 1.3700000048
 2388.3750000 13.000000000 12.819001198 -0.037999999 0.3170799911 2.4030001163 91.279998779 110.90560150 105.47615051 1.5260000229 77.272003174 1.7189999819 1.3739999533
 2388.5000000 13.000000000 12.833999634 -0.043000001 0.3060100079 2.3970000744 90.436996460 111.33544159 105.67279816 1.5329999924 77.467002869 1.7139999866 1.3780000210
 2388.6250000 13.000000000 12.831999779 -0.043000001 0.2921600044 2.3940000534 90.419998169 111.50489807 105.78766632 1.5399999619 77.753997803 1.7130000591 1.3830000162
 2388.7500000 13.000000000 12.810999870 -0.035000000 0.2803899944 2.4019999504 90.997001648 111.35450745 105.79991150 1.5479999781 78.436996460 1.7170000076 1.3899999857
 2388.8752441 13.000000000 12.792000771 -0.023000000 0.2737599909 2.4179999828 91.730003357 111.14409637 105.69634247 1.5559999943 79.763000488 1.7259999514 1.3969999552
 2388.9997559 13.000000000 12.793000221 -0.013000000 0.2715600133 2.4340000153 92.532997131 111.14409637 105.45214081 1.5650000572 81.462997437 1.7419999838 1.4049999714
 2389.1247559 13.000000000 12.821999550 -0.009000000 0.2738699913 2.4460000992 93.353996277 110.60403442 105.04513550 1.5729999542 82.915000916 1.7630000114 1.4129999876
 2389.2500000 13.000000000 12.871000290 -0.010000000 0.2800900042 2.4530000687 94.138999939 110.15335083 104.54239655 1.5800000429 83.321998596 1.7869999409 1.4210000038
 2389.3750000 13.000000000 12.911999702 -0.011000000 0.2839300036 2.4549999237 94.904998779 109.66758728 104.05021667 1.5859999657 82.376998901 1.8049999475 1.4270000458
 2389.5000000 13.000000000 12.930999756 -0.010000000 0.2781900167 2.4549999237 95.953002930 109.23600006 103.67616272 1.5880000591 80.633003235 1.8090000153 1.4309999943
 2389.6250000 13.000000000 12.925999641 -0.007000000 0.2630999982 2.4509999752 97.799003601 109.23365784 103.51741791 1.5880000591 78.825996399 1.7960000038 1.4309999943
 2389.7500000 13.000000000 12.909000397 -0.005000000 0.2462299913 2.4449999332 100.60199738 109.18155670 103.69587708 1.5839999914 77.556999207 1.7719999552 1.4270000458
 2389.8750000 13.000000000 12.888999939 -0.005000000 0.2393300086 2.4379999638 103.24400330 109.70056915 104.08245087 1.5770000219 76.918998718 1.7450000048 1.4199999571
 2390.0002441 13.000000000 12.873000145 -0.007000000 0.2429299951 2.4360001087 104.39299774 110.22032166 104.52291870 1.5670000315 76.654998779 1.7259999514 1.4119999409
 2390.1252441 13.000000000 12.859000206 -0.008000000 0.2545399964 2.4400000572 103.77600098 110.54647827 104.89582062 1.5549999475 76.619003296 1.7180000544 1.4049999714
 2390.2497559 13.000000000 12.850999832 -0.006000000 0.2664200068 2.4479999542 102.29399872 110.69129181 105.11656952 1.5449999571 76.777000427 1.7209999561 1.3999999762
 2390.3750000 13.000000000 12.854999542 -0.001000000 0.2698500156 2.4560000896 101.12400055 110.83729553 105.15323639 1.5369999409 77.096000671 1.7309999466 1.3960000277
 2390.5000000 13.000000000 12.873000145 0.0030000000 0.2652599812 2.4600000381 100.50499725 110.52062225 105.08032990 1.5329999924 77.442001343 1.7400000095 1.3930000067
 2390.6250000 13.000000000 12.902000427 -0.001000000 0.2574200034 2.4549999237 99.814002991 110.60781860 105.01361847 1.5310000181 77.657997131 1.7439999580 1.3910000324
 2390.7500000 13.000000000 12.934000015 -0.013000000 0.2518900037 2.4419999123 98.329002380 110.67694855 104.99225616 1.5319999456 77.674003601 1.7430000305 1.3880000114
 2390.8750000 13.000000000 12.958000183 -0.028000001 0.2506299913 2.4300000668 96.336997986 110.67738342 105.01977539 1.5319999456 77.605003357 1.7380000353 1.3849999905
 2391.0000000 13.000000000 12.967000008 -0.039000001 0.2507799864 2.4240000248 94.639999390 110.89145660 105.06978607 1.5329999924 77.622001648 1.7319999933 1.3799999952
 2391.1250000 13.000000000 12.961999893 -0.037999999 0.2487599999 2.4210000038 93.435997009 110.69576263 105.10965729 1.5319999456 77.805999756 1.7269999981 1.3730000257
 2391.2502441 13.000000000 12.954000473 -0.027000001 0.2440599948 2.4249999523 91.980003357 110.87704468 105.13978577 1.5310000181 78.161003113 1.7220000029 1.3650000095
 2391.3747559 13.000000000 12.953000069 -0.010000000 0.2409099936 2.4340000153 89.972000122 110.93478394 105.18524933 1.5269999504 78.669998169 1.7189999819 1.3569999933
 2391.4997559 13.000000000 12.959000587 0.0049999999 0.2426099926 2.4409999847 88.404998779 110.88500977 105.25865173 1.5230000019 79.390998840 1.7159999609 1.3500000238
 2391.6250000 13.000000000 12.968000412 0.0109999999 0.2511200011 2.4400000572 88.837997437 110.89267731 105.36133575 1.5190000534 80.411003113 1.7139999866 1.3470000029
