# LAS format log file from PETREL
# Project units are specified as depth units
#==================================================================
~Version information
VERS.   2.0:
WRAP.   NO:
#==================================================================
~Well
STRT .m      1097.1010742 :
STOP .m      4789.4472656 :
STEP .m     0.00000000 :
NULL .        -999.250000 :
COMP.           : COMPANY
WELL.  30/4-2   : WELL
FLD.            : FIELD
LOC.            : LOCATION
SRVC.           : SERVICE COMPANY
DATE.  2018-09-11 14:48:29   : Log Export Date {yyyy-MM-dd HH:mm:ss}
PROV.           : PROVINCE
UWI.   30/4-2   : UNIQUE WELL ID
API.            : API NUMBER
#==================================================================
~Curve
DEPT .m                   : DEPTH
Lithology_geolink ._      : Lithology_geolink
CALI .in                  : CALI
DRHO .g/cm3               : DRHO
NPHI .m3/m3               : NPHI
RHOB .g/cm3               : RHOB
GR .gAPI                  : GR
DTC .us/ft                : DTC
DTE .us/ft                : DTE
RDEP .ohm.m               : RDEP
SP .mV                    : SP
RSHA .ohm.m               : RSHA
RMED .ohm.m               : RMED
~Parameter
#==================================================================
~Ascii
# ...
 2326.0541992  -999.250000 18.777999878  -999.250000  -999.250000 2.3438923359 61.049968719 103.24272156 98.534912109 1.7000769377 50.453376770 2.7300000191 1.6601650715
 2326.2067871  -999.250000 18.764999390  -999.250000  -999.250000 2.3499491215 59.776844025 102.28719330 97.509559631 1.7481535673 51.941104889 3.1659998894 1.7633455992
 2326.3591309  -999.250000 18.787000656  -999.250000  -999.250000 2.3573927879 57.233875275 101.30646515 96.274276733 1.7960736752 52.149005890 3.6029999256 1.8711731434
 2326.5114746  -999.250000 18.812999725  -999.250000  -999.250000 2.3660149574 55.906341553 99.592819214 94.860198975 1.8420561552 51.826465607 4.0399999619 1.9791730642
 2326.6638184  -999.250000 18.840000153  -999.250000  -999.250000 2.3723859787 53.622642517 98.864540100 93.821075439 1.8770208359 52.527339935 3.9389998913 2.0870141983
 2326.8164063  -999.250000 18.867000580  -999.250000  -999.250000 2.3780133724 50.288722992 97.779670715 92.933158875 1.8898367882 52.146518707 3.2720000744 2.0956382751
 2326.9687500  -999.250000 18.893999100  -999.250000  -999.250000 2.3782081604 51.453796387 97.589340210 92.899200439 1.8389375210 51.684009552 2.9779999256 1.9828189611
 2327.1210938  -999.250000 18.909999847  -999.250000  -999.250000 2.3724176884 54.444141388 98.779136658 93.817710876 1.7999230623 51.709274292 2.8889999390 1.8698189259
 2327.2734375  -999.250000 18.922000885  -999.250000  -999.250000 2.3641045094 55.777549744 99.896537781 95.161949158 1.7519246340 51.849544525 2.8429999352 1.7569582462
 2327.4257813  -999.250000 18.929000854  -999.250000  -999.250000 2.3580529690 56.119709015 101.14208984 96.166137695 1.7049232721 51.265701294 2.6129999161 1.7309551239
 2327.5783691  -999.250000 18.936000824  -999.250000  -999.250000 2.3534722328 55.936244965 101.62787628 96.919868469 1.6569230556 49.331287384 2.6500000954 1.7029534578
 2327.7307129  -999.250000 18.923999786  -999.250000  -999.250000 2.3496756554 54.220218658 102.34894562 97.562919617 1.6089887619 49.535789490 2.5469999313 1.6739759445
 2327.8830566  -999.250000 18.899000168  -999.250000  -999.250000 2.3460798264 53.737461090 103.19464874 98.164321899 1.6020159721 51.465866089 2.6480000019 1.6590144634
 2328.0354004  -999.250000 18.875000000  -999.250000  -999.250000 2.3455417156 57.142372131 103.03489685 98.258781433 1.6120464802 50.240970612 2.7430000305 1.6680417061
 2328.1879883  -999.250000 18.850000381  -999.250000  -999.250000 2.3469145298 58.000877380 103.01081085 98.027412415 1.6410896778 49.877479553 2.6289999485 1.6941983700
 2328.3403320  -999.250000 18.822000504  -999.250000  -999.250000 2.3503849506 58.899150848 102.28719330 97.442535400 1.6690417528 50.824874878 2.6519999504 1.7561587095
 2328.4926758  -999.250000 18.840000153  -999.250000  -999.250000 2.3558981419 60.241149902 101.33866119 96.520462036 1.6950048208 49.857810974 3.2999999523 1.8551346064
 2328.6450195  -999.250000 18.878999710  -999.250000  -999.250000 2.3616704941 61.581851959 100.55194855 95.564361572 1.6979678869 51.032527924 3.2990000248 1.9390609264
 2328.7976074  -999.250000 18.926000595  -999.250000  -999.250000 2.3637764454 62.106998444 99.950355530 95.222656250 1.6779456139 51.484996796 3.1630001068 1.9767311811
 2328.9499512  -999.250000 18.961000443  -999.250000  -999.250000 2.3628578186 60.862339020 100.44339752 95.367469788 1.6610240936 51.551166534 2.8139998913 1.8927035332
 2329.1022949  -999.250000 18.947999954  -999.250000  -999.250000 2.3555943966 62.320209503 101.41090393 96.561141968 1.6760176420 50.009605408 2.0840001106 1.7076905966
 2329.2546387  -999.250000 18.905000687  -999.250000  -999.250000 2.3466110229 62.449726105 102.76309204 98.081405640 1.6870192289 49.857429504 2.2449998856 1.5149502754
 2329.4072266  -999.250000 18.853000641  -999.250000  -999.250000 2.3409168720 61.652709961 103.98087311 99.048072815 1.6990416050 51.541095734 2.5539999008 1.4844287634
 2329.5595703  -999.250000 18.849000931  -999.250000  -999.250000 2.3417129517 60.627132416 103.69420624 98.913398743 1.7120192051 52.034484863 3.2209999561 1.6182612181
 2329.7119141  -999.250000 18.871000290  -999.250000  -999.250000 2.3510365486 60.086372375 102.03807068 97.329826355 1.7240432501 50.415649414 3.3410000801 1.7812596560
 2329.8642578  -999.250000 18.905000687  -999.250000  -999.250000 2.3610224724 59.696674347 100.74977875 95.669960022 1.7510849237 48.530166626 2.9830000401 1.9431874752
 2330.0166016  -999.250000 18.940999985  -999.250000  -999.250000 2.3704795837 60.741676331 98.959861755 94.127288818 1.8040848970 48.255840302 3.4330000877 2.0599982738
 2330.1691895  -999.250000 18.944000244  -999.250000  -999.250000 2.3758494854 61.787979126 98.340141296 93.271186829 1.8573104143 49.742370605 3.2780001163 2.0590000153
 2330.3215332  -999.250000 18.922000885  -999.250000  -999.250000 2.3743090630 63.029487610 98.202285767 93.517715454 1.9540288448 51.334110260 3.1819999218 2.0589904785
 2330.4738770  -999.250000 18.908000946  -999.250000  -999.250000 2.3718042374 64.579116821 98.730972290 93.915245056 1.9720191956 51.158153534 3.5290000439 2.0529870987
 2330.6262207  -999.250000 18.868999481  -999.250000  -999.250000 2.3747198582 65.272331238 98.424987793 93.457405090 1.9839823246 51.647350311 3.4470000267 2.0450017452
 2330.7788086  -999.250000 18.829999924  -999.250000  -999.250000 2.3723437786 65.485031128 98.511222839 93.830879211 1.9729936123 51.689662933 3.7260000706 2.0460639000
 2330.9311523  -999.250000 18.791000366  -999.250000  -999.250000 2.3733744621 67.365722656 98.765777588 93.663185120 1.9709790945 52.552703857 3.2509999275 2.0660271645
 2331.0834961  -999.250000 18.752000809  -999.250000  -999.250000 2.3670208454 67.814453125 99.438484192 94.696594238 1.9580335617 52.318248749 3.1219999790 2.0830352306
 2331.2358398  -999.250000 18.768999100  -999.250000  -999.250000 2.3707468510 67.471427917 98.869575500 94.087417603 1.9791201353 51.589408875 3.0929999352 2.1050400734
 2331.3884277  -999.250000 18.797000885  -999.250000  -999.250000 2.3784725666 66.487220764 97.894081116 92.852951050 2.0541663170 51.320831299 3.5360000134 2.1301248074
 2331.5407715  -999.250000 18.826000214  -999.250000  -999.250000 2.3865725994 65.310340881 96.402778625 91.591659546 2.1059823036 51.349647522 4.1919999123 2.1691730022
 2331.6931152  -999.250000 18.854000092  -999.250000  -999.250000 2.3945109844 64.902893066 95.295707703 90.358825684 2.0949087143 51.479801178 4.0669999123 2.2771360874
 2331.8454590  -999.250000 18.868999481  -999.250000  -999.250000 2.3975419998 65.459388733 94.708274841 89.898475647 2.0379343033 50.907760620 3.5150001049 2.3618764877
 2331.9978027  -999.250000 18.906999588  -999.250000  -999.250000 2.3927271366 66.327384949 95.365592957 90.633102417 1.9970111847 50.843860626 3.4600000381 2.2847485542
 2332.1503906  -999.250000 18.906000137  -999.250000  -999.250000 2.3841903210 67.197807312 96.875679016 91.951683044 2.0040607452 51.075168610 3.1570000648 2.1274881363
 2332.3027344  -999.250000 18.885000229  -999.250000  -999.250000 2.3754072189 68.387771606 98.082389832 93.349639893 2.0230240822 49.778175354 2.6710000038 1.9677724838
 2332.4550781  -999.250000 18.856000900  -999.250000  -999.250000 2.3667006493 71.362136841 99.741378784 94.749435425 2.0380225182 48.649185181 2.8059999943 1.8259791136
 2332.6074219  -999.250000 18.827999115  -999.250000  -999.250000 2.3583524227 72.690597534 101.00462341 96.112983704 2.0520207882 50.059803009 3.3740000725 1.8130785227
 2332.7600098  -999.250000 18.809999466  -999.250000  -999.250000 2.3661739826 70.563575745 99.611846924 94.826522827 2.0650415421 50.819896698 4.4380002022 1.8631775379
 2332.9123535  -999.250000 18.809000015  -999.250000  -999.250000 2.3825025558 68.246978760 97.206352234 92.226394653 2.0780625343 49.855464935 5.0430002213 2.2305929661
 2333.0646973  -999.250000 18.813999176  -999.250000  -999.250000 2.4003553391 66.361892700 94.134788513 89.476371765 2.1171875000 48.551891327 4.8670001030 2.6005144119
 2333.2170410  -999.250000 18.818000793  -999.250000  -999.250000 2.4163169861 65.053359985 91.975463867 87.109413147 2.2342419624 47.887020111 4.2670001984 2.9206697941
