# LAS format log file from PETREL
# Project units are specified as depth units
#==================================================================
~Version information
VERS.   2.0:
WRAP.   NO:
#==================================================================
~Well
STRT .m      1097.1010742 :
STOP .m      4789.4472656 :
STEP .m     0.00000000 :
NULL .        -999.250000 :
COMP.           : COMPANY
WELL.  30/4-2   : WELL
FLD.            : FIELD
LOC.            : LOCATION
SRVC.           : SERVICE COMPANY
DATE.  2018-09-11 14:48:29   : Log Export Date {yyyy-MM-dd HH:mm:ss}
PROV.           : PROVINCE
UWI.   30/4-2   : UNIQUE WELL ID
API.            : API NUMBER
#==================================================================
~Curve
DEPT .m                   : DEPTH
Lithology_geolink ._      : Lithology_geolink
CALI .in                  : CALI
DRHO .g/cm3               : DRHO
NPHI .m3/m3               : NPHI
RHOB .g/cm3               : RHOB
GR .gAPI                  : GR
DTC .us/ft                : DTC
DTE .us/ft                : DTE
RDEP .ohm.m               : RDEP
SP .mV                    : SP
RSHA .ohm.m               : RSHA
RMED .ohm.m               : RMED
~Parameter
#==================================================================
~Ascii
# ...
 2574.7709961  -999.250000 14.166000366  -999.250000  -999.250000 2.2384736538 60.722793579 123.64987946 118.76110840 0.9649871588 49.855323792 1.1829999685  -999.250000
 2574.9233398  -999.250000 14.229999542  -999.250000  -999.250000 2.2525391579 60.592514038 120.82183075 115.78071594 0.9569904208 49.670078278 1.1859999895  -999.250000
 2575.0756836  -999.250000 14.152999878  -999.250000  -999.250000 2.2661526203 59.662330627 117.70188141 112.99272156 0.9510015845 49.976463318 1.1660000086  -999.250000
 2575.2282715  -999.250000 13.994000435  -999.250000  -999.250000 2.2770793438 57.370773315 115.52265930 110.80376434 0.9520112276 49.978981018 1.1779999733  -999.250000
 2575.3806152  -999.250000 13.852999687  -999.250000  -999.250000 2.2853052616 55.984413147 114.14087677 109.19545746 0.9590111971 49.442043304 1.1770000458  -999.250000
 2575.5329590  -999.250000 13.817998886  -999.250000  -999.250000 2.2911696434 56.241806030 112.77376556 108.06565094 0.9660112262 48.963417053 1.1469999552  -999.250000
 2575.6853027  -999.250000 13.982000351  -999.250000  -999.250000 2.2899730206 56.743728638 113.34236908 108.29180145 0.9730064273 49.348159790 1.0690000057  -999.250000
 2575.8378906  -999.250000 14.293999672  -999.250000  -999.250000 2.2796356678 56.572563171 115.00227356 110.30207062 0.9769967794 50.433723450 0.9359999895  -999.250000
 2575.9902344  -999.250000 14.527999878  -999.250000  -999.250000 2.2659063339 55.811447144 117.86093903 113.03797913 0.9759920239 50.975891113 0.8790000081  -999.250000
 2576.1425781  -999.250000 14.491999626  -999.250000  -999.250000 2.2544758320 54.842895508 120.41785431 115.38274384 0.9709920287 50.602703094 0.9070000052  -999.250000
 2576.2949219  -999.250000 14.363000870  -999.250000  -999.250000 2.2511725426 53.529773712 120.86776733 116.05835724 0.9659968019 50.174156189 0.9459999800  -999.250000
 2576.4475098  -999.250000 14.432999611  -999.250000  -999.250000 2.2598373890 52.767116547 119.12540436 114.27154541 0.9640063643 50.271247864 1.0180000067  -999.250000
 2576.5998535  -999.250000 14.428999901  -999.250000  -999.250000 2.2727432251 53.115741730 116.73650360 111.67208099 0.9660112262 50.752437592 1.1089999676  -999.250000
 2576.7521973  -999.250000 14.329000473  -999.250000  -999.250000 2.2828249931 53.577754974 114.39779663 109.67240906 0.9730224013 50.971652985 1.1729999781  -999.250000
 2576.9045410  -999.250000 14.402000427  -999.250000  -999.250000 2.2893352509 54.049140930 113.51197052 108.40634918 0.9870304465 50.305946350 1.1890000105  -999.250000
 2577.0571289  -999.250000 14.557999611  -999.250000  -999.250000 2.2903461456 54.132820129 113.00273895 108.22184753 1.0060864687 49.190193176 1.1649999619  -999.250000
 2577.2094727  -999.250000 14.657999992  -999.250000  -999.250000 2.2889480591 52.826717377 113.21557617 108.49030304 1.0330688953 48.337936401 1.1230000257  -999.250000
 2577.3618164  -999.250000 14.579000473  -999.250000  -999.250000 2.2936441898 50.778167725 112.60327911 107.58330536 1.0760817528 48.140007019 1.1189999580  -999.250000
 2577.5141602  -999.250000 14.409000397  -999.250000  -999.250000 2.3069646358 49.012638092 109.78701782 105.09819794 1.1270720959 48.861675262 1.4859999418  -999.250000
 2577.6665039  -999.250000 14.312999725  -999.250000  -999.250000 2.3236293793 47.539985657 106.78758240 102.08569336 1.1720497608 49.808761597 2.1110000610  -999.250000
 2577.8190918  -999.250000 14.348999977  -999.250000  -999.250000 2.3365092278 46.281684875 104.88053131 99.811935425 1.2030863762 50.298023224 2.2079999447  -999.250000
 2577.9714355  -999.250000 14.550998688  -999.250000  -999.250000 2.3332471848 45.247623444 105.23188782 100.37700653 1.2300417423 50.439216614 1.6829999685  -999.250000
 2578.1237793  -999.250000 14.809000015  -999.250000  -999.250000 2.3137440681 44.390144348 108.82508087 103.86073303 1.2560288906 50.429939270 1.1699999571  -999.250000
 2578.2761230  -999.250000 14.888999939  -999.250000  -999.250000 2.2914872169 44.483070374 112.68043518 108.01973724 1.2740097046 50.673034668 1.2020000219  -999.250000
 2578.4287109  -999.250000 14.771999359  -999.250000  -999.250000 2.2757811546 46.407104492 115.90962982 111.07187653 1.2800064087 51.220153809 1.2990000248  -999.250000
 2578.5810547  -999.250000 14.678000450  -999.250000  -999.250000 2.2694797516 49.558723450 117.29470062 112.31252289 1.2820128202 51.072223663 1.1599999666  -999.250000
 2578.7333984  -999.250000 14.725999832  -999.250000  -999.250000 2.2691686153 51.878734589 117.24030304 112.37204742 1.2900176048 49.905128479 1.1480000019  -999.250000
 2578.8857422  -999.250000 14.824000359  -999.250000  -999.250000 2.2774672508 52.337112427 115.57445526 110.73318481 1.3010191917 48.853805542 1.3359999657  -999.250000
 2579.0383301  -999.250000 14.868000031  -999.250000  -999.250000 2.2952191830 51.778392792 112.38826752 107.29580688 1.3130351305 48.472808838 1.6030000448  -999.250000
 2579.1906738  -999.250000 14.878000259  -999.250000  -999.250000 2.3131277561 50.338867188 108.67642212 103.97332764 1.3240064383 48.324268341 1.3940000534  -999.250000
 2579.3430176  -999.250000 14.923999786  -999.250000  -999.250000 2.3161573410 47.762100220 108.27439880 103.41814423 1.3280143738 48.528041840 1.2359999418  -999.250000
 2579.4953613  -999.250000 14.980999947  -999.250000  -999.250000 2.2967054844 45.332786560 111.98651123 107.02520752 1.3370497227 49.382720947 1.3279999495  -999.250000
 2579.6477051  -999.250000 14.904000282  -999.250000  -999.250000 2.2673339844 44.576793671 117.51203156 112.77720642 1.3680721521 50.483219147 1.1920000315  -999.250000
 2579.8002930  -999.250000 14.694000244  -999.250000  -999.250000 2.2440249920 45.072277069 122.58108521 117.58023834 1.4131375551 51.305660248 1.1410000324  -999.250000
 2579.9526367  -999.250000 14.505999565  -999.250000  -999.250000 2.2394206524 45.782867432 123.37804413 118.56092072 1.4560352564 51.565010071 1.1679999828  -999.250000
 2580.1049805  -999.250000 14.442000389  -999.250000  -999.250000 2.2520778179 46.323184967 120.76741028 115.89582825 1.4779856205 51.044677734 1.2109999657  -999.250000
 2580.2573242  -999.250000 14.493000031  -999.250000  -999.250000 2.2692670822 46.435733795 117.45968628 112.36507416 1.4689646959 49.759304047 1.2630000114  -999.250000
 2580.4099121  -999.250000 14.590999603  -999.250000  -999.250000 2.2869384289 45.640552521 113.61492920 108.88854980 1.4469103813 48.521472931 1.4620000124  -999.250000
 2580.5622559  -999.250000 14.706999779  -999.250000  -999.250000 2.3027331829 43.941082001 110.78842163 105.88788605 1.4189567566 48.109367371 1.8320000172  -999.250000
 2580.7145996  -999.250000 14.826000214  -999.250000  -999.250000 2.3124175072 42.120044708 109.14257813 104.09423828 1.3919870853 48.450839996 1.9259999990  -999.250000
 2580.8669434  -999.250000 14.873000145  -999.250000  -999.250000 2.3157293797 40.902091980 108.30287933 103.48966980 1.3840014935 49.126110077 1.7009999752  -999.250000
 2581.0195313  -999.250000 14.779000282  -999.250000  -999.250000 2.3134217262 40.959274292 108.95771790 103.90774536 1.3849551678 49.847312927 1.4939999580  -999.250000
 2581.1718750  -999.250000 14.659001350  -999.250000  -999.250000 2.3082427979 41.354850769 109.65833282 104.84780884 1.3709455729 50.306362152 1.4809999466  -999.250000
 2581.3242188  -999.250000 14.629000664  -999.250000  -999.250000 2.3066673279 40.637325287 109.88909912 105.15400696 1.3369311094 50.180210114 1.6399999857  -999.250000
 2581.4765625  -999.250000 14.614000320  -999.250000  -999.250000 2.3085293770 39.593292236 109.89119720 104.79444885 1.2939279079 50.330291748 1.7339999676  -999.250000
 2581.6289063  -999.250000 14.605999947  -999.250000  -999.250000 2.3061795235 39.778373718 110.01074982 105.24391937 1.2489326000 51.344207764 1.6269999743  -999.250000
 2581.7814941  -999.250000 14.764999390  -999.250000  -999.250000 2.2961297035 41.261154175 111.87872314 107.12114716 1.2069232464 51.923961639 1.4240000248  -999.250000
 2581.9338379  -999.250000 15.109001160  -999.250000  -999.250000 2.2852711678 42.867706299 114.16752625 109.19460297 1.1830064058 50.960239410 1.3660000563  -999.250000
