# LAS format log file from PETREL
# Project units are specified as depth units
#==================================================================
~Version information
VERS.   2.0:
WRAP.   NO:
#==================================================================
~Well
STRT .m      1097.1010742 :
STOP .m      4789.4472656 :
STEP .m     0.00000000 :
NULL .        -999.250000 :
COMP.           : COMPANY
WELL.  30/4-2   : WELL
FLD.            : FIELD
LOC.            : LOCATION
SRVC.           : SERVICE COMPANY
DATE.  2018-09-11 14:48:29   : Log Export Date {yyyy-MM-dd HH:mm:ss}
PROV.           : PROVINCE
UWI.   30/4-2   : UNIQUE WELL ID
API.            : API NUMBER
#==================================================================
~Curve
DEPT .m                   : DEPTH
Lithology_geolink ._      : Lithology_geolink
CALI .in                  : CALI
DRHO .g/cm3               : DRHO
NPHI .m3/m3               : NPHI
RHOB .g/cm3               : RHOB
GR .gAPI                  : GR
DTC .us/ft                : DTC
DTE .us/ft                : DTE
RDEP .ohm.m               : RDEP
SP .mV                    : SP
RSHA .ohm.m               : RSHA
RMED .ohm.m               : RMED
~Parameter
#==================================================================
~Ascii
# ...
 2816.1726074  -999.250000 16.260000229  -999.250000  -999.250000 2.2669157982 43.253582001 117.60556030 112.82212067 1.1628719568 47.163932800 1.2029999495  -999.250000
 2816.3249512  -999.250000 16.402999878  -999.250000  -999.250000 2.2848322392 43.748004913 114.19458771 109.29681396 1.1229759455 47.861492157 1.3890000582  -999.250000
 2816.4772949  -999.250000 16.563999176  -999.250000  -999.250000 2.2913184166 44.372604370 112.79411316 108.02612305 1.1080273390 48.647804260 1.4910000563  -999.250000
 2816.6296387  -999.250000 16.742000580  -999.250000  -999.250000 2.2863249779 44.748920441 113.85594940 109.00302887 1.1250609159 48.786495209 1.2599999905  -999.250000
 2816.7819824  -999.250000 16.961000443  -999.250000  -999.250000 2.2925786972 45.324176788 112.79408264 107.80373383 1.1630865335 48.348159790 1.0759999752  -999.250000
 2816.9345703  -999.250000 17.061000824  -999.250000  -999.250000 2.2856745720 46.686248779 113.99050140 109.13183594 1.2172080278 47.482196808 1.2209999561  -999.250000
 2817.0869141  -999.250000 17.003999710  -999.250000  -999.250000 2.2793750763 48.323364258 115.12058258 110.34785461 1.2821056843 46.710193634 1.4049999714  -999.250000
 2817.2392578  -999.250000 16.891000748  -999.250000  -999.250000 2.2843663692 49.798286438 114.42800140 109.37106323 1.3481010199 46.959934235 1.5859999657  -999.250000
 2817.3916016  -999.250000 16.839000702  -999.250000  -999.250000 2.2832334042 50.599300385 114.45862579 109.59226990 1.4110833406 47.843173981 1.7189999819  -999.250000
 2817.5441895  -999.250000 16.874000549  -999.250000  -999.250000 2.2780854702 50.785861969 115.41575623 110.59557343 1.4631024599 47.419414520 1.8150000572  -999.250000
 2817.6965332  -999.250000 16.971000671  -999.250000  -999.250000 2.2748270035 50.119335175 116.32312012 111.24109650 1.4950191975 46.430919647 1.9630000591  -999.250000
 2817.8488770  -999.250000 17.013999939  -999.250000  -999.250000 2.2757611275 49.083080292 115.83731842 111.05191040 1.5069903135 46.521739960 2.0179998875  -999.250000
 2818.0012207  -999.250000 16.686000824  -999.250000  -999.250000 2.2803392410 49.134860992 115.15235901 110.15799713 1.5009791851 46.952342987 1.7779999971  -999.250000
 2818.1538086  -999.250000 16.427000046  -999.250000  -999.250000 2.2781770229 49.673915863 115.44620514 110.57564545 1.4879808426 47.736228943 1.3760000467  -999.250000
 2818.3061523  -999.250000 16.653999329  -999.250000  -999.250000 2.2692399025 50.271110535 117.18319702 112.35630798 1.4819726944 48.578155518 1.1009999514  -999.250000
 2818.4584961  -999.250000 17.031000137  -999.250000  -999.250000 2.2798044682 50.962039948 115.27460480 110.27616119 1.4649438858 48.482295990 1.1310000420  -999.250000
 2818.6108398  -999.250000 17.368000031  -999.250000  -999.250000 2.3032057285 50.361381531 110.54745483 105.80741882 1.4299566746 47.638824463 1.4320000410  -999.250000
 2818.7631836  -999.250000 17.308000565  -999.250000  -999.250000 2.3121826649 48.728302002 108.84848785 104.13266754 1.4030015469 47.321296692 1.5149999857  -999.250000
 2818.9157715  -999.250000 17.097000122  -999.250000  -999.250000 2.3174576759 47.668849945 108.24906158 103.18171692 1.4041056633 47.757061005 1.3990000486  -999.250000
 2819.0681152  -999.250000 17.176000595  -999.250000  -999.250000 2.3097023964 47.312294006 109.32524872 104.59580231 1.4370849133 48.414424896 1.5959999561  -999.250000
 2819.2204590  -999.250000 17.285999298  -999.250000  -999.250000 2.2864639759 48.117286682 113.78364563 108.98254395 1.4900881052 48.926944733 1.8519999981  -999.250000
 2819.3728027  -999.250000 17.249000549  -999.250000  -999.250000 2.2768864632 48.293518066 115.83842468 110.83960724 1.5450768471 49.119419098 1.9359999895  -999.250000
 2819.5253906  -999.250000 17.111999512  -999.250000  -999.250000 2.2794663906 46.743541718 115.15454102 110.33596039 1.5930960178 49.168350220 1.9939999580  -999.250000
 2819.6777344  -999.250000 17.017999649  -999.250000  -999.250000 2.2782847881 45.665512085 115.47385406 110.56142426 1.6229935884 49.014850616 1.8660000563  -999.250000
 2819.8300781  -999.250000 17.059000015  -999.250000  -999.250000 2.2719318867 45.362583160 116.56005096 111.82447052 1.6189213991 48.232139587 1.5420000553  -999.250000
 2819.9824219  -999.250000 17.004999161  -999.250000  -999.250000 2.2670936584 45.727909088 117.54125977 112.78865814 1.5698814392 47.153289795 1.4589999914  -999.250000
 2820.1350098  -999.250000 16.809999466  -999.250000  -999.250000 2.2670211792 46.918231964 117.74034882 112.81131744 1.4957568645 46.509544373 1.5829999447  -999.250000
 2820.2873535  -999.250000 16.646999359  -999.250000  -999.250000 2.2706546783 47.613655090 116.78652191 112.08255005 1.4199069738 46.810997009 1.5180000067  -999.250000
 2820.4396973  -999.250000 16.548000336  -999.250000  -999.250000 2.2751705647 48.026088715 115.91064453 111.16864014 1.3619647026 48.071044922 1.3589999676  -999.250000
 2820.5920410  -999.250000 16.601999283  -999.250000  -999.250000 2.2772192955 49.955177307 115.79478455 110.76916504 1.3400032520 48.942447662 1.3580000401  -999.250000
 2820.7443848  -999.250000 16.735000610  -999.250000  -999.250000 2.2778289318 52.557250977 115.37593842 110.65643311 1.3420224190 48.476173401 1.4780000448  -999.250000
 2820.8969727  -999.250000 16.843000412  -999.250000  -999.250000 2.2788178921 52.706962585 115.13046265 110.45017242 1.3560639620 47.640533447 1.5169999599  -999.250000
 2821.0493164  -999.250000 16.951999664  -999.250000  -999.250000 2.2822775841 50.512763977 114.70190430 109.77156830 1.3760336637 47.525325775 1.4689999819  -999.250000
 2821.2016602  -999.250000 16.975000381  -999.250000  -999.250000 2.2844796181 49.117839813 114.14338684 109.35781097 1.3970288038 48.062183380 1.4919999838  -999.250000
 2821.3540039  -999.250000 16.879999161  -999.250000  -999.250000 2.2839381695 48.393180847 114.41856384 109.45172882 1.4150111675 48.337524414 1.5399999619  -999.250000
 2821.5065918  -999.250000 16.774000168  -999.250000  -999.250000 2.2851908207 47.255672455 114.11315155 109.22000885 1.4219520092 47.573123932 1.4969999790  -999.250000
 2821.6589355  -999.250000 16.718999863  -999.250000  -999.250000 2.2878875732 46.220592499 113.51915741 108.68421173 1.4069454670 46.492904663 1.3400000334  -999.250000
 2821.8112793  -999.250000 16.663999557  -999.250000  -999.250000 2.2903227806 46.590549469 113.23972321 108.22571564 1.3729391098 46.476058960 1.1740000248  -999.250000
 2821.9636230  -999.250000 16.686000824  -999.250000  -999.250000 2.2877249718 48.178760529 113.48633575 108.72506714 1.3349391222 47.311622620 1.0959999561  -999.250000
 2822.1162109  -999.250000 16.783000946  -999.250000  -999.250000 2.2759962082 48.649696350 115.71092224 111.01848602 1.2968784571 47.787254333 1.0670000315  -999.250000
 2822.2685547  -999.250000 16.738000870  -999.250000  -999.250000 2.2642283440 48.243167877 118.28404999 113.37633514 1.2589454651 47.475231171 1.1080000401  -999.250000
 2822.4208984  -999.250000 16.604000092  -999.250000  -999.250000 2.2594141960 48.347652435 119.23403168 114.35612488 1.2249567509 47.279479980 1.2389999628  -999.250000
 2822.5732422  -999.250000 16.445999146  -999.250000  -999.250000 2.2632322311 48.755325317 118.56640625 113.58042145 1.1979678869 47.571025848 1.3530000448  -999.250000
 2822.7255859  -999.250000 16.329000473  -999.250000  -999.250000 2.2798321247 48.957439423 115.04515839 110.26804352 1.1779807806 47.343811035 1.4950000048  -999.250000
 2822.8781738  -999.250000 16.528999329  -999.250000  -999.250000 2.2960178852 48.604846954 112.02503204 107.13970947 1.1660096645 46.794254303 1.6230000257  -999.250000
 2823.0305176  -999.250000 16.747999191  -999.250000  -999.250000 2.2991309166 47.308773041 111.65733337 106.55356598 1.1690417528 47.066383362 1.4839999676  -999.250000
 2823.1828613  -999.250000 16.645999908  -999.250000  -999.250000 2.2909731865 45.920730591 112.78001404 108.10264587 1.1950753927 48.041881561 1.2109999657  -999.250000
 2823.3352051  -999.250000 16.472000122  -999.250000  -999.250000 2.2784726620 45.754604340 115.19829559 110.53077698 1.2420768738 48.627235413 1.1610000134  -999.250000
