# LAS format log file from PETREL
# Project units are specified as depth units
#==================================================================
~Version information
VERS.   2.0:
WRAP.   NO:
#==================================================================
~Well
STRT .m      1097.1010742 :
STOP .m      4789.4472656 :
STEP .m     0.00000000 :
NULL .        -999.250000 :
COMP.           : COMPANY
WELL.  30/4-2   : WELL
FLD.            : FIELD
LOC.            : LOCATION
SRVC.           : SERVICE COMPANY
DATE.  2018-09-11 14:48:29   : Log Export Date {yyyy-MM-dd HH:mm:ss}
PROV.           : PROVINCE
UWI.   30/4-2   : UNIQUE WELL ID
API.            : API NUMBER
#==================================================================
~Curve
DEPT .m                   : DEPTH
Lithology_geolink ._      : Lithology_geolink
CALI .in                  : CALI
DRHO .g/cm3               : DRHO
NPHI .m3/m3               : NPHI
RHOB .g/cm3               : RHOB
GR .gAPI                  : GR
DTC .us/ft                : DTC
DTE .us/ft                : DTE
RDEP .ohm.m               : RDEP
SP .mV                    : SP
RSHA .ohm.m               : RSHA
RMED .ohm.m               : RMED
~Parameter
#==================================================================
~Ascii
 1097.1010742  -999.250000 13.982999802  -999.250000  -999.250000 2.1064620018 18.360193253 133.08242798 149.68359375 0.8949903846 23.321084976 0.9980000257 1.0520000458
 1097.2534180  -999.250000 13.982000351  -999.250000  -999.250000 2.1082725525 19.355819702 132.59327698 149.15556335 0.8919928074 23.093683243 0.9980000257 1.0520192385
 1097.4058838  -999.250000 13.980999947  -999.250000  -999.250000 2.1103827953 20.111551285 132.11216736 148.56135559 0.8889904022 22.623016357 0.9990000129 1.0600352287
 1097.5582275  -999.250000 13.979000092  -999.250000  -999.250000 2.1127309799 20.282279968 131.52819824 147.88401794 0.8859951496 22.966131210 1.0000000000 1.0710240602
 1097.7106934  -999.250000 13.978000641  -999.250000  -999.250000 2.1135070324 19.985269547 131.31890869 147.65567017 0.8839936256 23.394815445 1.0000000000 1.0809999704
 1097.8630371  -999.250000 13.977000237  -999.250000  -999.250000 2.1107897758 20.692777634 131.94010925 148.42895508 0.8820000291 23.744611740 1.0010000467 1.0809975863
 1098.0155029  -999.250000 13.975999832  -999.250000  -999.250000 2.1076471806 21.013162613 132.85705566 149.32368469 0.8820000291 24.021442413 1.0010000467 1.0800353289
 1098.1678467  -999.250000 13.975000381  -999.250000  -999.250000 2.1061654091 20.130680084 133.11119080 149.76829529 0.8820000291 24.148733139 1.0019999743 1.0910167694
 1098.3203125  -999.250000 13.972999573  -999.250000  -999.250000 2.1051964760 20.411573410 133.44483948 150.04402161 0.8820000291 24.240488052 1.0019999743 1.0979840755
 1098.4726563  -999.250000 13.972000122  -999.250000  -999.250000 2.1051275730 19.967994690 133.44772339 150.06950378 0.8820000291 24.157196045 1.0030000210 1.0929231644
 1098.6251221  -999.250000 13.971000671  -999.250000  -999.250000 2.1059389114 19.966489792 133.18589783 149.82351685 0.8820160627 23.574504852 1.0030000210 1.0688781738
 1098.7774658  -999.250000 13.970000267  -999.250000  -999.250000 2.1070103645 20.123823166 132.97555542 149.52983093 0.8870224357 22.658174515 1.0039999485 1.0310416222
 1098.9299316  -999.250000 13.968999863  -999.250000  -999.250000 2.1073000431 21.631175995 132.84866333 149.43801880 0.8940320611 22.318887711 1.0049999952 1.0440706015
 1099.0822754  -999.250000 13.967000008  -999.250000  -999.250000 2.1073412895 23.559112549 132.85234070 149.41894531 0.9040352106 22.985040665 1.0049999952 1.0660896301
 1099.2346191  -999.250000 13.965999603  -999.250000  -999.250000 2.1085758209 25.777055740 132.58917236 149.06809998 0.9150096178 23.950494766 1.0060000420 1.0940648317
 1099.3870850  -999.250000 13.965000153  -999.250000  -999.250000 2.1107790470 27.465517044 131.99285889 148.42900085 0.9190128446 24.870800018 1.0060000420 1.1210608482
 1099.5394287  -999.250000 14.350000381  -999.250000  -999.250000 2.1130549908 29.185115814 131.40478516 147.79438782 0.9230071902 25.518115997 0.9990000129 1.1399470568
 1099.6918945  -999.250000 17.208999634  -999.250000  -999.250000 2.1146345139 30.059621811 131.04757690 147.35226440 0.9260063767 25.764026642 0.7850000262 1.1178879738
 1099.8442383  -999.250000 18.392000198  -999.250000  -999.250000 2.1155622005 29.005882263 130.72792053 147.08956909 0.9280071855 25.660953522 0.2809999883 1.0829302073
 1099.9967041  -999.250000 18.385999680  -999.250000  -999.250000 2.1144154072 28.122571945 131.08508301 147.40199280 0.9309999943 25.036375046 0.2660000026 1.0539551973
 1100.1490479  -999.250000 18.379999161  -999.250000  -999.250000 2.1120586395 26.741477966 131.79624939 148.08984375 0.9309999943 24.533073425 0.2560000122 1.0400215387
 1100.3015137  -999.250000 18.374000549  -999.250000  -999.250000 2.1108469963 25.691787720 132.02226257 148.43380737 0.9309999943 24.557527542 0.2630000114 1.0490000248
 1100.4538574  -999.250000 18.367000580  -999.250000  -999.250000 2.1094276905 24.691205978 132.26063538 148.82897949 0.9310023785 24.973590851 0.2310000062 1.0489664078
 1100.6063232  -999.250000 18.358999252  -999.250000  -999.250000 2.1102528572 24.358762741 132.12478638 148.59425354 0.9319999814 25.891775131 0.2579999864 1.0349582434
 1100.7586670  -999.250000 18.350999832  -999.250000  -999.250000 2.1117346287 23.349990845 131.89079285 148.16461182 0.9319903851 26.700519562 0.2829999924 1.0219615698
 1100.9111328  -999.250000 18.343000412  -999.250000  -999.250000 2.1126894951 22.724151611 131.42597961 147.90953064 0.9289839864 26.666713715 0.2930000126 1.0099582672
 1101.0634766  -999.250000 18.334999084  -999.250000  -999.250000 2.1122932434 22.459592819 131.69358826 147.99885559 0.9240064025 26.385559082 0.2969999909 0.9970448017
 1101.2158203  -999.250000 18.326999664  -999.250000  -999.250000 2.1091897488 22.332754135 132.39582825 148.89251709 0.9260095954 25.913351059 0.2989999950 1.0110937357
 1101.3682861  -999.250000 18.319000244  -999.250000  -999.250000 2.1060519218 22.234004974 133.10313416 149.79277039 0.9300256371 25.353635788 0.2919999957 1.0501087904
 1101.5206299  -999.250000 18.311000824  -999.250000  -999.250000 2.1047344208 23.171754837 133.55549622 150.16691589 0.9380264878 25.255743027 0.2890000045 1.0840504169
 1101.6730957  -999.250000 18.302999496  -999.250000  -999.250000 2.1057689190 24.317588806 133.30509949 149.88859558 0.9490480423 25.256727219 0.2930000126 1.1050512791
 1101.8254395  -999.250000 18.291000366  -999.250000  -999.250000 2.1077828407 25.126138687 132.72084045 149.28547668 0.9640360475 25.306062698 0.2790000141 1.1210433245
 1101.9779053  -999.250000 18.325000763  -999.250000  -999.250000 2.1101861000 26.431509018 132.11674500 148.62356567 0.9790480137 25.536113739 0.2820000052 1.1390608549
 1102.1302490  -999.250000 18.357000351  -999.250000  -999.250000 2.1126723289 27.211484909 131.64427185 147.91514587 0.9940649271 25.927890778 0.2479999959 1.1579952240
 1102.2827148  -999.250000 18.370000839  -999.250000  -999.250000 2.1146929264 27.002954483 130.94479370 147.33757019 1.0210672617 26.626581192 0.2849999964 1.1559872627
 1102.4350586  -999.250000 18.382999420  -999.250000  -999.250000 2.1144828796 28.552637100 131.07672119 147.38067627 1.0420480967 27.430837631 0.3079999983 1.1519206762
 1102.5875244  -999.250000 18.393999100  -999.250000  -999.250000 2.1140036583 31.726036072 131.16549683 147.52983093 1.0620385408 28.299266815 0.2989999950 1.1189486980
 1102.7398682  -999.250000 18.409000397  -999.250000  -999.250000 2.1141791344 32.983318329 131.17167664 147.47250366 1.0740320683 29.214616776 0.2800000012 1.1031825542
 1102.8923340  -999.250000 18.424999237  -999.250000  -999.250000 2.1164071560 33.706340790 130.57872009 146.84025574 1.0840159655 29.914419174 0.2610000074 1.1602115631
 1103.0446777  -999.250000 18.440000534  -999.250000  -999.250000 2.1167826653 34.124011993 130.43620300 146.73905945 1.0889616013 30.020933151 0.3030000031 1.2260288000
 1103.1971436  -999.250000 18.450000763  -999.250000  -999.250000 2.1217098236 34.439853668 129.31681824 145.37573242 1.0769647360 29.839714050 0.3070000112 1.2348910570
 1103.3494873  -999.250000 18.454000473  -999.250000  -999.250000 2.1164069176 34.702388763 130.60752869 146.85208130 1.0659487247 29.307683945 0.3009999990 1.2008846998
 1103.5018311  -999.250000 18.457000732  -999.250000  -999.250000 2.1138653755 33.571796417 131.29089355 147.57795715 1.0499590635 28.713069916 0.2919999957 1.1649831533
 1103.6542969  -999.250000 18.461000443  -999.250000  -999.250000 2.1156690121 30.994117737 130.71031189 147.05250549 1.0329231024 28.170455933 0.2960000038 1.1580480337
 1103.8066406  -999.250000 18.464000702  -999.250000  -999.250000 2.1146931648 30.097002029 130.98675537 147.32981873 1.0089446306 27.720975876 0.2939999998 1.1730288267
 1103.9591064  -999.250000 18.464000702  -999.250000  -999.250000 2.1116654873 30.098966599 131.89868164 148.19818115 0.9859519601 27.349925995 0.2870000005 1.1849775314
 1104.1114502  -999.250000 18.465000153  -999.250000  -999.250000 2.1106791496 30.401302338 132.03054810 148.46377563 0.9709711671 27.561492920 0.2879999876 1.1779855490
 1104.2639160  -999.250000 18.465000153  -999.250000  -999.250000 2.1100437641 30.937334061 132.14576721 148.64166260 0.9589807987 28.096796036 0.2790000141 1.1719776392
