# LAS format log file from PETREL
# Project units are specified as depth units
#==================================================================
~Version information
VERS.   2.0:
WRAP.   NO:
#==================================================================
~Well
STRT .m      1097.1010742 :
STOP .m      4789.4472656 :
STEP .m     0.00000000 :
NULL .        -999.250000 :
COMP.           : COMPANY
WELL.  30/4-2   : WELL
FLD.            : FIELD
LOC.            : LOCATION
SRVC.           : SERVICE COMPANY
DATE.  2018-09-11 14:48:29   : Log Export Date {yyyy-MM-dd HH:mm:ss}
PROV.           : PROVINCE
UWI.   30/4-2   : UNIQUE WELL ID
API.            : API NUMBER
#==================================================================
~Curve
DEPT .m                   : DEPTH
Lithology_geolink ._      : Lithology_geolink
CALI .in                  : CALI
DRHO .g/cm3               : DRHO
NPHI .m3/m3               : NPHI
RHOB .g/cm3               : RHOB
GR .gAPI                  : GR
DTC .us/ft                : DTC
DTE .us/ft                : DTE
RDEP .ohm.m               : RDEP
SP .mV                    : SP
RSHA .ohm.m               : RSHA
RMED .ohm.m               : RMED
~Parameter
#==================================================================
~Ascii
# ...
 1587.2193604  -999.250000 22.900999069 0.0029935897 0.6011158228 1.9896751642 28.933692932 145.75456238 164.60691833 1.0479903221 36.182399750 0.3370000124 0.8199903965
 1587.3718262  -999.250000 22.899000168 0.0010064052 0.5817621946 2.0122673512 27.977777481 146.43888855 165.00000000 1.0439103842 36.768684387 0.3249999881 0.8159999847
 1587.5241699  -999.250000 22.896999359 -0.009964744 0.5666084886 2.0365250111 28.532285690 146.32807922 165.00000000 1.0158822536 36.814598083 0.3269999921 0.8160625100
 1587.6766357  -999.250000 22.895000458 -0.008004808 0.5737526417 2.0497999191 29.067569733 146.44062805 165.00000000 0.9668398499 36.730354309 0.3549999893 0.8420128226
 1587.8289795  -999.250000 22.892999649 0.0079487590 0.5861502290 2.0174701214 29.556339264 146.31967163 165.00000000 0.9169831872 36.526481628 0.3980000019 0.8459302783
 1587.9814453  -999.250000 22.891002655 0.0139855770 0.5985901356 1.9552048445 29.696277618 146.21073914 165.00000000 0.9100128412 36.203952789 0.4300000072 0.8168558478
 1588.1337891  -999.250000 22.889999390 0.0010416333 0.5985302925 1.9222816229 29.469987869 146.32807922 165.00000000 0.9140048027 36.045780182 0.3000000119 0.7718942165
 1588.2862549  -999.250000 22.888000488 -0.003987981 0.5800645351 1.9162753820 29.049736023 146.44062805 165.00000000 0.9159487486 36.529514313 0.2730000019 0.7279711366
 1588.4385986  -999.250000 22.888000488 0.0029775822 0.5611407161 1.9154237509 28.970376968 146.31967163 165.00000000 0.8998878598 37.732772827 0.3059999943 0.7190288305
 1588.5910645  -999.250000 22.888000488 0.0030000000 0.5562316775 1.9105541706 29.712831497 146.21073914 165.00000000 0.8648813963 36.721912384 0.3459999859 0.7280704975
 1588.7434082  -999.250000 22.888999939 -0.000987190 0.5627590418 1.9095677137 30.596103668 146.32807922 165.00000000 0.8280544281 36.721275330 0.3179999888 0.7500768900
 1588.8957520  -999.250000 22.888999939 -0.004987179 0.5889558196 1.9169448614 31.251316071 146.44073486 165.00000000 0.8451610804 36.909576416 0.2930000126 0.7740384340
 1589.0482178  -999.250000 22.888999939 -0.007990393 0.5740182996 1.9180097580 31.379156113 146.31967163 165.00000000 0.9122017622 37.064857483 0.3019999862 0.7900224328
 1589.2005615  -999.250000 22.888999939 -0.006006410 0.5428500772 1.9127379656 30.182956696 146.21064758 165.00000000 0.9750769734 36.752143860 0.2969999909 0.7969927788
 1589.3530273  -999.250000 22.889999390 -0.002012810 0.5496777892 1.9112291336 30.167476654 146.33215332 165.00000000 1.0070863962 36.775970459 0.2969999909 0.7940192223
 1589.5053711  -999.250000 22.889999390 -0.003993590 0.5525906682 1.9179086685 30.939859390 146.54803467 165.00000000 1.0340096951 36.814006805 0.3210000098 0.8000384569
 1589.6578369  -999.250000 22.889999390 0.0019855769 0.5572886467 1.9292482138 31.709390640 146.21073914 165.00000000 1.0379840136 36.322620392 0.3449999988 0.8160160184
 1589.8101807  -999.250000 22.889999390 0.0000064051 0.5576289296 1.9330956936 30.893589020 146.32807922 165.00000000 1.0329831839 35.722908020 0.4180000126 0.8210023642
 1589.9625244  -999.250000 22.891002655 -0.009967948 0.5567328930 1.9271761179 29.474685669 146.44073486 165.00000000 1.0259855986 36.201045990 0.4979999959 0.8220000267
 1590.1148682  -999.250000 22.891002655 -0.010995997 0.5652557015 1.9180070162 28.098205566 146.31977844 165.00000000 1.0199855566 36.011817932 0.5099999905 0.8219679594
 1590.2672119  -999.250000 22.891002655 -0.010004006 0.5692839026 1.9157197475 28.228286743 146.21054077 165.00000000 1.0109727383 37.775127411 0.3959999979 0.8019567132
 1590.4196777  -999.250000 22.891002655 -0.009004002 0.5558938980 1.9256608486 29.031927109 146.32797241 165.00000000 0.9939591885 39.014759064 0.3070000112 0.7749399543
 1590.5720215  -999.250000 22.891998291 -0.005016026 0.5704711676 1.9474879503 29.831546783 146.44082642 165.00000000 0.9769679308 39.068790436 0.2829999924 0.7499920130
 1590.7244873  -999.250000 22.891998291 0.0039639715 0.5574426055 1.9613175392 29.547693253 146.31977844 165.00000000 0.9569303393 38.178630829 0.2879999876 0.7450264096
 1590.8768311  -999.250000 22.891998291 -0.001975962 0.5374801159 1.9561529160 29.003801346 146.21054077 165.00000000 0.9279471040 36.364395142 0.3109999895 0.7560304403
 1591.0292969  -999.250000 22.892999649 -0.012955965 0.5387644768 1.9548550844 28.251995087 146.32797241 165.00000000 0.8949687481 35.943717957 0.3019999862 0.7749783397
 1591.1816406  -999.250000 22.895000458 -0.004036058 0.5412698984 1.9561846256 26.174270630 146.44082642 165.00000000 0.8820096254 35.948982239 0.2899999917 0.7659759521
 1591.3341064  -999.250000 22.895999908 -0.009975981 0.5349553823 1.9495348930 26.969409943 146.32380676 165.00000000 0.8880552649 37.566101074 0.2860000134 0.7509759665
 1591.4864502  -999.250000 22.896999359 -0.014979968 0.5401788950 1.9359800816 28.385694504 146.31977844 165.00000000 0.9110272527 36.659133911 0.2860000134 0.7409904003
 1591.6389160  -999.250000 22.899000168 -0.012009615 0.5591490865 1.9209796190 28.194034576 146.21475220 165.00000000 0.9280263782 37.483615875 0.2870000005 0.7349904180
 1591.7912598  -999.250000 22.899999619 -0.010008006 0.5852453113 1.9089521170 27.793422699 146.43905640 165.00000000 0.9390352964 38.917858124 0.4009999931 0.7309951782
 1591.9437256  -999.250000 22.900999069 -0.013987180 0.5697401762 1.9018483162 28.059953690 146.32984924 165.00000000 0.9610432386 39.261600494 0.4560000002 0.7279927731
 1592.0960693  -999.250000 22.902000427 -0.016987991 0.5683852434 1.8974519968 29.289258957 146.43495178 165.00000000 0.9790079594 37.499111176 0.3389999866 0.7250048518
 1592.2484131  -999.250000 22.903999329 -0.013016026 0.5520257950 1.8929870129 30.695966721 146.21054077 165.00000000 0.9840064645 36.536014557 0.3269999921 0.7280144095
 1592.4008789  -999.250000 22.904998779 -0.002044035 0.5409542322 1.8835145235 30.674442291 146.32797241 165.00000000 0.9880071878 36.579849243 0.3799999952 0.7370504141
 1592.5532227  -999.250000 22.906000137 -0.003991988 0.5438382030 1.8698259592 30.028339386 146.44082642 165.00000000 0.9910048246 36.014736176 0.3790000081 0.7580336928
 1592.7056885  -999.250000 22.906999588 -0.006987991 0.5327944756 1.8681957722 30.862684250 146.31977844 165.00000000 0.9940072298 35.514450073 0.3409999907 0.7790071964
 1592.8580322  -999.250000 22.909000397 -0.002020032 0.5169734955 1.8826216459 30.729528427 146.21054077 165.00000000 0.9969999790 36.046012878 0.3039999902 0.7819904089
 1593.0104980  -999.250000 22.909999847 -0.003991994 0.5235034823 1.8977791071 29.810214996 146.32797241 165.00000000 0.9969879985 38.418277740 0.2899999917 0.7759687901
 1593.1628418  -999.250000 22.910999298 -0.004995993 0.5472745299 1.9031128883 29.069097519 146.44082642 165.00000000 0.9919615388 39.439014435 0.2829999924 0.7629711628
 1593.3153076  -999.250000 22.913000107 -0.001016013 0.5824091434 1.9124923944 29.132261276 146.32380676 165.00000000 0.9678943157 37.990432739 0.2930000126 0.7449543476
 1593.4676514  -999.250000 22.913999557 0.0009919872 0.5977787375 1.9233216047 30.072320938 146.32380676 165.00000000 0.9239583611 36.773551941 0.3019999862 0.7259871960
 1593.6201172  -999.250000 22.915000916 -0.009955965 0.5859378576 1.9182103872 30.273099899 146.32380676 165.00000000 0.8980240226 38.349758148 0.2939999998 0.7179999948
 1593.7724609  -999.250000 22.916999817 -0.014979968 0.5632311106 1.9189853668 30.731801987 146.32388306 165.00000000 0.9080272317 38.503658295 0.2910000086 0.7180079818
 1593.9249268  -999.250000 22.916999817 -0.009019230 0.5599602461 1.9332408905 31.850412369 146.32572937 165.00000000 0.9250216484 36.608188629 0.2969999909 0.7230263948
 1594.0772705  -999.250000 22.916999817 -0.005016013 0.5497011542 1.9522190094 29.945686340 146.32797241 165.00000000 0.9339839816 36.035137177 0.2960000038 0.7340208888
 1594.2296143  -999.250000 22.916999817 -0.000020032 0.5235052109 1.9820418358 30.372509003 146.44082642 165.00000000 0.9239823818 35.992557526 0.2870000005 0.7470176220
 1594.3820801  -999.250000 22.917999268 0.0039839875 0.5308301449 2.0180890560 30.067468643 146.31977844 165.00000000 0.9129920006 37.799480438 0.3630000055 0.7580096126
