# LAS format log file from PETREL
# Project units are specified as depth units
#==================================================================
~Version information
VERS.   2.0:
WRAP.   NO:
#==================================================================
~Well
STRT .m      1097.1010742 :
STOP .m      4789.4472656 :
STEP .m     0.00000000 :
NULL .        -999.250000 :
COMP.           : COMPANY
WELL.  30/4-2   : WELL
FLD.            : FIELD
LOC.            : LOCATION
SRVC.           : SERVICE COMPANY
DATE.  2018-09-11 14:48:29   : Log Export Date {yyyy-MM-dd HH:mm:ss}
PROV.           : PROVINCE
UWI.   30/4-2   : UNIQUE WELL ID
API.            : API NUMBER
#==================================================================
~Curve
DEPT .m                   : DEPTH
Lithology_geolink ._      : Lithology_geolink
CALI .in                  : CALI
DRHO .g/cm3               : DRHO
NPHI .m3/m3               : NPHI
RHOB .g/cm3               : RHOB
GR .gAPI                  : GR
DTC .us/ft                : DTC
DTE .us/ft                : DTE
RDEP .ohm.m               : RDEP
SP .mV                    : SP
RSHA .ohm.m               : RSHA
RMED .ohm.m               : RMED
~Parameter
#==================================================================
~Ascii
# ...
 4783.9609375  -999.250000 5.0980000496 -0.029999999 0.0478499979  -999.250000 -940.5000000  -999.250000  -999.250000 4.9219999313 92.154449463 2000.0000000 5.8159999847
 4784.1132813  -999.250000 5.0980000496 -0.022000000 0.0478499979  -999.250000 -940.5000000  -999.250000  -999.250000 4.9099998474 92.732200623 2000.0000000 5.7270002365
 4784.2656250  -999.250000 5.0980000496 -0.028999999 0.0478499979  -999.250000 -940.5000000  -999.250000  -999.250000 4.9380002022 91.670509338 2000.0000000 5.6909999847
 4784.4179688  -999.250000 5.0980000496 -0.034000002 0.0478499979  -999.250000 -940.5000000  -999.250000  -999.250000 4.9530000687 90.899681091 2000.0000000 5.7620000839
 4784.5703125  -999.250000 5.0980000496 -0.039000001 0.0478499979  -999.250000 -940.5000000  -999.250000  -999.250000 4.8979997635 90.197715759 2000.0000000 5.8159999847
 4784.7226563  -999.250000 5.0980000496 -0.025000000 0.0478499979  -999.250000 -940.5000000  -999.250000  -999.250000 4.9380002022 91.812294006 2000.0000000 5.6799998283
 4784.8750000  -999.250000 5.0980000496 -0.027000001 0.0478499979  -999.250000 -940.5000000  -999.250000  -999.250000 4.9380002022 93.091178894 2000.0000000 5.7420001030
 4785.0273438  -999.250000 5.0980000496 -0.024000000 0.0478499979  -999.250000 -940.5000000  -999.250000  -999.250000 4.9299998283 91.447242737 2000.0000000 5.7620000839
 4785.1801758  -999.250000 5.0980000496 -0.021000000 0.0478499979  -999.250000 -940.5000000  -999.250000  -999.250000 4.9140000343 91.191345215 2000.0000000 5.6909999847
 4785.3325195  -999.250000 5.0980000496 -0.022000000 0.0478499979  -999.250000 -940.5000000  -999.250000  -999.250000 4.9140000343 91.789100647 2000.0000000 5.6370000839
 4785.4848633  -999.250000 5.0980000496 -0.027000001 0.0478499979  -999.250000 -940.5000000  -999.250000  -999.250000 4.9219999313 91.963783264 2000.0000000 5.6449999809
 4785.6372070  -999.250000 5.0980000496 -0.035000000 0.0478499979  -999.250000 -940.5000000  -999.250000  -999.250000 4.9219999313 91.949317932 2000.0000000 5.6370000839
 4785.7895508  -999.250000 5.0980000496 -0.032000002 0.0478499979  -999.250000 -940.5000000  -999.250000  -999.250000 4.9180002213 92.097549438 2000.0000000 5.6209998131
 4785.9418945  -999.250000 5.0980000496 1.7419999838 0.0478499979  -999.250000 -940.5000000  -999.250000  -999.250000 4.9060001373 91.951751709 2000.0000000 5.6290001869
 4786.0942383  -999.250000 5.0980000496 1.5319999456 0.0478499979  -999.250000 -940.5000000  -999.250000  -999.250000 4.9299998283 91.809936523 2000.0000000 5.6370000839
 4786.2465820  -999.250000 5.0980000496 0.8880000114 0.0478499979  -999.250000 -940.5000000  -999.250000  -999.250000 4.9219999313 91.095153809 2000.0000000 5.6129999161
 4786.3989258  -999.250000 5.0980000496 0.8880000114 0.0478499979  -999.250000 -940.5000000  -999.250000  -999.250000 4.9219999313 91.710472107 2000.0000000 5.6209998131
 4786.5517578  -999.250000 5.0980000496 0.8880000114 0.0478499979  -999.250000 -940.5000000  -999.250000  -999.250000 4.9219999313 91.188934326 2000.0000000 5.6129999161
 4786.7041016  -999.250000 5.0980000496 0.8880000114 0.0478499979  -999.250000 -940.5000000  -999.250000  -999.250000 4.9140000343 91.422073364 2000.0000000 5.6020002365
 4786.8564453  -999.250000 5.0980000496 0.8880000114 0.0478499979  -999.250000 -940.5000000  -999.250000  -999.250000 4.9219999313 91.762611389 2000.0000000 5.6020002365
 4787.0087891  -999.250000 5.0980000496 0.8880000114 0.0478499979  -999.250000 -940.5000000  -999.250000  -999.250000 4.9219999313 91.767257690 2000.0000000 5.5939998627
 4787.1611328  -999.250000 5.0980000496 0.8880000114 0.0478499979  -999.250000 -940.5000000  -999.250000  -999.250000 4.9099998474 91.858840942 2000.0000000 5.5939998627
 4787.3134766  -999.250000 5.0980000496 0.8880000114 0.0478499979  -999.250000 -940.5000000  -999.250000  -999.250000 4.9099998474 91.829917908 2000.0000000 5.5700001717
 4787.4658203  -999.250000 5.0980000496 0.8880000114 0.0478499979  -999.250000 -940.5000000  -999.250000  -999.250000 4.9140000343 92.100791931 2000.0000000 5.5349998474
 4787.6181641  -999.250000 5.0980000496 0.8880000114 0.0478499979  -999.250000 -940.5000000  -999.250000  -999.250000 4.9060001373 92.162498474 2000.0000000 5.5269999504
 4787.7709961  -999.250000 5.0980000496 0.8880000114 0.0478499979  -999.250000 -940.5000000  -999.250000  -999.250000 4.9060001373 92.085235596 2000.0000000 5.5199999809
 4787.9233398  -999.250000 5.0980000496 0.8880000114 0.0478499979  -999.250000 -940.5000000  -999.250000  -999.250000 4.9060001373 91.837066650 2000.0000000 5.4840002060
 4788.0756836  -999.250000 5.0980000496 0.8880000114 0.0478499979  -999.250000 -940.5000000  -999.250000  -999.250000 4.9060001373 91.787498474 2000.0000000 5.4840002060
 4788.2280273  -999.250000 5.0980000496 0.8880000114 0.0478499979  -999.250000 -940.5000000  -999.250000  -999.250000 4.9060001373 92.019134521 2000.0000000 5.4840002060
 4788.3803711  -999.250000 5.0980000496  -999.250000  -999.250000  -999.250000 -940.5000000  -999.250000  -999.250000 4.9060001373 91.965736389 2000.0000000 5.4840002060
 4788.5327148  -999.250000 5.0980000496  -999.250000  -999.250000  -999.250000 -940.5000000  -999.250000  -999.250000 4.9060001373 92.072036743 2000.0000000 5.4840002060
 4788.6850586  -999.250000 5.0980000496  -999.250000  -999.250000  -999.250000 -940.5000000  -999.250000  -999.250000 4.9060001373 92.305130005 2000.0000000 5.4840002060
 4788.8374023  -999.250000 5.0980000496  -999.250000  -999.250000  -999.250000 -940.5000000  -999.250000  -999.250000 4.9060001373 91.888458252 2000.0000000 5.4840002060
 4788.9897461  -999.250000 5.0980000496  -999.250000  -999.250000  -999.250000 -940.5000000  -999.250000  -999.250000 4.9060001373 91.736213684 2000.0000000 5.4840002060
 4789.1425781  -999.250000 5.0980000496  -999.250000  -999.250000  -999.250000 -940.5000000  -999.250000  -999.250000 4.9060001373 91.544769287 2000.0000000 5.4840002060
 4789.2949219  -999.250000 5.0980000496  -999.250000  -999.250000  -999.250000 -940.5000000  -999.250000  -999.250000 4.9060001373  -999.250000 2000.0000000 5.4840002060
 4789.4472656  -999.250000 5.0980000496  -999.250000  -999.250000  -999.250000 -940.5000000  -999.250000  -999.250000 4.9060001373  -999.250000 2000.0000000 5.4840002060
