# LAS format log file from PETREL
# Project units are specified as depth units
#==================================================================
~Version information
VERS.   2.0:
WRAP.   NO:
#==================================================================
~Well
STRT .m      1097.1010742 :
STOP .m      4789.4472656 :
STEP .m     0.00000000 :
NULL .        -999.250000 :
COMP.           : COMPANY
WELL.  30/4-2   : WELL
FLD.            : FIELD
LOC.            : LOCATION
SRVC.           : SERVICE COMPANY
DATE.  2018-09-11 14:48:29   : Log Export Date {yyyy-MM-dd HH:mm:ss}
PROV.           : PROVINCE
UWI.   30/4-2   : UNIQUE WELL ID
API.            : API NUMBER
#==================================================================
~Curve
DEPT .m                   : DEPTH
Lithology_geolink ._      : Lithology_geolink
CALI .in                  : CALI
DRHO .g/cm3               : DRHO
NPHI .m3/m3               : NPHI
RHOB .g/cm3               : RHOB
GR .gAPI                  : GR
DTC .us/ft                : DTC
DTE .us/ft                : DTE
RDEP .ohm.m               : RDEP
SP .mV                    : SP
RSHA .ohm.m               : RSHA
RMED .ohm.m               : RMED
~Parameter
#==================================================================
~Ascii
# ...
 2077.3376465  -999.250000 18.513000488 0.0360863991 0.4051390886 2.3034486771 58.624164581 109.33850861 106.83826447 1.4229646921 46.443836212 1.5740000010 1.6237547398
 2077.4899902  -999.250000 18.597000122 0.0818525627 0.4311862588 2.2990205288 58.103874207 109.03272247 106.50936127 1.4009647369 48.305019379 1.5889999866 1.4712740183
 2077.6423340  -999.250000 18.681999207 0.0929647461 0.4208435416 2.2911546230 58.650634766 113.43259430 110.91768646 1.3789726496 48.136409760 1.5829999447 1.6422083378
 2077.7946777  -999.250000 18.680999756 0.1169230789 0.3991994858 2.2953171730 59.671695709 112.46392822 109.99758911 1.3619775772 47.190895081 1.7330000401 1.7716207504
 2077.9472656  -999.250000 18.658000946 0.1080287993 0.3951627314 2.2874007225 61.352840424 112.66921234 110.27239990 1.3479679823 47.163497925 1.4969999790 1.5346617699
 2078.0996094  -999.250000 18.882999420 0.1080000028 0.3998947442 2.2928764820 60.003749847 111.90875244 109.32807922 1.3279118538 46.452342987 1.4010000229 1.3239166737
 2078.2519531  -999.250000 18.795000076 0.1408942342 0.3943378925 2.2912778854 57.978855133 109.98089600 107.55267334 1.2728925943 48.260864258 1.5030000210 1.2719743252
 2078.4042969  -999.250000 18.697999954 0.1021249965 0.3981177807 2.2648169994 57.888225555 112.45393372 109.85462189 1.2058910131 49.006500244 1.4529999495 1.2559664249
 2078.5568848  -999.250000 18.662000656 0.0980064049 0.4190464318 2.2655394077 58.029426575 112.44152832 109.89691162 1.1377919912 48.842922211 1.4939999580 1.2348495722
 2078.7092285  -999.250000 18.958000183 0.1159423962 0.4546059370 2.2715446949 58.473667145 113.78251648 111.17761993 1.0729134083 49.383338928 1.2100000381 1.1878589392
 2078.8615723  -999.250000 19.149999619 0.1339423060 0.4753835499 2.2545671463 58.265289307 117.86077881 115.35037994 1.0189119577 49.679206848 1.0720000267 1.0998589993
 2079.0139160  -999.250000 18.909999847 0.1050929427 0.4816101491 2.2248899937 57.819950104 124.38120270 121.77927399 0.9639326930 49.055309296 0.9620000124 1.0120848417
 2079.1665039  -999.250000 18.549999237 0.0730512813 0.4638385475 2.2249209881 55.914321899 124.30551910 121.72217560 0.9219807982 46.699523926 0.9409999847 1.0651280880
 2079.3188477  -999.250000 18.733999252 0.0849616006 0.4460968673 2.2338442802 54.457000732 122.20941162 119.75563049 0.9160208702 47.252899170 0.8980000019 1.1048622131
 2079.4711914  -999.250000 18.663999557 0.1059326902 0.4486117363 2.2375071049 54.456592560 121.58331299 118.96820068 0.9290320873 49.470008850 1.1959999800 1.0189632177
 2079.6235352  -999.250000 18.465000153 0.1269326955 0.4654857814 2.2294230461 54.199787140 123.35495758 120.73617554 0.9490609169 49.198665619 2.9900000095 0.9960688949
 2079.7761230  -999.250000 18.496000290 0.1459695548 0.4662189186 2.2391829491 52.814380646 121.17969513 118.62570190 0.9871279597 47.480648041 4.8289999962 1.0393840075
 2079.9284668  -999.250000 18.457000732 0.1410160065 0.4733072519 2.2528400421 50.747421265 118.32615662 115.72714996 1.0270832777 49.182968140 1.8439999819 1.1591731310
 2080.0808105  -999.250000 18.524999619 0.1041185930 0.4737087488 2.2655630112 47.277637482 115.66053772 113.10367584 1.0790913105 49.754959106 0.9909999967 1.2669855356
 2080.2331543  -999.250000 18.482999802 0.0730993599 0.4579307139 2.2846302986 50.174449921 111.79769897 109.34302521 1.1360657215 49.704021454 2.4619998932 1.2579615116
 2080.3854980  -999.250000 18.566999435 0.0839647427 0.4728917181 2.2847361565 54.200504303 111.89105225 109.29611206 1.1770176888 49.701320648 2.9110000134 1.2341890335
 2080.5380859  -999.250000 18.555000305 0.0730176270 0.4914802313 2.2624092102 58.879337311 116.29710388 113.77543640 1.1879231930 49.853038788 1.6950000525 1.3521504402
 2080.6904297  -999.250000 18.506999969 0.0909423977 0.4946200252 2.2512893677 59.919948578 118.51229858 116.05016327 1.1639231443 48.900058746 1.3090000153 1.3989199400
 2080.8427734  -999.250000 18.666999817 0.1029615402 0.4912409186 2.2393250465 60.512351990 121.24023438 118.57357025 1.1159327030 47.396278381 1.1569999456 1.3488124609
 2080.9951172  -999.250000 18.593000412 0.1139647439 0.4897846580 2.2341651917 61.354206085 122.25867462 119.69604492 1.0739582777 46.780666351 1.1740000248 1.2317820787
 2081.1477051  -999.250000 18.493000031 0.1010208353 0.4753032327 2.2303104401 62.107711792 122.95010376 120.53664398 1.0479295254 47.089168549 1.2339999676 1.0958815813
 2081.3000488  -999.250000 18.424999237 0.0880415961 0.4669766426 2.2310471535 62.953643799 122.85775757 120.38348389 1.0259871483 49.441955566 1.1009999514 1.0589535236
 2081.4523926  -999.250000 18.358999252 0.1019551232 0.4955380857 2.2439427376 63.355648041 120.19190216 117.59343719 1.0180000067 50.077896118 0.9710000157 1.0300064087
 2081.6047363  -999.250000 18.402000427 0.1119679511 0.5010226369 2.2630999088 63.760307312 116.18589020 113.61289978 1.0180096626 49.898757935 0.9909999967 1.0340129137
 2081.7573242  -999.250000 18.400999069 0.1000192314 0.4740233421 2.2833092213 63.951423645 112.19207764 109.58573914 1.0240608454 48.722167969 1.2869999409 1.0420544147
 2081.9096680  -999.250000 18.409999847 0.0770735964 0.4812666178 2.2862329483 63.771308899 111.51859283 109.01406860 1.0430176258 47.191722870 1.3389999866 1.0591554642
 2082.0620117  -999.250000 18.415000916 0.0570641011 0.4938496053 2.2837705612 63.340114594 112.10108948 109.49214172 1.0540064573 48.083835602 1.6319999695 1.1561683416
 2082.2143555  -999.250000 18.423999786 0.0540096164 0.5068383217 2.2657506466 62.162662506 115.59988403 113.07770538 1.0580096245 49.956878662 1.4420000315 1.2609038353
 2082.3666992  -999.250000 18.489999771 0.0699487180 0.5173763037 2.2668702602 60.706741333 115.38040924 112.83554077 1.0639935732 49.880447388 1.2510000467 1.2008285522
 2082.5192871  -999.250000 18.645000458 0.0680064037 0.5119276047 2.2565445900 61.171722412 117.36598206 114.96499634 1.0599423647 48.645465851 1.1590000391 1.0939199924
 2082.6716309  -999.250000 18.735000610 0.0570352562 0.5030584931 2.2326524258 62.333633423 122.68597412 120.04361725 1.0419712067 47.175685883 1.0019999743 1.0689840317
 2082.8239746  -999.250000 18.607000351 0.0599903837 0.5112735033 2.2197294235 63.352539063 125.38758850 122.88788605 1.0239647627 47.039863586 1.0130000114 1.0589087009
 2082.9763184  -999.250000 18.725999832 0.0540192313 0.5186364055 2.2174205780 64.937057495 125.87641907 123.39664459 1.0019086599 47.986412048 0.9710000157 1.0019278526
 2083.1289063  -999.250000 18.844999313 0.0430176295 0.5081568360 2.2094140053 65.596260071 127.72029877 125.22911072 0.9448239803 49.101741791 0.9480000138 0.9568816423
 2083.2812500  -999.250000 18.871000290 0.0439967997 0.5024283528 2.2095980644 65.053131104 127.76042938 125.18064117 0.8899422884 49.652408600 0.9190000296 0.9199567437
 2083.4335938  -999.250000 18.774000168 0.0669262856 0.5200133920 2.2035241127 64.510185242 128.98503113 126.59103394 0.8539791107 49.678199768 0.9089999795 0.8929904103
 2083.5859375  -999.250000 18.579000473 0.0530448705 0.5334270000 2.1958928108 64.001922607 130.98716736 128.39758301 0.8410000205 49.909603119 0.9639999866 0.8870465159
 2083.7385254  -999.250000 18.472000122 0.0470096134 0.5439332128 2.2045571804 63.953269958 128.85394287 126.34757996 0.8410320282 50.055164337 1.0679999590 0.9163135886
 2083.8908691  -999.250000 18.500000000 0.0798944011 0.5214721560 2.2113642693 63.409347534 127.29367065 124.77899170 0.8510544896 49.117809296 1.0709999800 1.0140112638
 2084.0432129  -999.250000 18.524000168 0.1128942296 0.4914064407 2.2057280540 60.504425049 128.49107361 126.08921814 0.8850464821 50.003219604 1.0360000134 1.0209231377
 2084.1955566  -999.250000 18.538000107 0.1120032072 0.4613363743 2.2313847542 57.649528503 122.84303284 120.36348724 0.9140352607 49.905765533 1.2109999657 0.9730528593
 2084.3479004  -999.250000 18.537000656 0.0910673067 0.4425999522 2.2873342037 54.860076904 111.40318298 108.96257019 0.9360320568 47.489482880 2.7530000210 1.0063430071
 2084.5004883  -999.250000 18.525999069 0.0900031999 0.4633332491 2.3405983448 52.410209656 101.62373352 99.186813354 0.9560127854 47.904308319 6.1830000877 1.2206047773
