# LAS format log file from PETREL
# Project units are specified as depth units
#==================================================================
~Version information
VERS.   2.0:
WRAP.   NO:
#==================================================================
~Well
STRT .m      1097.1010742 :
STOP .m      4789.4472656 :
STEP .m     0.00000000 :
NULL .        -999.250000 :
COMP.           : COMPANY
WELL.  30/4-2   : WELL
FLD.            : FIELD
LOC.            : LOCATION
SRVC.           : SERVICE COMPANY
DATE.  2018-09-11 14:48:29   : Log Export Date {yyyy-MM-dd HH:mm:ss}
PROV.           : PROVINCE
UWI.   30/4-2   : UNIQUE WELL ID
API.            : API NUMBER
#==================================================================
~Curve
DEPT .m                   : DEPTH
Lithology_geolink ._      : Lithology_geolink
CALI .in                  : CALI
DRHO .g/cm3               : DRHO
NPHI .m3/m3               : NPHI
RHOB .g/cm3               : RHOB
GR .gAPI                  : GR
DTC .us/ft                : DTC
DTE .us/ft                : DTE
RDEP .ohm.m               : RDEP
SP .mV                    : SP
RSHA .ohm.m               : RSHA
RMED .ohm.m               : RMED
~Parameter
#==================================================================
~Ascii
# ...
 3555.0075684  -999.250000 14.204000473  -999.250000  -999.250000 2.2533328533 56.768650055 123.68820953 115.60491180 1.6469422579 28.272935867 1.8910000324 1.6490160227
 3555.1601563  -999.250000 14.197999954  -999.250000  -999.250000 2.2512698174 57.172344208 124.41955566 116.04615784 1.6109455824 28.350500107 2.0729999542 1.6591728926
 3555.3125000  -999.250000 14.192000389  -999.250000  -999.250000 2.2503597736 57.277820587 124.35289001 116.22916412 1.5940064192 28.221338272 2.2449998856 1.7131378651
 3555.4648438  -999.250000 14.185998917  -999.250000  -999.250000 2.2491059303 56.541805267 124.63870239 116.50620270 1.5980224609 28.299100876 2.1719999313 1.7991619110
 3555.6171875  -999.250000 14.180000305  -999.250000  -999.250000 2.2463712692 55.797058105 125.10836792 117.07857513 1.6120288372 28.482660294 2.1579999924 1.9001506567
 3555.7697754  -999.250000 14.173000336  -999.250000  -999.250000 2.2455606461 55.835441589 125.29819489 117.24328613 1.6300607920 28.689296722 2.1600000858 1.9941855669
 3555.9221191  -999.250000 14.182999611  -999.250000  -999.250000 2.2473437786 56.597286224 125.12934875 116.86921692 1.6490353346 28.836444855 2.1310000420 2.0520017147
 3556.0744629  -999.250000 14.237999916  -999.250000  -999.250000 2.2485933304 57.399665833 124.82489777 116.60977936 1.6710256338 28.834648132 2.0820000172 2.0529215336
 3556.2268066  -999.250000 14.336000443  -999.250000  -999.250000 2.2483839989 57.815731049 124.86096191 116.65254211 1.6869759560 28.774751663 2.0369999409 2.0039052963
 3556.3793945  -999.250000 14.387999535  -999.250000  -999.250000 2.2478966713 58.274822235 124.83425140 116.74539185 1.6718657017 28.460124969 1.9969999790 1.9448752403
 3556.5317383  -999.250000 14.319000244  -999.250000  -999.250000 2.2478203773 59.155731201 125.12934875 116.76708984 1.6299151182 27.389894485 1.9589999914 1.9059535265
 3556.6840820  -999.250000 14.241000175  -999.250000  -999.250000 2.2484805584 60.233013153 124.80879211 116.63459015 1.5769166946 26.120805740 1.9650000334 1.8769230843
 3556.8364258  -999.250000 14.274001122  -999.250000  -999.250000 2.2509217262 59.614383698 124.36624908 116.11431885 1.5249390602 25.644624710 1.9859999418 1.8288798332
 3556.9887695  -999.250000 14.402000427  -999.250000  -999.250000 2.2546641827 57.358390808 123.83530426 115.33999634 1.4869759083 25.452861786 1.9689999819 1.7538541555
 3557.1413574  -999.250000 14.477000237  -999.250000  -999.250000 2.2565865517 55.730102539 122.99326324 114.92948914 1.4719935656 24.894021988 2.0030000210 1.6627408266
 3557.2937012  -999.250000 14.423999786  -999.250000  -999.250000 2.2561733723 54.825977325 123.19128418 115.02915192 1.4700000286 24.337039948 2.0439999104 1.5819294453
 3557.4460449  -999.250000 14.390001297  -999.250000  -999.250000 2.2553563118 54.187084198 123.40077209 115.19213104 1.4700064659 24.316547394 1.9850000143 1.5379695892
 3557.5983887  -999.250000 14.463000298  -999.250000  -999.250000 2.2539300919 53.616119385 123.92664337 115.49871063 1.4740031958 25.336612701 1.9930000305 1.5189744234
 3557.7509766  -999.250000 14.612999916  -999.250000  -999.250000 2.2485778332 53.066032410 124.67098999 116.61484528 1.4759680033 26.742189407 2.0559999943 1.5029264688
 3557.9033203  -999.250000 14.814999580  -999.250000  -999.250000 2.2421057224 53.076301575 126.08470154 117.97752380 1.4659582376 27.624723434 2.1229999065 1.4799551964
 3558.0556641  -999.250000 15.149000168  -999.250000  -999.250000 2.2393796444 53.888290405 126.78755951 118.56835938 1.4399471283 28.276365280 2.1960000992 1.4519582987
 3558.2080078  -999.250000 15.694000244  -999.250000  -999.250000 2.2387936115 54.690940857 127.01807404 118.69757080 1.4069486856 28.488975525 1.9819999933 1.4259582758
 3558.3605957  -999.250000 15.854000092  -999.250000  -999.250000 2.2385830879 54.651527405 126.98636627 118.73329926 1.3749040365 27.488475800 1.4680000544 1.3999040127
 3558.5129395  -999.250000 15.572999001  -999.250000  -999.250000 2.2380058765 54.504428864 127.07606506 118.85137939 1.3449503183 26.069059372 1.0110000372 1.3699470758
 3558.6652832  -999.250000 15.324999809  -999.250000  -999.250000 2.2351388931 54.769191742 127.74550629 119.47488403 1.3139470816 25.121660233 0.8090000153 1.3369407654
 3558.8176270  -999.250000 15.050999641  -999.250000  -999.250000 2.2304103374 54.262737274 128.94407654 120.51789093 1.2809455395 24.564512253 0.9070000052 1.2999566793
 3558.9699707  -999.250000 14.928000450  -999.250000  -999.250000 2.2277770042 52.851226807 129.16073608 121.08953094 1.2469551563 24.647903442 1.1599999666 1.2729967833
 3559.1225586  -999.250000 14.990000725  -999.250000  -999.250000 2.2302918434 51.746910095 128.66453552 120.53236389 1.2189551592 25.543659210 1.2480000257 1.2710576057
 3559.2749023  -999.250000 14.975000381  -999.250000  -999.250000 2.2360322475 51.718769073 127.68164063 119.29228210 1.2050096989 26.558481216 1.0349999666 1.2890512943
 3559.4272461  -999.250000 14.848999977  -999.250000  -999.250000 2.2429084778 52.198703766 126.01894379 117.80649567 1.2110288143 27.051141739 0.7580000162 1.3210576773
 3559.5795898  -999.250000 14.800000191  -999.250000  -999.250000 2.2490057945 52.013469696 124.79411316 116.52098846 1.2290368080 27.244447708 0.8420000076 1.3570529222
 3559.7321777  -999.250000 14.876000404  -999.250000  -999.250000 2.2522604465 52.308109283 123.90494537 115.83161926 1.2520735264 27.073240280 1.2079999447 1.3900704384
 3559.8845215  -999.250000 14.987999916  -999.250000  -999.250000 2.2540168762 52.963172913 123.93292236 115.46962738 1.2750384808 26.365509033 1.3899999857 1.4120272398
 3560.0368652  -999.250000 15.102998734  -999.250000  -999.250000 2.2544596195 51.823520660 123.62475586 115.37847900 1.2990400791 25.515480042 1.4980000257 1.4290368557
 3560.1892090  -999.250000 15.208001137  -999.250000  -999.250000 2.2532742023 51.524742126 123.67158508 115.63053131 1.3240448236 24.882949829 1.5900000334 1.4520529509
 3560.3417969  -999.250000 15.284000397  -999.250000  -999.250000 2.2525506020 51.991462708 123.90359497 115.78340912 1.3520672321 24.320379257 1.5440000296 1.4851088524
 3560.4941406  -999.250000 15.333000183  -999.250000  -999.250000 2.2540841103 53.071815491 123.87939453 115.44740295 1.3730096817 23.567195892 1.5700000525 1.5190353394
 3560.6464844  -999.250000 15.359000206  -999.250000  -999.250000 2.2565336227 54.200450897 123.17655182 114.94138336 1.3789902925 22.964006424 1.5950000286 1.5410047770
 3560.7988281  -999.250000 15.355000496  -999.250000  -999.250000 2.2574934959 53.233566284 122.94365692 114.75267029 1.3729776144 23.416955948 1.4919999838 1.5439696312
 3560.9511719  -999.250000 15.398999214  -999.250000  -999.250000 2.2573256493 52.338123322 122.90586853 114.79489136 1.3589680195 24.626279831 1.3799999952 1.5249519348
 3561.1037598  -999.250000 15.625000000  -999.250000  -999.250000 2.2581741810 51.789306641 122.96763611 114.61923218 1.3389567137 25.247121811 1.2790000439 1.4949487448
 3561.2561035  -999.250000 15.805000305  -999.250000  -999.250000 2.2603471279 50.733238220 122.40840149 114.17089844 1.3119519949 25.589319229 1.0959999561 1.4629520178
 3561.4084473  -999.250000 15.909000397  -999.250000  -999.250000 2.2616729736 50.256481171 121.99435425 113.89744568 1.2819519043 25.976776123 0.9789999723 1.4329551458
 3561.5607910  -999.250000 16.143999100  -999.250000  -999.250000 2.2608392239 49.308189392 122.24770355 114.06079865 1.2519534826 25.806203842 0.9639999866 1.4049663544
 3561.7133789  -999.250000 16.336000443  -999.250000  -999.250000 2.2589192390 48.181018829 122.90600586 114.44937134 1.2229040861 25.245029449 1.1319999695 1.3839647770
 3561.8657227  -999.250000 16.297000885  -999.250000  -999.250000 2.2565460205 48.811435699 123.00133514 114.95361328 1.1929534674 24.231294632 1.4309999943 1.3729984760
 3562.0180664  -999.250000 16.079000473  -999.250000  -999.250000 2.2550134659 49.705249786 123.42292023 115.26998138 1.1639583111 22.954774857 1.5190000534 1.3720223904
 3562.1704102  -999.250000 15.836999893  -999.250000  -999.250000 2.2554030418 49.858806610 123.39228821 115.18521118 1.1379727125 22.526048660 1.5039999485 1.3860497475
