# LAS format log file from PETREL
# Project units are specified as depth units
#==================================================================
~Version information
VERS.   2.0:
WRAP.   NO:
#==================================================================
~Well
STRT .m      1097.1010742 :
STOP .m      4789.4472656 :
STEP .m     0.00000000 :
NULL .        -999.250000 :
COMP.           : COMPANY
WELL.  30/4-2   : WELL
FLD.            : FIELD
LOC.            : LOCATION
SRVC.           : SERVICE COMPANY
DATE.  2018-09-11 14:48:29   : Log Export Date {yyyy-MM-dd HH:mm:ss}
PROV.           : PROVINCE
UWI.   30/4-2   : UNIQUE WELL ID
API.            : API NUMBER
#==================================================================
~Curve
DEPT .m                   : DEPTH
Lithology_geolink ._      : Lithology_geolink
CALI .in                  : CALI
DRHO .g/cm3               : DRHO
NPHI .m3/m3               : NPHI
RHOB .g/cm3               : RHOB
GR .gAPI                  : GR
DTC .us/ft                : DTC
DTE .us/ft                : DTE
RDEP .ohm.m               : RDEP
SP .mV                    : SP
RSHA .ohm.m               : RSHA
RMED .ohm.m               : RMED
~Parameter
#==================================================================
~Ascii
# ...
 1835.9361572  -999.250000 18.613000870 0.0229951926 0.2703112662 2.3524019718 30.083139420 86.884925842 84.472244263 1.2397948503 33.256267548 6.3499999046 1.2472339869
 1836.0885010  -999.250000 19.452999115 0.0309743788 0.2635715306 2.4083991051 31.699209213 80.494338989 77.879722595 1.1758046150 32.940891266 6.0630002022 1.3196221590
 1836.2409668  -999.250000 19.816999435 0.0180312488 0.2660439610 2.4848444462 37.080646515 73.968383789 71.487998962 1.1148301363 33.438255310 1.8350000381 1.2016217709
 1836.3933105  -999.250000 19.162000656 0.0229839869 0.3225484490 2.5049324036 44.771286011 80.593521118 78.035888672 1.0619487762 35.416961670 1.2220000029 1.0836220980
 1836.5456543  -999.250000 18.513000488 0.0509102568 0.3798463345 2.4812092781 52.660980225 102.20658875 99.669174194 1.0460264683 37.872470856 0.9100000262 0.9657139778
 1836.6981201  -999.250000 18.329999924 0.0639583692 0.4459382594 2.4150774479 60.561141968 120.07248688 117.57788849 1.0570353270 39.258567810 0.7710000277 0.8469679952
 1836.8504639  -999.250000 18.379999161 0.0490480773 0.4723158777 2.3235995770 67.780418396 135.94905090 133.38093567 1.0679903030 39.485797882 0.7089999914 0.8370793462
 1837.0029297  -999.250000 18.424999237 0.0539839901 0.4518659711 2.2925853729 74.181053162 143.06327820 140.63458252 1.0639584064 37.407173157 0.7239999771 0.8701633215
 1837.1552734  -999.250000 18.104999542 0.0639679506 0.4379046559 2.3089125156 74.816055298 141.51570129 138.89237976 1.0511201620 38.015430450 0.8750000000 0.9211226106
 1837.3077393  -999.250000 17.971000671 0.0450456738 0.4239435196 2.3067202568 73.160888672 133.32502747 130.90377808 1.1013778448 38.996025085 1.0579999685 0.9721633196
 1837.4600830  -999.250000 17.999000549 0.0410128124 0.4100146592 2.3163328171 67.202430725 126.11261749 123.49646759 1.2191802263 38.543579102 1.2680000067 1.0231177807
 1837.6125488  -999.250000 18.093999863 0.0419975966 0.4000838101 2.3347032070 62.801921844 120.95177460 118.51098633 1.2942978144 37.800788879 1.2630000114 1.0720704794
 1837.7648926  -999.250000 18.037000656 0.0350224189 0.3975281119 2.3405952454 58.417026520 118.36718750 115.89056396 1.3873412609 36.963714600 1.2719999552 1.0940985680
 1837.9173584  -999.250000 17.877000809 0.0359975956 0.3842120469 2.3465824127 57.598472595 116.79019928 114.24264526 1.5294423103 35.280914307 1.5859999657 1.1351410151
 1838.0697021  -999.250000 17.850999832 0.0429775827 0.3709026277 2.3573138714 57.417125702 113.83763885 111.25178528 1.6671601534 33.424289703 2.0590000153 1.1792753935
 1838.2221680  -999.250000 17.850999832 0.0380120166 0.3575620353 2.3567421436 51.833194733 112.41174316 109.89620209 1.7168846130 31.574554443 2.0780000687 1.2652788162
 1838.3745117  -999.250000 17.854999542 0.0220512412 0.3434851468 2.3285782337 45.656269073 111.15158081 108.74549103 1.6806541681 30.609373093 2.0399999619 1.3520352840
 1838.5268555  -999.250000 17.868000031 0.0120320516 0.3292257190 2.2901101112 40.126785278 110.51515198 107.75909424 1.5725960732 31.904901505 2.0469999313 1.3629014492
 1838.6793213  -999.250000 17.870000839 0.0229647718 0.3149856031 2.2487127781 35.463451385 110.49518585 108.14080048 1.4044651985 31.980482101 1.7799999714 1.3214331865
 1838.8316650  -999.250000 17.870000839 0.0329679474 0.3189869821 2.2055597305 32.488510132 111.54692078 108.99669647 1.2377091646 31.661977768 1.6519999504 1.1445504427
 1838.9841309  -999.250000 17.870000839 0.0290128086 0.3418266475 2.1637594700 31.451038361 112.91951752 110.45021057 1.1166445017 29.811351776 1.6210000515 0.9577406049
 1839.1364746  -999.250000 17.856000900 0.0250128210 0.3647166193 2.1516289711 30.215454102 115.13243866 112.46489716 1.0057332516 28.500930786 1.3359999657 0.8768100739
 1839.2889404  -999.250000 17.834999084 0.0349759609 0.3876449168 2.1581346989 29.164764404 116.66693115 114.17719269 0.8946797252 30.041961670 1.4220000505 0.7977725863
 1839.4412842  -999.250000 17.843999863 0.0359967947 0.4107658863 2.1561756134 30.964206696 116.94737244 114.41063690 0.7948629856 30.161859512 1.6200000048 0.7269687653
 1839.5937500  -999.250000 17.843000412 0.0160480775 0.4325377047 2.1536467075 33.135639191 115.68825531 113.20780945 0.7378751040 28.715471268 1.6299999952 0.7140512466
 1839.7460938  -999.250000 17.756000519 0.0060320259 0.4300381839 2.1843225956 36.454990387 112.55501556 110.21718597 0.6989904046 30.584325790 1.7630000114 0.7302019596
 1839.8985596  -999.250000 17.669000626 -0.000983173 0.4054891169 2.2236540318 39.783462524 108.44075012 105.80445862 0.6950576901 31.040803909 2.9760000706 0.8142948747
 1840.0509033  -999.250000 17.593000412 -0.001996798 0.3795033097 2.2620751858 43.350189209 105.21037292 102.69396973 0.7130320072 30.993515015 2.4409999847 0.9059584141
 1840.2033691  -999.250000 17.610000610 0.0019903847 0.3534525931 2.2746109962 44.023590088 102.66887665 100.27214050 0.7231249809 30.831466675 1.5499999523 0.8926826715
 1840.3557129  -999.250000 17.610000610 0.0039935950 0.3094112873 2.2514431477 41.390666962 102.49197388 99.846260071 0.7621121407 30.205764771 1.2389999628 0.7937822342
 1840.5081787  -999.250000 17.610000610 0.0059951926 0.2910838127 2.2214245796 35.976074219 103.89981079 101.37945557 0.7970672846 29.015583038 1.3980000019 0.7265608907
 1840.6605225  -999.250000 17.576000214 0.0000192154 0.2743635774 2.2115817070 30.086301804 101.21166992 98.603874207 0.8180512786 29.223413467 2.0439999104 0.9016053081
 1840.8128662  -999.250000 17.549999237 -0.006977564 0.2639134526 2.2315919399 28.619873047 95.719749451 93.219779968 0.8340023756 28.595407486 2.4839999676 1.0904422998
 1840.9653320  -999.250000 17.604000092 -0.004009608 0.2629729211 2.2581124306 26.901391983 92.390899658 89.999870300 0.8349999785 27.121173859 1.8240000010 1.2737438679
 1841.1176758  -999.250000 17.659999847 0.0139423078 0.2818592489 2.2835686207 25.157846451 93.707519531 91.139991760 0.8349543214 27.902914047 1.3350000381 1.1936417818
 1841.2701416  -999.250000 17.687999725 0.0130024040 0.3043958545 2.2787878513 25.928806305 96.475250244 94.096069336 0.8158975244 28.546483994 1.3650000095 1.0445195436
 1841.4224854  -999.250000 17.687999725 0.0090128100 0.3393976986 2.2499558926 27.428609848 98.598419189 96.046470642 0.7839518785 29.950664520 1.4309999943 0.8947283626
 1841.5749512  -999.250000 17.687999725 0.0119927889 0.3335742950 2.2378816605 28.928226471 97.816673279 95.213043213 0.7639327645 28.970359802 1.4670000076 0.7818911076
 1841.7272949  -999.250000 17.687999725 0.0289455559 0.3220469952 2.2568991184 29.307336807 95.264801025 92.788764954 0.7429518700 29.309894562 1.4290000200 0.7479976416
 1841.8797607  -999.250000 17.724000931 0.0200216342 0.3256412148 2.2535934448 28.201723099 94.790641785 92.372497559 0.7229615450 29.639848709 1.4079999924 0.7470640540
 1842.0321045  -999.250000 17.791999817 0.0050480384 0.3307436407 2.2421965599 28.119211197 96.566223145 94.021850586 0.7109968066 30.135875702 1.3660000563 0.7670865059
 1842.1845703  -999.250000 17.860000610 0.0149759613 0.3317975104 2.2424445152 29.122486115 99.207618713 96.605529785 0.7100704908 28.215307236 1.3229999542 0.7941314578
 1842.3369141  -999.250000 17.884000778 0.0169935953 0.3477089107 2.2529125214 30.215688705 102.33464050 99.677284241 0.7321056724 29.490154266 1.4279999733 0.8351665139
 1842.4893799  -999.250000 17.860000610 0.0120120198 0.3637614548 2.2766234875 32.933086395 105.16893768 102.83376312 0.7653557658 30.834009171 1.6840000153 0.8872019649
 1842.6417236  -999.250000 17.830999374 0.0080128107 0.3647868335 2.3034260273 37.009834290 108.16269684 105.71045685 0.8763586879 31.349378586 2.1610000134 0.9502113461
 1842.7940674  -999.250000 17.805999756 0.0089967949 0.3574137092 2.3303086758 39.140655518 107.99937439 105.54120636 0.9882668257 31.749193192 2.0610001087 1.0161442757
 1842.9465332  -999.250000 17.812999725 0.0259455573 0.3340948522 2.3567409515 40.237606049 102.98419952 100.47063446 1.0993554592 32.201183319 1.9149999619 1.0761249065
 1843.0988770  -999.250000 17.909999847 0.0429455154 0.3153201342 2.3662226200 38.863555908 93.849769592 91.222854614 1.2102620602 32.773353577 1.8780000210 1.1149855852
