# LAS format log file from PETREL
# Project units are specified as depth units
#==================================================================
~Version information
VERS.   2.0:
WRAP.   NO:
#==================================================================
~Well
STRT .m      1097.1010742 :
STOP .m      4789.4472656 :
STEP .m     0.00000000 :
NULL .        -999.250000 :
COMP.           : COMPANY
WELL.  30/4-2   : WELL
FLD.            : FIELD
LOC.            : LOCATION
SRVC.           : SERVICE COMPANY
DATE.  2018-09-11 14:48:29   : Log Export Date {yyyy-MM-dd HH:mm:ss}
PROV.           : PROVINCE
UWI.   30/4-2   : UNIQUE WELL ID
API.            : API NUMBER
#==================================================================
~Curve
DEPT .m                   : DEPTH
Lithology_geolink ._      : Lithology_geolink
CALI .in                  : CALI
DRHO .g/cm3               : DRHO
NPHI .m3/m3               : NPHI
RHOB .g/cm3               : RHOB
GR .gAPI                  : GR
DTC .us/ft                : DTC
DTE .us/ft                : DTE
RDEP .ohm.m               : RDEP
SP .mV                    : SP
RSHA .ohm.m               : RSHA
RMED .ohm.m               : RMED
~Parameter
#==================================================================
~Ascii
# ...
 3306.2910156  -999.250000 14.371999741  -999.250000  -999.250000 2.3152692318 47.372009277 108.50894165 103.56627655 2.0320000648 32.296192169 3.2509999275  -999.250000
 3306.4433594  -999.250000 14.399000168  -999.250000  -999.250000 2.3231241703 47.375881195 106.86595154 102.16448975 2.0320017338 33.219383240 3.3350000381  -999.250000
 3306.5957031  -999.250000 14.428000450  -999.250000  -999.250000 2.3267705441 47.303012848 106.23739624 101.50185394 2.0329999924 33.269760132 3.3029999733  -999.250000
 3306.7482910  -999.250000 14.461000443  -999.250000  -999.250000 2.3289606571 47.941341400 106.21895599 101.12145233 2.0329999924 33.268802643 3.2200000286  -999.250000
 3306.9006348  -999.250000 14.498000145  -999.250000  -999.250000 2.3306493759 49.606750488 105.69756317 100.82759857 2.0330064297 33.489414215 3.1189999580  -999.250000
 3307.0529785  -999.250000 14.538999557  -999.250000  -999.250000 2.3290522099 50.696472168 105.96367645 101.11170959 2.0370111465 33.267730713 3.0360000134  -999.250000
 3307.2053223  -999.250000 14.571999550  -999.250000  -999.250000 2.3246686459 49.740505219 106.96839905 101.88042450 2.0440094471 33.171062469 2.9909999371  -999.250000
 3307.3576660  -999.250000 14.587999344  -999.250000  -999.250000 2.3205909729 47.560497284 107.39015198 102.61088562 2.0500030518 32.986076355 2.9779999256  -999.250000
 3307.5102539  -999.250000 14.595999718  -999.250000  -999.250000 2.3171992302 45.377670288 108.11029816 103.22946930 2.0520031452 32.745765686 3.0000000000  -999.250000
 3307.6625977  -999.250000 14.595999718  -999.250000  -999.250000 2.3142294884 44.652339935 108.80942535 103.76377869 2.0529999733 32.502998352 3.0599999428  -999.250000
 3307.8149414  -999.250000 14.586000443  -999.250000  -999.250000 2.3121597767 44.862720490 108.93733978 104.12956238 2.0529999733 31.269863129 3.1489999294  -999.250000
 3307.9672852  -999.250000 14.574001312  -999.250000  -999.250000 2.3109583855 44.688346863 109.06015778 104.34912109 2.0529999733 30.131250381 3.2820000648  -999.250000
 3308.1198730  -999.250000 14.564001083  -999.250000  -999.250000 2.3096830845 43.654548645 109.52410889 104.58862305 2.0530030727 29.851314545 3.6329998970  -999.250000
 3308.2722168  -999.250000 14.557001114  -999.250000  -999.250000 2.3092067242 42.268173218 109.52410889 104.67963409 2.0540046692 30.608966827 3.9349999428  -999.250000
 3308.4245605  -999.250000 14.550998688  -999.250000  -999.250000 2.3093261719 42.376277924 109.54231262 104.65382385 2.0570304394 31.807020187 3.6700000763  -999.250000
 3308.5769043  -999.250000 14.538000107  -999.250000  -999.250000 2.3069915771 43.172962189 110.09452820 105.08737183 2.0760319233 31.850965500 3.2579998970  -999.250000
 3308.7294922  -999.250000 14.510999680  -999.250000  -999.250000 2.3005080223 43.774913788 111.00232697 106.29720306 2.0960223675 31.384014130 3.2320001125  -999.250000
 3308.8818359  -999.250000 14.475999832  -999.250000  -999.250000 2.2951548100 44.372482300 112.12804413 107.29904175 2.1030111313 32.337455750 3.3970000744  -999.250000
 3309.0341797  -999.250000 14.442000389  -999.250000  -999.250000 2.2999796867 44.670127869 111.14154053 106.39144897 2.1100094318 33.803737640 3.5710000992  -999.250000
 3309.1865234  -999.250000 14.407999992  -999.250000  -999.250000 2.3110985756 43.502807617 109.36891937 104.33191681 2.1160111427 34.125400543 3.7769999504  -999.250000
 3309.3388672  -999.250000 14.376000404  -999.250000  -999.250000 2.3171770573 42.758613586 108.07073212 103.22800446 2.1230111122 33.266216278 3.5179998875  -999.250000
 3309.4914551  -999.250000 14.347000122  -999.250000  -999.250000 2.3194527626 42.516708374 107.62292480 102.80799103 2.1300256252 31.851308823 3.4210000038  -999.250000
 3309.6437988  -999.250000 14.324000359  -999.250000  -999.250000 2.3178780079 41.802402496 108.11461639 103.09787750 2.1380128860 30.729394913 3.6319999695  -999.250000
 3309.7961426  -999.250000 14.302000046  -999.250000  -999.250000 2.3114228249 42.056468964 108.95344543 104.27172852 2.1460127831 30.093902588 3.6289999485  -999.250000
 3309.9484863  -999.250000 14.281001091  -999.250000  -999.250000 2.3092641830 42.972915649 109.51642609 104.67452240 2.1540112495 30.054054260 3.6250000000  -999.250000
 3310.1010742  -999.250000 14.260998726  -999.250000  -999.250000 2.3112032413 44.168632507 109.27633667 104.31496429 2.1610319614 31.195734024 3.4500000477  -999.250000
 3310.2534180  -999.250000 14.243000031  -999.250000  -999.250000 2.3112294674 44.988300323 109.06092072 104.30091858 2.1710495949 31.909505844 3.3059999943  -999.250000
 3310.4057617  -999.250000 14.223999977  -999.250000  -999.250000 2.3090353012 45.175704956 109.55838776 104.70265198 2.2020800114 31.460325241 3.3220000267  -999.250000
 3310.5581055  -999.250000 14.218999863  -999.250000  -999.250000 2.3041429520 44.992023468 110.56740570 105.61923981 2.2520849705 31.461360931 3.4010000229  -999.250000
 3310.7106934  -999.250000 14.227999687  -999.250000  -999.250000 2.2994134426 44.380432129 111.26016235 106.49993896 2.3051953316 32.192779541 3.4979999065  -999.250000
 3310.8630371  -999.250000 14.229999542  -999.250000  -999.250000 2.2999782562 43.579566956 111.17749786 106.39565277 2.3661007881 33.089073181 3.7569999695  -999.250000
 3311.0153809  -999.250000 14.222999573  -999.250000  -999.250000 2.3053350449 42.684196472 110.42848969 105.38932800 2.4291024208 33.452304840 4.1710000038  -999.250000
 3311.1677246  -999.250000 14.211999893  -999.250000  -999.250000 2.3122825623 42.184360504 108.83661652 104.11709595 2.4930994511 32.766990662 4.3319997787  -999.250000
 3311.3200684  -999.250000 14.192000389  -999.250000  -999.250000 2.3178737164 43.034152985 107.84094238 103.10129547 2.5551009178 31.473445892 4.1970000267  -999.250000
 3311.4726563  -999.250000 14.166000366  -999.250000  -999.250000 2.3200495243 43.752429962 107.67893982 102.71410370 2.6180994511 30.585588455 4.1770000458  -999.250000
 3311.6250000  -999.250000 14.138999939  -999.250000  -999.250000 2.3185527325 44.021522522 107.84870911 102.97276306 2.6800560951 30.245672226 4.3020000458  -999.250000
 3311.7773438  -999.250000 14.109999657  -999.250000  -999.250000 2.3172235489 44.344028473 107.91008759 103.21705627 2.7149870396 30.914716721 4.3629999161  -999.250000
 3311.9296875  -999.250000 14.085000038  -999.250000  -999.250000 2.3179128170 43.112590790 107.85627747 103.09273529 2.7069616318 31.614231110 4.3480000496  -999.250000
 3312.0822754  -999.250000 14.063000679  -999.250000  -999.250000 2.3182427883 41.608242035 108.14940643 103.03443146 2.6829199791 31.463729858 4.2620000839  -999.250000
 3312.2346191  -999.250000 14.041000366  -999.250000  -999.250000 2.3165159225 41.059669495 108.10222626 103.34041595 2.6579504013 31.006059647 4.1420001984  -999.250000
 3312.3869629  -999.250000 14.018999100  -999.250000  -999.250000 2.3140394688 40.853145599 108.58365631 103.78559875 2.6269454956 30.878391266 4.1199998856  -999.250000
 3312.5393066  -999.250000 14.006999969  -999.250000  -999.250000 2.3122582436 40.942855835 109.10665894 104.11544800 2.5929534435 31.306545258 4.2379999161  -999.250000
 3312.6918945  -999.250000 14.008998871  -999.250000  -999.250000 2.3110134602 40.852115631 109.04479218 104.33798981 2.5639359951 32.218650818 4.2300000191  -999.250000
 3312.8442383  -999.250000 14.015999794  -999.250000  -999.250000 2.3114807606 40.575862885 109.03672791 104.25671387 2.5439710617 33.153934479 4.1180000305  -999.250000
 3312.9965820  -999.250000 14.024999619  -999.250000  -999.250000 2.3138403893 40.491882324 108.79118347 103.82520294 2.5259711742 32.437049866 3.9990000725  -999.250000
 3313.1489258  -999.250000 14.035999298  -999.250000  -999.250000 2.3149583340 41.043067932 108.39856720 103.63137054 2.5079710484 31.200288773 3.8789999485  -999.250000
 3313.3012695  -999.250000 14.048000336  -999.250000  -999.250000 2.3136165142 42.331558228 108.65117645 103.86928558 2.4899744987 31.007614136 3.8800001144  -999.250000
 3313.4538574  -999.250000 14.060000420  -999.250000  -999.250000 2.3109991550 43.302738190 109.30052948 104.35275269 2.4739758968 31.333799362 4.2059998512  -999.250000
