# LAS format log file from PETREL
# Project units are specified as depth units
#==================================================================
~Version information
VERS.   2.0:
WRAP.   NO:
#==================================================================
~Well
STRT .m      1097.1010742 :
STOP .m      4789.4472656 :
STEP .m     0.00000000 :
NULL .        -999.250000 :
COMP.           : COMPANY
WELL.  30/4-2   : WELL
FLD.            : FIELD
LOC.            : LOCATION
SRVC.           : SERVICE COMPANY
DATE.  2018-09-11 14:48:29   : Log Export Date {yyyy-MM-dd HH:mm:ss}
PROV.           : PROVINCE
UWI.   30/4-2   : UNIQUE WELL ID
API.            : API NUMBER
#==================================================================
~Curve
DEPT .m                   : DEPTH
Lithology_geolink ._      : Lithology_geolink
CALI .in                  : CALI
DRHO .g/cm3               : DRHO
NPHI .m3/m3               : NPHI
RHOB .g/cm3               : RHOB
GR .gAPI                  : GR
DTC .us/ft                : DTC
DTE .us/ft                : DTE
RDEP .ohm.m               : RDEP
SP .mV                    : SP
RSHA .ohm.m               : RSHA
RMED .ohm.m               : RMED
~Parameter
#==================================================================
~Ascii
# ...
 3064.8891602  -999.250000 14.035999298  -999.250000  -999.250000 2.3147344589 59.872001648 108.44195557 103.66024017 1.3789999485 46.935550690 1.9969999790  -999.250000
 3065.0415039  -999.250000 14.043999672  -999.250000  -999.250000 2.3188273907 60.737998962 107.99546051 102.93071747 1.3899999857 46.748966217 2.0399999619  -999.250000
 3065.1940918  -999.250000 14.064000130  -999.250000  -999.250000 2.3258078098 60.173000336 106.52861786 101.68914032 1.3919999599 46.602703094 2.1280000210  -999.250000
 3065.3464355  -999.250000 14.093000412  -999.250000  -999.250000 2.3287048340 58.701000214 106.09906006 101.17655945 1.3830000162 45.614425659 2.1749999523  -999.250000
 3065.4987793  -999.250000 14.103999138  -999.250000  -999.250000 2.3226699829 55.881000519 107.10063934 102.24642944 1.3669999838 45.606628418 2.1549999714  -999.250000
 3065.6511230  -999.250000 14.074999809  -999.250000  -999.250000 2.3099923134 54.590000153 109.41320801 104.53389740 1.3519999981 46.773468018 2.0659999847  -999.250000
 3065.8037109  -999.250000 14.028999329  -999.250000  -999.250000 2.3006191254 56.791999817 111.38861847 106.28234100 1.3400000334 47.600040436 1.9910000563  -999.250000
 3065.9560547  -999.250000 14.008998871  -999.250000  -999.250000 2.2983202934 59.566001892 111.55335999 106.70993805 1.3320000172 47.741264343 2.0050001144  -999.250000
 3066.1083984  -999.250000 14.008000374  -999.250000  -999.250000 2.2989132404 60.027999878 111.33054352 106.58773804 1.3250000477 47.286716461 2.0350000858  -999.250000
 3066.2607422  -999.250000 14.008000374  -999.250000  -999.250000 2.2993302345 58.102001190 111.54737854 106.50865173 1.3179999590 46.515933990 2.0329999924  -999.250000
 3066.4130859  -999.250000 14.008000374  -999.250000  -999.250000 2.3003377914 56.571998596 111.12684631 106.32633209 1.3099999428 46.598163605 1.9960000515  -999.250000
 3066.5656738  -999.250000 14.006999969  -999.250000  -999.250000 2.3047020435 56.083999634 110.55541229 105.51386261 1.3020000458 46.745594025 1.9789999723  -999.250000
 3066.7180176  -999.250000 14.006999969  -999.250000  -999.250000 2.3106346130 55.431999207 109.08673096 104.41708374 1.2949999571 46.014152527 1.9980000257  -999.250000
 3066.8703613  -999.250000 14.005999565  -999.250000  -999.250000 2.3145167828 55.348999023 108.45798492 103.70684052 1.2979999781 45.694190979 1.9700000286  -999.250000
 3067.0227051  -999.250000 14.005999565  -999.250000  -999.250000 2.3149199486 55.519001007 108.53373718 103.62497711 1.3159999847 46.386783600 1.9079999924  -999.250000
 3067.1752930  -999.250000 14.005001068  -999.250000  -999.250000 2.3125572205 54.729000092 108.91751862 104.05488586 1.3370000124 47.047721863 1.8819999695  -999.250000
 3067.3276367  -999.250000 14.005001068  -999.250000  -999.250000 2.3144085407 53.965999603 108.43169403 103.72090149 1.3600000143 46.821819305 1.9880000353  -999.250000
 3067.4799805  -999.250000 14.003999710  -999.250000  -999.250000 2.3204605579 53.449001312 107.71501923 102.62798309 1.3890000582 46.254570007 2.1789999008  -999.250000
 3067.6323242  -999.250000 14.003000259  -999.250000  -999.250000 2.3219950199 53.105998993 107.07051086 102.36229706 1.4179999828 45.686622620 2.3050000668  -999.250000
 3067.7849121  -999.250000 14.003000259  -999.250000  -999.250000 2.3155577183 52.842998505 108.55640411 103.51807404 1.4479999542 45.997192383 2.3420000076  -999.250000
 3067.9372559  -999.250000 14.001998901  -999.250000  -999.250000 2.3085057735 52.382999420 109.60549927 104.81523895 1.4720000029 47.331676483 2.3010001183  -999.250000
 3068.0895996  -999.250000 14.001000404  -999.250000  -999.250000 2.3057763577 51.609001160 110.13602448 105.31450653 1.4910000563 48.216335297 2.2239999771  -999.250000
 3068.2419434  -999.250000 13.996999741  -999.250000  -999.250000 2.3050999641 52.158000946 110.36122894 105.42995453 1.5099999905 48.274192810 2.1619999409  -999.250000
 3068.3942871  -999.250000 13.989000320  -999.250000  -999.250000 2.3051030636 53.993000031 110.18801880 105.42806244 1.5160000324 48.180374146 2.1329998970  -999.250000
 3068.5468750  -999.250000 13.980999947  -999.250000  -999.250000 2.3052067757 54.397998810 110.13603973 105.40812683 1.5080000162 48.123386383 2.1579999924  -999.250000
 3068.6992188  -999.250000 13.972000122  -999.250000  -999.250000 2.3054132462 53.939998627 110.35885620 105.38599396 1.4989999533 47.676761627 2.1860001087  -999.250000
 3068.8515625  -999.250000 13.963000298  -999.250000  -999.250000 2.3058638573 54.205001831 110.12207031 105.29073334 1.4900000095 46.774356842 2.1740000248  -999.250000
 3069.0039063  -999.250000 13.954999924  -999.250000  -999.250000 2.3078184128 54.682998657 109.92652893 104.92821503 1.4769999981 46.030036926 2.1400001049  -999.250000
 3069.1564941  -999.250000 13.946000099  -999.250000  -999.250000 2.3114202023 54.792999268 109.16445923 104.27304840 1.4600000381 45.718715668 2.0910000801  -999.250000
 3069.3088379  -999.250000 13.937999725  -999.250000  -999.250000 2.3117611408 54.573001862 108.98780823 104.21804810 1.4429999590 45.848278046 2.0629999638  -999.250000
 3069.4611816  -999.250000 13.928999901  -999.250000  -999.250000 2.3045740128 55.001998901 110.59462738 105.54392242 1.4249999523 46.262042999 2.0610001087  -999.250000
 3069.6135254  -999.250000 13.918999672  -999.250000  -999.250000 2.2949564457 55.643001556 112.08686066 107.34523773 1.4079999924 46.720211029 2.0769999027  -999.250000
 3069.7661133  -999.250000 13.907999992  -999.250000  -999.250000 2.2875630856 54.993000031 113.54327393 108.74871063 1.3890000582 47.273113251 2.1110000610  -999.250000
 3069.9184570  -999.250000 13.896000862  -999.250000  -999.250000 2.2866413593 53.408000946 113.91814423 108.92875671 1.3700000048 47.878707886 2.0739998817  -999.250000
 3070.0708008  -999.250000 13.883999825  -999.250000  -999.250000 2.2907974720 52.867000580 112.97668457 108.13351440 1.3609999418 47.957939148 2.0069999695  -999.250000
 3070.2231445  -999.250000 13.871000290  -999.250000  -999.250000 2.2936930656 52.583999634 112.44695282 107.58155060 1.3710000515 47.450256348 2.0260000229  -999.250000
 3070.3754883  -999.250000 13.859000206  -999.250000  -999.250000 2.2966122627 51.916999817 112.06558228 107.02999115 1.3919999599 46.902214050 2.1150000095  -999.250000
 3070.5280762  -999.250000 13.847000122  -999.250000  -999.250000 2.3000571728 52.075000763 111.08360291 106.37014771 1.4129999876 46.565067291 2.2390000820  -999.250000
 3070.6804199  -999.250000 13.837999344  -999.250000  -999.250000 2.3017001152 52.508998871 111.07556152 106.07293701 1.4340000153 46.337932587 2.3699998856  -999.250000
 3070.8327637  -999.250000 13.833999634  -999.250000  -999.250000 2.3016967773 52.289001465 110.84674072 106.07451630 1.4539999962 46.055191040 2.5160000324  -999.250000
 3070.9851074  -999.250000 13.831999779  -999.250000  -999.250000 2.3016030788 51.005001068 110.91130829 106.08619690 1.4700000286 45.821334839 2.6310000420  -999.250000
 3071.1376953  -999.250000 13.831001282  -999.250000  -999.250000 2.3016765118 50.676998138 111.08360291 106.07562256 1.4819999933 45.732444763 2.6760001183  -999.250000
 3071.2900391  -999.250000 13.829000473  -999.250000  -999.250000 2.3009328842 51.437999725 111.09164429 106.21525574 1.4939999580 45.738140106 2.6689999104  -999.250000
 3071.4423828  -999.250000 13.827999115  -999.250000  -999.250000 2.2989091873 51.737998962 111.34658051 106.59023285 1.5099999905 45.758224487 2.6180000305  -999.250000
 3071.5947266  -999.250000 13.826000214  -999.250000  -999.250000 2.2962164879 51.880001068 112.04863739 107.09895325 1.5299999714 45.778324127 2.5629999638  -999.250000
 3071.7473145  -999.250000 13.824998856  -999.250000  -999.250000 2.2936427593 52.145000458 112.35874939 107.58885193 1.5490000248 45.891853333 2.5629999638  -999.250000
 3071.8996582  -999.250000 13.822999954  -999.250000  -999.250000 2.2919967175 52.610000610 112.98665619 107.90656281 1.5629999638 46.205394745 2.6059999466  -999.250000
 3072.0520020  -999.250000 13.821001053  -999.250000  -999.250000 2.2919268608 52.780998230 112.74581146 107.90910339 1.5720000267 46.644958496 2.6470000744  -999.250000
