# LAS format log file from PETREL
# Project units are specified as depth units
#==================================================================
~Version information
VERS.   2.0:
WRAP.   NO:
#==================================================================
~Well
STRT .m      1097.1010742 :
STOP .m      4789.4472656 :
STEP .m     0.00000000 :
NULL .        -999.250000 :
COMP.           : COMPANY
WELL.  30/4-2   : WELL
FLD.            : FIELD
LOC.            : LOCATION
SRVC.           : SERVICE COMPANY
DATE.  2018-09-11 14:48:29   : Log Export Date {yyyy-MM-dd HH:mm:ss}
PROV.           : PROVINCE
UWI.   30/4-2   : UNIQUE WELL ID
API.            : API NUMBER
#==================================================================
~Curve
DEPT .m                   : DEPTH
Lithology_geolink ._      : Lithology_geolink
CALI .in                  : CALI
DRHO .g/cm3               : DRHO
NPHI .m3/m3               : NPHI
RHOB .g/cm3               : RHOB
GR .gAPI                  : GR
DTC .us/ft                : DTC
DTE .us/ft                : DTE
RDEP .ohm.m               : RDEP
SP .mV                    : SP
RSHA .ohm.m               : RSHA
RMED .ohm.m               : RMED
~Parameter
#==================================================================
~Ascii
# ...
 4293.8427734 6.0000000000 6.1560001373 -0.001000000 0.2225300074 2.5055656433 82.711997986 89.313827515 86.475967407 2.9609999657 29.675548553 3.1700000763 4.0910000801
 4293.9951172 6.0000000000 6.1680002213 -0.006000000 0.2327700108 2.4883127213 85.307998657 89.777008057 86.790031433 2.9519999027 29.101985931 3.4489998817 4.0859999657
 4294.1474609 6.0000000000 6.1939997673 -0.012000000 0.2406800091 2.4920151234 85.706001282 89.793876648 87.038436890 2.9430000782 29.177204132 3.3659999371 4.0650000572
 4294.2998047 6.0000000000 6.2179999352 -0.011000000 0.2387700081 2.5087461472 83.364997864 90.270706177 87.462493896 2.9379999638 30.029150009 3.4590001106 4.0450000763
 4294.4521484 6.0000000000 6.2179999352 -0.007000000 0.2206800133 2.5038852692 83.316001892 90.693977356 87.807655334 2.9379999638 29.838741302 3.5429999828 4.0250000954
 4294.6044922 6.0000000000 6.2069993019 -0.004000000 0.2196800113 2.4967205524 86.457000732 90.969505310 88.019989014 2.9379999638 29.018987656 3.5629999638 4.0050001144
 4294.7568359 6.0000000000 6.1879997253 -0.013000000 0.2120900005 2.4768283367 90.582000732 90.729408264 87.906616211 2.9370000362 28.022455215 3.4049999714 3.9849998951
 4294.9091797 6.0000000000 6.1750001907 -0.017000001 0.2211800069 2.4962263107 92.532997131 90.504791260 87.867828369 2.9370000362 27.450403214 3.4019999504 3.9639999866
 4295.0620117 6.0000000000 6.1690001488 -0.022000000 0.2151100039 2.5101258755 91.845001221 90.728637695 87.857925415 2.9370000362 27.727060318 3.4660000801 3.9440000057
 4295.2143555 6.0000000000 6.1630001068 -0.008000000 0.2242499888 2.5380342007 90.382003784 90.488632202 87.551918030 2.9370000362 28.496009827 3.5299999714 4.0089998245
 4295.3666992 6.0000000000 6.1570000648 -0.009000000 0.2210199982 2.5336022377 89.873001099 90.248542786 87.467483521 2.9460000992 29.186088562 3.5739998817 4.0890002251
 4295.5190430 6.0000000000 6.1620001793 -0.004000000 0.2296699882 2.5355777740 89.421997070 90.023643494 87.320541382 2.9590001106 29.073682785 3.7590000629 4.1189999580
 4295.6713867 6.0000000000 6.1669998169 -0.010000000 0.2331399918 2.5124359131 88.224998474 90.215423584 87.437995911 2.9289999008 28.331476212 3.8139998913 4.1069998741
 4295.8237305 6.0000000000 6.1729998589 -0.009000000 0.2489699870 2.4950025082 86.596000671 90.491050720 87.630500793 2.8789999485 28.334918976 3.4849998951 4.0939998627
 4295.9760742 6.0000000000 6.1779994965 -0.010000000 0.2479100078 2.4833974838 85.977996826 90.314346313 87.530075073 2.7999999523 29.105066299 3.3800001144 4.0700001717
 4296.1284180 6.0000000000 6.1829996109 -0.007000000 0.2427800000 2.4959096909 85.986999512 90.527877808 87.897819519 2.7200000286 29.883571625 3.4170000553 4.0289998055
 4296.2807617 6.0000000000 6.1879997253 -0.014000000 0.2432599962 2.5123448372 88.275001526 91.495773315 88.663276672 2.6410000324 30.110498428 3.3729999065 3.8090000153
 4296.4335938 6.0000000000 6.1939997673 -0.008000000 0.2416099906 2.5447778702 90.373001099 92.691352844 89.820655823 2.5639998913 28.923276901 2.8399999142 3.4769999981
 4296.5859375 6.0000000000 6.2020001411 -0.003000000 0.2515900135 2.5690748692 91.841003418 93.643089294 90.801094055 2.4939999580 28.063667297 2.6329998970 3.2929999828
 4296.7382813 6.0000000000 6.2109999657 0.0040000002 0.2539899945 2.5760869980 93.856002808 94.363113403 91.771446228 2.4249999523 27.853122711 2.7669999599 3.1600000858
 4296.8906250 6.0000000000 6.2210001945 0.0010000000 0.2629700005 2.5615448952 97.035003662 95.063537598 92.205825806 2.3880000114 28.332054138 2.7650001049 3.0729999542
 4297.0429688 6.0000000000 6.2300000191 0.0020000001 0.2537800074 2.5482969284 99.741996765 95.223243713 92.259574890 2.3550000191 29.025199890 2.6570000648 3.0840001106
 4297.1953125 6.0000000000 6.2339997292 0.0140000004 0.2442099899 2.5631492138 100.00000000 94.970642090 92.009323120 2.3310000896 29.679168701 2.7400000095 3.0950000286
 4297.3476563 6.0000000000 6.2339997292 0.0000000000 0.2460300028 2.5586769581 99.071998596 94.299331665 91.370864868 2.3310000896 29.714218140 2.7909998894 3.1940000057
 4297.5000000 6.0000000000 6.2339997292 -0.001000000 0.2546600103 2.5607917309 96.969001770 93.129913330 90.393821716 2.3329999447 29.271921158 2.8659999371 3.3199999332
 4297.6523438 6.0000000000 6.2339997292 -0.003000000 0.2593399882 2.5546154976 95.132003784 92.897598267 90.100975037 2.3529999256 28.828887939 2.9570000172 3.4100000858
 4297.8051758 6.0000000000 6.2339997292 0.0000000000 0.2616399825 2.5580542088 93.746002197 92.906059265 90.087699890 2.3729999065 28.682367325 3.0769999027 3.4479999542
 4297.9575195 6.0000000000 6.2329998016 -0.004000000 0.2583700120 2.5568950176 93.413002014 93.146064758 90.254508972 2.3559999466 29.236343384 2.9049999714 3.4600000381
 4298.1098633 6.0000000000 6.2350001335 -0.005000000 0.2566899955 2.5592751503 95.167999268 93.405151367 90.646621704 2.3389999866 30.095491409 2.8889999390 3.3970000744
 4298.2622070 6.0000000000 6.2369999886 -0.010000000 0.2569800019 2.5531513691 97.250999451 94.180435181 91.276344299 2.3299999237 30.594894409 2.8849999905 3.2780001163
 4298.4145508 6.0000000000 6.2399997711 -0.001000000 0.2524099946 2.5551581383 97.886001587 94.754402161 91.790443420 2.3299999237 30.760290146 2.9000000954 3.1610000134
 4298.5668945 6.0000000000 6.2430000305 0.0089999996 0.2580499947 2.5695128441 96.660003662 94.810211182 92.035591125 2.3289999962 30.627702713 2.7750000954 3.0799999237
 4298.7192383 6.0000000000 6.2449998856 0.0170000009 0.2562199831 2.5847084522 96.135002136 94.585594177 91.922309875 2.3289999962 30.124473572 2.7330000401 3.1270000935
 4298.8715820 6.0000000000 6.2480001450 -0.007000000 0.2610400021 2.5747399330 98.969001770 94.810211182 91.880851746 2.3710000515 29.553268433 2.8329999447 3.1440000534
 4299.0244141 6.0000000000 6.2509999275 -0.018999999 0.2554999888 2.5390231609 101.57299805 94.552513123 91.771118164 2.4300000668 29.168594360 2.8269999027 3.1719999313
 4299.1767578 6.0000000000 6.2540001869 -0.017000001 0.2421699911 2.5205564499 99.111999512 93.832313538 90.845909119 2.4890000820 29.704242706 2.7130000591 3.2260000706
 4299.3291016 6.0000000000 6.2569999695 -0.011000000 0.2303899974 2.5219628811 90.069999695 93.070114136 90.234367371 2.5480000973 30.199508667 2.8239998817 3.3840000629
 4299.4814453 6.0000000000 6.2600002289 -0.013000000 0.2202300131 2.5181422234 83.387001038 91.161788940 88.406929016 2.6500000954 29.972434998 2.8699998856 3.6099998951
 4299.6337891 6.0000000000 6.2639999390 -0.017000001 0.2168000042 2.5160923004 80.682998657 89.459075928 86.689796448 2.7569999695 29.199096680 3.0230000019 3.8800001144
 4299.7861328 6.0000000000 6.2670001984 -0.025000000 0.2170199901 2.5072808266 80.530998230 88.553619385 85.669784546 2.8629999161 28.366754532 3.4419999123 4.1490001678
 4299.9384766 6.0000000000 6.2709999084 -0.012000000 0.2177700102 2.5221846104 80.528999329 87.841209412 84.870170593 2.9419999123 28.046421051 3.4030001163 4.2699999809
 4300.0908203 6.0000000000 6.2849998474 -0.007000000 0.2180100083 2.5344409943 80.528999329 87.384193420 84.718452454 3.0060000420 28.526626587 3.4449999332 4.3420000076
 4300.2431641 6.0000000000 6.3020000458 0.0049999999 0.2189899981 2.5541269779 81.694000244 87.624198914 84.725227356 3.0550000668 29.261028290 3.7090001106 4.3880000114
 4300.3959961 6.0000000000 6.3109993935 0.0049999999 0.2198500037 2.5640633106 83.593002319 87.883605957 84.906227112 3.0899999142 29.488168716 3.6270000935 4.3350000381
 4300.5483398 6.0000000000 6.3109993935 0.0070000002 0.2200900018 2.5655002594 84.733001709 88.629440308 85.719169617 3.0829999447 29.882574081 3.5269999504 4.2810001373
 4300.7006836 6.0000000000 6.3109993935 -0.001000000 0.2178199887 2.5569241047 84.720001221 88.833671570 86.230361938 3.0669999123 30.904474258 3.3829998970 4.2249999046
 4300.8530273 6.0000000000 6.3020000458 -0.009000000 0.2153699994 2.5463981628 84.722000122 89.295364380 86.311378479 3.0520000458 31.608467102 3.3989999294 4.1700000763
 4301.0053711 6.0000000000 6.2859997749 -0.011000000 0.2254800051 2.5399858952 85.487998962 89.250534058 86.310684204 3.0399999619 30.973819733 3.4500000477 4.1550002098
