# LAS format log file from PETREL
# Project units are specified as depth units
#==================================================================
~Version information
VERS.   2.0:
WRAP.   NO:
#==================================================================
~Well
STRT .m      1097.1010742 :
STOP .m      4789.4472656 :
STEP .m     0.00000000 :
NULL .        -999.250000 :
COMP.           : COMPANY
WELL.  30/4-2   : WELL
FLD.            : FIELD
LOC.            : LOCATION
SRVC.           : SERVICE COMPANY
DATE.  2018-09-11 14:48:29   : Log Export Date {yyyy-MM-dd HH:mm:ss}
PROV.           : PROVINCE
UWI.   30/4-2   : UNIQUE WELL ID
API.            : API NUMBER
#==================================================================
~Curve
DEPT .m                   : DEPTH
Lithology_geolink ._      : Lithology_geolink
CALI .in                  : CALI
DRHO .g/cm3               : DRHO
NPHI .m3/m3               : NPHI
RHOB .g/cm3               : RHOB
GR .gAPI                  : GR
DTC .us/ft                : DTC
DTE .us/ft                : DTE
RDEP .ohm.m               : RDEP
SP .mV                    : SP
RSHA .ohm.m               : RSHA
RMED .ohm.m               : RMED
~Parameter
#==================================================================
~Ascii
# ...
 3803.7243652 5.0000000000 8.3100004196 -0.026000001 0.2345200032 2.2376050949 46.461112976 117.89779663 108.03524017 16.291458130 12.140908241 7.3379998207 21.391336441
 3803.8767090 5.0000000000 8.3229999542 -0.025000000 0.2276400030 2.2320897579 44.657176971 118.88503265 108.76103210 17.200778961 12.343254089 8.3409996033 23.472057343
 3804.0292969 3.0000000000 8.3389997482 -0.026000001 0.2305600047 2.2353992462 41.017566681 117.77525330 107.88365173 18.314592361 12.635313034 10.041999817 24.752761841
 3804.1816406 3.0000000000 8.3559999466 -0.025000000 0.2431599945 2.2534143925 37.140834808 115.17911530 105.36371613 19.747888565 12.891416550 10.038000107 24.364439011
 3804.3339844 3.0000000000 8.3719997406 -0.022000000 0.2565599978 2.2773182392 34.544605255 112.34147644 102.33127594 21.549882889 12.973192215 7.6880002022 22.765768051
 3804.4863281 3.0000000000 8.3819999695 -0.017999999 0.2559100091 2.2921900749 33.675498962 110.65698242 100.74021912 23.346973419 12.882159233 6.5130000114 21.375152588
 3804.6386719 3.0000000000 8.3859996796 -0.017999999 0.2468100041 2.2916209698 33.989814758 110.53474426 100.73942566 24.578058243 12.726140022 6.8639998436 20.847934723
 3804.7912598 3.0000000000 8.3859996796 -0.023000000 0.2401800007 2.2831730843 35.124893188 110.15203857 100.08914948 25.239648819 12.545770645 6.6770000458 20.808572769
 3804.9436035 3.0000000000 8.3859996796 -0.026000001 0.2379700094 2.2829821110 36.650142670 107.41349030 97.490547180 25.754592896 12.330524445 6.5809998512 20.987815857
 3805.0959473 3.0000000000 8.3870000839 -0.023000000 0.2343399972 2.3005971909 37.362239838 103.69177246 93.894050598 26.750505447 12.001286507 6.9510002136 21.497705460
 3805.2482910 3.0000000000 8.3870000839 -0.014000000 0.2206299901 2.3271565437 36.262607574 101.32192993 91.220062256 28.939260483 11.393898964 7.1550002098 22.562583923
 3805.4008789 3.0000000000 8.3870000839 -0.005000000 0.2022999972 2.3503062725 34.143974304 99.655036926 89.852790833 32.227993011 10.420022011 7.5960001945 24.177915573
 3805.5532227 3.0000000000 8.3870000839 -0.002000000 0.1840500087 2.3589789867 32.263584137 98.397140503 88.576087952 35.969993591 9.2232675552 8.9300003052 25.710626602
 3805.7055664 3.0000000000 8.3870000839 -0.007000000 0.1778099984 2.3550832272 30.757867813 97.772743225 87.709564209 39.708576202 8.2090406418 9.3430004120 26.725427628
 3805.8579102 3.0000000000 8.3750000000 -0.014000000 0.1766300052 2.3425903320 29.428501129 97.541099548 87.664581299 43.188316345 7.6278591156 7.9419999123 27.616182327
 3806.0104980 3.0000000000 8.3369998932 -0.018999999 0.1820099950 2.3263990879 29.119026184 97.573364258 87.835700989 46.512416840 7.1648092270 8.3760004044 28.981422424
 3806.1628418 3.0000000000 8.3020000458 -0.018999999 0.1915300041 2.3023533821 29.750022888 98.561691284 88.493484497 49.763023376 6.3643999100 9.8839998245 30.985502243
 3806.3151855 3.0000000000 8.2939996719 -0.017000001 0.2039200068 2.2712516785 29.763038635 100.47045898 90.689277649 52.896640778 5.0059595108 9.3070001602 33.170166016
 3806.4675293 3.0000000000 8.2989997864 -0.015000000 0.2124399990 2.2403371334 29.163900375 104.38986206 94.444557190 55.792846680 3.5471370220 8.1040000916 35.145694733
 3806.6198730 3.0000000000 8.3039999008 -0.013000000 0.2146400064 2.2168223858 29.102870941 108.66526031 98.533607483 57.565429688 2.6528718472 7.8810000420 36.825988770
 3806.7724609 3.0000000000 8.3079996109 -0.013000000 0.2133200020 2.2022619247 29.647977829 111.74552155 101.83084869 57.201923370 2.2714622021 7.9660000801 38.066375732
 3806.9248047 3.0000000000 8.3090000153 -0.016000001 0.2097999901 2.1984446049 30.264778137 113.62062073 103.88846588 55.305728912 1.9248551130 7.8369998932 38.807518005
 3807.0771484 3.0000000000 8.3090000153 -0.018999999 0.2050999999 2.2027478218 30.750677109 114.21709442 104.02690125 53.267414093 1.2338150740 8.0290002823 39.130912781
 3807.2294922 3.0000000000 8.3090000153 -0.021000000 0.1996299922 2.2071123123 31.173978806 112.91220856 103.06256104 51.652973175 0.3940503299 9.1140003204 39.075607300
 3807.3820801 3.0000000000 8.3100004196 -0.023000000 0.1946999878 2.2107152939 31.784595490 112.13407135 102.39551544 49.758934021 -0.151403204 10.397000313 38.831180573
 3807.5344238 3.0000000000 8.3100004196 -0.023000000 0.1917999983 2.2173848152 31.969213486 111.35076904 101.37782288 46.928661346 -0.291344017 10.336999893 39.200401306
 3807.6867676 3.0000000000 8.3109998703 -0.022000000 0.1872299910 2.2320528030 31.478889465 110.42848969 100.69316864 43.600002289 -0.216003522 9.5679998398 40.698383331
 3807.8391113 3.0000000000 8.3129997253 -0.022000000 0.1780499965 2.2544596195 30.786523819 108.81141663 98.998733521 40.482830048 -0.502322793 9.6899995804 42.182739258
 3807.9916992 3.0000000000 8.3159999847 -0.022000000 0.1763200015 2.2779619694 30.492847443 107.05440521 97.021644592 37.878013611 -1.122710586 10.534999847 42.014209747
 3808.1440430 3.0000000000 8.3190002441 -0.022000000 0.1872299910 2.2942953110 31.382011414 106.91783905 97.130355835 35.699253082 -1.728337646 8.9020004272 40.205947876
 3808.2963867 3.0000000000 8.3229999542 -0.020000000 0.1974200010 2.2997858524 32.636226654 107.80678558 97.849555969 33.987159729 -2.410438299 7.6539998055 37.678634644
 3808.4487305 3.0000000000 8.3260002136 -0.017999999 0.2071800083 2.2962563038 32.773883820 108.59613037 98.699607849 33.466114044 -3.130224705 8.2259998322 34.955089569
 3808.6010742 3.0000000000 8.3299999237 -0.016000001 0.2169400007 2.2887301445 31.452163696 109.52410889 99.569549561 34.786430359 -3.945275068 7.0419998169 32.515316010
 3808.7536621 3.0000000000 8.3330001831 -0.015000000 0.2220899910 2.2839164734 29.053794861 109.37656403 99.601287842 37.555770874 -4.539806366 6.5929999352 30.847560883
 3808.9060059 3.0000000000 8.3369998932 -0.016000001 0.2113500088 2.2941308022 26.494516373 104.85191345 95.056838989 40.915824890 -4.524084091 6.4809999466 32.612895966
 3809.0583496 3.0000000000 8.3409996033 -0.017000001 0.1797900051 2.3284649849 24.322315216 96.300659180 86.323852539 43.926872253 -4.231885433 6.7670001984 53.211719513
 3809.2106934 16.000000000 8.3450002670 -0.014000000 0.1424800009 2.3836033344 22.647762299 88.063812256 78.124420166 46.348030090 -4.065175056 43.893001556 119.22965240
 3809.3632813 3.0000000000 8.3479995728 -0.007000000 0.1215400025 2.4289526939 21.879362106 84.241180420 74.387695313 51.389640808 -4.115501404 81.152000427 215.08030701
 3809.5156250 3.0000000000 8.3479995728 0.0010000000 0.1246899962 2.4255435467 22.931133270 88.026847839 77.956893921 63.462818146 -4.450894356 53.097000122 253.08512878
 3809.6679688 3.0000000000 8.3420000076 0.0020000001 0.1463900059 2.3633112907 25.508453369 97.369804382 87.583129883 86.463638306 -5.180398464 19.888000488 194.47763062
 3809.8203125 3.0000000000 8.3400001526 -0.006000000 0.1688899994 2.2698564529 27.036304474 108.75872040 98.975593567 124.93800354 -6.274941444 14.668000221 114.43464661
 3809.9729004 3.0000000000 8.3520002365 -0.015000000 0.1718700081 2.2184419632 26.601154327 112.30641937 102.27275085 171.76107788 -7.649947166 12.821999550 74.337608337
 3810.1252441 3.0000000000 8.3739995956 -0.020000000 0.1500000060 2.2576742172 26.340187073 102.26604462 92.498779297 200.75869751 -9.169808388 14.237000465 73.438621521
 3810.2775879 3.0000000000 8.3959999084 -0.020000000 0.1181400046 2.3643186092 27.706525803 88.259193420 78.356910706 202.44114685 -10.60244751 44.797000885 173.49908447
 3810.4299316 3.0000000000 8.4130001068 -0.016000001 0.0880099982 2.4826819897 29.906631470 76.073448181 66.055435181 200.10441589 -11.67049885 288.33999634 559.03417969
 3810.5822754 3.0000000000 8.4230003357 -0.011000000 0.0684299991 2.5680429935 31.546865463 68.138404846 58.270713806 245.51991272 -12.16237164 453.40701294 1238.5098877
 3810.7348633 3.0000000000 8.4280004501 -0.006000000 0.0635600016 2.6086974144 32.086013794 66.553512573 56.765121460 432.08111572 -12.30503941 329.05099487 1809.1787109
 3810.8872070 3.0000000000 8.4289999008 -0.003000000 0.0648199990 2.6110153198 31.467924118 68.354873657 58.239658356 845.98663330 -12.64728642 281.97399902 2023.3264160
