# LAS format log file from PETREL
# Project units are specified as depth units
#==================================================================
~Version information
VERS.   2.0:
WRAP.   NO:
#==================================================================
~Well
STRT .m      1097.1010742 :
STOP .m      4789.4472656 :
STEP .m     0.00000000 :
NULL .        -999.250000 :
COMP.           : COMPANY
WELL.  30/4-2   : WELL
FLD.            : FIELD
LOC.            : LOCATION
SRVC.           : SERVICE COMPANY
DATE.  2018-09-11 14:48:29   : Log Export Date {yyyy-MM-dd HH:mm:ss}
PROV.           : PROVINCE
UWI.   30/4-2   : UNIQUE WELL ID
API.            : API NUMBER
#==================================================================
~Curve
DEPT .m                   : DEPTH
Lithology_geolink ._      : Lithology_geolink
CALI .in                  : CALI
DRHO .g/cm3               : DRHO
NPHI .m3/m3               : NPHI
RHOB .g/cm3               : RHOB
GR .gAPI                  : GR
DTC .us/ft                : DTC
DTE .us/ft                : DTE
RDEP .ohm.m               : RDEP
SP .mV                    : SP
RSHA .ohm.m               : RSHA
RMED .ohm.m               : RMED
~Parameter
#==================================================================
~Ascii
# ...
 1345.8177490  -999.250000 18.638999939 0.0040120194 0.3682754338 2.1381418705 19.621969223 112.14907074 123.09246063 0.7819927931 28.963443756 1.2120000124 0.6670336723
 1345.9702148  -999.250000 18.652000427 0.0000160128 0.3701624572 2.1536967754 20.443737030 110.18696594 120.89118195 0.7789903879 29.473159790 1.1950000525 0.6810095906
 1346.1225586  -999.250000 18.663000107 -0.001991987 0.3606881201 2.1536760330 21.917650223 110.12842560 120.81375885 0.7759872079 29.723642349 1.1260000467 0.6839359403
 1346.2750244  -999.250000 18.676000595 0.0029839743 0.3485987186 2.1554763317 22.114620209 110.90500641 121.60116577 0.7719871998 29.063514709 1.0909999609 0.6639390588
 1346.4273682  -999.250000 18.676000595 0.0030000000 0.3452333808 2.1459662914 20.441499710 111.79367828 122.69936371 0.7679839730 28.677989960 1.1109999418 0.6449455619
 1346.5798340  -999.250000 18.635000229 0.0039967950 0.3601818979 2.1334762573 20.599246979 113.33580017 124.42033386 0.7629871964 28.589262009 1.0509999990 0.6279455423
 1346.7321777  -999.250000 18.590999603 0.0049959966 0.3751798868 2.1241142750 21.299047470 114.63114166 125.86344910 0.7589871883 30.116052628 1.0440000296 0.6109455824
 1346.8845215  -999.250000 18.545999527 0.0059959935 0.3902097642 2.1159789562 21.624784470 115.44121552 126.62273407 0.7549879551 31.511240005 1.0859999657 0.5940120220
 1347.0369873  -999.250000 18.497999191 0.0030120097 0.4051700830 2.1123588085 21.533885956 115.54090118 126.78565979 0.7499775887 30.756046295 1.1080000401 0.5990319848
 1347.1893311  -999.250000 18.448999405 -0.002975962 0.4192734957 2.1082150936 21.186445236 115.08449554 126.31076050 0.7429783344 29.567459106 1.0369999409 0.6090240479
 1347.3417969  -999.250000 18.400999069 -0.008975981 0.4331046343 2.1028208733 20.953010559 114.44928741 125.66444397 0.7339743972 28.642761230 1.0839999914 0.6190224290
 1347.4941406  -999.250000 18.351999283 -0.013979969 0.4460182488 2.1004080772 20.022880554 114.27548981 125.36640930 0.7259927988 27.900049210 1.0950000286 0.6260144114
 1347.6466064  -999.250000 18.304000854 -0.013004003 0.4490978420 2.0950136185 19.973890305 114.35157776 125.38898468 0.7230063677 29.272436142 1.1100000143 0.6319968104
 1347.7989502  -999.250000 18.256000519 -0.004036058 0.4504645467 2.0985164642 20.251670837 114.01814270 125.06315613 0.7250024080 29.088056564 1.0880000591 0.6309807301
 1347.9514160  -999.250000 18.212999344 0.0029719777 0.4513265491 2.1077892780 20.530895233 114.40590668 125.66271973 0.7260032296 28.230276108 1.0670000315 0.6229904294
 1348.1037598  -999.250000 18.218000412 -0.001979968 0.4490591288 2.1128728390 20.809890747 115.58948517 126.80685425 0.7270032167 30.314508438 1.0360000134 0.6200096011
 1348.2562256  -999.250000 18.222999573 -0.008977564 0.4519008398 2.1062242985 21.086416245 115.75708771 126.96096802 0.7280032039 31.703235626 0.9950000048 0.6230160594
 1348.4085693  -999.250000 18.229000092 -0.011987991 0.4419301152 2.0987272263 20.901737213 115.42171478 126.73536682 0.7290031910 31.888813019 1.0260000229 0.6280160546
 1348.5610352  -999.250000 18.214000702 -0.007016026 0.4266788960 2.1055443287 19.882743835 114.96582031 126.14688110 0.7300224304 30.102577209 1.1380000114 0.6330160499
 1348.7133789  -999.250000 18.177000046 -0.010983987 0.4187715948 2.1180138588 18.870225906 114.34336853 125.38110352 0.7370319963 29.013862610 1.1399999857 0.6380063891
 1348.8657227  -999.250000 18.138999939 -0.017971955 0.4248753488 2.1184237003 18.943517685 113.77161407 124.82724762 0.7470264435 29.344421387 1.1749999523 0.6399927735
 1349.0181885  -999.250000 18.128000259 -0.012024019 0.4209857285 2.1190278530 20.405574799 113.88786316 124.94630432 0.7580352426 31.457960129 1.0559999943 0.6369872093
 1349.1705322  -999.250000 18.173000336 -0.002040064 0.4278523028 2.1170606613 21.207508087 113.94113159 124.96997070 0.7690264583 31.274726868 1.0529999733 0.6330120564
 1349.3229980  -999.250000 18.218000412 -0.002995997 0.4371029437 2.1187927723 21.417877197 114.68797302 125.80393219 0.7800256014 31.514375687 1.1250000000 0.6380576491
 1349.4753418  -999.250000 18.261999130 -0.009971955 0.4321700037 2.1188018322 21.376546860 114.48166656 125.67435455 0.7880144119 29.810070038 1.1260000467 0.6560456753
 1349.6278076  -999.250000 18.306999207 -0.007012010 0.4313133657 2.1249752045 19.943788528 113.61555481 124.71269226 0.7940160632 29.484758377 1.1799999475 0.6750128269
 1349.7801514  -999.250000 18.344999313 -0.003016026 0.4361007214 2.1358263493 19.879005432 112.65827942 123.59205627 0.7990120649 30.769163132 1.1740000248 0.6790000200
 1349.9326172  -999.250000 18.372999191 0.0009839872 0.4330622852 2.1453101635 20.296607971 111.59749603 122.47190857 0.8040160537 31.688890457 1.1560000181 0.6790000200
 1350.0849609  -999.250000 18.402000427 0.0029919872 0.4266059399 2.1484241486 20.485078812 110.93895721 121.62207031 0.8090120554 32.093647003 1.1649999619 0.6789855957
 1350.2374268  -999.250000 18.430000305 -0.000983987 0.4216299057 2.1491656303 20.101757050 111.04843140 121.93259430 0.8140192628 31.421899796 1.1610000134 0.6729807258
 1350.3897705  -999.250000 18.458999634 -0.001000000 0.4241298735 2.1512444019 19.713798523 111.72495270 122.57219696 0.8200160265 30.665235519 1.1299999952 0.6670095921
 1350.5422363  -999.250000 18.483999252 0.0019903847 0.4247679710 2.1583995819 19.338804245 112.13881683 123.07534790 0.8250160217 30.304203033 1.1150000095 0.6700096130
 1350.6945801  -999.250000 18.503000259 0.0059839874 0.4244413078 2.1668448448 18.968082428 112.42716217 123.31391907 0.8300095797 30.165697098 1.1360000372 0.6730288267
 1350.8469238  -999.250000 18.524999619 0.0099839745 0.4206154048 2.1680698395 19.307884216 111.58097076 122.46105957 0.8330023885 30.460081100 1.1280000210 0.6820240021
 1350.9993896  -999.250000 18.548000336 0.0139839873 0.4046341777 2.1674962044 20.506998062 110.41734314 121.20514679 0.8340063691 31.014072418 1.1399999857 0.6920288205
 1351.1517334  -999.250000 18.549999237 0.0140000004 0.3869807720 2.1758842468 21.127143860 110.09970856 120.72592926 0.8360024095 31.251194000 1.1660000086 0.7010216117
 1351.3041992  -999.250000 18.544000626 0.0120080067 0.3796890378 2.1783790588 20.354940414 110.04594421 120.78385162 0.8370032310 30.343759537 1.1519999504 0.7099936008
 1351.4565430  -999.250000 18.538000107 0.0179759599 0.3708753288 2.1805663109 19.714414597 110.21192932 120.92481232 0.8380048275 29.088655472 1.2300000191 0.7079879642
 1351.6090088  -999.250000 18.535999298 0.0130200163 0.3677125871 2.1793830395 19.888881683 109.93097687 120.63790894 0.8399999738 28.720561981 1.2339999676 0.7029871941
 1351.7613525  -999.250000 18.535999298 0.0070240386 0.3679091632 2.1732192039 20.789630890 109.33523560 119.89193726 0.8399999738 30.586776733 1.2200000286 0.6989904046
 1351.9138184  -999.250000 18.535999298 0.0010240192 0.3694637418 2.1708450317 22.297603607 108.75079346 119.31728363 0.8399999738 31.953716278 1.2230000496 0.6949871778
 1352.0661621  -999.250000 18.537000656 -0.003979968 0.3701771796 2.1691048145 22.486932755 108.52960968 119.12401581 0.8399999738 31.135700226 1.1640000343 0.6909927726
 1352.2186279  -999.250000 18.537000656 -0.002008006 0.3625207841 2.1633794308 23.291086197 108.82178497 119.41617584 0.8400031924 29.806652069 1.0609999895 0.6879872084
 1352.3709717  -999.250000 18.561000824 0.0069639427 0.3554283977 2.1601893902 23.939796448 109.67975616 120.27223969 0.8410000205 28.457630157 1.0659999847 0.6839872003
 1352.5234375  -999.250000 18.591999054 0.0169679504 0.3554697633 2.1659064293 23.873075485 109.64466095 120.35008240 0.8410000205 30.052423477 1.0809999704 0.6799904108
 1352.6757813  -999.250000 18.621999741 0.0269599687 0.3471833169 2.1776614189 22.964317322 110.19410706 120.93093872 0.8410000205 31.483135223 1.0880000591 0.6769903898
 1352.8282471  -999.250000 18.652000427 0.0270000007 0.3406010568 2.1876380444 23.060131073 110.30518341 120.96500397 0.8410000205 31.677602768 1.0959999561 0.6739904284
 1352.9805908  -999.250000 18.653999329 0.0170400329 0.3467252851 2.1827006340 22.166862488 110.23209381 120.99590302 0.8410000205 31.285657883 1.0700000525 0.6709936261
