# LAS format log file from PETREL
# Project units are specified as depth units
#==================================================================
~Version information
VERS.   2.0:
WRAP.   NO:
#==================================================================
~Well
STRT .m      1097.1010742 :
STOP .m      4789.4472656 :
STEP .m     0.00000000 :
NULL .        -999.250000 :
COMP.           : COMPANY
WELL.  30/4-2   : WELL
FLD.            : FIELD
LOC.            : LOCATION
SRVC.           : SERVICE COMPANY
DATE.  2018-09-11 14:48:29   : Log Export Date {yyyy-MM-dd HH:mm:ss}
PROV.           : PROVINCE
UWI.   30/4-2   : UNIQUE WELL ID
API.            : API NUMBER
#==================================================================
~Curve
DEPT .m                   : DEPTH
Lithology_geolink ._      : Lithology_geolink
CALI .in                  : CALI
DRHO .g/cm3               : DRHO
NPHI .m3/m3               : NPHI
RHOB .g/cm3               : RHOB
GR .gAPI                  : GR
DTC .us/ft                : DTC
DTE .us/ft                : DTE
RDEP .ohm.m               : RDEP
SP .mV                    : SP
RSHA .ohm.m               : RSHA
RMED .ohm.m               : RMED
~Parameter
#==================================================================
~Ascii
# ...
 4535.2441406 5.0000000000 5.8520002365 -0.012000000 0.1474599987 2.5300660133 76.875000000 73.344291687 73.394088745 2.2030000687 90.051910400 3.8929998875 2.1080000401
 4535.3964844 5.0000000000 5.8439993858 -0.041000001 0.1977500021 2.4756360054 78.500000000 77.408699036 77.430709839 1.9859999418 89.134338379 3.7249999046 2.3740000725
 4535.5488281 5.0000000000 5.8159999847 -0.078000002 0.2298000008 2.4121110439 69.293998718 81.204544067 81.117561340 1.7979999781 88.839111328 2.3480000496 2.4130001068
 4535.7011719 5.0000000000 5.8199996948 -0.097999997 0.2582399845 2.3755514622 60.597000122 83.325370789 83.217514038 1.6499999762 88.185813904 1.5240000486 2.0929999352
 4535.8535156 5.0000000000 5.8199996948 -0.123000003 0.2470600009 2.3558423519 49.395999908 84.190589905 84.169197083 1.5260000229 87.574218750 1.4090000391 1.7630000114
 4536.0058594 5.0000000000 5.8090000153 -0.136000007 0.2195499986 2.3541047573 38.757999420 83.021080017 82.910652161 1.3839999437 87.167213440 1.7790000439 1.7079999447
 4536.1586914 3.0000000000 5.8090000153 -0.137999997 0.1872699857 2.3618845940 31.558000565 81.824050903 81.888496399 1.2400000095 86.805580139 2.5840001106 1.7410000563
 4536.3110352 3.0000000000 5.8439993858 -0.112000003 0.1756300032 2.3891129494 24.593999863 80.928085327 81.008941650 1.1239999533 86.635398865 1.5449999571 1.6940000057
 4536.4633789 3.0000000000 5.8320002556 -0.097999997 0.1778199971 2.4046287537 25.336999893 82.604095459 82.593093872 1.0429999828 85.924942017 1.3070000410 1.4950000048
 4536.6157227 3.0000000000 5.8439993858 -0.096000001 0.1861300021 2.4048941135 24.934000015 84.331573486 84.318931580 0.9900000095 85.761405945 1.7159999609 1.2730000019
 4536.7680664 3.0000000000 5.8320002556 -0.111000001 0.1976600140 2.3858757019 25.101999283 86.649032593 86.674148560 0.9559999704 85.560951233 1.3559999466 1.1640000343
 4536.9204102 3.0000000000 5.7930002213 -0.122000001 0.2080100030 2.3634390831 24.306999207 87.670356750 87.682540894 0.9279999733 85.116790771 1.4370000362 1.1499999762
 4537.0727539 3.0000000000 5.7930002213 -0.122000001 0.2135000080 2.3460111618 21.572000504 89.333587646 89.226997375 0.8960000277 84.908584595 1.7610000372 1.2389999628
 4537.2250977 3.0000000000 5.7849998474 -0.119999997 0.2119000107 2.3309864998 20.281000137 90.426116943 90.478340149 0.8690000176 85.737831116 1.2799999714 1.4019999504
 4537.3774414 3.0000000000 5.7849998474 -0.111000001 0.2066600025 2.3238174915 15.666999817 89.707763672 89.598999023 0.8579999804 85.439338684 1.1399999857 1.5279999971
 4537.5302734 3.0000000000 5.7769999504 -0.108000003 0.2040500045 2.3253037930 15.970999718 87.275466919 87.386947632 0.8610000014 85.479393005 1.0889999866 1.4939999580
 4537.6826172 3.0000000000 5.7849998474 -0.098999999 0.1967300028 2.3532571793 14.265999794 84.178283691 84.090072632 0.8709999919 85.090850830 1.2380000353 1.3459999561
 4537.8349609 3.0000000000 5.7849998474 -0.097000003 0.1791799963 2.3727378845 15.536999702 82.797157288 82.885231018 0.8930000067 84.465995789 1.3700000048 1.2669999599
 4537.9873047 3.0000000000 5.7849998474 -0.112000003 0.1671800017 2.3603000641 17.667999268 83.094169617 83.135498047 0.9150000215 84.835601807 1.7530000210 1.2879999876
 4538.1396484 3.0000000000 5.7849998474 -0.128999993 0.1667699963 2.3139872551 20.145000458 84.300895691 84.322532654 0.9300000072 84.616844177 1.2120000124 1.3350000381
 4538.2919922 3.0000000000 5.7849998474 -0.143999994 0.1786000133 2.2835566998 21.090000153 85.668724060 85.710067749 0.9470000267 84.504425049 1.2180000544 1.3470000029
 4538.4443359 3.0000000000 5.7969999313 -0.136000007 0.1860399991 2.2888453007 17.757999420 85.936203003 86.000000000 0.9660000205 84.540328979 1.2630000114 1.4090000391
 4538.5966797 3.0000000000 5.8049998283 -0.129999995 0.1874299943 2.3071048260 15.321000099 85.894660950 85.958610535 0.9810000062 83.843986511 1.3480000496 1.5180000067
 4538.7490234 3.0000000000 5.8090000153 -0.136000007 0.1927899867 2.3041193485 14.210000038 84.468307495 84.535644531 0.9959999919 83.399696350 1.2690000534 1.6579999924
 4538.9018555 3.0000000000 5.8159999847 -0.133000001 0.2000100017 2.3120801449 14.883999825 83.511848450 83.518173218 1.0130000114 84.958938599 1.2300000191 1.6900000572
 4539.0541992 3.0000000000 5.8090000153 -0.114000000 0.2000000030 2.3302476406 17.367000580 82.773262024 82.714302063 1.0299999714 85.479759216 1.2790000439 1.6109999418
 4539.2065430 3.0000000000 5.8090000153 -0.100000001 0.1901800036 2.3501429558 16.347999573 82.341682434 82.296958923 1.0410000086 84.718223572 1.8530000448 1.4930000305
 4539.3588867 3.0000000000 5.8159999847 -0.104999997 0.1798200011 2.3604519367 17.000999451 83.318786621 83.300552368 1.0369999409 84.989143372 1.6310000420 1.4359999895
 4539.5112305 3.0000000000 5.8159999847 -0.119999997 0.1754899919 2.3588750362 16.658000946 84.014907837 83.912025452 1.0210000277 84.294723511 1.4559999704 1.4409999847
 4539.6635742 3.0000000000 5.8090000153 -0.123000003 0.1821400076 2.3548634052 18.403999329 83.970649719 83.988929749 1.0019999743 84.570640564 1.4320000410 1.4429999590
 4539.8159180 3.0000000000 5.8049998283 -0.115000002 0.1867399961 2.3474664688 17.812999725 83.535797119 83.650978088 0.9869999886 84.174736023 1.2339999676 1.4129999876
 4539.9682617 3.0000000000 5.8090000153 -0.108999997 0.1872600019 2.3392453194 17.941999435 83.521148682 83.543945313 0.9779999852 84.107482910 1.1670000553 1.3480000496
 4540.1210938 3.0000000000 5.8090000153 -0.108999997 0.1886499971 2.3269762993 16.857000351 83.013404846 82.909111023 0.9750000238 84.344322205 1.2500000000 1.2929999828
 4540.2734375 3.0000000000 5.8090000153 -0.108000003 0.1908200085 2.3172640800 16.381000519 82.590095520 82.611488342 0.9810000062 83.234291077 1.1549999714 1.2730000019
 4540.4257813 3.0000000000 5.8090000153 -0.101999998 0.1925300062 2.3191070557 14.680999756 83.027900696 82.913078308 0.9980000257 84.342880249 1.0379999876 1.2569999695
 4540.5781250 3.0000000000 5.8090000153 -0.105999999 0.1890999973 2.3160338402 16.584999084 83.028793335 82.999992371 1.0219999552 84.466804504 1.0429999828 1.2719999552
 4540.7304688 3.0000000000 5.8090000153 -0.116999999 0.1886000037 2.3074166775 17.981000900 83.055702209 83.004745483 1.0490000248 84.304840088 1.1979999542 1.4509999752
 4540.8828125 3.0000000000 5.8049998283 -0.128999993 0.2087999880 2.2896046638 19.669000626 83.054809570 83.144897461 1.0859999657 84.053398132 1.1799999475 1.6579999924
 4541.0351563 3.0000000000 5.7769999504 -0.142000005 0.2196699977 2.2843549252 21.236000061 83.021118164 83.031532288 1.1260000467 83.850898743 1.0440000296 1.7419999838
 4541.1875000 3.0000000000 5.7849998474 -0.137999997 0.2304199934 2.3054287434 27.372999191 82.822525024 82.810592651 1.1670000553 84.046142578 0.8960000277 1.7059999704
 4541.3398438 3.0000000000 5.6990003586 -0.126000002 0.2300300002 2.3483490944 35.689998627 83.075607300 83.111770630 1.2059999704 84.122451782 1.4179999828 1.7280000448
 4541.4926758 3.0000000000 5.6990003586 -0.097999997 0.2309600115 2.4014616013 41.880001068 83.731277466 83.622283936 1.2369999886 84.109252930 1.5019999743 1.8170000315
 4541.6450195 3.0000000000 5.7229995728 -0.071000002 0.2332399935 2.4303076267 41.428001404 83.287117004 83.296173096 1.2560000420 84.272003174 1.4789999723 1.7999999523
 4541.7973633 3.0000000000 5.7459998131 -0.078000002 0.2212499976 2.4241859913 37.352001190 83.012565613 83.026115417 1.2690000534 84.504074097 1.5319999456 1.7480000257
 4541.9497070 3.0000000000 5.7340002060 -0.074000001 0.2236899883 2.4138731956 32.764999390 82.557929993 82.660430908 1.2810000181 84.332099915 1.7610000372 1.7120000124
 4542.1020508 3.0000000000 5.7420001030 -0.098999999 0.2254999876 2.3885250092 28.304000854 82.830986023 82.921531677 1.2960000038 84.665397644 1.4910000563 1.6710000038
 4542.2543945 3.0000000000 5.7459998131 -0.098999999 0.2334299982 2.3759825230 27.471000671 83.311035156 83.315200806 1.3229999542 85.055114746 1.5410000086 1.6460000277
 4542.4067383 3.0000000000 5.7459998131 -0.133000001 0.2337000072 2.3392007351 25.391000748 83.796577454 83.886398315 1.3550000191 84.654029846 1.7100000381 1.6150000095
