# LAS format log file from PETREL
# Project units are specified as depth units
#==================================================================
~Version information
VERS.   2.0:
WRAP.   NO:
#==================================================================
~Well
STRT .m      1097.1010742 :
STOP .m      4789.4472656 :
STEP .m     0.00000000 :
NULL .        -999.250000 :
COMP.           : COMPANY
WELL.  30/4-2   : WELL
FLD.            : FIELD
LOC.            : LOCATION
SRVC.           : SERVICE COMPANY
DATE.  2018-09-11 14:48:29   : Log Export Date {yyyy-MM-dd HH:mm:ss}
PROV.           : PROVINCE
UWI.   30/4-2   : UNIQUE WELL ID
API.            : API NUMBER
#==================================================================
~Curve
DEPT .m                   : DEPTH
Lithology_geolink ._      : Lithology_geolink
CALI .in                  : CALI
DRHO .g/cm3               : DRHO
NPHI .m3/m3               : NPHI
RHOB .g/cm3               : RHOB
GR .gAPI                  : GR
DTC .us/ft                : DTC
DTE .us/ft                : DTE
RDEP .ohm.m               : RDEP
SP .mV                    : SP
RSHA .ohm.m               : RSHA
RMED .ohm.m               : RMED
~Parameter
#==================================================================
~Ascii
# ...
 4045.1259766 5.0000000000 9.1090002060 -0.007000000 0.2531799972 2.4578173161 38.666797638 95.534591675 92.683120728 2.5179934502 24.268100739 4.9260001183 3.0981984138
 4045.2783203 5.0000000000 9.1169996262 -0.009000000 0.2599500120 2.4499256611 42.035255432 94.946807861 92.422508240 2.5160369873 25.185997009 5.0859999657 3.1600193977
 4045.4306641 5.0000000000 9.0080003738 -0.003000000 0.2601999938 2.4566452503 44.693408966 95.555801392 92.670104980 2.5390129089 22.703125000 4.8439998627 3.1719679832
 4045.5830078 5.0000000000 9.0159997940 0.0000000000 0.2508600056 2.4640717506 48.066005707 95.548141479 92.600059509 2.5470929146 21.045972824 4.8629999161 3.1519038677
 4045.7353516 5.0000000000 9.0080003738 0.0010000000 0.2434699982 2.4757905006 49.937297821 95.286270142 92.527610779 2.6051073074 20.401441574 4.8709998131 3.0920865536
 4045.8879395 5.0000000000 9.0310001373 -0.008000000 0.2385800034 2.4911789894 49.487800598 94.324104309 91.437660217 2.6721246243 22.522699356 5.1560001373 3.1464064121
 4046.0402832 5.0000000000 9.0389995575 -0.017999999 0.2380200028 2.5087053776 45.685092926 93.188781738 90.333854675 2.7110753059 24.541465759 5.5469999313 3.2731924057
 4046.1926270 5.0000000000 9.0699996948 -0.021000000 0.2463400066 2.5355601311 43.866634369 91.183555603 88.522239685 2.7580304146 23.641826630 5.5900001526 3.3933026791
 4046.3449707 5.0000000000 9.0699996948 -0.022000000 0.2432399988 2.5618128777 38.658905029 89.052200317 86.201110840 2.7769005299 24.402645111 6.2540001869 3.5826890469
 4046.4975586 5.0000000000 9.1020002365 -0.006000000 0.2420199960 2.6085703373 40.473499298 87.393302917 84.475349426 2.7147247791 25.395999908 6.7620000839 4.0132994652
 4046.6499023 5.0000000000 8.9689998627 0.0099999998 0.2289100140 2.6388087273 41.876804352 86.311454773 83.462326050 2.6288652420 25.408353806 8.0310001373 4.4179377556
 4046.8022461 5.0000000000 8.9219999313 0.0160000008 0.2345000058 2.6230704784 42.999500275 88.477394104 85.518104553 2.5448846817 24.758413315 8.1090002060 4.3779201508
 4046.9545898 5.0000000000 8.9219999313 0.0209999997 0.2387299985 2.5743665695 42.684093475 91.139404297 88.494873047 2.4728527069 25.190204620 4.7769999504 3.7038636208
 4047.1071777 5.0000000000 8.9219999313 0.0099999998 0.2480400056 2.5171356201 40.263198853 94.882148743 92.012939453 2.3806800842 21.149099350 4.1640000343 2.9948256016
 4047.2595215 5.0000000000 8.9219999313 0.0000000000 0.2529700100 2.4624490738 44.372695923 96.123291016 93.250144958 2.2808380127 23.898136139 3.9119999409 2.6288187504
 4047.4118652 5.0000000000 8.9219999313 -0.002000000 0.2670199871 2.4288017750 42.941406250 96.272399902 93.375000000 2.1798751354 19.960336685 3.8139998913 2.5160176754
 4047.5642090 5.0000000000 8.9219999313 -0.007000000 0.2666099966 2.4118373394 45.056591034 96.277359009 93.379760742 2.1019246578 18.937500000 3.7599999905 2.5270318985
 4047.7165527 5.0000000000 8.9219999313 -0.004000000 0.2676600218 2.4193396568 41.065399170 96.429893494 93.535850525 2.0549969673 18.937500000 3.7750000954 2.5470304489
 4047.8691406 5.0000000000 8.9219999313 -0.003000000 0.2607299984 2.4298322201 42.558742523 96.514122009 93.905197144 2.0530495644 16.161899567 4.0939998627 2.5660223961
 4048.0214844 5.0000000000 8.9219999313 0.0070000002 0.2513400018 2.4364831448 39.911357880 96.616493225 93.816642761 2.0840659142 19.981370926 3.6679999828 2.5800352097
 4048.1738281 5.0000000000 8.9219999313 0.0109999999 0.2426199913 2.4355363846 43.252304077 97.219963074 94.240165710 2.1250658035 21.399940491 3.5659999847 2.6020081043
 4048.3261719 5.0000000000 8.9449996948 0.0030000000 0.2425300032 2.4222545624 44.689250946 96.966125488 94.059646606 2.1661088467 21.345853806 3.6389999390 2.6070625782
 4048.4787598 5.0000000000 8.9530000687 -0.002000000 0.2487700135 2.4241926670 45.461502075 96.251152039 93.490806580 2.2342624664 22.494699478 4.4260001183 2.6463327408
 4048.6311035 5.0000000000 8.9689998627 -0.003000000 0.2489800006 2.4330441952 43.119541168 95.630187988 93.058204651 2.3161346912 22.750000000 4.7810001373 2.7501442432
 4048.7834473 5.0000000000 8.9770002365 0.0030000000 0.2405400127 2.4461259842 39.718399048 95.322052002 92.504859924 2.4001314640 23.623497009 4.5120000839 2.8400816917
 4048.9357910 5.0000000000 8.9689998627 0.0099999998 0.2339299917 2.4554870129 39.345756531 95.457534790 92.510658264 2.4821298122 23.606971741 4.2849998474 2.8910930157
 4049.0883789 5.0000000000 9.0159997940 0.0109999999 0.2394899875 2.4554264545 40.452400208 95.056823730 92.096382141 2.5632240772 24.693300247 4.2969999313 2.9494254589
 4049.2407227 5.0000000000 9.0860004425 0.0080000004 0.2540200055 2.4652743340 44.941104889 94.429573059 91.489845276 2.6330559254 21.854566574 4.5120000839 3.0821442604
 4049.3930664 5.0000000000 9.1169996262 0.0030000000 0.2609199882 2.4789335728 46.874797821 93.867446899 91.068229675 2.6680335999 20.468149185 5.1020002365 3.1720783710
 4049.5454102 5.0000000000 9.0780000687 -0.005000000 0.2535899878 2.4795312881 46.745895386 93.421112061 90.806388855 2.6890511513 21.031850815 5.3750000000 3.2209711075
 4049.6979980 5.0000000000 8.9219999313 -0.006000000 0.2441500127 2.4680769444 44.181297302 93.867424011 90.933097839 2.7212624550 22.989383698 5.6170001030 3.2028560638
 4049.8503418 5.0000000000 8.9219999313 -0.007000000 0.2379100025 2.4587831497 42.097457886 93.408790588 90.505828857 2.8032755852 23.477800369 5.5469999313 3.1579871178
 4050.0026855 5.0000000000 8.9219999313 -0.016000001 0.2408999950 2.4586331844 44.251201630 93.387092590 90.423225403 2.9754214287 24.476261139 5.0390000343 3.1500320435
 4050.1550293 5.0000000000 8.9689998627 -0.037000000 0.2512300014 2.4693927765 45.005760193 90.011238098 87.245605469 3.2384293079 24.687500000 4.7849998474 3.1704006195
 4050.3073730 5.0000000000 8.8360004425 -0.052000001 0.2475699931 2.5061776638 48.585487366 81.462844849 78.601585388 3.5065577030 24.790264130 4.7969999313 3.4214680195
 4050.4599609 16.000000000 8.9139995575 -0.052999999 0.2253199965 2.5844564438 43.261798859 73.985580444 71.381431580 3.8550431728 25.891899109 15.687999725 4.3480000496
 4050.6123047 16.000000000 8.6639995575 -0.022000000 0.1747699976 2.6835889816 37.271308899 65.019340515 62.055931091 4.1805319786 26.690204620 63.594001770 8.1024637222
 4050.7646484 16.000000000 8.7270002365 -0.018999999 0.1372099966 2.6777858734 31.238733292 62.350101471 59.499858856 4.5122628212 25.116886139 94.750000000 18.370416641
 4050.9169922 16.000000000 8.8439998627 -0.023000000 0.1254899949 2.6004655361 34.193305969 62.503234863 59.532066345 4.6758623123 24.750000000 63.062999725 25.462827682
 4051.0695801 16.000000000 8.9449996948 -0.032000002 0.1352500021 2.5356297493 37.505802155 67.284530640 64.437034607 4.5888128281 24.852800369 16.452999115 12.254238129
 4051.2219238 16.000000000 9.0000000000 -0.025000000 0.1430699974 2.5250134468 39.316654205 72.071243286 69.356895447 4.2185173035 25.542968750 7.6599998474 6.4068074226
 4051.3742676 5.0000000000 9.0229997635 -0.017999999 0.1816399992 2.5259206295 41.597759247 80.581703186 77.645286560 3.9174871445 25.173677444 6.9530000687 4.4168143272
 4051.5266113 5.0000000000 8.9449996948 -0.007000000 0.2211899906 2.5406308174 43.939102173 86.638786316 83.796577454 3.5974743366 24.651441574 5.0590000153 3.6773397923
 4051.6791992 5.0000000000 8.9379997253 -0.011000000 0.2578099966 2.5318706036 44.610298157 91.599113464 88.665122986 3.2691807747 25.540664673 5.2620000839 3.2653920650
 4051.8315430 5.0000000000 8.9689998627 -0.014000000 0.2568399906 2.5126724243 40.028392792 94.603118896 91.647323608 3.0136296749 25.441600800 5.4920001030 3.0760688782
 4051.9838867 5.0000000000 8.9689998627 -0.015000000 0.2519499958 2.4797310829 38.408351898 94.724388123 91.885742188 2.7827498913 20.185396194 5.5159997940 3.1191313267
 4052.1362305 5.0000000000 8.9689998627 -0.012000000 0.2475600094 2.4630572796 39.878707886 95.786674500 93.168785095 2.6268911362 23.173076630 5.3979997635 3.2010383606
 4052.2885742 5.0000000000 8.9689998627 -0.006000000 0.2329100072 2.4528379440 42.185844421 95.563461304 92.634696960 2.5590031147 23.086238861 4.8790001869 3.2250592709
