# LAS format log file from PETREL
# Project units are specified as depth units
#==================================================================
~Version information
VERS.   2.0:
WRAP.   NO:
#==================================================================
~Well
STRT .m      2773.3432617 :
STOP .m      3341.0317383 :
STEP .m     0.00000000 :
NULL .        -999.250000 :
COMP.           : COMPANY
WELL.  30/6-22   : WELL
FLD.            : FIELD
LOC.            : LOCATION
SRVC.           : SERVICE COMPANY
DATE.  2018-09-11 14:48:30   : Log Export Date {yyyy-MM-dd HH:mm:ss}
PROV.           : PROVINCE
UWI.   30/6-22   : UNIQUE WELL ID
API.            : API NUMBER
#==================================================================
~Curve
DEPT .m                   : DEPTH
Lithology_geolink ._      : Lithology_geolink
CALI .in                  : CALI
DRHO .g/cm3               : DRHO
NPHI .m3/m3               : NPHI
RHOB .g/cm3               : RHOB
GR .gAPI                  : GR
DTC .us/ft                : DTC
DTE .us/ft                : DTE
RDEP .ohm.m               : RDEP
SP .mV                    : SP
RSHA .ohm.m               : RSHA
RMED .ohm.m               : RMED
~Parameter
#==================================================================
~Ascii
# ...
 3000.1137695 6.0000000000 8.9280004501 0.0049999999 0.2858299911 2.5659999847 99.230293274 83.539222717 83.793060303 6.1119360924  -999.250000 8.1886987686 8.1886987686
 3000.2661133 6.0000000000 8.9300003052 0.0030000000 0.2901700139 2.5650000572 99.773345947 84.008834839 83.763442993 6.1019940376  -999.250000 8.4532728195 8.4532728195
 3000.4184570 6.0000000000 8.9300003052 0.0020000001 0.2811799943 2.5599999428 104.80439758 83.972023010 83.891151428 6.1010861397  -999.250000 8.6508798599 8.6508798599
 3000.5708008 6.0000000000 8.9300003052 0.0030000000 0.2789599895 2.5669999123 106.74211884 84.368614197 84.358436584 6.1191296577  -999.250000 8.6251544952 8.6251544952
 3000.7233887 6.0000000000 8.9300003052 -0.001000000 0.2810899913 2.5659999847 105.12184906 84.846466064 84.763999939 6.1460704803  -999.250000 8.4486789703 8.4486789703
 3000.8757324 6.0000000000 8.9300003052 -0.003000000 0.2845399976 2.5699999332 106.82302094 85.026733398 84.992683411 6.1568717957  -999.250000 8.2433786392 8.2433786392
 3001.0280762 6.0000000000 8.9300003052 0.0000000000 0.2884199917 2.5780000687 109.92718506 84.926300049 84.985031128 6.1367182732  -999.250000 8.1477813721 8.1477813721
 3001.1804199 6.0000000000 8.9300003052 -0.002000000 0.2858200073 2.5699999332 110.10952759 84.493995667 84.648086548 6.0926828384  -999.250000 8.2699136734 8.2699136734
 3001.3330078 6.0000000000 8.9209995270 -0.004000000 0.2847500145 2.5669999123 109.79471588 84.431297302 84.401412964 6.0266795158  -999.250000 8.4591474533 8.4591474533
 3001.4853516 6.0000000000 8.9110002518 -0.004000000 0.2897599936 2.5650000572 108.33832550 84.549026489 84.349250793 5.9769425392  -999.250000 8.4813404083 8.4813404083
 3001.6376953 6.0000000000 8.9189996719 -0.002000000 0.2833900154 2.5699999332 105.74586487 84.449104309 84.568511963 5.9680061340  -999.250000 8.3786859512 8.3786859512
 3001.7900391 6.0000000000 8.9259996414 -0.003000000 0.2839399874 2.5720000267 104.63577271 85.141288757 85.021293640 5.9689278603  -999.250000 8.3300333023 8.3300333023
 3001.9426270 6.0000000000 8.9230003357 0.0000000000 0.2767900229 2.5750000477 104.19018555 85.071098328 85.195648193 5.9539551735  -999.250000 8.3365058899 8.3365058899
 3002.0949707 6.0000000000 8.9049997330 -0.001000000 0.2779099941 2.5810000896 106.56494141 85.341163635 85.079147339 5.9469294548  -999.250000 8.2589426041 8.2589426041
 3002.2473145 6.0000000000 8.8649997711 0.0040000002 0.2848100066 2.5889999866 109.96073914 85.089317322 85.090751648 5.9357376099  -999.250000 8.0947761536 8.0947761536
 3002.3996582 6.0000000000 8.8339996338 0.0049999999 0.2830400169 2.5840001106 109.14280701 84.926300049 85.027580261 5.8948125839  -999.250000 8.0607452393 8.0607452393
 3002.5520020 6.0000000000 8.8149995804 0.0049999999 0.2902599871 2.5780000687 108.89322662 84.790359497 85.030845642 5.8558702469  -999.250000 8.2154712677 8.2154712677
 3002.7045898 6.0000000000 8.8079996109 0.0030000000 0.2835600078 2.5680000782 108.32492828 85.305839539 85.238525391 5.8289613724  -999.250000 8.3120698929 8.3120698929
 3002.8569336 6.0000000000 8.8109998703 0.0060000001 0.2804900110 2.5699999332 109.23281097 85.504432678 85.410995483 5.8231601715  -999.250000 8.1663398743 8.1663398743
 3003.0092773 6.0000000000 8.8100004196 0.0030000000 0.2900399864 2.5720000267 107.48189545 85.403404236 85.343544006 5.8481025696  -999.250000 7.9090509415 7.9090509415
 3003.1616211 6.0000000000 8.8039999008 0.0030000000 0.2995499969 2.5829999447 104.99459076 85.385398865 85.325141907 5.8639516830  -999.250000 7.9183125496 7.9183125496
 3003.3142090 6.0000000000 8.8009996414 0.0020000001 0.3073300123 2.5920000076 107.61666870 85.800476074 85.508705139 5.8539295197  -999.250000 8.1910829544 8.1910829544
 3003.4665527 6.0000000000 8.8009996414 0.0000000000 0.2904500067 2.5929999352 110.04930878 85.447982788 85.508659363 5.8429422379  -999.250000 8.3588972092 8.3588972092
 3003.6188965 6.0000000000 8.8009996414 0.0020000001 0.2865099907 2.5910000801 110.55161285 85.504402161 85.464637756 5.8339362144  -999.250000 8.3425464630 8.3425464630
 3003.7712402 6.0000000000 8.8009996414 0.0049999999 0.2903300226 2.5889999866 108.78073883 85.284667969 85.303733826 5.8238029480  -999.250000 8.2720918655 8.2720918655
 3003.9238281 6.0000000000 8.7980003357 0.0049999999 0.3146300018 2.5820000172 108.32758331 85.486877441 85.639518738 5.7824420929  -999.250000 8.2911415100 8.2911415100
 3004.0761719 6.0000000000 8.7969999313 0.0049999999 0.3392300010 2.5789999962 110.46339417 86.648422241 86.484542847 5.6953911781  -999.250000 8.3114681244 8.3114681244
 3004.2285156 6.0000000000 8.7989997864 0.0080000004 0.3424000144 2.5840001106 115.20925903 86.816390991 86.917190552 5.6003022194  -999.250000 8.0716323853 8.0716323853
 3004.3808594 6.0000000000 8.8009996414 0.0080000004 0.3230300248 2.5869998932 120.50599670 87.352409363 87.254028320 5.4914855957  -999.250000 7.7029376030 7.7029376030
 3004.5332031 6.0000000000 8.8009996414 0.0049999999 0.2968899906 2.5780000687 116.14065552 87.190467834 87.397422791 5.3846302032  -999.250000 7.4828748703 7.4828748703
 3004.6857910 6.0000000000 8.8009996414 0.0049999999 0.2924599946 2.5739998817 112.56628418 87.690345764 87.567131042 5.3075127602  -999.250000 7.4579739571 7.4579739571
 3004.8381348 6.0000000000 8.7980003357 0.0049999999 0.2882799804 2.5710000992 114.93072510 88.307922363 88.213562012 5.2312946320  -999.250000 7.6087117195 7.6087117195
 3004.9904785 6.0000000000 8.7969999313 0.0040000002 0.2924900055 2.5739998817 114.26869965 88.680427551 88.768653870 5.1213412285  -999.250000 7.5610432625 7.5610432625
 3005.1428223 6.0000000000 8.7969999313 0.0030000000 0.2898699939 2.5789999962 114.22991180 89.014778137 88.942543030 5.0186777115  -999.250000 7.1000580788 7.1000580788
 3005.2954102 6.0000000000 8.7969999313 0.0010000000 0.2958700061 2.5789999962 115.65778351 88.891792297 88.868232727 4.9516539574  -999.250000 6.6977882385 6.6977882385
 3005.4477539 6.0000000000 8.7950000763 0.0010000000 0.3033500016 2.5769999027 115.30283356 88.743186951 88.674613953 4.8977499008  -999.250000 6.6656665802 6.6656665802
 3005.6000977 6.0000000000 8.7930002213 0.0010000000 0.3051399887 2.5769999027 113.57801819 88.433174133 88.440933228 4.8586931229  -999.250000 6.7695055008 6.7695055008
 3005.7524414 6.0000000000 8.7950000763 0.0030000000 0.3067899942 2.5810000896 114.50859070 88.143379211 88.372703552 4.8106727600  -999.250000 6.8480916023 6.8480916023
 3005.9050293 6.0000000000 8.7969999313 0.0030000000 0.3068300188 2.5869998932 113.80203247 88.352378845 88.233177185 4.7427244186  -999.250000 6.8666667938 6.8666667938
 3006.0573730 6.0000000000 8.7969999313 0.0030000000 0.3001600206 2.5910000801 113.80638885 88.265792847 88.381660461 4.6999483109  -999.250000 6.8146219254 6.8146219254
 3006.2097168 6.0000000000 8.7989997864 0.0040000002 0.3109099865 2.5940001011 113.70505524 88.785621643 88.749801636 4.6919808388  -999.250000 6.7556862831 6.7556862831
 3006.3620605 6.0000000000 8.8030004501 0.0030000000 0.3094300032 2.5899999142 112.63188934 89.157531738 89.069999695 4.6889615059  -999.250000 6.7068314552 6.7068314552
 3006.5144043 7.0000000000 8.8050003052 0.0020000001 0.3179599941 2.5829999447 113.64813995 89.201499939 89.012191772 4.6808753014  -999.250000 6.6719422340 6.6719422340
 3006.6669922 7.0000000000 8.8070001602 0.0049999999 0.3030599952 2.5869998932 114.50088501 88.786422729 88.714920044 4.6545515060  -999.250000 6.6600637436 6.6600637436
 3006.8193359 7.0000000000 8.8090000153 0.0080000004 0.3106600046 2.5940001011 113.87700653 88.848213196 88.908073425 4.5844178200  -999.250000 6.6703009605 6.6703009605
 3006.9716797 7.0000000000 8.8059997559 0.0080000004 0.3290700018 2.5989999771 115.90990448 89.157531738 89.337509155 4.4937114716  -999.250000 6.7168030739 6.7168030739
 3007.1240234 7.0000000000 8.8050003052 0.0089999996 0.3499700129 2.5940001011 118.58930206 89.904800415 89.992950439 4.4338316917  -999.250000 6.6753220558 6.6753220558
 3007.2766113 7.0000000000 8.8070001602 0.0089999996 0.3472200036 2.5920000076 120.31143188 91.094238281 90.911956787 4.3987503052  -999.250000 6.5338716507 6.5338716507
