# LAS format log file from PETREL
# Project units are specified as depth units
#==================================================================
~Version information
VERS.   2.0:
WRAP.   NO:
#==================================================================
~Well
STRT .m      2773.3432617 :
STOP .m      3341.0317383 :
STEP .m     0.00000000 :
NULL .        -999.250000 :
COMP.           : COMPANY
WELL.  30/6-22   : WELL
FLD.            : FIELD
LOC.            : LOCATION
SRVC.           : SERVICE COMPANY
DATE.  2018-09-11 14:48:30   : Log Export Date {yyyy-MM-dd HH:mm:ss}
PROV.           : PROVINCE
UWI.   30/6-22   : UNIQUE WELL ID
API.            : API NUMBER
#==================================================================
~Curve
DEPT .m                   : DEPTH
Lithology_geolink ._      : Lithology_geolink
CALI .in                  : CALI
DRHO .g/cm3               : DRHO
NPHI .m3/m3               : NPHI
RHOB .g/cm3               : RHOB
GR .gAPI                  : GR
DTC .us/ft                : DTC
DTE .us/ft                : DTE
RDEP .ohm.m               : RDEP
SP .mV                    : SP
RSHA .ohm.m               : RSHA
RMED .ohm.m               : RMED
~Parameter
#==================================================================
~Ascii
# ...
 3182.9934082 6.0000000000 9.0699996948 -0.024000000 0.2623699903 2.5610001087 101.78466034 81.456153870 81.587387085 5.1960225105  -999.250000 6.8311538696 6.8311538696
 3183.1459961 6.0000000000 9.0699996948 -0.029999999 0.2756800056 2.6110000610 101.99777222 81.552146912 81.391914368 5.2031154633  -999.250000 6.8790144920 6.8790144920
 3183.2983398 6.0000000000 9.0699996948 -0.024000000 0.2743899822 2.6410000324 103.18553162 81.268463135 81.140197754 5.2272019386  -999.250000 6.8818702698 6.8818702698
 3183.4506836 6.0000000000 9.0699996948 -0.026000001 0.2690300047 2.6630001068 101.63055420 80.695960999 80.745422363 5.2690963745  -999.250000 6.8552179337 6.8552179337
 3183.6030273 6.0000000000 9.0699996948 -0.030999999 0.2603600025 2.6119999886 99.625183105 80.615196228 80.579994202 5.2990031242  -999.250000 6.9237079620 6.9237079620
 3183.7553711 6.0000000000 9.0699996948 -0.030999999 0.2655799985 2.5969998837 99.681114197 80.201644897 80.476310730 5.3000001907  -999.250000 7.1443300247 7.1443300247
 3183.9079590 6.0000000000 9.0699996948 -0.017000001 0.2699399889 2.5889999866 99.408584595 80.551849365 80.340553284 5.3000340462  -999.250000 7.2463173866 7.2463173866
 3184.0603027 6.0000000000 9.0699996948 -0.017000001 0.2679800093 2.6110000610 100.15805054 80.201644897 80.259811401 5.3071346283  -999.250000 7.1041841507 7.1041841507
 3184.2126465 6.0000000000 9.0699996948 -0.014000000 0.2520900071 2.6199998856 101.61824799 80.551750183 80.576286316 5.3352437019  -999.250000 6.9348268509 6.9348268509
 3184.3649902 6.0000000000 9.0699996948 -0.015000000 0.2455400079 2.6180000305 101.38031006 80.503356934 80.719589233 5.4114356041  -999.250000 6.8809294701 6.8809294701
 3184.5175781 6.0000000000 9.0699996948 -0.013000000 0.2468000054 2.5869998932 100.22942352 80.295631409 80.027908325 5.5478315353  -999.250000 6.8591203690 6.8591203690
 3184.6699219 6.0000000000 9.0659999847 -0.014000000 0.2536199987 2.5620000362 99.663490295 78.914314270 78.955123901 5.7206430435  -999.250000 6.8854255676 6.8854255676
 3184.8222656 6.0000000000 9.0530004501 -0.004000000 0.2472199947 2.5610001087 93.094635010 77.880004883 77.799499512 5.8541827202  -999.250000 7.1828880310 7.1828880310
 3184.9746094 6.0000000000 9.0329999924 0.0040000002 0.2432799935 2.5699999332 82.098052979 77.339546204 77.411506653 5.9110894203  -999.250000 7.7722048759 7.7722048759
 3185.1271973 6.0000000000 8.9960002899 0.0060000001 0.2374799848 2.5759999752 82.764251709 77.582366943 77.713668823 5.9392547607  -999.250000 8.4600095749 8.4600095749
 3185.2795410 5.0000000000 8.9530000687 0.0080000004 0.2445599884 2.5869998932 88.414657593 78.259155273 78.118103027 5.9924178123  -999.250000 8.8751125336 8.8751125336
 3185.4318848 5.0000000000 8.9329996109 0.0070000002 0.2498399913 2.6029999256 90.421737671 78.660446167 78.666473389 6.0792145729  -999.250000 8.6890573502 8.6890573502
 3185.5842285 5.0000000000 8.9300003052 0.0070000002 0.2498700023 2.6129999161 91.586532593 79.120742798 79.158020020 6.1460928917  -999.250000 8.0832176208 8.0832176208
 3185.7365723 5.0000000000 8.9300003052 -0.001000000 0.2413699925 2.6429998875 92.379096985 79.597755432 79.605880737 6.1750545502  -999.250000 7.5279808044 7.5279808044
 3185.8891602 5.0000000000 8.9300003052 -0.006000000 0.2372800112 2.6259999275 93.966186523 79.247535706 79.444267273 6.1919565201  -999.250000 7.2106971741 7.2106971741
 3186.0415039 6.0000000000 8.9300003052 -0.008000000 0.2443899959 2.6250000000 94.620620728 79.184188843 79.081825256 6.1826210022  -999.250000 7.1497230530 7.1497230530
 3186.1938477 6.0000000000 8.9300003052 -0.008000000 0.2452300042 2.5969998837 93.297676086 79.184188843 79.147575378 6.1035642624  -999.250000 7.5091600418 7.5091600418
 3186.3461914 6.0000000000 8.9300003052 -0.011000000 0.2567299902 2.6089999676 92.890373230 79.597755432 79.819633484 5.9677882195  -999.250000 8.1812915802 8.1812915802
 3186.4987793 6.0000000000 8.9300003052 -0.003000000 0.2620800138 2.6270000935 94.888305664 80.902168274 80.798126221 5.9020962715  -999.250000 8.2696733475 8.2696733475
 3186.6511230 6.0000000000 8.9340000153 -0.005000000 0.2814500034 2.6340000629 98.257263184 81.505836487 81.382316589 5.9221582413  -999.250000 7.7866225243 7.7866225243
 3186.8034668 6.0000000000 8.9680004120 -0.013000000 0.2828699946 2.6300001144 96.851676941 81.268539429 81.213920593 5.9551377296  -999.250000 7.5005221367 7.5005221367
 3186.9558105 6.0000000000 9.0010004044 -0.020000000 0.2679599822 2.6210000515 94.261245728 80.282409668 80.464752197 5.9982275963  -999.250000 7.3514456749 7.3514456749
 3187.1083984 6.0000000000 8.9720001221 -0.014000000 0.2475900054 2.6050000191 94.023162842 79.613128662 79.481857300 6.0691537857  -999.250000 7.1793169975 7.1793169975
 3187.2607422 5.0000000000 8.9370002747 -0.022000000 0.2526899874 2.6029999256 93.211227417 78.403305054 78.559593201 6.1008319855  -999.250000 7.2478799820 7.2478799820
 3187.4130859 5.0000000000 8.9300003052 -0.018999999 0.2614299953 2.6029999256 89.520164490 78.230201721 78.028343201 6.0659260750  -999.250000 7.8468136787 7.8468136787
 3187.5654297 5.0000000000 8.9300003052 -0.011000000 0.2647100091 2.6300001144 87.400642395 77.924842834 77.994613647 6.0430226326  -999.250000 8.4115648270 8.4115648270
 3187.7177734 5.0000000000 8.9300003052 -0.010000000 0.2524699867 2.5950000286 89.470939636 78.487663269 78.291458130 6.0500483513  -999.250000 8.5871219635 8.5871219635
 3187.8703613 5.0000000000 8.9300003052 -0.017999999 0.2509399951 2.5829999447 90.693122864 77.863067627 78.122200012 6.0652308464  -999.250000 8.6243610382 8.6243610382
 3188.0227051 5.0000000000 8.9300003052 -0.004000000 0.2526199818 2.5889999866 90.310165405 78.166740417 78.116111755 6.1130862236  -999.250000 8.4905691147 8.4905691147
 3188.1750488 5.0000000000 8.9300003052 0.0010000000 0.2473500073 2.5940001011 91.383880615 78.643753052 78.522575378 6.1306796074  -999.250000 8.1924839020 8.1924839020
 3188.3273926 5.0000000000 8.9300003052 0.0030000000 0.2325699925 2.5929999352 92.287132263 79.120742798 79.197433472 6.0306220055  -999.250000 7.7195897102 7.7195897102
 3188.4799805 6.0000000000 8.9600000381 0.0060000001 0.2322800010 2.5799999237 94.194969177 79.597854614 79.673149109 5.9127211571  -999.250000 7.2802886963 7.2802886963
 3188.6323242 6.0000000000 9.0129995346 0.0089999996 0.2238999903 2.5869998932 94.177078247 79.247634888 79.198837280 5.8547840118  -999.250000 7.1326255798 7.1326255798
 3188.7846680 6.0000000000 9.0030002594 0.0049999999 0.2359300107 2.5590000153 91.702079773 78.465896606 78.362823486 5.8097882271  -999.250000 7.0550255775 7.0550255775
 3188.9370117 6.0000000000 8.9519996643 0.0070000002 0.2414399981 2.5690000057 91.113174438 77.833251953 77.929786682 5.7438907623  -999.250000 7.0637083054 7.0637083054
 3189.0895996 6.0000000000 8.9309997559 0.0049999999 0.2554500103 2.5699999332 93.958435059 77.645050049 77.742652893 5.7102837563  -999.250000 7.2851200104 7.2851200104
 3189.2419434 6.0000000000 8.9300003052 0.0020000001 0.2685300112 2.5920000076 91.965568542 77.736579895 77.588058472 5.7693743706  -999.250000 7.5173215866 7.5173215866
 3189.3942871 5.0000000000 8.9300003052 0.0000000000 0.2730199993 2.6029999256 89.390838623 77.753097534 77.692192078 5.8471441269  -999.250000 7.5840353966 7.5840353966
 3189.5466309 5.0000000000 8.9300003052 -0.015000000 0.2706499994 2.6280000210 90.280601501 77.861381531 77.942092896 5.8921093941  -999.250000 7.5949902534 7.5949902534
 3189.6989746 5.0000000000 8.9300003052 -0.037999999 0.2670999765 2.6500000954 92.644126892 77.661857605 77.925300598 5.9260544777  -999.250000 7.5920286179 7.5920286179
 3189.8515625 5.0000000000 8.9300003052 -0.030999999 0.2623399794 2.6449999809 92.985038757 78.563972473 78.397209167 5.9428844452  -999.250000 7.6014227867 7.6014227867
 3190.0039063 5.0000000000 8.9300003052 -0.035999998 0.2700400054 2.5869998932 90.709976196 79.120742798 79.393348694 5.9187841415  -999.250000 7.6890721321 7.6890721321
 3190.1562500 5.0000000000 8.9300003052 -0.041000001 0.2588800192 2.5329999924 89.670593262 80.011306763 79.760231018 5.8738331795  -999.250000 7.7037210464 7.7037210464
