# LAS format log file from PETREL
# Project units are specified as depth units
#==================================================================
~Version information
VERS.   2.0:
WRAP.   NO:
#==================================================================
~Well
STRT .m      922.25012207 :
STOP .m      4009.0009766 :
STEP .m     0.00000000 :
NULL .        -999.250000 :
COMP.           : COMPANY
WELL.  30/6-11   : WELL
FLD.            : FIELD
LOC.            : LOCATION
SRVC.           : SERVICE COMPANY
DATE.  2018-09-11 14:48:30   : Log Export Date {yyyy-MM-dd HH:mm:ss}
PROV.           : PROVINCE
UWI.   30/6-11   : UNIQUE WELL ID
API.            : API NUMBER
#==================================================================
~Curve
DEPT .m                   : DEPTH
Lithology_geolink ._      : Lithology_geolink
CALI .in                  : CALI
DRHO .g/cm3               : DRHO
NPHI .m3/m3               : NPHI
RHOB .g/cm3               : RHOB
GR .gAPI                  : GR
DTC .us/ft                : DTC
RDEP .ohm.m               : RDEP
SP .mV                    : SP
RSHA .ohm.m               : RSHA
RMED .ohm.m               : RMED
~Parameter
#==================================================================
~Ascii
# ...
 1744.6247559  -999.250000 17.815000534 -0.007000000  -999.250000 2.1570219994 109.10700226 145.19041443 0.7469999790 10.296999931 0.4189999998 0.4189999998
 1744.7501221  -999.250000 17.747999191 0.0030000000  -999.250000 2.1538939476 113.09400177 145.76870728 0.7509999871 10.067999840 0.4309999943 0.4309999943
 1744.8748779  -999.250000 17.684000015 0.0209999997  -999.250000 2.1596653461 115.53099823 146.38378906 0.7559999824 9.5129995346 0.4449999928 0.4449999928
 1744.9997559  -999.250000 17.632999420 0.0419999994  -999.250000 2.1763482094 115.30699921 146.82875061 0.7680000067 8.8579998016 0.4550000131 0.4550000131
 1745.1251221  -999.250000 17.596000671 0.0560000017  -999.250000 2.2003581524 112.91899872 146.81132507 0.7850000262 8.5240001678 0.4580000043 0.4580000043
 1745.2500000  -999.250000 17.569000244 0.0549999997  -999.250000 2.2157604694 109.17099762 146.30387878 0.8050000072 8.7130002975 0.4560000002 0.4560000002
 1745.3750000  -999.250000 17.544000626 0.0340000018  -999.250000 2.2159411907 105.01999664 145.54972839 0.8209999800 9.0530004501 0.4539999962 0.4539999962
 1745.5001221  -999.250000 17.517000198 0.0060000001  -999.250000 2.2019827366 101.58100128 144.73762512 0.8270000219 8.9399995804 0.4530000091 0.4530000091
 1745.6250000  -999.250000 17.490999222 -0.016000001  -999.250000 2.1792638302 99.772003174 144.04040527 0.8220000267 8.1859998703 0.4539999962 0.4539999962
 1745.7497559  -999.250000 17.469999313 -0.027000001  -999.250000 2.1563346386 100.44999695 143.58525085 0.8069999814 7.2049999237 0.4569999874 0.4569999874
 1745.8752441  -999.250000 17.454000473 -0.028999999  -999.250000 2.1408610344 103.54900360 143.46829224 0.7879999876 6.8020000458 0.4580000043 0.4580000043
 1746.0001221  -999.250000 17.440000534 -0.030999999  -999.250000 2.1277329922 108.41799927 143.55018616 0.7689999938 7.3350000381 0.4580000043 0.4580000043
 1746.1248779  -999.250000 17.426000595 -0.035999998  -999.250000 2.1144104004 113.48000336 143.74568176 0.7540000081 8.3179998398 0.4560000002 0.4560000002
 1746.2501221  -999.250000 17.415000916 -0.041000001  -999.250000 2.1012001038 116.88999939 143.98828125 0.7429999709 9.1140003204 0.4519999921 0.4519999921
 1746.3752441  -999.250000 17.413999557 -0.039000001  -999.250000 2.0911581516 118.02999878 144.22904968 0.7350000143 9.4189996719 0.4480000138 0.4480000138
 1746.5000000  -999.250000 17.424999237 -0.023000000  -999.250000 2.0923037529 117.61199951 144.46061707 0.7289999723 9.2969999313 0.4449999928 0.4449999928
 1746.6251221  -999.250000 17.444000244 0.0080000004  -999.250000 2.1112101078 116.76399994 144.74743652 0.7229999900 9.0170001984 0.4429999888 0.4429999888
 1746.7498779  -999.250000 17.461999893 0.0489999987  -999.250000 2.1389782429 115.92700195 145.11506653 0.7189999819 8.7390003204 0.4420000017 0.4420000017
 1746.8750000  -999.250000 17.475000381 0.0769999996  -999.250000 2.1632323265 114.39800262 145.54911804 0.7179999948 8.4980001450 0.4420000017 0.4420000017
 1746.9998779  -999.250000 17.482000351 0.0790000036  -999.250000 2.1724660397 111.51300049 146.00196838 0.7200000286 8.3929996490 0.4429999888 0.4429999888
 1747.1251221  -999.250000 17.489999771 0.0610000007  -999.250000 2.1595752239 107.74700165 146.40541077 0.7229999900 8.5089998245 0.4460000098 0.4460000098
 1747.2498779  -999.250000 17.502000809 0.0469999984  -999.250000 2.1390206814 104.32299805 146.65264893 0.7239999771 8.7460002899 0.4510000050 0.4510000050
 1747.3747559  -999.250000 17.517999649 0.0590000004  -999.250000 2.1395268440 102.18699646 146.73443604 0.7229999900 8.7930002213 0.4569999874 0.4569999874
 1747.5001221  -999.250000 17.535999298 0.0839999989  -999.250000 2.1611461639 101.44000244 146.66484070 0.7200000286 8.3590002060 0.4600000083 0.4600000083
 1747.6250000  -999.250000 17.552999496 0.1000000015  -999.250000 2.1931054592 101.67900085 146.46658325 0.7160000205 7.3759999275 0.4600000083 0.4600000083
 1747.7501221  -999.250000 17.572000504 0.0909999982  -999.250000 2.2196438313 103.26599884 146.17208862 0.7110000253 6.0269999504 0.4569999874 0.4569999874
 1747.8748779  -999.250000 17.591999054 0.0579999983  -999.250000 2.2223441601 106.35299683 145.82342529 0.7059999704 4.9380002022 0.4530000091 0.4530000091
 1748.0000000  -999.250000 17.611999512 0.0260000005  -999.250000 2.2057807446 110.18900299 145.49577332 0.7009999752 4.7670001984 0.4499999881 0.4499999881
 1748.1247559  -999.250000 17.635999680 0.0109999999  -999.250000 2.1906502247 112.79900360 145.26197815 0.6959999800 5.7589998245 0.4480000138 0.4480000138
 1748.2502441  -999.250000 17.669000626 0.0130000003  -999.250000 2.1823108196 112.44999695 145.16090393 0.6919999719 7.8880004883 0.4480000138 0.4480000138
 1748.3751221  -999.250000 17.715000153 0.0199999996  -999.250000 2.1810178757 109.80200195 145.21145630 0.6880000234 10.305000305 0.4499999881 0.4499999881
 1748.4998779  -999.250000 17.770999908 0.0199999996  -999.250000 2.1826033592 106.77899933 145.40087891 0.6859999895 11.935000420 0.4539999962 0.4539999962
 1748.6247559  -999.250000 17.832000732 0.0140000004  -999.250000 2.1811280251 105.06400299 145.64654541 0.6869999766 12.270000458 0.4580000043 0.4580000043
 1748.7502441  -999.250000 17.892000198 0.0060000001  -999.250000 2.1786012650 105.26200104 145.80772400 0.6919999719 11.407999992 0.4620000124 0.4620000124
 1748.8750000  -999.250000 17.950000763 -0.001000000  -999.250000 2.1774969101 106.24199677 145.80699158 0.7009999752 10.126999855 0.4650000036 0.4650000036
 1749.0001221  -999.250000 18.003000259 -0.004000000  -999.250000 2.1786441803 106.67199707 145.59506226 0.7120000124 9.0240001678 0.4659999907 0.4659999907
 1749.1248779  -999.250000 18.048999786 -0.002000000  -999.250000 2.1816875935 105.76499939 145.14567566 0.7260000110 8.3540000916 0.4679999948 0.4679999948
 1749.2500000  -999.250000 18.083999634 -0.001000000  -999.250000 2.1848087311 103.56999969 144.44393921 0.7409999967 8.0459995270 0.4690000117 0.4690000117
 1749.3748779  -999.250000 18.104000092 -0.002000000  -999.250000 2.1866490841 101.46399689 143.53033447 0.7559999824 7.8200001717 0.4709999859 0.4709999859
 1749.5002441  -999.250000 18.113000870 -0.001000000  -999.250000 2.1913626194 101.09899902 142.57185364 0.7720000148 7.6459999084 0.4760000110 0.4760000110
 1749.6248779  -999.250000 18.115999222 0.0070000002  -999.250000 2.2017154694 102.79599762 141.62913513 0.7879999876 7.5770001411 0.4830000103 0.4830000103
 1749.7497559  -999.250000 18.114999771 0.0189999994  -999.250000 2.2189533710 105.83100128 140.70581055 0.8019999862 7.6319999695 0.4920000136 0.4920000136
 1749.8751221  -999.250000 18.114000320 0.0359999985  -999.250000 2.2425637245 108.43800354 139.78059387 0.8130000234 7.7360000610 0.5019999743 0.5019999743
 1750.0000000  -999.250000 18.113000870 0.0509999990  -999.250000 2.2685487270 109.39299774 138.82817078 0.8209999800 7.7709999084 0.5099999905 0.5099999905
 1750.1251221  -999.250000 18.111999512 0.0590000004  -999.250000 2.2868099213 108.77300262 137.94126892 0.8230000138 7.5669999123 0.5130000114 0.5130000114
 1750.2498779  -999.250000 18.111999512 0.0529999994  -999.250000 2.2918410301 107.03900146 137.23783875 0.8180000186 6.9840002060 0.5109999776 0.5109999776
 1750.3750000  -999.250000 18.113000870 0.0340000018  -999.250000 2.2818665504 104.96700287 136.75250244 0.8080000281 6.4050002098 0.5049999952 0.5049999952
 1750.4997559  -999.250000 18.114999771 0.0099999998  -999.250000 2.2593240738 103.23100281 136.48088074 0.7910000086 6.5830001831 0.4959999919 0.4959999919
 1750.6252441  -999.250000 18.117000580 -0.008000000  -999.250000 2.2314000130 102.70999908 136.37190247 0.7699999809 7.8140001297 0.4839999974 0.4839999974
 1750.7501221  -999.250000 18.121000290 -0.010000000  -999.250000 2.2155101299 104.89499664 136.33816528 0.7450000048 9.6560001373 0.4740000069 0.4740000069
 1750.8748779  -999.250000 18.128000259 0.0040000002  -999.250000 2.2128291130 109.34300232 136.38064575 0.7170000076 10.864999771 0.4650000036 0.4650000036
