# LAS format log file from PETREL
# Project units are specified as depth units
#==================================================================
~Version information
VERS.   2.0:
WRAP.   NO:
#==================================================================
~Well
STRT .m      360.12121582 :
STOP .m      3233.9282227 :
STEP .m     0.00000000 :
NULL .        -999.250000 :
COMP.           : COMPANY
WELL.  30/6-23   : WELL
FLD.            : FIELD
LOC.            : LOCATION
SRVC.           : SERVICE COMPANY
DATE.  2018-09-11 14:48:31   : Log Export Date {yyyy-MM-dd HH:mm:ss}
PROV.           : PROVINCE
UWI.   30/6-23   : UNIQUE WELL ID
API.            : API NUMBER
#==================================================================
~Curve
DEPT .m                   : DEPTH
Lithology_geolink ._      : Lithology_geolink
CALI .in                  : CALI
DRHO .g/cm3               : DRHO
NPHI .m3/m3               : NPHI
RHOB .g/cm3               : RHOB
GR .gAPI                  : GR
DTC .us/ft                : DTC
DTE .us/ft                : DTE
RDEP .ohm.m               : RDEP
SP .mV                    : SP
RSHA .ohm.m               : RSHA
RMED .ohm.m               : RMED
~Parameter
#==================================================================
~Ascii
# ...
 1194.0540771  -999.250000 13.664099693 -0.021199999  -999.250000 1.7637000084 63.346935272 138.81718445 138.58479309 1.2352986336 49.585102081  -999.250000 1.2061015368
 1194.2064209  -999.250000 13.609399796 -0.023499999  -999.250000 1.7653000355 61.020999908 138.81245422 138.58479309 1.2336000204 50.084701538  -999.250000 1.2079999447
 1194.3588867  -999.250000 13.234399796 -0.023499999  -999.250000 1.7704000473 63.166416168 138.71517944 138.58479309 1.2342998981 48.085700989  -999.250000 1.2235844135
 1194.5112305  -999.250000 12.750000000 -0.020099999  -999.250000 1.7750999928 63.310001373 138.79362488 138.58479309 1.2342000008 49.334701538  -999.250000 1.2041000128
 1194.6636963  -999.250000 12.648400307 -0.020600000  -999.250000 1.7730000019 63.785152435 138.81239319 138.58479309 1.2307989597 49.834701538  -999.250000 1.2167850733
 1194.8160400  -999.250000 12.648400307 -0.025200000  -999.250000 1.7619999647 63.477100372 138.81724548 138.58479309 1.2295000553 49.834701538  -999.250000 1.1981999874
 1194.9685059  -999.250000 12.648400307 -0.026400000  -999.250000 1.7590999603 63.431579590 138.81245422 138.58479309 1.2296006680 49.085300446  -999.250000 1.1962851286
 1195.1208496  -999.250000 12.671899796 -0.026300000  -999.250000 1.7524000406 62.784599304 138.72177124 138.58479309 1.2304999828 49.834701538  -999.250000 1.1777000427
 1195.2733154  -999.250000 12.648400307 -0.027899999  -999.250000 1.7532000542 59.371940613 138.78889465 138.58479309 1.2327038050 50.085300446  -999.250000 1.1904070377
 1195.4256592  -999.250000 12.648400307 -0.026699999  -999.250000 1.7477999926 59.796398163 138.81718445 138.58479309 1.2374000549 50.834701538  -999.250000 1.1992000341
 1195.5781250  -999.250000 12.648400307 -0.022299999  -999.250000 1.7529000044 61.743934631 138.81245422 138.58479309 1.2441045046 50.335300446  -999.250000 1.2109117508
 1195.7304688  -999.250000 12.648400307 -0.019800000  -999.250000 1.7603000402 66.526901245 138.72177124 138.58479309 1.2496999502 51.084701538  -999.250000 1.2256000042
 1195.8829346  -999.250000 12.648400307 -0.017999999  -999.250000 1.7709000111 70.079689026 138.78889465 138.58479309 1.2529008389 50.084701538  -999.250000 1.2285047770
 1196.0352783  -999.250000 12.648400307 -0.017600000  -999.250000 1.7781000137 70.812644958 138.81718445 138.58479309 1.2539008856 50.084503174  -999.250000 1.2343969345
 1196.1877441  -999.250000 12.648400307 -0.016799999  -999.250000 1.7762999535 70.989204407 138.81245422 138.58479309 1.2549008131 49.834903717  -999.250000 1.2304921150
 1196.3400879  -999.250000 12.648400307 -0.014500000  -999.250000 1.7841000557 69.124877930 138.81082153 138.58479309 1.2560014725 50.083900452  -999.250000 1.2206906080
 1196.4924316  -999.250000 12.648400307 -0.016100001  -999.250000 1.7813999653 67.601196289 138.71531677 138.58479309 1.2577999830 49.084701538  -999.250000 1.2089999914
 1196.6448975  -999.250000 12.648400307 -0.017400000  -999.250000 1.7884999514 67.433563232 138.78729248 138.58479309 1.2597007751 48.334701538  -999.250000 1.2129086256
 1196.7972412  -999.250000 12.648400307 -0.019700000  -999.250000 1.7865999937 68.759902954 138.81718445 138.58479309 1.2608000040 48.334701538  -999.250000 1.2236000299
 1196.9497070  -999.250000 12.648400307 -0.020800000  -999.250000 1.7937999964 71.734306335 138.81245422 138.58479309 1.2630056143 48.584701538  -999.250000 1.2401984930
 1197.1020508  -999.250000 12.648400307 -0.026699999  -999.250000 1.7883000374 72.113197327 138.72177124 138.58479309 1.2699999809 48.584701538  -999.250000 1.2382999659
 1197.2545166  -999.250000 12.648400307 -0.025000000  -999.250000 1.7946000099 73.541557312 138.78889465 138.58479309 1.2812082767 46.834300995  -999.250000 1.2158125639
 1197.4068604  -999.250000 12.648400307 -0.020500001  -999.250000 1.8082000017 72.862800598 138.81718445 138.58479309 1.2914999723 46.334701538  -999.250000 1.2314000130
 1197.5593262  -999.250000 12.648400307 -0.017300000  -999.250000 1.8171000481 73.185302734 138.81245422 138.58479309 1.2977013588 45.585300446  -999.250000 1.2471046448
 1197.7116699  -999.250000 12.648400307 -0.015600000  -999.250000 1.8269000053 68.439796448 138.81724548 138.58479309 1.2993999720 46.334701538  -999.250000 1.2529000044
 1197.8641357  -999.250000 12.648400307 -0.011700000  -999.250000 1.8314000368 70.508567810 138.71672058 138.58479309 1.2965949774 45.335304260  -999.250000 1.2539149523
 1198.0164795  -999.250000 12.648400307 -0.014900000  -999.250000 1.8320000172 69.597511292 138.79362488 138.58479309 1.2902976274 46.083702087  -999.250000 1.2724843025
 1198.1689453  -999.250000 12.648400307 -0.014500000  -999.250000 1.8203999996 73.234329224 138.81239319 138.58479309 1.2872991562 44.835102081  -999.250000 1.2528758049
 1198.3212891  -999.250000 12.648400307 -0.019200001  -999.250000 1.8044999838 68.909019470 138.81082153 138.58479309 1.2861999273 45.335502625  -999.250000 1.2226413488
 1198.4736328  -999.250000 12.671899796 -0.022600001  -999.250000 1.7905000448 68.676696777 138.72181702 138.58479309 1.2860000134 46.334701538  -999.250000 1.1493999958
 1198.6260986  -999.250000 13.078100204 -0.021800000  -999.250000 1.7941999435 66.891738892 138.78887939 138.58479309 1.2851991653 47.334102631  -999.250000 1.1620819569
 1198.7784424  -999.250000 13.015600204 -0.019800000  -999.250000 1.7896000147 69.058998108 138.81718445 138.58479309 1.2841999531 46.584701538  -999.250000 1.1396000385
 1198.9309082  -999.250000 13.062500000 -0.028100001  -999.250000 1.7762999535 70.678489685 138.81245422 138.58479309 1.2831984758 46.334701538  -999.250000 1.2333601713
 1199.0832520  -999.250000 12.679699898 -0.022800000  -999.250000 1.7775000334 70.667602539 138.81724548 138.58479309 1.2812999487 46.334701538  -999.250000 1.1835999489
 1199.2357178  -999.250000 12.734399796 -0.018400000  -999.250000 1.7991000414 68.521911621 138.71672058 138.58479309 1.2804000378 46.335102081  -999.250000 1.2275007963
 1199.3880615  -999.250000 12.796899796 -0.017899999  -999.250000 1.8173999786 65.792198181 138.79362488 138.58479309 1.2804000378 46.834701538  -999.250000 1.2285000086
 1199.5405273  -999.250000 12.984399796 -0.018300001  -999.250000 1.8414000273 67.344116211 138.81239319 138.58479309 1.2836052179 47.584102631  -999.250000 1.2100352049
 1199.6928711  -999.250000 12.843800545 -0.015900001  -999.250000 1.8465000391 64.501502991 138.81724548 138.58479309 1.2900999784 46.834701538  -999.250000 1.2539000511
 1199.8453369  -999.250000 12.820300102 -0.018500000  -999.250000 1.8404999971 65.460815430 138.71672058 138.58479309 1.2975033522 47.333900452  -999.250000 1.2411929369
 1199.9976807  -999.250000 12.999999046 -0.021800000  -999.250000 1.8084000349 64.110412598 138.78727722 138.58479309 1.3017007113 46.334300995  -999.250000 1.2323968410
 1200.1501465  -999.250000 13.078100204 -0.027500000  -999.250000 1.8001999855 65.623046875 138.81718445 138.58479309 1.3026002645 45.834098816  -999.250000 1.2285078764
 1200.3024902  -999.250000 13.093799591 -0.026500000  -999.250000 1.8200000525 64.058593750 138.81245422 138.58479309 1.3029015064 45.084300995  -999.250000 1.2383030653
 1200.4548340  -999.250000 13.085900307 -0.022000000  -999.250000 1.8733999729 62.554901123 138.81724548 138.58479309 1.3048000336 44.584701538  -999.250000 1.2422000170
 1200.6072998  -999.250000 12.984399796 -0.021800000  -999.250000 1.8835999966 63.036857605 138.71673584 138.58479309 1.3081059456 44.585102081  -999.250000 1.2529258728
 1200.7596436  -999.250000 13.171899796 -0.024300000  -999.250000 1.8738000393 60.862300873 138.79362488 138.58479309 1.3156000376 45.084701538  -999.250000 1.2851999998
 1200.9121094  -999.250000 13.374999046 -0.023200000  -999.250000 1.8517999649 61.836292267 138.81239319 138.58479309 1.3278081417 44.084701538  -999.250000 1.3241969347
 1201.0644531  -999.250000 13.398400307 -0.022000000  -999.250000 1.8558000326 61.577301025 138.81724548 138.58479309 1.3379000425 44.084701538  -999.250000 1.3202999830
 1201.2169189  -999.250000 13.523399353 -0.022800000  -999.250000 1.8513000011 62.596176147 138.71672058 138.58479309 1.3402986526 44.084102631  -999.250000 1.3290851116
