# LAS format log file from PETREL
# Project units are specified as depth units
#==================================================================
~Version information
VERS.   2.0:
WRAP.   NO:
#==================================================================
~Well
STRT .m      581.07043457 :
STOP .m      2909.8947754 :
STEP .m     0.00000000 :
NULL .        -999.250000 :
COMP.           : COMPANY
WELL.  30/6-14   : WELL
FLD.            : FIELD
LOC.            : LOCATION
SRVC.           : SERVICE COMPANY
DATE.  2018-09-11 14:48:30   : Log Export Date {yyyy-MM-dd HH:mm:ss}
PROV.           : PROVINCE
UWI.   30/6-14   : UNIQUE WELL ID
API.            : API NUMBER
#==================================================================
~Curve
DEPT .m                   : DEPTH
Lithology_geolink ._      : Lithology_geolink
CALI .in                  : CALI
DRHO .g/cm3               : DRHO
NPHI .m3/m3               : NPHI
RHOB .g/cm3               : RHOB
GR .gAPI                  : GR
DTC .us/ft                : DTC
RDEP .ohm.m               : RDEP
SP .mV                    : SP
RSHA .ohm.m               : RSHA
RMED .ohm.m               : RMED
~Parameter
#==================================================================
~Ascii
# ...
 2127.7780762 12.000000000 14.352000237 0.0419999994 0.2491168976 2.3589999676 87.367698669 115.61760712 1.5613791943 54.433750153  -999.250000 1.6544560194
 2127.9304199 12.000000000 14.366999626 0.0309999995 0.3095700145 2.3239998817 90.744590759 113.75300598 1.4092435837 54.369098663  -999.250000 1.4463332891
 2128.0827637 12.000000000 14.397999763 0.0670000017 0.3452099860 2.3949999809 95.617187500 109.88121033 1.2542483807 54.399951935  -999.250000 1.5418461561
 2128.2353516 12.000000000 14.477000237 0.0289999992 0.3539796770 2.3929998875 98.813003540 109.87500000 1.1399999857 54.837001801  -999.250000 1.6059999466
 2128.3876953 12.000000000 14.477000237 0.0060000001 0.3412740529 2.3710000515 95.505302429 111.62220001 1.1569727659 54.088203430  -999.250000 1.6289631128
 2128.5400391 12.000000000 14.522999763 0.0140000004 0.3188500106 2.3129999638 89.634414673 114.12099457 1.2578381300 53.619750977  -999.250000 1.5670993328
 2128.6923828 12.000000000 14.538999557 0.0199999996 0.3510699868 2.2639999390 87.378608704 112.37780762 1.2899487019 53.400352478  -999.250000 1.4362099171
 2128.8449707 12.000000000 14.531000137 0.0140000004 0.3769468665 2.2869999409 87.313003540 109.62500000 1.3789999485 53.150001526  -999.250000 1.5620000362
 2128.9973145 12.000000000 14.531000137 -0.012000000 0.3749319315 2.3440001011 88.813003540 107.12500000 1.4190000296 53.650001526  -999.250000 1.6779999733
 2129.1496582 12.000000000 14.484000206 -0.018999999 0.3324762285 2.4240000248 88.126098633 106.37619781 1.3570991755 52.870250702  -999.250000 1.8866655827
 2129.3020020 12.000000000 14.500000000 -0.017000001 0.3051799834 2.4449999332 89.123397827 105.62621307 1.3540047407 52.369800568  -999.250000 1.8670320511
 2129.4545898 12.000000000 14.538999557 -0.013000000 0.2988378108 2.4549999237 86.438003540 105.62500763 1.5429999828 52.666000366  -999.250000 1.8750000000
 2129.6069336 12.000000000 14.538999557 -0.015000000 0.3036943674 2.4590001106 86.250000000 106.00000000 1.6169999838 52.916000366  -999.250000 1.9210000038
 2129.7592773 12.000000000 14.538999557 -0.016000001 0.2939585745 2.4649999142 85.251602173 104.50240326 1.6749072075 52.462726593  -999.250000 1.9629328251
 2129.9116211 12.000000000 14.538999557 -0.016000001 0.2993199825 2.4670000076 88.744392395 103.75120544 1.7718445063 51.931850433  -999.250000 2.0019376278
 2130.0639648 12.000000000 14.625000000 -0.016000001 0.2827099860 2.4690001011 85.006011963 102.12760162 1.7640129328 51.977924347  -999.250000 2.0489246845
 2130.2165527 12.000000000 14.633000374 -0.016000001 0.2734165192 2.4730000496 82.375000000 102.62500000 1.6909999847 51.416000366  -999.250000 2.1050000191
 2130.3688965 12.000000000 14.687999725 -0.015000000 0.2588024735 2.4730000496 80.128601074 102.99938965 1.7129648924 50.463527679  -999.250000 2.1109905243
 2130.5212402 12.000000000 14.711000443 -0.015000000 0.2666000128 2.4730000496 81.435897827 103.49919891 1.7898765802 50.181449890  -999.250000 2.0700657368
 2130.6735840 12.000000000 14.671999931 -0.016000001 0.2768599987 2.4730000496 83.995895386 101.75279999 1.9018204212 50.446571350  -999.250000 2.0719969273
 2130.8261719 12.000000000 14.633000374 -0.014000000 0.2798025310 2.4800000191 81.688003540 99.875000000 2.0020000935 51.196998596  -999.250000 2.1270000935
 2130.9785156 12.000000000 14.616999626 -0.016000001 0.2875750065 2.4879999161 80.125000000 95.750000000 2.1050000191 51.212001801  -999.250000 2.2679998875
 2131.1308594 12.000000000 14.586000443 -0.013000000 0.2719700038 2.4979999065 74.447105408 91.257202148 2.1698961258 51.758125305  -999.250000 2.5605313778
 2131.2832031 12.000000000 14.538999557 -0.011000000 0.2597700059 2.5120000839 70.070014954 86.632408142 2.1620128155 52.492820740  -999.250000 3.1510529518
 2131.4357910 12.000000000 14.538999557 -0.007000000 0.2241035849 2.5179998875 65.438003540 89.875000000 2.0940001011 52.478000641  -999.250000 3.7269999981
 2131.5881348 12.000000000 14.461000443 -0.008000000 0.2139067650 2.5060000420 70.813003540 95.750000000 2.0409998894 51.633998871  -999.250000 3.2829999924
 2131.7404785 12.000000000 14.453000069 -0.014000000 0.2368692160 2.4800000191 77.988502502 100.74199677 1.9790991545 51.603050232  -999.250000 2.5831215382
 2131.8928223 12.000000000 14.453000069 -0.016000001 0.2675800025 2.4609999657 84.302886963 104.61878967 1.9041202068 52.351799011  -999.250000 2.1217389107
 2132.0454102 12.000000000 14.453000069 -0.016000001 0.3037225306 2.4609999657 88.313003540 106.62500000 1.8259999752 52.337001801  -999.250000 1.9809999466
 2132.1977539 12.000000000 14.453000069 -0.014000000 0.3115317523 2.4670000076 89.313003540 106.00000000 1.7239999771 52.337001801  -999.250000 1.9819999933
 2132.3500977 12.000000000 14.453000069 -0.013000000 0.3188343644 2.4649999142 93.243698120 105.62561035 1.6191679239 51.588203430  -999.250000 2.0179421902
 2132.5024414 12.000000000 14.453000069 -0.012000000 0.3090800047 2.4549999237 93.749198914 105.00099945 1.5620913506 51.602973938  -999.250000 2.0639262199
 2132.6547852 12.000000000 14.383001328 -0.007000000 0.3041999936 2.4509999752 91.940910339 104.87519836 1.5350432396 52.601398468  -999.250000 2.1169152260
 2132.8073730 12.000000000 14.359000206 -0.004000000 0.2929966152 2.4590001106 90.313003540 106.00000000 1.5340000391 51.883998871  -999.250000 2.1700000763
 2132.9597168 12.000000000 14.272999763 -0.003000000 0.3096075058 2.4709999561 93.058601379 106.37439728 1.5559648275 51.384799957  -999.250000 2.1620128155
 2133.1120605 12.000000000 14.180000305 -0.011000000 0.3330099881 2.4709999561 92.126502991 105.87580109 1.5979326963 51.430923462  -999.250000 2.0961058140
 2133.2644043 12.000000000 14.180000305 -0.012000000 0.3535200059 2.4709999561 90.752204895 104.75180054 1.6808669567 51.727523804  -999.250000 2.0640511513
 2133.4169922 12.000000000 14.125000000 -0.020000000 0.3320065141 2.4630000591 87.125000000 101.50000000 1.8439999819 51.775001526  -999.250000 2.0799999237
 2133.5693359 12.000000000 14.086000443 -0.021000000 0.3173448145 2.4709999561 89.688003540 97.875000000 1.9379999638 50.791000366  -999.250000 2.1579999924
 2133.7216797 12.000000000 14.086000443 -0.021000000 0.2954014242 2.4800000191 88.501899719 94.006202698 2.1047327518 51.071548462  -999.250000 2.3177440166
 2133.8740234 12.000000000 14.015999794 -0.014000000 0.2900399864 2.5020000935 80.762420654 85.014419556 2.3316361904 51.056026459  -999.250000 2.6185176373
 2134.0266113 12.000000000 14.000000000 -0.006000000 0.2806872129 2.5290000439 65.500000000 76.875007629 2.3750000000 51.791000366  -999.250000 3.2460000515
 2134.1789551 12.000000000 13.953000069 -0.008000000 0.2352388948 2.5179998875 57.219001770 74.750000000 2.2829999924 51.291000366  -999.250000 4.9299998283
 2134.3312988 12.000000000 13.906001091 0.0000000000 0.1659301370 2.4079999924 52.788097382 78.119606018 2.4507312775 51.493675232  -999.250000 6.1001248360
 2134.4836426 12.000000000 13.906001091 0.0070000002 0.1098600030 2.3010001183 65.105216980 87.859375000 2.4040753841 52.429496765  -999.250000 4.4796042442
 2134.6359863 12.000000000 13.913999557 0.0060000001 0.1621100008 2.2479999065 74.110580444 98.607772827 2.3540802002 51.869899750  -999.250000 2.6569216251
 2134.7885742 12.000000000 13.906001091 -0.003000000 0.2652354538 2.3110001087 83.500000000 111.37500000 2.2730000019 51.618999481  -999.250000 2.2679998875
 2134.9409180 12.000000000 13.906001091 -0.013000000 0.3247428238 2.3959999084 86.869598389 104.38620758 1.9884560108 51.369400024  -999.250000 2.2031040192
 2135.0932617 12.000000000 13.906001091 -0.013000000 0.3452099860 2.4630000591 91.430694580 102.75260162 1.7364038229 51.368999481  -999.250000 2.2728877068
 2135.2456055 12.000000000 13.906001091 -0.017000001 0.3310500085 2.4609999657 96.429992676 103.62359619 1.7379968166 52.117797852  -999.250000 2.2730000019
 2135.3981934 12.000000000 13.906001091 -0.017000001 0.3319939971 2.4630000591 97.375000000 103.25000000 1.7130000591 52.150001526  -999.250000 2.3069999218
