# LAS format log file from PETREL
# Project units are specified as depth units
#==================================================================
~Version information
VERS.   2.0:
WRAP.   NO:
#==================================================================
~Well
STRT .m      933.99749756 :
STOP .m      3610.7521973 :
STEP .m     0.00000000 :
NULL .        -999.250000 :
COMP.           : COMPANY
WELL.  30/6-8   : WELL
FLD.            : FIELD
LOC.            : LOCATION
SRVC.           : SERVICE COMPANY
DATE.  2018-09-11 14:48:31   : Log Export Date {yyyy-MM-dd HH:mm:ss}
PROV.           : PROVINCE
UWI.   30/6-8   : UNIQUE WELL ID
API.            : API NUMBER
#==================================================================
~Curve
DEPT .m                   : DEPTH
Lithology_geolink ._      : Lithology_geolink
CALI .in                  : CALI
DRHO .g/cm3               : DRHO
NPHI .m3/m3               : NPHI
RHOB .g/cm3               : RHOB
GR .gAPI                  : GR
DTC .us/ft                : DTC
DTE .us/ft                : DTE
RDEP .ohm.m               : RDEP
SP .mV                    : SP
RSHA .ohm.m               : RSHA
RMED .ohm.m               : RMED
~Parameter
#==================================================================
~Ascii
 933.99749756  -999.250000 19.156000137 0.1410000026 0.5458999872 2.0369999409 34.372001648 146.80123901 142.27203369 2.0199999809 68.614997864 1.9600000381 1.9600000381
 934.14990234  -999.250000 19.202999115 0.1420000046 0.5415000319 2.0369999409 32.841999054 146.83357239 142.27352905 2.0230000019 67.989997864 1.9099999666 1.9099999666
 934.30224609  -999.250000 19.156000137 0.1509999931 0.5546900034 2.0369999409 32.290000916 146.82722473 142.27508545 2.0250000954 68.083999634 1.7819999456 1.7819999456
 934.45465088  -999.250000 19.156000137 0.1509999931 0.5473600030 2.0369999409 31.423999786 146.80079651 142.27662659 2.0230000019 68.458999634 1.7819999456 1.7819999456
 934.60705566  -999.250000 19.156000137 0.1400000006 0.5752000213 2.0369999409 32.852943420 146.83361816 142.27812195 2.0199906826 68.333961487 1.8200345039 1.8200345039
 934.75946045  -999.250000 19.202999115 0.1289999932 0.5556600094 2.0369999409 32.710666656 146.82757568 142.27963257 1.9969899654 68.239959717 1.9060180187 1.9060180187
 934.91186523  -999.250000 19.202999115 0.1309999973 0.5752000213 2.0369999409 34.380523682 146.80079651 142.28112793 1.9719935656 68.146102905 1.9509814978 1.9509814978
 935.06427002  -999.250000 19.156000137 0.1299999952 0.5800799727 2.0369999409 33.195976257 146.83361816 142.28262329 1.9559875727 68.396339417 1.9049919844 1.9049919844
 935.21661377  -999.250000 19.202999115 0.1140000001 0.5595700145 2.0369999409 35.631999969 146.82804871 142.28411865 1.9249999523 69.239997864 1.8849999905 1.8849999905
 935.36901855  -999.250000 19.156000137 0.0790000036 0.5556600094 2.0369999409 33.547000885 146.80116272 142.28562927 1.8719999790 68.489997864 1.8020000458 1.8020000458
 935.52142334  -999.250000 19.156000137 0.0520000011 0.5356400013 2.0369999409 33.866001129 146.83358765 142.28712463 1.8079999685 68.364997864 1.7860000134 1.7860000134
 935.67382813  -999.250000 19.156000137 0.0450000018 0.5556600094 2.0369999409 32.076000214 146.82759094 142.28868103 1.7539999485 69.146003723 1.7150000334 1.7150000334
 935.82617188  -999.250000 19.156000137 0.0549999997 0.5556600094 2.0369999409 32.506000519 146.80123901 142.29022217 1.6940000057 67.271003723 1.6540000439 1.6540000439
 935.97857666  -999.250000 19.156000137 0.0759999976 0.5996099710 2.0369999409 32.050998688 146.83395386 142.29171753 1.6289999485 68.021003723 1.5809999704 1.5809999704
 936.13098145  -999.250000 19.156000137 0.0879999995 0.5683599710 2.0369999409 33.408912659 146.82716370 142.29322815 1.5870336294 67.396507263 1.5160520077 1.5160520077
 936.28338623  -999.250000 19.187999725 0.1190000027 0.5532199740 2.0369999409 32.580333710 146.80044556 142.29472351 1.5640091896 67.645904541 1.4770156145 1.4770156145
 936.43579102  -999.250000 19.202999115 -1.164000034 0.5205099583 2.0369999409 34.743999481 146.83358765 142.29621887 1.5449999571 67.896003723 1.4579999447 1.4579999447
 936.58819580  -999.250000 19.187999725 -0.750000000 0.5478500128 2.0369448662 34.409999847 146.82804871 142.29772949 1.5329999924 67.146003723 1.4529999495 1.4529999495
 936.74060059  -999.250000 19.187999725 -0.638000011 0.5747100115 2.0369000435 37.708999634 146.83395386 142.29922485 1.5360000134 67.146003723 1.4680000544 1.4680000544
 936.89300537  -999.250000 19.187999725 -0.653999984 0.5473600030 2.0369000435 35.347000122 146.89318848 142.30078125 1.5410000086 67.271003723 1.4700000286 1.4700000286
 937.04541016  -999.250000 19.202999115 -0.649999976 0.5351600051 2.0369000435 36.201999664 146.88720703 142.30232239 1.5549999475 67.427001953 1.4800000191 1.4800000191
 937.19781494  -999.250000 19.172000885 -0.656000018 0.5590800047 2.0369000435 31.056999207 146.86083984 142.30381775 1.5720000267 67.552001953 1.4989999533 1.4989999533
 937.35021973  -999.250000 19.156000137 -0.662000000 0.5688499808 2.0369000435 30.517000198 146.89355469 142.30532837 1.5759999752 67.083000183 1.5429999828 1.5429999828
 937.50262451  -999.250000 19.202999115 -0.680000007 0.6181600094 2.0369000435 28.732000351 146.88720703 142.30682373 1.5850000381 67.052001953 1.5549999475 1.5549999475
 937.65502930  -999.250000 19.202999115 -0.720000029 0.5981400013 2.0369000435 26.801000595 146.86039734 142.30831909 1.6030000448 66.083000183 1.5709999800 1.5709999800
 937.80743408  -999.250000 19.156000137 -0.697000027 0.5742200017 2.0369000435 30.368999481 146.89366150 142.30982971 1.6239999533 66.708000183 1.5210000277 1.5210000277
 937.95977783  -999.250000 19.202999115 -0.708999991 0.5209999681 2.0369000435 31.429000854 146.88713074 142.31132507 1.6590000391 66.302001953 1.5089999437 1.5089999437
 938.11218262  -999.250000 19.202999115 -0.662000000 0.5336899757 2.0369000435 38.991943359 146.86004639 142.31282043 1.6899752617 65.802398682 1.4820215702 1.4820215702
 938.26458740  -999.250000 19.187999725 -0.677999973 0.5517599583 2.0369000435 40.373897552 146.86039734 142.31437683 1.6929975748 64.896728516 1.5359567404 1.5359567404
 938.41699219  -999.250000 19.187999725 -0.674000025 0.5800799727 2.0369000435 38.428001404 146.89363098 142.31591797 1.7000000477 65.021003723 1.5399999619 1.5399999619
 938.56939697  -999.250000 19.202999115 -0.683000028 0.5258800387 2.0369000435 34.053001404 146.88757324 142.31742859 1.7300000191 65.302001953 1.5690000057 1.5690000057
 938.72180176  -999.250000 19.156000137 -0.660000026 0.5336899757 2.0369000435 30.242000580 146.86039734 142.31892395 1.7469999790 66.552001953 1.5989999771 1.5989999771
 938.87420654  -999.250000 19.156000137 -0.629000008 0.4985400140 2.0369000435 31.266000748 146.89318848 142.32041931 1.7530000210 64.833000183 1.6590000391 1.6590000391
 939.02661133  -999.250000 19.156000137 -0.597000003 0.5400400162 2.0369000435 32.773998260 146.88764954 142.32192993 1.7549999952 67.427001953 1.6809999943 1.6809999943
 939.17901611  -999.250000 19.141000748 -0.616999984 0.5497999787 2.0369000435 35.625999451 146.86076355 142.32342529 1.7410000563 66.896003723 1.7430000305 1.7430000305
 939.33142090  -999.250000 19.125000000 -0.634000003 0.5463899970 2.0368449688 37.793998718 146.89318848 142.32498169 1.7020000219 64.646003723 1.7480000257 1.7480000257
 939.48382568  -999.250000 19.141000748 -0.683000028 0.5253900290 2.0367999077 36.069999695 146.88720703 142.32647705 1.7050000429 65.239997864 1.5889999866 1.5889999866
 939.63623047  -999.250000 19.141000748 -0.675000012 0.4868199825 2.0367999077 33.335998535 146.86039734 142.32798767 1.7250000238 65.114997864 1.4839999676 1.4839999676
 939.78863525  -999.250000 19.125000000 -0.665000021 0.5253900290 2.0367999077 31.718999863 146.89364624 142.32952881 1.7250000238 66.458000183 1.3849999905 1.3849999905
 939.94097900  -999.250000 19.125000000 -0.648000002 0.5180699825 2.0367999077 31.837999344 146.88713074 142.33102417 1.7170000076 67.114997864 1.4670000076 1.4670000076
 940.09338379  -999.250000 19.108999252 -0.486999989 0.5283200145 2.0367999077 32.979000092 146.86004639 142.33251953 1.7200000286 66.489997864 1.7359999418 1.7359999418
 940.24578857  -999.250000 19.062999725 -0.128000006 0.5263699889 2.0367999077 33.537551880 146.89318848 142.33403015 1.7319903374 67.738998413 1.8419151306 1.8419151306
 940.39819336  -999.250000 18.952999115 0.0759999976 0.5268599987 2.0367999077 37.166999817 146.88764954 142.33552551 1.7810000181 68.114997864 1.8450000286 1.8450000286
 940.55059814  -999.250000 18.516000748 0.2689999938 0.5185499787 2.0367999077 39.054000854 146.86076355 142.33702087 1.8799999952 68.083999634 1.7879999876 1.7879999876
 940.70300293  -999.250000 18.000000000 0.1400000006 0.5058599710 2.0367999077 38.901000977 146.89318848 142.33853149 1.9290000200 67.239997864 1.8519999981 1.8519999981
 940.85540771  -999.250000 17.531000137 0.0109999999 0.5400400162 2.0367999077 37.658000946 146.88720703 142.34008789 1.9379999638 67.958999634 1.7740000486 1.7740000486
 941.00781250  -999.250000 18.406000137 -0.021000000 0.5541999936 2.0367999077 37.560001373 146.86083984 142.34162903 1.9320000410 68.864997864 1.8120000362 1.8120000362
 941.16021729  -999.250000 18.733999252 -0.021000000 0.5380899906 2.0367999077 38.757999420 146.89355469 142.34312439 1.8969999552 67.771003723 1.7569999695 1.7569999695
