# LAS format log file from PETREL
# Project units are specified as depth units
#==================================================================
~Version information
VERS.   2.0:
WRAP.   NO:
#==================================================================
~Well
STRT .m      933.99749756 :
STOP .m      3610.7521973 :
STEP .m     0.00000000 :
NULL .        -999.250000 :
COMP.           : COMPANY
WELL.  30/6-8   : WELL
FLD.            : FIELD
LOC.            : LOCATION
SRVC.           : SERVICE COMPANY
DATE.  2018-09-11 14:48:31   : Log Export Date {yyyy-MM-dd HH:mm:ss}
PROV.           : PROVINCE
UWI.   30/6-8   : UNIQUE WELL ID
API.            : API NUMBER
#==================================================================
~Curve
DEPT .m                   : DEPTH
Lithology_geolink ._      : Lithology_geolink
CALI .in                  : CALI
DRHO .g/cm3               : DRHO
NPHI .m3/m3               : NPHI
RHOB .g/cm3               : RHOB
GR .gAPI                  : GR
DTC .us/ft                : DTC
DTE .us/ft                : DTE
RDEP .ohm.m               : RDEP
SP .mV                    : SP
RSHA .ohm.m               : RSHA
RMED .ohm.m               : RMED
~Parameter
#==================================================================
~Ascii
# ...
 2360.4621582 12.000000000 18.547000885 -0.017000001 0.3388700187 2.4597640038 43.125000000 107.66969299 104.80447388 1.0308125019 71.804687500 1.0882067680 1.0882067680
 2360.6145020 12.000000000 18.547000885 -0.009000000 0.3437500000 2.4640619755 43.124549866 107.27449036 104.42673492 0.9918365479 70.494491577 1.1312980652 1.1312980652
 2360.7668457 12.000000000 18.577999115 -0.006000000 0.3334999979 2.4766287804 43.050647736 106.54830170 103.70050049 0.9579184055 69.564300537 1.1931200027 1.1931200027
 2360.9191895 12.000000000 18.593999863 -0.004000000 0.3369100094 2.4833316803 47.123600006 106.24918365 103.52124786 0.9409807324 70.249000549 1.2178366184 1.2178366184
 2361.0717773 13.000000000 18.608999252 -0.011000000 0.3081099987 2.4784946442 46.703624725 106.43097687 103.74323273 0.9350288510 70.248695374 1.1666923761 1.1666923761
 2361.2241211 13.000000000 18.641000748 -0.013000000 0.3212900162 2.4678163528 49.940849304 107.77034760 104.93391418 0.9410672784 70.185096741 1.1028269529 1.1028269529
 2361.3764648 13.000000000 18.656000137 -0.013000000 0.3271499872 2.4617991447 50.567298889 109.39359283 106.61476898 0.9550383687 70.002601624 1.0669808388 1.0669808388
 2361.5288086 13.000000000 18.672000885 -0.007000000 0.3349599838 2.4622213840 58.089595795 110.11827850 107.27374268 0.9629999995 70.747192383 1.0630223751 1.0630223751
 2361.6813965 13.000000000 18.687999725 -0.004000000 0.3256800175 2.4676487446 56.713890076 109.15645599 106.18681335 0.9629807472 70.186897278 1.0702741146 1.0702741146
 2361.8337402 13.000000000 18.702999115 -0.007000000 0.3110400140 2.4776506424 55.623996735 107.31590271 104.42100525 0.9590048194 70.373397827 1.1273653507 1.1273653507
 2361.9860840 13.000000000 18.702999115 -0.007000000 0.2954100072 2.4880270958 49.013050079 105.91921234 103.26751709 0.9600527883 70.249298096 1.2031295300 1.2031295300
 2362.1384277 13.000000000 18.733999252 -0.005000000 0.2993199825 2.4919223785 51.723407745 106.11949921 103.38303375 0.9710512757 70.310997009 1.2298237085 1.2298237085
 2362.2910156 13.000000000 18.687999725 -0.002000000 0.3305699825 2.4851937294 53.087390900 106.87046051 103.92857361 0.9871105552 70.310699463 1.1746778488 1.1746778488
 2362.4433594 13.000000000 18.687999725 -0.007000000 0.3315399885 2.4739942551 51.712089539 107.59026337 104.82712555 1.0100768805 70.252609253 1.1079471111 1.1079471111
 2362.5957031 13.000000000 18.687999725 -0.007000000 0.3608399928 2.4745385647 50.280700684 107.38036346 104.63812256 1.0259952545 71.003204346 1.0972260237 1.0972260237
 2362.7480469 13.000000000 18.687999725 -0.007000000 0.3339799941 2.4829640388 50.217350006 106.81357574 103.97107697 1.0249807835 71.875495911 1.1443408728 1.1443408728
 2362.9003906 13.000000000 18.687999725 -0.007000000 0.3334999979 2.4860782623 49.878204346 106.19800568 103.28967285 1.0209776163 72.184394836 1.2151539326 1.2151539326
 2363.0529785 13.000000000 18.733999252 -0.010000000 0.3037100136 2.4807839394 50.873649597 105.68907166 102.93147278 1.0139808655 71.686897278 1.2629567385 1.2629567385
 2363.2053223 13.000000000 18.766000748 -0.009000000 0.3037100136 2.4786462784 50.596103668 106.68260956 103.91924286 1.0099663734 71.871292114 1.2537883520 1.2537883520
 2363.3576660 13.000000000 18.750000000 -0.014000000 0.3056600094 2.4768688679 51.008796692 107.13976288 104.27510071 1.0029327869 71.309799194 1.2098944187 1.2098944187
 2363.5100098 13.000000000 18.750000000 -0.017999999 0.2880899906 2.4687104225 46.404396057 107.15230560 104.25380707 0.9889102578 71.061798096 1.1878974438 1.1878974438
 2363.6625977 12.000000000 18.733999252 -0.021000000 0.2949199975 2.4581830502 45.924026489 108.15324402 105.32137299 0.9608750343 71.306190491 1.1557548046 1.1557548046
 2363.8149414 12.000000000 18.733999252 -0.015000000 0.3315399885 2.4552462101 49.668773651 109.12179565 106.31625366 0.9349038601 70.301681519 1.1047211885 1.1047211885
 2363.9672852 12.000000000 18.733999252 -0.013000000 0.3486299813 2.4536304474 52.339244843 110.10968018 107.21246338 0.9149568081 68.386604309 1.0468657017 1.0468657017
 2364.1196289 12.000000000 18.608999252 -0.013000000 0.3505899906 2.4499340057 57.768680573 110.43657684 107.63055420 0.9060192704 71.001205444 1.0189871788 1.0189871788
 2364.2722168 12.000000000 18.608999252 -0.013000000 0.3320299983 2.4461638927 53.920871735 110.84725189 108.05791473 0.9121009707 71.683898926 1.0149807930 1.0149807930
 2364.4245605 12.000000000 18.593999863 -0.009000000 0.3393599987 2.4514627457 50.357719421 110.95803833 108.03433228 0.9330673218 71.246894836 1.0111010075 1.0111010075
 2364.5769043 12.000000000 18.608999252 -0.007000000 0.3276399970 2.4638950825 46.794818878 109.73864746 106.83306885 0.9470288754 70.811897278 1.0324133635 1.0324133635
 2364.7292480 12.000000000 18.608999252 -0.010000000 0.3208000064 2.4718315601 49.676399231 107.63570404 104.86710358 0.9530383945 70.997200012 1.1186528206 1.1186528206
 2364.8815918 12.000000000 18.641000748 -0.016000001 0.2890599966 2.4677789211 53.902694702 106.09157562 103.34661865 0.9610224366 70.624801636 1.2541409731 1.2541409731
 2365.0341797 12.000000000 18.641000748 -0.017999999 0.3017388880 2.4605867863 52.859077454 105.15856171 102.39914703 0.9680288434 70.871894836 1.2976682186 1.2976682186
 2365.1865234 12.000000000 18.641000748 -0.016000001 0.2885801792 2.4579546452 49.560596466 105.72777557 103.08498383 0.9740913510 70.435997009 1.2285288572 1.2285288572
 2365.3388672 12.000000000 18.625000000 -0.013000000 0.2949199975 2.4591987133 49.049949646 108.03890991 105.37239075 0.9930095673 70.434799194 1.1307359934 1.1307359934
 2365.4912109 12.000000000 18.625000000 -0.010000000 0.2846699953 2.4585819244 46.346904755 109.00704956 106.26116180 0.9949455261 70.185798645 1.0759903193 1.0759903193
 2365.6437988 12.000000000 18.625000000 -0.013000000 0.2934897244 2.4537971020 47.233924866 108.38957214 105.55551910 0.9779903889 70.130012512 1.0732451677 1.0732451677
 2365.7961426 12.000000000 18.641000748 -0.010000000 0.3120506704 2.4547367096 43.918922424 108.00707245 105.25707245 0.9760000110 71.376701355 1.1241250038 1.1241250038
 2365.9484863 12.000000000 18.625000000 -0.013000000 0.3373742402 2.4617931843 46.594001770 107.88179779 105.07615662 0.9759951830 71.935997009 1.1499663591 1.1499663591
 2366.1008301 12.000000000 18.672000885 -0.009000000 0.3212900162 2.4712960720 46.604820251 107.44477844 104.60013580 0.9750481248 71.934593201 1.1430320740 1.1430320740
 2366.2534180 12.000000000 18.718999863 -0.008000000 0.3334663510 2.4708170891 49.973808289 107.48033905 104.65685272 0.9900577068 71.503807068 1.1530673504 1.1530673504
 2366.4057617 13.000000000 18.641000748 -0.005000000 0.3125007749 2.4634304047 50.990783691 107.37786102 104.70528412 1.0020047426 72.495689392 1.1670769453 1.1670769453
 2366.5581055 13.000000000 18.608999252 -0.004000000 0.3129704595 2.4599547386 55.484077454 106.69156647 104.00466156 1.0030673742 71.807991028 1.1830096245 1.1830096245
 2366.7104492 13.000000000 18.608999252 -0.004000000 0.3007799983 2.4623646736 52.192497253 106.99922180 104.14257050 1.0171391964 71.185699463 1.1849615574 1.1849615574
 2366.8627930 13.000000000 18.608999252 -0.001000000 0.3222700059 2.4661197662 53.128204346 107.30944824 104.51145172 1.0460929871 71.123596191 1.1769134998 1.1769134998
 2367.0153809 13.000000000 18.625000000 0.0020000001 0.3486276269 2.4703810215 54.111778259 106.32328796 103.50196075 1.0751827955 70.987579346 1.1500240564 1.1500240564
 2367.1677246 13.000000000 18.641000748 0.0000000000 0.3471293747 2.4775600433 51.352466583 105.79102325 102.89884186 1.1131683588 68.635116577 1.1554374695 1.1554374695
 2367.3200684 12.000000000 18.672000885 -0.001000000 0.3217800260 2.4908049107 46.668045044 104.26705170 101.42637634 1.1480047703 70.936302185 1.2467008829 1.2467008829
 2367.4724121 12.000000000 18.750000000 -0.004000000 0.3032200038 2.5046548843 42.551631927 101.72235107 99.032287598 1.1490097046 70.998802185 1.3922402859 1.3922402859
 2367.6250000 12.000000000 18.781000137 -0.008000000 0.2993457913 2.5073199272 48.967498779 100.94927979 98.153976440 1.1519663334 70.934494019 1.4666442871 1.4666442871
