# LAS format log file from PETREL
# Project units are specified as depth units
#==================================================================
~Version information
VERS.   2.0:
WRAP.   NO:
#==================================================================
~Well
STRT .m      581.07043457 :
STOP .m      2909.8947754 :
STEP .m     0.00000000 :
NULL .        -999.250000 :
COMP.           : COMPANY
WELL.  30/6-14   : WELL
FLD.            : FIELD
LOC.            : LOCATION
SRVC.           : SERVICE COMPANY
DATE.  2018-09-11 14:48:30   : Log Export Date {yyyy-MM-dd HH:mm:ss}
PROV.           : PROVINCE
UWI.   30/6-14   : UNIQUE WELL ID
API.            : API NUMBER
#==================================================================
~Curve
DEPT .m                   : DEPTH
Lithology_geolink ._      : Lithology_geolink
CALI .in                  : CALI
DRHO .g/cm3               : DRHO
NPHI .m3/m3               : NPHI
RHOB .g/cm3               : RHOB
GR .gAPI                  : GR
DTC .us/ft                : DTC
RDEP .ohm.m               : RDEP
SP .mV                    : SP
RSHA .ohm.m               : RSHA
RMED .ohm.m               : RMED
~Parameter
#==================================================================
~Ascii
# ...
 1358.3104248  -999.250000 18.343999863 0.0070000002  -999.250000 1.9559999704 107.31270599 140.25039673 0.9130961299 52.811546326  -999.250000 1.0529887676
 1358.4628906  -999.250000 18.687999725 0.0049999999  -999.250000 1.9559999704 114.73809052 142.74600220 0.8730641007 51.782649994  -999.250000 1.0549967289
 1358.6152344  -999.250000 18.172000885 0.0140000004  -999.250000 1.9259999990 113.12760162 144.49719238 0.8510352969 51.656200409  -999.250000 1.0070768595
 1358.7675781  -999.250000 17.952999115 0.0439999998  -999.250000 1.8799999952 114.31015015 144.99879456 0.8470095992 52.248573303  -999.250000 0.9780696630
 1358.9200439  -999.250000 17.750000000 0.0700000003  -999.250000 1.8500000238 112.94020844 146.24800110 0.8829423189 51.719852448  -999.250000 0.9650208354
 1359.0723877  -999.250000 18.250000000 0.0619999990  -999.250000 1.8420000076 115.49384308 145.25239563 0.8989615440 50.877025604  -999.250000 0.9819591641
 1359.2248535  -999.250000 17.968999863 0.0390000008  -999.250000 1.8689999580 121.05408478 142.75401306 0.9159727693 49.502204895  -999.250000 0.9999711514
 1359.3771973  -999.250000 18.281000137 0.0250000004  -999.250000 1.9299999475 116.76036072 141.50300598 0.9509159327 49.064048767  -999.250000 1.0399038792
 1359.5296631  -999.250000 18.093999863 0.0099999998  -999.250000 1.9479999542 105.45613098 140.25199890 1.0069102049 48.594753265  -999.250000 1.0819326639
 1359.6820068  -999.250000 17.906000137 -0.002000000  -999.250000 1.9689999819 95.523872375 138.25480652 1.0389231443 49.685371399  -999.250000 1.2096925974
 1359.8344727  -999.250000 17.625000000 -0.018999999  -999.250000 1.9650000334 88.948516846 136.00360107 1.0679534674 49.219753265  -999.250000 1.2748957872
 1359.9868164  -999.250000 17.625000000 -0.018999999  -999.250000 1.9830000401 88.126953125 137.49639893 1.0819664001 49.842498779  -999.250000 1.2939543724
 1360.1392822  -999.250000 17.641000748 -0.015000000  -999.250000 1.9910000563 91.120193481 138.24879456 1.0969759226 50.811447144  -999.250000 1.2570592165
 1360.2916260  -999.250000 17.687999725 -0.013000000  -999.250000 1.9889999628 98.919235229 138.25000000 1.1019879580 51.716827393  -999.250000 1.2280696630
 1360.4440918  -999.250000 17.641000748 -0.013000000  -999.250000 1.9859999418 101.49589539 140.99559021 1.0500832796 51.188850403  -999.250000 1.2100288868
 1360.5964355  -999.250000 17.656000137 -0.016000001  -999.250000 1.9479999542 103.62159729 142.99679565 1.0669727325 51.374698639  -999.250000 1.1101602316
 1360.7487793  -999.250000 17.891000748 0.0000000000  -999.250000 1.9459999800 101.38040161 142.00239563 1.0540312529 51.468776703  -999.250000 1.0720913410
 1360.9012451  -999.250000 18.108999252 -0.001000000  -999.250000 1.9199999571 103.18509674 141.75039673 1.0809566975 51.812446594  -999.250000 1.0190849304
 1361.0535889  -999.250000 18.500000000 0.0070000002  -999.250000 1.9600000381 100.13235474 141.25120544 1.0480792522 51.874851227  -999.250000 1.0978102684
 1361.2060547  -999.250000 17.718999863 -0.007000000  -999.250000 1.9680000544 102.05989838 139.00360107 1.0360192060 51.064300537  -999.250000 1.1539102793
 1361.3583984  -999.250000 17.733999252 -0.009000000  -999.250000 1.9930000305 97.510963440 139.00000000 1.0260239840 51.498950958  -999.250000 1.2298175097
 1361.5108643  -999.250000 17.641000748 -0.017999999  -999.250000 1.9759999514 92.071716309 138.25120544 1.0709278584 51.438098907  -999.250000 1.2499679327
 1361.6632080  -999.250000 17.641000748 -0.018999999  -999.250000 1.9680000544 88.009757996 137.25239563 1.0959398746 52.528373718  -999.250000 1.2589783669
 1361.8156738  -999.250000 17.608999252 -0.014000000  -999.250000 1.9600000381 90.495994568 138.24839783 1.1359359026 51.345905304  -999.250000 1.2230577469
 1361.9680176  -999.250000 17.672000885 0.0000000000  -999.250000 1.9400000572 93.430946350 137.25239563 1.1699182987 51.219303131  -999.250000 1.1860889196
 1362.1204834  -999.250000 17.750000000 0.0089999996  -999.250000 1.9210000038 96.994293213 129.01321411 1.1500320435 51.374748230  -999.250000 1.1340832710
 1362.2728271  -999.250000 17.952999115 0.0130000003  -999.250000 1.9240000248 95.566452026 119.02401733 1.0841585398 51.313148499  -999.250000 1.1589399576
 1362.4252930  -999.250000 17.983999252 0.0070000002  -999.250000 1.9349999428 97.185401917 116.25440979 1.0151106119 50.532253265  -999.250000 1.2009326220
 1362.5776367  -999.250000 17.797000885 0.0080000004  -999.250000 1.9409999847 105.61148071 117.74759674 0.9770609140 49.407802582  -999.250000 1.1840273142
 1362.7299805  -999.250000 17.750000000 0.0250000004  -999.250000 1.9450000525 109.42884827 128.47418213 0.9720119834 49.156597137  -999.250000 1.1261394024
 1362.8824463  -999.250000 17.750000000 0.0439999998  -999.250000 1.9459999800 116.80118561 138.98316956 0.9859775901 49.374649048  -999.250000 1.0481250286
 1363.0347900  -999.250000 17.891000748 0.0549999997  -999.250000 1.9630000591 107.89646912 141.74339294 0.9929831624 50.528221130  -999.250000 1.0430120230
 1363.1872559  -999.250000 17.952999115 0.0570000000  -999.250000 1.9759999514 105.75340271 142.49879456 0.9969935417 50.125652313  -999.250000 1.0410032272
 1363.3395996  -999.250000 17.750000000 0.0549999997  -999.250000 1.9800000191 101.57305908 142.99879456 0.9700648785 50.623798370  -999.250000 1.0739207268
 1363.4920654  -999.250000 17.812999725 0.0489999987  -999.250000 1.9830000401 102.99769592 143.00000000 0.9650079608 51.093250275  -999.250000 1.0859807730
 1363.6444092  -999.250000 17.827999115 0.0230000000  -999.250000 1.9689999819 102.62590027 141.75300598 0.9679927826 52.153446198  -999.250000 1.1159280539
 1363.7968750  -999.250000 17.766000748 0.0060000001  -999.250000 1.9759999514 100.31671143 140.25241089 0.9859711528 51.501052856  -999.250000 1.1299775839
 1363.9492188  -999.250000 17.702999115 -0.005000000  -999.250000 1.9709999561 98.254951477 142.74398804 1.0079472065 50.751800537  -999.250000 1.1499519348
 1364.1016846  -999.250000 17.750000000 -0.008000000  -999.250000 1.9700000286 101.61959076 142.50039673 1.0718975067 50.563301086  -999.250000 1.1430112123
 1364.2540283  -999.250000 17.733999252 0.0000000000  -999.250000 1.9769999981 101.31375122 142.25059509 1.0939471722 51.403972626  -999.250000 1.1330239773
 1364.4064941  -999.250000 17.750000000 0.0010000000  -999.250000 1.9769999981 102.56099701 141.75080872 1.1259487867 51.593700409  -999.250000 1.1499726772
 1364.5588379  -999.250000 17.766000748 -0.003000000  -999.250000 1.9750000238 100.50330353 139.25401306 1.1319903135 51.063850403  -999.250000 1.1919326782
 1364.7113037  -999.250000 17.733999252 -0.020000000  -999.250000 1.9680000544 96.880805969 138.25160217 1.1519678831 51.218753815  -999.250000 1.2319359779
 1364.8636475  -999.250000 17.641000748 -0.030999999  -999.250000 1.9650000334 95.190704346 137.50120544 1.1310336590 51.188049316  -999.250000 1.2479743958
 1365.0159912  -999.250000 17.641000748 -0.030999999  -999.250000 1.9739999771 92.569305420 137.99879456 1.1180312634 52.028972626  -999.250000 1.2489975691
 1365.1684570  -999.250000 17.750000000 -0.027000001  -999.250000 1.9769999981 92.375297546 137.75039673 1.0990303755 51.064552307  -999.250000 1.2370191813
 1365.3208008  -999.250000 17.625000000 -0.020000000  -999.250000 1.9830000401 99.046936035 141.98979187 1.1289279461 51.062999725  -999.250000 1.2010864019
 1365.4732666  -999.250000 17.625000000 -0.018999999  -999.250000 1.9709999561 102.55739594 144.24639893 1.1579535007 51.530246735  -999.250000 1.1420944929
 1365.6256104  -999.250000 17.858999252 -0.001000000  -999.250000 1.9910000563 111.04258728 143.75120544 1.1121104956 51.749473572  -999.250000 1.1160625219
 1365.7780762  -999.250000 17.843999863 -0.003000000  -999.250000 1.9869999886 106.75691223 141.75320435 1.0750592947 51.250801086  -999.250000 1.1179968119
 1365.9304199  -999.250000 17.891000748 -0.006000000  -999.250000 1.9980000257 100.57786560 139.25601196 1.0440745354 50.096778870  -999.250000 1.1589015722
