# LAS format log file from PETREL
# Project units are specified as depth units
#==================================================================
~Version information
VERS.   2.0:
WRAP.   NO:
#==================================================================
~Well
STRT .m      933.99749756 :
STOP .m      3610.7521973 :
STEP .m     0.00000000 :
NULL .        -999.250000 :
COMP.           : COMPANY
WELL.  30/6-8   : WELL
FLD.            : FIELD
LOC.            : LOCATION
SRVC.           : SERVICE COMPANY
DATE.  2018-09-11 14:48:31   : Log Export Date {yyyy-MM-dd HH:mm:ss}
PROV.           : PROVINCE
UWI.   30/6-8   : UNIQUE WELL ID
API.            : API NUMBER
#==================================================================
~Curve
DEPT .m                   : DEPTH
Lithology_geolink ._      : Lithology_geolink
CALI .in                  : CALI
DRHO .g/cm3               : DRHO
NPHI .m3/m3               : NPHI
RHOB .g/cm3               : RHOB
GR .gAPI                  : GR
DTC .us/ft                : DTC
DTE .us/ft                : DTE
RDEP .ohm.m               : RDEP
SP .mV                    : SP
RSHA .ohm.m               : RSHA
RMED .ohm.m               : RMED
~Parameter
#==================================================================
~Ascii
# ...
 1109.5623779  -999.250000 20.218999863 0.0010000000 0.4472700059 1.9633504152 53.186546326 137.20732117 132.67568970 1.7230024338 68.813247681 1.4289808273 1.4289808273
 1109.7147217  -999.250000 21.719001770 0.0040000002 0.4238300025 1.9782384634 51.378051758 137.15653992 132.59710693 1.7259839773 71.624198914 1.4050127268 1.4050127268
 1109.8670654  -999.250000 20.500000000 0.0000000000 0.4453099966 1.9895473719 55.187999725 139.06047058 134.52622986 1.7059999704 71.874000549 1.4210000038 1.4210000038
 1110.0195313  -999.250000 19.750000000 0.0020000001 0.4340800047 1.9984064102 48.409351349 141.16098022 136.62583923 1.6909855604 71.372352600 1.3989872932 1.3989872932
 1110.1718750  -999.250000 21.016002655 0.0060000001 0.4257799983 2.0077431202 52.594001770 143.76792908 139.17390442 1.6729999781 69.310997009 1.3830000162 1.3830000162
 1110.3243408  -999.250000 22.422000885 0.0060000001 0.4335900247 2.0174474716 48.846931458 144.76313782 140.17398071 1.6730023623 70.561294556 1.3940000534 1.3940000534
 1110.4766846  -999.250000 22.562999725 0.0040000002 0.4604499936 2.0258212090 52.501426697 142.88212585 138.34043884 1.6760047674 70.938400269 1.3940064907 1.3940064907
 1110.6291504  -999.250000 22.827999115 0.0000000000 0.4599599838 2.0268397331 54.284778595 140.05818176 135.50485229 1.6819912195 73.930389404 1.4020191431 1.4020191431
 1110.7814941  -999.250000 21.625000000 0.0010000000 0.4321300089 2.0197076797 59.000724792 137.29011536 132.72012329 1.6710168123 66.935493469 1.4259903431 1.4259903431
 1110.9339600  -999.250000 21.906000137 0.0060000001 0.4150400162 2.0116488934 59.904544830 134.37690735 129.81826782 1.6920112371 66.310699463 1.4140144587 1.4140144587
 1111.0863037  -999.250000 19.875000000 0.0060000001 0.4135699868 1.9932192564 58.088645935 133.74975586 129.24160767 1.7059959173 65.935745239 1.4319776297 1.4319776297
 1111.2387695  -999.250000 19.812999725 0.0070000002 0.4169900119 1.9703843594 51.406425476 135.00868225 130.52143860 1.7010008097 65.623146057 1.4040104151 1.4040104151
 1111.3911133  -999.250000 19.391000748 0.0030000000 0.4047900140 1.9511948824 51.937324524 136.97633362 132.46026611 1.7019984722 64.562248230 1.4169840813 1.4169840813
 1111.5435791  -999.250000 19.562999725 0.0089999996 0.4101599753 1.9553635120 51.096355438 138.88475037 134.33793640 1.6999824047 66.127151489 1.3970103264 1.3970103264
 1111.6959229  -999.250000 20.202999115 0.0049999999 0.3867200017 1.9798474312 54.030296326 139.13191223 134.57226563 1.6780047417 70.061248779 1.4099999666 1.4099999666
 1111.8483887  -999.250000 19.641000748 0.0060000001 0.3857400119 2.0036671162 53.154796600 138.94673157 134.26754761 1.6840176582 70.373847961 1.4100047350 1.4100047350
 1112.0007324  -999.250000 21.797000885 0.0020000001 0.3603500128 2.0147371292 51.655899048 139.18432617 134.56289673 1.7060015202 70.186447144 1.4160103798 1.4160103798
 1112.1530762  -999.250000 21.516000748 -0.001000000 0.3808599710 2.0143983364 51.530998230 136.66023254 132.16943359 1.7079999447 70.749000549 1.4290000200 1.4290000200
 1112.3055420  -999.250000 21.452999115 -0.002000000 0.4150400162 2.0112948418 49.690551758 134.98385620 130.49765015 1.7220008373 71.501106262 1.4249958992 1.4249958992
 1112.4578857  -999.250000 21.452999115 -0.003000000 0.4228500128 2.0064704418 52.874626160 136.86819458 132.44252014 1.7229816914 74.122146606 1.4199951887 1.4199951887
 1112.6103516  -999.250000 20.906000137 0.0000000000 0.4091799855 2.0051026344 52.404495239 137.77159119 133.32838440 1.6999912262 71.807594299 1.4140088558 1.4140088558
 1112.7626953  -999.250000 21.641000748 -0.002000000 0.3891600072 2.0082032681 50.528747559 137.76589966 133.16545105 1.6889832020 67.561248779 1.4250247478 1.4250247478
 1112.9151611  -999.250000 20.922000885 -0.003000000 0.4067400098 2.0132524967 47.720504761 138.37501526 133.75566101 1.6679903269 67.873497009 1.4560071230 1.4560071230
 1113.0675049  -999.250000 21.937997818 0.0010000000 0.4248000085 2.0190422535 49.597755432 137.31466675 132.73905945 1.6559952497 67.249252319 1.4650256634 1.4650256634
 1113.2199707  -999.250000 22.687999725 0.0060000001 0.4384799898 2.0225377083 54.280345917 137.57324219 132.96675110 1.6499928236 67.560844421 1.4970359802 1.4970359802
 1113.3723145  -999.250000 22.750000000 0.0060000001 0.4189499915 2.0210947990 53.468276978 139.68136597 135.08993530 1.6409631968 67.371047974 1.5420224667 1.5420224667
 1113.5247803  -999.250000 21.858999252 0.0030000000 0.4003900290 2.0161557198 52.564025879 142.58551025 138.04299927 1.5949727297 63.685295105 1.5699808598 1.5699808598
 1113.6771240  -999.250000 21.422000885 -0.001000000 0.3706099987 2.0127179623 53.845851898 144.62522888 140.00070190 1.5609840155 62.816253662 1.5459775925 1.5459775925
 1113.8295898  -999.250000 22.733999252 -0.001000000 0.3789099753 2.0154201984 56.157375336 143.84280396 139.32429504 1.5409823656 69.373802185 1.5179799795 1.5179799795
 1113.9819336  -999.250000 22.687999725 -0.001000000 0.3950199783 2.0266897678 57.876075745 141.47474670 136.99884033 1.5190048218 69.123199463 1.4929776192 1.4929776192
 1114.1342773  -999.250000 21.983999252 0.0010000000 0.4228500128 2.0388882160 59.219001770 139.32221985 134.79916382 1.5249999762 68.124000549 1.4650000334 1.4650000334
 1114.2867432  -999.250000 21.375000000 0.0080000004 0.4340800047 2.0467834473 59.154071808 139.56217957 134.99082947 1.6021586657 69.749855042 1.4399511814 1.4399511814
 1114.4390869  -999.250000 21.405998230 0.0199999996 0.4379900098 2.0617084503 56.745845795 136.35711670 131.86480713 1.8002160788 70.811096191 1.3790783882 1.3790783882
 1114.5915527  -999.250000 21.233999252 0.0189999994 0.4531300068 2.1137833595 51.558265686 121.26953125 116.72393799 2.0703196526 70.936195374 1.4773629904 1.4773629904
 1114.7438965  -999.250000 20.172000885 0.0040000002 0.4213899970 2.2224533558 45.652744293 101.64967346 96.983108521 2.4692971706 71.181396484 1.9319791794 1.9319791794
 1114.8963623  -999.250000 20.655998230 -0.006000000 0.3217800260 2.3812935352 41.592597961 87.935417175 83.341842651 2.8402795792 65.439300537 4.4080567360 4.4080567360
 1115.0487061  -999.250000 20.781000137 -0.011000000 0.2080100030 2.5151603222 39.843902588 75.295303345 70.813072205 3.1892538071 69.562797546 11.958398819 11.958398819
 1115.2011719  -999.250000 19.437999725 -0.012000000 0.1625999957 2.5633027554 39.716823578 66.030273438 61.513225555 3.5058686733 71.810897827 8.7082653046 8.7082653046
 1115.3535156  -999.250000 19.375000000 -0.017999999 0.1581999958 2.5443077087 37.000625610 70.536796570 65.993858337 3.3417375088 71.682495117 5.2953906059 5.2953906059
 1115.5059814  -999.250000 19.250000000 -0.023000000 0.1543000042 2.4554450512 37.784729004 79.056297302 74.499549866 3.0137786865 67.311149597 3.2859952450 3.2859952450
 1115.6583252  -999.250000 19.250000000 -0.007000000 0.1650400013 2.3172819614 42.444328308 90.904655457 86.416404724 2.7377388477 67.499198914 2.0325243473 2.0325243473
 1115.8107910  -999.250000 20.608997345 0.0040000002 0.2319300026 2.1695261002 50.349159241 110.16004181 105.60878754 2.4118108749 67.749649048 1.4388974905 1.4388974905
 1115.9631348  -999.250000 23.077999115 0.0140000004 0.3168900013 2.0705397129 56.779823303 134.41355896 129.83767700 2.1758337021 68.560348511 1.3110208511 1.3110208511
 1116.1154785  -999.250000 23.125000000 0.0060000001 0.4150400162 2.0355517864 55.312999725 142.50166321 138.02888489 1.9680000544 67.749000549 1.3370000124 1.3370000124
 1116.2679443  -999.250000 23.125000000 0.0040000002 0.4238300025 2.0430538654 53.341922760 137.32136536 132.73175049 1.7488774061 64.316604614 1.4550969601 1.4550969601
 1116.4202881  -999.250000 21.344001770 0.0000000000 0.4375000000 2.0579295158 50.749774933 135.97776794 131.29067993 1.5959695578 71.311050415 1.5760135651 1.5760135651
 1116.5727539  -999.250000 22.733999252 0.0049999999 0.4199199975 2.0583052635 50.470180511 136.31878662 131.68930054 1.5579984188 71.374198914 1.5929840803 1.5929840803
 1116.7250977  -999.250000 23.218997955 0.0070000002 0.4179700017 2.0566000938 51.937625885 137.34542847 132.87835693 1.5560079813 71.624504089 1.5729879141 1.5729879141
