# LAS format log file from PETREL
# Project units are specified as depth units
#==================================================================
~Version information
VERS.   2.0:
WRAP.   NO:
#==================================================================
~Well
STRT .m      581.07043457 :
STOP .m      2909.8947754 :
STEP .m     0.00000000 :
NULL .        -999.250000 :
COMP.           : COMPANY
WELL.  30/6-14   : WELL
FLD.            : FIELD
LOC.            : LOCATION
SRVC.           : SERVICE COMPANY
DATE.  2018-09-11 14:48:30   : Log Export Date {yyyy-MM-dd HH:mm:ss}
PROV.           : PROVINCE
UWI.   30/6-14   : UNIQUE WELL ID
API.            : API NUMBER
#==================================================================
~Curve
DEPT .m                   : DEPTH
Lithology_geolink ._      : Lithology_geolink
CALI .in                  : CALI
DRHO .g/cm3               : DRHO
NPHI .m3/m3               : NPHI
RHOB .g/cm3               : RHOB
GR .gAPI                  : GR
DTC .us/ft                : DTC
RDEP .ohm.m               : RDEP
SP .mV                    : SP
RSHA .ohm.m               : RSHA
RMED .ohm.m               : RMED
~Parameter
#==================================================================
~Ascii
# ...
 891.96649170  -999.250000 17.593999863 0.0480000004  -999.250000 1.8680000305 91.885017395 144.24839783 1.6159664392 57.843200684  -999.250000 1.2200129032
 892.11883545  -999.250000 17.702999115 0.0729999989  -999.250000 1.8910000324 90.191383362 142.75300598 1.5980360508 59.527618408  -999.250000 1.2429540157
 892.27124023  -999.250000 17.733999252 0.0630000010  -999.250000 1.8940000534 90.998374939 140.50450134 1.5610741377 59.031997681  -999.250000 1.2759339809
 892.42364502  -999.250000 17.641000748 0.0070000002  -999.250000 1.8539999723 87.694633484 140.50000000 1.5200821161 58.781497955  -999.250000 1.2630259991
 892.57604980  -999.250000 17.531000137 -0.003000000  -999.250000 1.8569999933 86.690002441 139.50199890 1.5020359755 57.783000946  -999.250000 1.2440379858
 892.72845459  -999.250000 17.593999863 -0.015000000  -999.250000 1.8470000029 81.884635925 139.99899292 1.5359319448 58.467624664  -999.250000 1.2559759617
 892.88085938  -999.250000 17.625000000 -0.009000000  -999.250000 1.8600000143 85.430870056 143.24349976 1.5629458427 58.406124115  -999.250000 1.2869378328
 893.03326416  -999.250000 17.656000137 -0.018999999  -999.250000 1.8389999866 88.057746887 143.25000000 1.6248759031 57.969875336  -999.250000 1.2830079794
 893.18566895  -999.250000 17.483999252 -0.021000000  -999.250000 1.8339999914 89.996124268 142.50149536 1.6878738403 57.906124115  -999.250000 1.2570520639
 893.33807373  -999.250000 17.422000885 -0.021000000  -999.250000 1.8289999962 92.932121277 140.25450134 1.6989779472 58.030746460  -999.250000 1.2460221052
 893.49047852  -999.250000 17.483999252 -0.017000001  -999.250000 1.8380000591 95.432998657 139.75100708 1.6890200377 58.717624664  -999.250000 1.2919079065
 893.64288330  -999.250000 17.516000748 -0.016000001  -999.250000 1.8359999657 101.99211121 143.49548340 1.6700228453 58.594150543  -999.250000 1.3179687262
 893.79528809  -999.250000 17.516000748 -0.010000000  -999.250000 1.8420000076 102.37454987 146.99578857 1.7019615173 58.281375885  -999.250000 1.2720552683
 893.94769287  -999.250000 17.516000748 -0.010000000  -999.250000 1.8320000172 98.317886353 147.74909973 1.7439495325 58.188110352  -999.250000 1.2300504446
 894.10009766  -999.250000 17.608999252 -0.009000000  -999.250000 1.8380000591 94.379730225 145.50270081 1.7709676027 59.186798096  -999.250000 1.2419855595
 894.25244141  -999.250000 17.593999863 -0.010000000  -999.250000 1.8470000029 96.496597290 139.01040649 1.7590191364 57.721355438  -999.250000 1.3118878603
 894.40484619  -999.250000 17.641000748 -0.013000000  -999.250000 1.8660000563 97.561302185 137.50239563 1.7120753527 57.469402313  -999.250000 1.3838845491
 894.55725098  -999.250000 17.702999115 -0.009000000  -999.250000 1.8819999695 98.686203003 139.99600220 1.6780544519 56.002353668  -999.250000 1.3700224161
 894.70965576  -999.250000 17.656000137 -0.006000000  -999.250000 1.8919999599 95.068809509 141.74719238 1.6460512877 56.280548096  -999.250000 1.3001121283
 894.86206055  -999.250000 17.608999252 0.0000000000  -999.250000 1.8990000486 93.939804077 141.99960327 1.5870945454 56.530597687  -999.250000 1.2171329260
 895.01446533  -999.250000 17.608999252 0.0000000000  -999.250000 1.9049999714 89.320411682 143.99679565 1.5490609407 56.780597687  -999.250000 1.1920400858
 895.16687012  -999.250000 18.031000137 -0.008000000  -999.250000 1.8860000372 89.250099182 145.24800110 1.5280336142 57.030597687  -999.250000 1.2159614563
 895.31927490  -999.250000 17.750000000 -0.008000000  -999.250000 1.8589999676 91.745994568 148.24519348 1.5060353279 57.654998779  -999.250000 1.2199935913
 895.47161865  -999.250000 18.062999725 -0.008000000  -999.250000 1.8409999609 93.496498108 150.49549866 1.4960200787 58.935432434  -999.250000 1.2090220451
 895.62402344  -999.250000 18.562999725 -0.007000000  -999.250000 1.8300000429 92.689308167 149.50160217 1.4840191603 59.280448914  -999.250000 1.1990159750
 895.77642822  -999.250000 17.718999863 -0.011000000  -999.250000 1.8380000591 89.942405701 144.00880432 1.4580415487 58.906597137  -999.250000 1.2049903870
 895.92877197  -999.250000 17.766000748 -0.017000001  -999.250000 1.8439999819 94.366111755 140.25750732 1.4570020437 58.314186096  -999.250000 1.2449198961
 896.08117676  -999.250000 17.766000748 -0.021000000  -999.250000 1.8539999723 89.260261536 140.74899292 1.4829479456 58.499626160  -999.250000 1.2819257975
 896.23358154  -999.250000 17.781000137 -0.022000000  -999.250000 1.8530000448 90.622245789 140.99949646 1.4969719648 58.718563080  -999.250000 1.3199239969
 896.38598633  -999.250000 17.750000000 -0.022000000  -999.250000 1.8480000496 87.880508423 141.49899292 1.5259419680 58.688060760  -999.250000 1.3649098873
 896.53839111  -999.250000 17.781000137 -0.021000000  -999.250000 1.8519999981 97.106475830 140.75149536 1.5679159164 57.690002441  -999.250000 1.3809679747
 896.69079590  -999.250000 17.875000000 -0.028000001  -999.250000 1.8539999723 96.875503540 140.25100708 1.5739879608 57.874626160  -999.250000 1.3640340567
 896.84320068  -999.250000 17.937999725 -0.030999999  -999.250000 1.8500000238 94.692382813 139.50149536 1.5859758854 57.937873840  -999.250000 1.3220840693
 896.99560547  -999.250000 17.952999115 -0.030999999  -999.250000 1.8489999771 84.583274841 138.25250244 1.5620480776 58.686496735  -999.250000 1.2950540781
 897.14801025  -999.250000 17.875000000 -0.021000000  -999.250000 1.8619999886 85.747619629 139.24800110 1.5440360308 57.377628326  -999.250000 1.2910079956
 897.30041504  -999.250000 17.687999725 -0.020000000  -999.250000 1.8750000000 84.751998901 143.49148560 1.5280320644 57.344062805  -999.250000 1.3029758930
 897.45281982  -999.250000 17.656000137 -0.015000000  -999.250000 1.8839999437 88.991493225 145.49600220 1.5200159550 58.123435974  -999.250000 1.2930200100
 897.60522461  -999.250000 17.733999252 -0.021000000  -999.250000 1.8730000257 89.561874390 146.74749756 1.5080240965 57.719814301  -999.250000 1.2900059223
 897.75762939  -999.250000 17.812999725 -0.021000000  -999.250000 1.8760000467 92.620094299 145.75160217 1.5159871578 57.375553131  -999.250000 1.2899999619
 897.90997314  -999.250000 18.125000000 -0.028999999  -999.250000 1.8710000515 93.810623169 144.25300598 1.5020279884 55.659439087  -999.250000 1.3289219141
 898.06237793  -999.250000 17.922000885 -0.021000000  -999.250000 1.8810000420 96.557495117 141.25601196 1.4920200109 55.219875336  -999.250000 1.3349879980
 898.21478271  -999.250000 17.827999115 -0.017000001  -999.250000 1.8730000257 94.753631592 140.25199890 1.4969899654 55.312812805  -999.250000 1.3479740620
 898.36718750  -999.250000 18.031000137 -0.010000000  -999.250000 1.8669999838 96.496498108 140.49949646 1.4570801258 56.435745239  -999.250000 1.3489979506
 898.51959229  -999.250000 17.718999863 -0.011000000  -999.250000 1.8619999886 92.258506775 139.50199890 1.4320501089 55.532814026  -999.250000 1.3330320120
 898.67199707  -999.250000 17.608999252 -0.008000000  -999.250000 1.8750000000 95.618240356 139.50000000 1.4439759254 56.092872620  -999.250000 1.3000659943
 898.82440186  -999.250000 17.718999863 -0.010000000  -999.250000 1.8899999857 92.319633484 137.50399780 1.4060760736 56.748687744  -999.250000 1.3339319229
 898.97680664  -999.250000 17.733999252 -0.011000000  -999.250000 1.8960000277 90.067512512 138.74749756 1.3940241337 57.717060089  -999.250000 1.3679319620
 899.12921143  -999.250000 17.687999725 -0.017000001  -999.250000 1.8880000114 87.380378723 140.49649048 1.4209458828 57.032375336  -999.250000 1.3809740543
 899.28161621  -999.250000 17.702999115 -0.012000000  -999.250000 1.8789999485 88.934875488 141.24850464 1.4449520111 56.470127106  -999.250000 1.3640340567
 899.43402100  -999.250000 17.687999725 -0.007000000  -999.250000 1.8339999914 93.241363525 140.75100708 1.4909079075 56.313312531  -999.250000 1.3360559940
 899.58642578  -999.250000 17.531000137 0.0109999999  -999.250000 1.7810000181 92.190132141 140.50050354 1.5478858948 56.998622894  -999.250000 1.3649419546
