# LAS format log file from PETREL
# Project units are specified as depth units
#==================================================================
~Version information
VERS.   2.0:
WRAP.   NO:
#==================================================================
~Well
STRT .m      360.12121582 :
STOP .m      3233.9282227 :
STEP .m     0.00000000 :
NULL .        -999.250000 :
COMP.           : COMPANY
WELL.  30/6-23   : WELL
FLD.            : FIELD
LOC.            : LOCATION
SRVC.           : SERVICE COMPANY
DATE.  2018-09-11 14:48:31   : Log Export Date {yyyy-MM-dd HH:mm:ss}
PROV.           : PROVINCE
UWI.   30/6-23   : UNIQUE WELL ID
API.            : API NUMBER
#==================================================================
~Curve
DEPT .m                   : DEPTH
Lithology_geolink ._      : Lithology_geolink
CALI .in                  : CALI
DRHO .g/cm3               : DRHO
NPHI .m3/m3               : NPHI
RHOB .g/cm3               : RHOB
GR .gAPI                  : GR
DTC .us/ft                : DTC
DTE .us/ft                : DTE
RDEP .ohm.m               : RDEP
SP .mV                    : SP
RSHA .ohm.m               : RSHA
RMED .ohm.m               : RMED
~Parameter
#==================================================================
~Ascii
# ...
 1750.0093994  -999.250000 12.570300102 0.0083999997  -999.250000 2.0160000324 62.814182281 138.79479980 138.58479309 0.5687997341 78.334701538  -999.250000 0.5590941310
 1750.1618652  -999.250000 12.492199898 0.0065000001  -999.250000 1.9644999504 61.298751831 138.79479980 138.58479309 0.5685004592 78.333099365  -999.250000 0.5517428517
 1750.3142090  -999.250000 12.765601158 0.0046999999  -999.250000 1.9014999866 61.142498016 138.69883728 138.58479309 0.5688001513 77.334503174  -999.250000 0.5160995722
 1750.4666748  -999.250000 13.117199898 0.0007000000  -999.250000 1.8810000420 59.522815704 138.77784729 138.58479309 0.5689964890 77.084899902  -999.250000 0.5155859590
 1750.6190186  -999.250000 12.906200409 0.0004000000  -999.250000 1.9214999676 60.342830658 138.79632568 138.58479309 0.5667958260 77.210105896  -999.250000 0.5068262815
 1750.7714844  -999.250000 12.859399796 0.0027000001  -999.250000 2.0204999447 58.510913849 138.80123901 138.58479309 0.5615932941 77.708900452  -999.250000 0.5396483541
 1750.9238281  -999.250000 13.171899796 0.0063999998  -999.250000 2.1015999317 57.087181091 138.70037842 138.58479309 0.5573990941 77.209800720  -999.250000 0.5698133111
 1751.0761719  -999.250000 13.304699898 -0.000400000  -999.250000 2.0966000557 59.309928894 138.77767944 138.58479309 0.5563018322 77.334503174  -999.250000 0.5863761306
 1751.2286377  -999.250000 12.921899796 -0.009000000  -999.250000 2.1206998825 59.348045349 138.78977966 138.58479309 0.5586051941 77.084701538  -999.250000 0.5566101670
 1751.3809814  -999.250000 13.203100204 -0.001100000  -999.250000 2.1672999859 59.404262543 138.79965210 138.58479309 0.5651098490 77.084403992  -999.250000 0.5693011880
 1751.5334473  -999.250000 13.203100204 0.0031000001  -999.250000 2.1947000027 61.106155396 138.79635620 138.58479309 0.5774082541 76.709999084  -999.250000 0.5707675815
 1751.6857910  -999.250000 12.921899796 -0.005500000  -999.250000 2.0792996883 64.172248840 138.70542908 138.58479309 0.5877026320 77.084800720  -999.250000 0.5302956700
 1751.8382568  -999.250000 13.335899353 -0.009300000  -999.250000 2.0021998882 66.980941772 138.77293396 138.58479309 0.5910000801 77.209701538  -999.250000 0.5249062777
 1751.9906006  -999.250000 12.835900307 -0.001500000  -999.250000 2.0067000389 60.920833588 138.80119324 138.58479309 0.5910969973 77.210403442  -999.250000 0.5327250957
 1752.1430664  -999.250000 12.718799591 0.0017000000  -999.250000 2.0155999660 57.973369598 138.79635620 138.58479309 0.5873859525 78.085098267  -999.250000 0.5640046597
 1752.2954102  -999.250000 13.148399353 0.0018000000  -999.250000 2.0099999905 59.951843262 138.69230652 138.58479309 0.5785927176 78.335205078  -999.250000 0.5668953061
 1752.4478760  -999.250000 12.375000000 -0.000800000  -999.250000 1.9652999640 62.378669739 138.77619934 138.58479309 0.5694920421 78.957901001  -999.250000 0.5609953403
 1752.6002197  -999.250000 12.187500000 0.0006000000  -999.250000 1.9634000063 64.788406372 138.79631042 138.58479309 0.5644964576 77.834197998  -999.250000 0.5580976605
 1752.7526855  -999.250000 12.531200409 0.0022000000  -999.250000 1.9658000469 62.052162170 138.80123901 138.58479309 0.5600905418 77.209304810  -999.250000 0.5552265644
 1752.9050293  -999.250000 12.968799591 0.0013000000  -999.250000 1.9795000553 62.152645111 138.70037842 138.58479309 0.5541957617 76.959899902  -999.250000 0.5718176365
 1753.0573730  -999.250000 12.945300102 0.0013000000  -999.250000 1.9763000011 60.212886810 138.77767944 138.58479309 0.5488964915 77.209503174  -999.250000 0.5937776566
 1753.2098389  -999.250000 13.492199898 -0.004100000  -999.250000 1.9387999773 59.698474884 138.79631042 138.58479309 0.5444969535 76.959503174  -999.250000 0.5659043789
 1753.3621826  -999.250000 13.140601158 -0.003400000  -999.250000 1.9510999918 60.415695190 138.80123901 138.58479309 0.5406988263 76.709304810  -999.250000 0.5713039637
 1753.5146484  -999.250000 12.609399796 0.0037000000  -999.250000 1.9888000488 60.409133911 138.78984070 138.58479309 0.5392007828 76.209197998  -999.250000 0.5762258172
 1753.6669922  -999.250000 13.031200409 0.0063000000  -999.250000 2.0116999149 60.076431274 138.70384216 138.58479309 0.5402022600 75.584098816  -999.250000 0.6083929539
 1753.8194580  -999.250000 13.351599693 0.0008000000  -999.250000 1.9818999767 60.862201691 138.77293396 138.58479309 0.5430017710 74.834098816  -999.250000 0.5995918512
 1753.9718018  -999.250000 12.609399796 0.0029000000  -999.250000 1.9713000059 60.617500305 138.80119324 138.58479309 0.5452005267 74.084602356  -999.250000 0.5893967748
 1754.1242676  -999.250000 12.507800102 0.0002000000  -999.250000 2.0250999928 61.989253998 138.79635620 138.58479309 0.5459008813 73.959098816  -999.250000 0.5854046941
 1754.2766113  -999.250000 12.492199898 -0.005000000  -999.250000 2.0562000275 60.684383392 138.69883728 138.58479309 0.5470018387 73.208702087  -999.250000 0.5913559198
 1754.4290771  -999.250000 12.507800102 -0.010300000  -999.250000 2.0851998329 58.663532257 138.77777100 138.58479309 0.5493032336 71.958297729  -999.250000 0.6611195207
 1754.5814209  -999.250000 12.507800102 -0.007400000  -999.250000 2.1024000645 55.065658569 138.78977966 138.58479309 0.5513015985 71.084999084  -999.250000 0.6733192801
 1754.7338867  -999.250000 12.609399796 -0.007700000  -999.250000 2.1447000504 52.895385742 138.79966736 138.58479309 0.5533037186 71.459701538  -999.250000 0.6972084045
 1754.8862305  -999.250000 12.710900307 -0.000700000  -999.250000 2.1503999233 55.383758545 138.79635620 138.58479309 0.5556002259 71.459800720  -999.250000 0.6400828362
 1755.0386963  -999.250000 12.515600204 0.0002000000  -999.250000 2.1521000862 60.079120636 138.70533752 138.58479309 0.5558964610 71.583702087  -999.250000 0.6187069416
 1755.1910400  -999.250000 12.554699898 -0.001600000  -999.250000 2.1359000206 65.327323914 138.77293396 138.58479309 0.5536989570 70.959197998  -999.250000 0.6230199933
 1755.3433838  -999.250000 12.531200409 -0.002400000  -999.250000 2.1498999596 65.103073120 138.80119324 138.58479309 0.5523999333 70.335098267  -999.250000 0.6478941441
 1755.4958496  -999.250000 12.531200409 -0.003100000  -999.250000 2.1403999329 62.823165894 138.79635620 138.58479309 0.5523020625 70.834602356  -999.250000 0.6406086683
 1755.6481934  -999.250000 12.554699898 -0.004500000  -999.250000 2.1510000229 58.169185638 138.70542908 138.58479309 0.5549034476 70.710205078  -999.250000 0.6514086127
 1755.8006592  -999.250000 12.570300102 -0.006000000  -999.250000 2.1522998810 59.395408630 138.76641846 138.58479309 0.5592045784 71.334800720  -999.250000 0.6621020436
 1755.9530029  -999.250000 12.601599693 -0.008500000  -999.250000 2.1982998848 58.656696320 138.79960632 138.58479309 0.5649043918 71.459899902  -999.250000 0.6646109223
 1756.1054688  -999.250000 12.546899796 -0.004000000  -999.250000 2.2781999111 58.274597168 138.79635620 138.58479309 0.5704017878 71.709800720  -999.250000 0.6782379746
 1756.2578125  -999.250000 12.507800102 0.0022000000  -999.250000 2.3842999935 55.528881073 138.69883728 138.58479309 0.5725978613 71.835105896  -999.250000 0.7255937457
 1756.4102783  -999.250000 12.507800102 -0.004700000  -999.250000 2.3294000626 53.758285522 138.77769470 138.58479309 0.5698903799 72.334098816  -999.250000 0.7177859545
 1756.5626221  -999.250000 12.507800102 -0.010200000  -999.250000 2.2546000481 53.876125336 138.79631042 138.58479309 0.5638895035 71.959503174  -999.250000 0.7089538574
 1756.7150879  -999.250000 12.507800102 -0.010000000  -999.250000 2.1840000153 55.781253815 138.80123901 138.58479309 0.5507726669 71.709503174  -999.250000 0.6514211893
 1756.8674316  -999.250000 12.507800102 -0.010100000  -999.250000 2.1782999039 57.188407898 138.78984070 138.58479309 0.5336857438 71.584403992  -999.250000 0.6645647287
 1757.0198975  -999.250000 12.507800102 -0.006300000  -999.250000 2.1679999828 58.700950623 138.70375061 138.58479309 0.5158755183 71.208503723  -999.250000 0.6204991341
 1757.1722412  -999.250000 12.507800102 -0.003600000  -999.250000 2.1208000183 61.912696838 138.77293396 138.58479309 0.5005890727 70.459899902  -999.250000 0.5575734377
