# LAS format log file from PETREL
# Project units are specified as depth units
#==================================================================
~Version information
VERS.   2.0:
WRAP.   NO:
#==================================================================
~Well
STRT .m      922.25012207 :
STOP .m      4009.0009766 :
STEP .m     0.00000000 :
NULL .        -999.250000 :
COMP.           : COMPANY
WELL.  30/6-11   : WELL
FLD.            : FIELD
LOC.            : LOCATION
SRVC.           : SERVICE COMPANY
DATE.  2018-09-11 14:48:30   : Log Export Date {yyyy-MM-dd HH:mm:ss}
PROV.           : PROVINCE
UWI.   30/6-11   : UNIQUE WELL ID
API.            : API NUMBER
#==================================================================
~Curve
DEPT .m                   : DEPTH
Lithology_geolink ._      : Lithology_geolink
CALI .in                  : CALI
DRHO .g/cm3               : DRHO
NPHI .m3/m3               : NPHI
RHOB .g/cm3               : RHOB
GR .gAPI                  : GR
DTC .us/ft                : DTC
RDEP .ohm.m               : RDEP
SP .mV                    : SP
RSHA .ohm.m               : RSHA
RMED .ohm.m               : RMED
~Parameter
#==================================================================
~Ascii
# ...
 2567.0000000 13.000000000 13.685999870 0.0140000004 0.2486000061 2.4293324947 57.215000153 107.36767578 1.3170000315 33.931999207 1.4320000410 1.4320000410
 2567.1250000 13.000000000 13.697999954 0.0160000008 0.2387899905 2.4264566898 56.495998383 108.15534210 1.3140000105 33.772998810 1.4299999475 1.4299999475
 2567.2500000 13.000000000 13.706999779 0.0199999996 0.2301000059 2.4286177158 56.527000427 108.45418549 1.3109999895 33.689998627 1.4290000200 1.4290000200
 2567.3752441 13.000000000 13.710000038 0.0370000005 0.2243300080 2.4372589588 58.215000153 108.30127716 1.3079999685 33.567001343 1.4270000458 1.4270000458
 2567.5002441 13.000000000 13.706000328 0.0500000007 0.2255100012 2.4520671368 60.108001709 107.78602600 1.3059999943 33.465999603 1.4240000248 1.4240000248
 2567.6252441 13.000000000 13.699999809 0.0590000004 0.2289299965 2.4639456272 61.228000641 106.96600342 1.3059999943 33.463001251 1.4229999781 1.4229999781
 2567.7497559 13.000000000 13.697999954 0.0630000010 0.2313699871 2.4664230347 61.645999908 105.92846680 1.3049999475 33.624000549 1.4210000038 1.4210000038
 2567.8750000 13.000000000 13.704000473 0.0430000015 0.2248300016 2.4559993744 60.741001129 104.77751160 1.3049999475 34.680999756 1.4210000038 1.4210000038
 2568.0000000 13.000000000 13.715998650 0.0230000000 0.2168700099 2.4365224838 59.638999939 103.65812683 1.3040000200 36.131000519 1.4210000038 1.4210000038
 2568.1250000 13.000000000 13.727000237 0.0040000002 0.2086899877 2.4140527248 59.068000793 102.70032501 1.3029999733 37.529998779 1.4199999571 1.4199999571
 2568.2500000 13.000000000 13.737999916 -0.011000000 0.2020899951 2.3943920135 58.888000488 102.00212097 1.3009999990 38.800998688 1.4179999828 1.4179999828
 2568.3750000 13.000000000 13.748000145 -0.021000000 0.1998600066 2.3815250397 59.312000275 101.65648651 1.2940000296 39.674999237 1.4099999666 1.4099999666
 2568.5000000 13.000000000 13.755000114 -0.023000000 0.2032900006 2.3754348755 59.828998566 101.57032013 1.2869999409 39.797000885 1.4029999971 1.4029999971
 2568.6250000 13.000000000 13.758999825 -0.023000000 0.2106200010 2.3753688335 60.283000946 101.75341034 1.2810000181 39.493999481 1.3990000486 1.3990000486
 2568.7497559 13.000000000 13.760999680 -0.023000000 0.2197500020 2.3808727264 60.874000549 102.18686676 1.2769999504 39.166000366 1.3969999552 1.3969999552
 2568.8747559 13.000000000 13.758999825 -0.017999999 0.2421500087 2.3917908669 61.754001617 102.82243347 1.2730000019 38.455001831 1.3990000486 1.3990000486
 2569.0000000 13.000000000 13.751000404 -0.014000000 0.2564499974 2.4088087082 62.134998322 103.54992676 1.2730000019 37.555999756 1.4019999504 1.4019999504
 2569.1250000 13.000000000 13.737000465 -0.006000000 0.2661599815 2.4263069630 61.785999298 104.13515472 1.2740000486 36.596000671 1.4049999714 1.4049999714
 2569.2500000 13.000000000 13.715000153 0.0049999999 0.2712399960 2.4489672184 61.013000488 104.51884460 1.2760000229 35.587001801 1.4069999456 1.4069999456
 2569.3750000 13.000000000 13.680999756 0.0320000015 0.2604399920 2.4759500027 59.400001526 104.72824097 1.2790000439 34.546001434 1.4119999409 1.4119999409
 2569.5000000 13.000000000 13.645999908 0.0439999998 0.2500599921 2.5004642010 58.174999237 104.83502960 1.2819999456 34.084999084 1.4170000553 1.4170000553
 2569.6250000 13.000000000 13.620000839 0.0439999998 0.2432399988 2.5096383095 57.831001282 104.94039917 1.2829999924 34.105998993 1.4199999571 1.4199999571
 2569.7502441 13.000000000 13.598999977 0.0370000005 0.2419700027 2.5004308224 57.951000214 105.13442230 1.2849999666 34.215999603 1.4220000505 1.4220000505
 2569.8752441 13.000000000 13.585999489 0.0179999992 0.2603899837 2.4840791225 58.912998199 105.33430481 1.2860000134 34.709999084 1.4199999571 1.4199999571
 2570.0002441 13.000000000 13.585000038 0.0149999997 0.2739500105 2.4721064568 59.755001068 105.46649170 1.2860000134 35.386001587 1.4170000553 1.4170000553
 2570.1247559 13.000000000 13.593999863 0.0240000002 0.2832300067 2.4698612690 59.738998413 105.46894836 1.2840000391 36.046001434 1.4160000086 1.4160000086
 2570.2500000 13.000000000 13.607999802 0.0370000005 0.2888900042 2.4771654606 58.960998535 105.29773712 1.2799999714 36.625999451 1.4149999619 1.4149999619
 2570.3750000 13.000000000 13.625000000 0.0500000007 0.2890999913 2.4854524136 57.443000793 104.93318176 1.2710000277 36.777000427 1.4170000553 1.4170000553
 2570.5000000 13.000000000 13.637001038 0.0500000007 0.2867200077 2.4848897457 56.957000732 104.40274048 1.2630000114 36.353000641 1.4160000086 1.4160000086
 2570.6250000 13.000000000 13.640999794 0.0419999994 0.2838000059 2.4759616852 57.933998108 103.77564240 1.2589999437 35.604999542 1.4129999876 1.4129999876
 2570.7500000 13.000000000 13.642000198 0.0320000015 0.2819699943 2.4598593712 59.618000031 103.09563446 1.2560000420 34.833000183 1.4069999456 1.4069999456
 2570.8750000 13.000000000 13.643999100 0.0099999998 0.2822200060 2.4385826588 62.463001251 102.40882874 1.2519999743 34.194999695 1.3949999809 1.3949999809
 2571.0000000 13.000000000 13.647001266 -0.002000000 0.2825700045 2.4152059555 64.390998840 101.76400757 1.2500000000 34.078998566 1.3849999905 1.3849999905
 2571.1247559 13.000000000 13.650999069 -0.009000000 0.2807799876 2.4042325020 65.013999939 101.27774048 1.2480000257 34.359001160 1.3810000420 1.3810000420
 2571.2497559 13.000000000 13.659000397 -0.012000000 0.2754899859 2.4019618034 65.397003174 100.98738861 1.2480000257 34.693000793 1.3810000420 1.3810000420
 2571.3750000 13.000000000 13.671999931 -0.007000000 0.2589100003 2.4084286690 65.559997559 100.91865540 1.2489999533 34.903999329 1.3880000114 1.3880000114
 2571.5000000 13.000000000 13.685999870 -0.002000000 0.2511599958 2.4206082821 65.180999756 101.07845306 1.2530000210 34.820999146 1.3960000277 1.3960000277
 2571.6250000 13.000000000 13.696000099 0.0010000000 0.2493299991 2.4350461960 64.178001404 101.44612885 1.2569999695 34.541999817 1.4029999971 1.4029999971
 2571.7500000 13.000000000 13.699999809 0.0060000001 0.2511700094 2.4508001804 62.534000397 101.97380829 1.2630000114 34.229999542 1.4099999666 1.4099999666
 2571.8750000 13.000000000 13.696000099 0.0399999991 0.2581999898 2.4711492062 59.150001526 102.50100708 1.2749999762 33.761001587 1.4220000505 1.4220000505
 2572.0000000 13.000000000 13.685999870 0.0719999969 0.2606900036 2.4856903553 56.933998108 102.93594360 1.2860000134 33.330001831 1.4340000153 1.4340000153
 2572.1252441 13.000000000 13.670999527 0.0979999974 0.2599200010 2.4843780994 57.160999298 103.26757813 1.2940000296 33.008998871 1.4420000315 1.4420000315
 2572.2502441 13.000000000 13.649000168 0.1120000035 0.2579299808 2.4597086906 58.886001587 103.51856232 1.3029999733 32.827999115 1.4500000477 1.4500000477
 2572.3752441 13.000000000 13.616998672 0.0879999995 0.2556400001 2.4085760117 63.145999908 103.73671722 1.3150000572 33.553001404 1.4600000381 1.4600000381
 2572.5000000 13.000000000 13.585000038 0.0540000014 0.2582799792 2.3410158157 66.579002380 103.95217896 1.3240000010 34.823001862 1.4659999609 1.4659999609
 2572.6250000 13.000000000 13.560000420 0.0179999992 0.2624099851 2.2997956276 67.980003357 104.16252136 1.3270000219 36.131999969 1.4680000544 1.4680000544
 2572.7500000 13.000000000 13.538999557 -0.013000000 0.2669500113 2.2811479568 68.424003601 104.33670807 1.3270000219 37.351001740 1.4689999819 1.4689999819
 2572.8750000 13.000000000 13.520000458 -0.044000000 0.2749899924 2.2847595215 67.766998291 104.44391632 1.3229999542 38.533000946 1.4659999609 1.4659999609
 2573.0000000 13.000000000 13.510000229 -0.052000001 0.2784099877 2.3070492744 66.754997253 104.45569611 1.3179999590 39.108001709 1.4609999657 1.4609999657
 2573.1250000 13.000000000 13.505999565 -0.050000001 0.2783600092 2.3369979858 65.782997131 104.34665680 1.3150000572 39.214000702 1.4559999704 1.4559999704
 2573.2500000 13.000000000 13.505000114 -0.043000001 0.2750799954 2.3699917793 64.884002686 104.16389465 1.3120000362 39.353000641 1.4479999542 1.4479999542
