# LAS format log file from PETREL
# Project units are specified as depth units
#==================================================================
~Version information
VERS.   2.0:
WRAP.   NO:
#==================================================================
~Well
STRT .m      2773.3432617 :
STOP .m      3341.0317383 :
STEP .m     0.00000000 :
NULL .        -999.250000 :
COMP.           : COMPANY
WELL.  30/6-22   : WELL
FLD.            : FIELD
LOC.            : LOCATION
SRVC.           : SERVICE COMPANY
DATE.  2018-09-11 14:48:30   : Log Export Date {yyyy-MM-dd HH:mm:ss}
PROV.           : PROVINCE
UWI.   30/6-22   : UNIQUE WELL ID
API.            : API NUMBER
#==================================================================
~Curve
DEPT .m                   : DEPTH
Lithology_geolink ._      : Lithology_geolink
CALI .in                  : CALI
DRHO .g/cm3               : DRHO
NPHI .m3/m3               : NPHI
RHOB .g/cm3               : RHOB
GR .gAPI                  : GR
DTC .us/ft                : DTC
DTE .us/ft                : DTE
RDEP .ohm.m               : RDEP
SP .mV                    : SP
RSHA .ohm.m               : RSHA
RMED .ohm.m               : RMED
~Parameter
#==================================================================
~Ascii
# ...
 3073.2656250 7.0000000000 8.9300003052 -0.005000000 0.3544499874 2.6080000401 126.35883331 97.724349976 97.811561584 6.4986495972  -999.250000 10.242832184 10.242832184
 3073.4179688 7.0000000000 8.9300003052 -0.008000000 0.3415099978 2.6300001144 127.56587219 98.201255798 98.165679932 6.4258141518  -999.250000 10.207903862 10.207903862
 3073.5703125 7.0000000000 8.9300003052 -0.013000000 0.3452600241 2.5950000286 126.59120941 98.401428223 98.284713745 6.3678364754  -999.250000 10.177878380 10.177878380
 3073.7226563 7.0000000000 8.9169998169 -0.013000000 0.3650400043 2.5910000801 126.34537506 98.285675049 98.335212708 6.3169198036  -999.250000 10.139666557 10.139666557
 3073.8752441 7.0000000000 8.8660001755 -0.006000000 0.3641199768 2.5810000896 126.76360321 98.264701843 98.316505432 6.2919421196  -999.250000 10.035235405 10.035235405
 3074.0275879 7.0000000000 8.8070001602 -0.007000000 0.3477100134 2.5940001011 125.02354431 98.264701843 98.258598328 6.2798895836  -999.250000 9.8765010834 9.8765010834
 3074.1799316 7.0000000000 8.7889995575 -0.003000000 0.3352899849 2.6029999256 124.72600555 97.987266541 98.002601624 6.2568941116  -999.250000 9.7728815079 9.7728815079
 3074.3322754 7.0000000000 8.7889995575 -0.004000000 0.3396900296 2.6150000095 126.27983093 97.395027161 97.592918396 6.2238268852  -999.250000 9.7359676361 9.7359676361
 3074.4848633 7.0000000000 8.7889995575 -0.012000000 0.3349899948 2.6289999485 125.59613037 97.446380615 97.289222717 6.1696634293  -999.250000 9.7258119583 9.7258119583
 3074.6372070 7.0000000000 8.7889995575 -0.013000000 0.3638499975 2.6300001144 123.54994202 96.370414734 96.539230347 6.0999088287  -999.250000 9.6863908768 9.6863908768
 3074.7895508 7.0000000000 8.7889995575 -0.013000000 0.3778099716 2.6370000839 122.92092133 95.509002686 95.592842102 6.0811376572  -999.250000 9.5592508316 9.5592508316
 3074.9418945 7.0000000000 8.7889995575 -0.021000000 0.3913199902 2.5950000286 124.44799042 94.292678833 94.371994019 6.1241602898  -999.250000 9.3253946304 9.3253946304
 3075.0942383 7.0000000000 8.7889995575 -0.015000000 0.3522499800 2.6019999981 123.49855042 93.578102112 93.309753418 6.1742143631  -999.250000 9.1370964050 9.1370964050
 3075.2468262 7.0000000000 8.7889995575 -0.008000000 0.3256999850 2.5899999142 119.30835724 92.253631592 92.363830566 6.2412929535  -999.250000 9.1684064865 9.1684064865
 3075.3991699 7.0000000000 8.7889995575 -0.004000000 0.3216999769 2.5999999046 117.72142029 90.822853088 90.701606750 6.3020768166  -999.250000 9.4617242813 9.4617242813
 3075.5515137 7.0000000000 8.7910003662 0.0020000001 0.3357400000 2.6099998951 116.92382813 89.391838074 89.586463928 6.3260803223  -999.250000 9.9996442795 9.9996442795
 3075.7038574 7.0000000000 8.8149995804 0.0020000001 0.3604499698 2.6389999390 118.11907959 88.787948608 88.879386902 6.3512434959  -999.250000 10.511355400 10.511355400
 3075.8564453 7.0000000000 8.8620004654 -0.001000000 0.3737900257 2.6500000954 119.07918549 88.724502563 88.719184875 6.4273605347  -999.250000 10.621163368 10.621163368
 3076.0087891 7.0000000000 8.8950004578 0.0000000000 0.3842599988 2.6410000324 119.52364349 88.724502563 88.812309265 6.5019998550  -999.250000 10.447563171 10.447563171
 3076.1611328 7.0000000000 8.9110002518 -0.011000000 0.3473600149 2.6340000629 117.97869110 88.847953796 88.595596313 6.5018396378  -999.250000 10.357038498 10.357038498
 3076.3134766 6.0000000000 8.9250001907 -0.024000000 0.2978599966 2.6229999065 111.96692657 88.329803467 88.311164856 6.4517502785  -999.250000 10.369003296 10.369003296
 3076.4660645 6.0000000000 8.9300003052 -0.018999999 0.2666600049 2.6300001144 109.77245331 87.004440308 87.311470032 6.3734664917  -999.250000 10.368706703 10.368706703
 3076.6184082 6.0000000000 8.9300003052 -0.017999999 0.2705100179 2.5969998837 110.90687561 86.816390991 86.611946106 6.2621264458  -999.250000 10.097212791 10.097212791
 3076.7707520 6.0000000000 8.9300003052 -0.024000000 0.2864399850 2.5759999752 111.91351318 86.402847290 86.517997742 6.0802979469  -999.250000 9.3087787628 9.3087787628
 3076.9230957 6.0000000000 8.9300003052 -0.017999999 0.2816700041 2.6159999371 110.50602722 85.631080627 85.591522217 5.8615574837  -999.250000 8.3048591614 8.3048591614
 3077.0754395 6.0000000000 8.9300003052 -0.004000000 0.2813400030 2.6400001049 106.45504761 83.749328613 83.587577820 5.7238845825  -999.250000 7.6378622055 7.6378622055
 3077.2280273 6.0000000000 8.9449996948 -0.001000000 0.2636300027 2.6530001163 100.82705688 81.296470642 81.337944031 5.6879329681  -999.250000 7.2833085060 7.2833085060
 3077.3803711 6.0000000000 8.9980001450 -0.006000000 0.2590800226 2.6040000916 91.274215698 79.530929565 79.457633972 5.6739711761  -999.250000 7.1402339935 7.1402339935
 3077.5327148 5.0000000000 9.0539999008 -0.013000000 0.2442600131 2.6059999466 82.924392700 77.960357666 78.225288391 5.6650638580  -999.250000 7.2145128250 7.2145128250
 3077.6850586 5.0000000000 9.0699996948 -0.009000000 0.2413800061 2.6010000706 77.140190125 77.753097534 77.761894226 5.6853170395  -999.250000 7.6865096092 7.6865096092
 3077.8376465 5.0000000000 9.0699996948 -0.011000000 0.2420400083 2.6210000515 77.819961548 77.753097534 77.745063782 5.7847452164  -999.250000 8.1556921005 8.1556921005
 3077.9899902 5.0000000000 9.0699996948 -0.016000001 0.2353100032 2.5929999352 77.599853516 77.753097534 77.638481140 5.9395136833  -999.250000 8.0911645889 8.0911645889
 3078.1423340 5.0000000000 9.0699996948 -0.022000000 0.2338299900 2.5889999866 76.545043945 77.339546204 77.559761047 6.0461120605  -999.250000 7.9179167747 7.9179167747
 3078.2946777 5.0000000000 9.0699996948 -0.015000000 0.2292600125 2.5820000172 80.606277466 77.383689880 77.446090698 6.0809774399  -999.250000 7.8921732903 7.8921732903
 3078.4472656 5.0000000000 9.0699996948 -0.015000000 0.2400200069 2.6199998856 81.918663025 77.292411804 77.245872498 6.0737881660  -999.250000 7.9460387230 7.9460387230
 3078.5996094 5.0000000000 9.0699996948 -0.017999999 0.2614200115 2.6429998875 77.927444458 77.276100159 77.130676270 6.0298995972  -999.250000 7.9529151917 7.9529151917
 3078.7519531 5.0000000000 9.0719995499 -0.015000000 0.2631399930 2.6530001163 80.513130188 76.862548828 77.095100403 6.0091056824  -999.250000 7.7269425392 7.7269425392
 3078.9042969 5.0000000000 9.1160001755 -0.022000000 0.2621999979 2.6440000534 82.418617249 77.320243835 77.285385132 6.0421633720  -999.250000 7.3975028992 7.3975028992
 3079.0568848 5.0000000000 9.1909999847 -0.035000000 0.2494499981 2.6289999485 82.297904968 77.292411804 77.284439087 6.0932788849  -999.250000 7.2429137230 7.2429137230
 3079.2092285 5.0000000000 9.2189998627 -0.024000000 0.2449200004 2.6500000954 81.647918701 77.276100159 76.984519958 6.1512928009  -999.250000 7.2254033089 7.2254033089
 3079.3615723 5.0000000000 9.2189998627 -0.024000000 0.2441300005 2.6259999275 79.758224487 76.448997498 76.539451599 6.2121438980  -999.250000 7.3099842072 7.3099842072
 3079.5139160 5.0000000000 9.2430000305 -0.039999999 0.2457799911 2.5920000076 77.339431763 76.014060974 76.094718933 6.2571439743  -999.250000 7.6173429489 7.6173429489
 3079.6662598 5.0000000000 9.3079996109 -0.028000001 0.2492600083 2.5929999352 77.167114258 75.861289978 75.861373901 6.3021540642  -999.250000 8.0356216431 8.0356216431
 3079.8188477 5.0000000000 9.3570003510 -0.017999999 0.2476000041 2.5950000286 77.820396423 75.845100403 75.682319641 6.3501152992  -999.250000 8.2285194397 8.2285194397
 3079.9711914 5.0000000000 9.3620004654 -0.012000000 0.2358999997 2.5850000381 76.859588623 75.431549072 75.690727234 6.3740577698  -999.250000 8.1280689240 8.1280689240
 3080.1235352 5.0000000000 9.3959999084 -0.004000000 0.2333399951 2.5859999657 75.109870911 75.781654358 75.842819214 6.3860130310  -999.250000 7.9344296455 7.9344296455
 3080.2758789 5.0000000000 9.4989995956 0.0020000001 0.2320700139 2.5869998932 72.887359619 76.364860535 76.124893188 6.3898749352  -999.250000 7.7562689781 7.7562689781
 3080.4284668 5.0000000000 9.5559997559 0.0010000000 0.2328199893 2.5959999561 70.821945190 76.338371277 76.202507019 6.3506007195  -999.250000 7.5277447701 7.5277447701
