# LAS format log file from PETREL
# Project units are specified as depth units
#==================================================================
~Version information
VERS.   2.0:
WRAP.   NO:
#==================================================================
~Well
STRT .m      176.60998535 :
STOP .m      3556.0803223 :
STEP .m     0.00000000 :
NULL .        -999.250000 :
COMP.           : COMPANY
WELL.  30/6-5   : WELL
FLD.            : FIELD
LOC.            : LOCATION
SRVC.           : SERVICE COMPANY
DATE.  2018-09-11 14:48:31   : Log Export Date {yyyy-MM-dd HH:mm:ss}
PROV.           : PROVINCE
UWI.   30/6-5   : UNIQUE WELL ID
API.            : API NUMBER
#==================================================================
~Curve
DEPT .m                   : DEPTH
Lithology_geolink ._      : Lithology_geolink
CALI .in                  : CALI
DRHO .g/cm3               : DRHO
NPHI .m3/m3               : NPHI
RHOB .g/cm3               : RHOB
PEF .b/e                  : PEF
GR .gAPI                  : GR
DTC .us/ft                : DTC
DTE .us/ft                : DTE
RDEP .ohm.m               : RDEP
SP .mV                    : SP
RSHA .ohm.m               : RSHA
RMED .ohm.m               : RMED
~Parameter
#==================================================================
~Ascii
# ...
 853.87561035  -999.250000 17.531000137  -999.250000  -999.250000 1.9165724516  -999.250000 27.647607803 146.35801697 145.26187134 1.3697308302 48.277023315 1.4882050753 1.1850688457
 854.02801514  -999.250000 16.797000885  -999.250000  -999.250000 1.8914992809  -999.250000 25.010438919 153.50292969 152.37765503 1.2737561464 48.285041809 1.0011950731 1.0680468082
 854.18041992  -999.250000 16.641000748  -999.250000  -999.250000 1.8852725029  -999.250000 22.314350128 155.30319214 154.16896057 1.1867953539 48.296188354 0.9800084233 1.0350131989
 854.33282471  -999.250000 15.694999695  -999.250000  -999.250000 1.8880821466  -999.250000 19.948915482 154.46299744 153.33187866 1.1138316393 46.942447662 1.5027905703 1.0369991064
 854.48522949  -999.250000 16.202999115  -999.250000  -999.250000 1.8915952444  -999.250000 19.916658401 153.40068054 152.29676819 1.0538494587 47.458274841 1.9418241978 1.0399987698
 854.63763428  -999.250000 16.781000137  -999.250000  -999.250000 1.8996664286  -999.250000 19.190505981 151.09721375 149.95561218 1.0069358349 47.848541260 1.8690291643 1.0220071077
 854.79003906  -999.250000 16.875000000  -999.250000  -999.250000 1.8967312574  -999.250000 19.968641281 151.91529846 150.80395508 0.9869743586 45.847362518 1.9549655914 0.9990092516
 854.94244385  -999.250000 18.016000748  -999.250000  -999.250000 1.8889091015  -999.250000 19.545724869 154.22232056 153.11201477 0.9789743423 48.442142487 1.9090185165 0.9800076485
 855.09484863  -999.250000 17.875000000  -999.250000  -999.250000 1.8826265335  -999.250000 19.456615448 156.11279297 154.98207092 0.9709839821 46.310852051 1.7910472155 0.9849979877
 855.24719238  -999.250000 17.937999725  -999.250000  -999.250000 1.8836934566  -999.250000 18.405065536 155.72283936 154.66006470 0.9659944177 47.201759338 1.3273717165 0.9730095863
 855.39959717  -999.250000 17.937999725  -999.250000  -999.250000 1.8830779791  -999.250000 18.792293549 155.98406982 154.84126282 0.9640027881 48.181205750 1.6917077303 0.9789951444
 855.55200195  -999.250000 18.327999115  -999.250000  -999.250000 1.8868229389  -999.250000 21.748416901 154.84407043 153.71418762 0.9650111794 47.544094086 1.8288903236 0.9570176601
 855.70440674  -999.250000 18.656000137  -999.250000  -999.250000 1.8884057999  -999.250000 24.035232544 154.39089966 153.24476624 0.9690307975 47.929187775 1.6090880632 0.9410064220
 855.85681152  -999.250000 18.858999252  -999.250000  -999.250000 1.8838291168  -999.250000 25.539733887 155.68492126 154.62046814 0.9800449014 46.574306488 1.4910472631 0.9270055890
 856.00921631  -999.250000 17.531000137  -999.250000  -999.250000 1.8847520351  -999.250000 25.082695007 155.49099731 154.34730530 0.9960280061 46.683742523 1.6459379196 0.9130055904
 856.16162109  -999.250000 17.343999863  -999.250000  -999.250000 1.8911017179  -999.250000 22.838895798 153.62269592 152.46844482 1.0060392618 46.946941376 1.8589146137 0.9569823742
 856.31402588  -999.250000 17.750000000  -999.250000  -999.250000 1.8939778805  -999.250000 22.443807602 152.73870850 151.60681152 1.0200476646 46.218864441 1.9239740372 0.9859883785
 856.46643066  -999.250000 18.858999252  -999.250000  -999.250000 1.8946124315  -999.250000 21.657852173 152.54670715 151.43154907 1.0370335579 47.945098877 1.8470308781 1.0139888525
 856.61883545  -999.250000 19.375000000  -999.250000  -999.250000 1.8935761452  -999.250000 19.468597412 152.83149719 151.72714233 1.0490224361 46.562332153 1.9719499350 1.0179984570
 856.77124023  -999.250000 19.641000748  -999.250000  -999.250000 1.8915388584  -999.250000 18.408346176 153.46548462 152.31172180 1.0560096502 47.913249969 1.7270981073 1.0140016079
 856.92364502  -999.250000 19.468999863  -999.250000  -999.250000 1.8921238184  -999.250000 17.903335571 153.29409790 152.14508057 1.0590000153 48.926528931 1.6590272188 1.0179984570
 857.07604980  -999.250000 18.750000000  -999.250000  -999.250000 1.8942193985  -999.250000 20.809743881 152.68490601 151.54463196 1.0589840412 49.404453278 1.8109390736 1.0150011778
 857.22839355  -999.250000 18.858999252  -999.250000  -999.250000 1.8946520090  -999.250000 21.350198746 152.45997620 151.40254211 1.0540056229 50.160923004 1.8509678841 1.0110032558
 857.38079834  -999.250000 19.281000137  -999.250000  -999.250000 1.8965928555  -999.250000 20.707912445 151.98359680 150.85031128 1.0560224056 47.643321991 1.5762202740 0.9950128198
 857.53320313  -999.250000 19.406000137  -999.250000  -999.250000 1.8931391239  -999.250000 19.965833664 152.96324158 151.84336853 1.0640056133 47.400272369 1.8377902508 0.9880055785
 857.68560791  -999.250000 19.952999115  -999.250000  -999.250000 1.8964743614  -999.250000 19.906909943 151.99479675 150.87904358 1.0659999847 46.780838013 1.7319999933 0.9840000272
 857.83801270  -999.250000 20.625000000  -999.250000  -999.250000 1.8976927996  -999.250000 19.875995636 151.63255310 150.53053284 1.0660055876 45.304840088 1.7309999466 0.9900000095
 857.99041748  -999.250000 20.827999115  -999.250000  -999.250000 1.8941919804  -999.250000 20.236114502 152.67489624 151.53555298 1.0679831505 47.026321411 1.7960000038 0.9919999838
 858.14282227  -999.250000 19.983999252  -999.250000  -999.250000 1.8970265388  -999.250000 22.414152145 151.83309937 150.71139526 1.0619971752 46.775581360 1.8619999886 0.9879999757
 858.29522705  -999.250000 20.047000885  -999.250000  -999.250000 1.8978496790  -999.250000 23.534839630 151.61460876 150.48475647 1.0610028505 43.442565918 1.6610000134 0.9710000157
 858.44763184  -999.250000 20.375000000  -999.250000  -999.250000 1.8948433399  -999.250000 23.116519928 152.50189209 151.35667419 1.0619888306 49.690956116 2.0369999409 0.9639999866
 858.60003662  -999.250000 20.733999252  -999.250000  -999.250000 1.8969539404  -999.250000 21.170135498 151.80090332 150.73420715 1.0579859018 49.675987244 1.7910000086 0.9509999752
 858.75244141  -999.250000 21.468999863  -999.250000  -999.250000 1.8956193924  -999.250000 22.285825729 152.27929688 151.14164734 1.0529775620 50.027050018 1.9160000086 0.9449999928
 858.90484619  -999.250000 21.250000000  -999.250000  -999.250000 1.8959556818  -999.250000 22.541887283 152.17909241 151.03755188 1.0459583998 50.038917542 1.4279999733 0.9430000186
 859.05725098  -999.250000 22.031000137  -999.250000  -999.250000 1.8967674971  -999.250000 22.195970535 151.92851257 150.80313110 1.0329967737 48.767425537 1.4759999514 0.9409999847
 859.20965576  -999.250000 22.437999725  -999.250000  -999.250000 1.8907053471  -999.250000 22.190723419 153.66011047 152.57203674 1.0320063829 48.280654907 1.8669999838 0.9300000072
 859.36199951  -999.250000 21.843999863  -999.250000  -999.250000 1.8891422749  -999.250000 23.351947784 154.17689514 153.03909302 1.0339803696 49.414535522 1.6150000095 0.9110000134
 859.51440430  -999.250000 21.922000885  -999.250000  -999.250000 1.8914774656  -999.250000 24.393556595 153.45397949 152.33660889 1.0270055532 48.181289673 1.0540000200 0.8980000019
 859.66680908  -999.250000 22.469001770  -999.250000  -999.250000 1.8927136660  -999.250000 22.108119965 153.09439087 151.98095703 1.0290029049 47.572555542 1.2719999552 0.8930000067
 859.81921387  -999.250000 21.483999252  -999.250000  -999.250000 1.8973934650  -999.250000 24.281101227 151.77281189 150.62310791 1.0299971104 47.059684753 1.6870000362 0.8989999890
 859.97161865  -999.250000 21.952999115  -999.250000  -999.250000 1.8961187601  -999.250000 22.895776749 152.07379150 150.98320007 1.0290448666 47.658988953 1.5740000010 0.8999999762
 860.12402344  -999.250000 22.687999725  -999.250000  -999.250000 1.8934319019  -999.250000 23.520177841 152.89849854 151.76873779 1.0450223684 47.302738190 1.5729999542 0.9049999714
 860.27642822  -999.250000 22.672000885  -999.250000  -999.250000 1.8927901983  -999.250000 20.740913391 153.06570435 151.95574951 1.0529999733 48.283702850 1.8810000420 0.9219999909
 860.42883301  -999.250000 22.562999725  -999.250000  -999.250000 1.8926999569  -999.250000 21.776201248 153.11370850 151.97547913 1.0529999733 50.660682678 1.3719999790 0.9240000248
