# LAS format log file from PETREL
# Project units are specified as depth units
#==================================================================
~Version information
VERS.   2.0:
WRAP.   NO:
#==================================================================
~Well
STRT .m      360.12121582 :
STOP .m      3233.9282227 :
STEP .m     0.00000000 :
NULL .        -999.250000 :
COMP.           : COMPANY
WELL.  30/6-23   : WELL
FLD.            : FIELD
LOC.            : LOCATION
SRVC.           : SERVICE COMPANY
DATE.  2018-09-11 14:48:31   : Log Export Date {yyyy-MM-dd HH:mm:ss}
PROV.           : PROVINCE
UWI.   30/6-23   : UNIQUE WELL ID
API.            : API NUMBER
#==================================================================
~Curve
DEPT .m                   : DEPTH
Lithology_geolink ._      : Lithology_geolink
CALI .in                  : CALI
DRHO .g/cm3               : DRHO
NPHI .m3/m3               : NPHI
RHOB .g/cm3               : RHOB
GR .gAPI                  : GR
DTC .us/ft                : DTC
DTE .us/ft                : DTE
RDEP .ohm.m               : RDEP
SP .mV                    : SP
RSHA .ohm.m               : RSHA
RMED .ohm.m               : RMED
~Parameter
#==================================================================
~Ascii
# ...
 2671.7246094 5.0000000000 2.6073999405 -0.114699997  -999.250000 1.4776999950 54.431354523 88.963577271 88.725433350 3.7752251625 176.70750427  -999.250000 7.6973347664
 2671.8771973 5.0000000000 2.6073999405 -0.119599998  -999.250000 1.4704999924 56.090816498 89.540901184 89.309654236 3.7910842896 175.33309937  -999.250000 6.5308876038
 2672.0295410 5.0000000000 2.6073999405 -0.117399998  -999.250000 1.4704999924 57.404666901 90.641677856 90.402725220 3.8174540997 174.83590698  -999.250000 5.1861605644
 2672.1818848 5.0000000000 2.6073999405 -0.117299996  -999.250000 1.4646999836 58.070720673 91.832710266 91.547760010 3.8511419296 175.58068848  -999.250000 4.3511934280
 2672.3342285 5.0000000000 2.5957002640 -0.116999999  -999.250000 1.4730000496 58.770469666 92.136550903 91.836799622 3.8773491383 173.08290100  -999.250000 4.0982632637
 2672.4865723 5.0000000000 2.6073999405 -0.122199997  -999.250000 1.4710999727 59.749027252 91.312057495 91.004142761 3.9079835415 171.96290588  -999.250000 4.4505209923
 2672.6391602 5.0000000000 2.6073999405 -0.116499998  -999.250000 1.4802999496 60.951290131 89.953689575 89.771949768 3.9602236748 173.96730042  -999.250000 5.2762246132
 2672.7915039 5.0000000000 2.5957002640 -0.117399998  -999.250000 1.4756000042 61.882900238 89.678497314 89.474220276 4.0613541603 176.33290100  -999.250000 6.1563501358
 2672.9438477 5.0000000000 2.6073999405 -0.118199997  -999.250000 1.4709999561 62.132171631 90.137161255 90.098556519 4.2199158669 175.20629883  -999.250000 6.2501692772
 2673.0961914 5.0000000000 2.6073999405 -0.119099997  -999.250000 1.4726999998 61.676868439 90.942344666 90.834442139 4.4168491364 173.08329773  -999.250000 6.3560447693
 2673.2487793 6.0000000000 2.6073999405 -0.114799999  -999.250000 1.4753999710 61.221679688 90.916870117 90.661300659 4.5721778870 172.21409607  -999.250000 6.6962127686
 2673.4011230 6.0000000000 2.6073999405 -0.113899998  -999.250000 1.4785000086 61.746860504 90.101699829 89.925849915 4.6276111603 173.58689880  -999.250000 6.9797177315
 2673.5534668 6.0000000000 2.6073999405 -0.114399999  -999.250000 1.4790999889 63.343841553 89.801406860 89.511024475 4.6342411041 174.96029663  -999.250000 6.4912919998
 2673.7058105 6.0000000000 2.6073999405 -0.116400003  -999.250000 1.4773000479 64.365478516 89.696937561 89.416511536 4.5972614288 175.33590698  -999.250000 5.9252738953
 2673.8583984 6.0000000000 2.6073999405 -0.114500001  -999.250000 1.4778000116 64.226448059 90.063774109 89.765922546 4.5103769302 176.08070374  -999.250000 5.5970749855
 2674.0107422 6.0000000000 2.6073999405 -0.116300002  -999.250000 1.4717999697 63.617835999 90.540771484 90.341346741 4.4094181061 174.83189392  -999.250000 5.4016613960
 2674.1630859 6.0000000000 2.6073999405 -0.117700003  -999.250000 1.4682999849 62.829944611 90.824829102 90.727676392 4.2959074974 173.08430481  -999.250000 5.0032429695
 2674.3154297 6.0000000000 2.5957002640 -0.116599999  -999.250000 1.4659999609 62.236927032 90.945487976 90.653755188 4.1756496429 172.83850098  -999.250000 4.5938439369
 2674.4677734 6.0000000000 2.6073999405 -0.113499999  -999.250000 1.4746999741 62.254325867 90.888916016 90.637969971 4.0820012093 175.21029663  -999.250000 4.6215128899
 2674.6203613 6.0000000000 2.6073999405 -0.113399997  -999.250000 1.4738999605 62.391555786 91.256271362 90.934020996 4.0204935074 175.58110046  -999.250000 4.8785624504
 2674.7727051 6.0000000000 2.6073999405 -0.111699998  -999.250000 1.4817999601 61.627212524 91.347999573 91.176551819 3.9873652458 174.45469666  -999.250000 4.7731680870
 2674.9250488 5.0000000000 2.5977001190 -0.112099998  -999.250000 1.4793000221 60.076358795 91.230552673 91.051322937 3.9656853676 171.32748413  -999.250000 4.6295447350
 2675.0773926 5.0000000000 2.6073999405 -0.114200003  -999.250000 1.4786000252 58.742477417 91.127494812 90.844177246 3.9566214085 166.83731079  -999.250000 5.0322079659
 2675.2299805 5.0000000000 2.5938000679 -0.117500000  -999.250000 1.4711999893 58.295154572 90.916870117 90.646903992 3.9700841904 168.46369934  -999.250000 5.6609249115
 2675.3823242 5.0000000000 2.5938000679 -0.122000001  -999.250000 1.4638999701 58.718822479 90.871002197 90.538215637 3.9963586330 169.70549011  -999.250000 5.8864059448
 2675.5346680 5.0000000000 2.5938000679 -0.127100006  -999.250000 1.4586999416 59.605854034 90.754196167 90.753013611 4.0329790115 167.08830261  -999.250000 5.7028374672
 2675.6870117 5.0000000000  -999.250000 -0.129199997  -999.250000  -999.250000 60.326850891 91.611907959 91.509452820 4.0822978020 169.33610535  -999.250000 5.5392065048
 2675.8395996 5.0000000000  -999.250000  -999.250000  -999.250000  -999.250000 60.546123505 92.402984619 92.122306824 4.1435680389 170.20930481  -999.250000 5.6059126854
 2675.9919434 5.0000000000  -999.250000  -999.250000  -999.250000  -999.250000 60.584522247 92.347885132 92.071647644 4.2271466255 170.08630371  -999.250000 5.7340054512
 2676.1442871 5.0000000000  -999.250000  -999.250000  -999.250000  -999.250000 60.599235535 91.917343140 91.722404480 4.3185110092 171.08489990  -999.250000 5.4883246422
 2676.2966309 5.0000000000  -999.250000  -999.250000  -999.250000  -999.250000 60.371475220 91.515625000 91.310066223 4.3876609802 171.20930481  -999.250000 5.5055088997
 2676.4489746 5.0000000000  -999.250000  -999.250000  -999.250000  -999.250000 60.481113434 91.173820496 90.847534180 4.4256548882 170.96250916  -999.250000 6.5097031593
 2676.6015625 5.0000000000  -999.250000  -999.250000  -999.250000  -999.250000 61.365097046 90.531593323 90.232254028 4.4599795341 172.71290588  -999.250000 7.6949501038
 2676.7539063 5.0000000000  -999.250000  -999.250000  -999.250000  -999.250000 62.205699921 90.009353638 89.766166687 4.5161643028 173.71009827  -999.250000 7.5845165253
 2676.9062500 5.0000000000  -999.250000  -999.250000  -999.250000  -999.250000 62.329864502 89.610046387 89.555870056 4.6189846992 173.95989990  -999.250000 6.7212290764
 2677.0585938 5.0000000000  -999.250000  -999.250000  -999.250000  -999.250000 62.122570038 89.843162537 89.568206787 4.7340660095 174.08349609  -999.250000 5.8044934273
 2677.2111816 6.0000000000  -999.250000  -999.250000  -999.250000  -999.250000 62.608310699 90.109634399 89.761222839 4.8376460075 173.34269714  -999.250000 5.6779122353
 2677.3635254 6.0000000000  -999.250000  -999.250000  -999.250000  -999.250000 64.390472412 90.155502319 89.898246765 4.9143428802 175.83590698  -999.250000 6.3358249664
 2677.5158691 6.0000000000  -999.250000  -999.250000  -999.250000  -999.250000 66.554916382 90.347114563 90.189445496 4.9409365654 176.58410645  -999.250000 6.2875037193
 2677.6682129 6.0000000000  -999.250000  -999.250000  -999.250000  -999.250000 68.310699463 90.970603943 90.780876160 4.9011993408 176.21130371  -999.250000 5.2924933434
 2677.8208008 6.0000000000  -999.250000  -999.250000  -999.250000  -999.250000 69.936721802 91.494773865 91.355712891 4.7750635147 177.20770264  -999.250000 4.9760251045
 2677.9731445 6.0000000000  -999.250000  -999.250000  -999.250000  -999.250000 71.875633240 91.778823853 91.619567871 4.4826617241 176.57608032  -999.250000 4.7964801788
 2678.1254883 6.0000000000  -999.250000  -999.250000  -999.250000  -999.250000 71.952217102 91.824996948 91.624336243 4.0842514038 171.20989990  -999.250000 4.5347929001
 2678.2778320 6.0000000000  -999.250000  -999.250000  -999.250000  -999.250000 69.155822754 91.515625000 91.542236328 3.6173827648 171.33950806  -999.250000 4.2805895805
 2678.4301758 6.0000000000  -999.250000  -999.250000  -999.250000  -999.250000 68.534782410 91.558334351 91.351562500 3.2326307297 174.33410645  -999.250000 3.8991591930
 2678.5827637 5.0000000000  -999.250000  -999.250000  -999.250000  -999.250000 61.209491730 90.238067627 89.976097107 3.0646510124 173.95790100  -999.250000 3.1239795685
 2678.7351074 5.0000000000  -999.250000  -999.250000  -999.250000  -999.250000 54.219890594 86.647369385 86.338233948 3.0342519283 172.83970642  -999.250000 2.4880998135
 2678.8874512 5.0000000000  -999.250000  -999.250000  -999.250000  -999.250000 49.535114288 81.925300598 81.668243408 3.0668263435 175.95930481  -999.250000 2.3646304607
