# LAS format log file from PETREL
# Project units are specified as depth units
#==================================================================
~Version information
VERS.   2.0:
WRAP.   NO:
#==================================================================
~Well
STRT .m      581.07043457 :
STOP .m      2909.8947754 :
STEP .m     0.00000000 :
NULL .        -999.250000 :
COMP.           : COMPANY
WELL.  30/6-14   : WELL
FLD.            : FIELD
LOC.            : LOCATION
SRVC.           : SERVICE COMPANY
DATE.  2018-09-11 14:48:30   : Log Export Date {yyyy-MM-dd HH:mm:ss}
PROV.           : PROVINCE
UWI.   30/6-14   : UNIQUE WELL ID
API.            : API NUMBER
#==================================================================
~Curve
DEPT .m                   : DEPTH
Lithology_geolink ._      : Lithology_geolink
CALI .in                  : CALI
DRHO .g/cm3               : DRHO
NPHI .m3/m3               : NPHI
RHOB .g/cm3               : RHOB
GR .gAPI                  : GR
DTC .us/ft                : DTC
RDEP .ohm.m               : RDEP
SP .mV                    : SP
RSHA .ohm.m               : RSHA
RMED .ohm.m               : RMED
~Parameter
#==================================================================
~Ascii
# ...
 1816.8820801  -999.250000 15.711000443 -0.017000001 0.4951200187 2.0959999561 86.121948242 149.24919128 0.7340184450 50.119201660  -999.250000 0.7500104308
 1817.0344238  -999.250000 15.890999794 -0.012000000 0.5127000213 2.1070001125 84.689155579 150.24919128 0.7140160203 50.149974823  -999.250000 0.7370104194
 1817.1868896  -999.250000 16.812999725 0.0030000000 0.5048800111 2.1070001125 85.998947144 148.75120544 0.7040079832 49.900199890  -999.250000 0.7489904165
 1817.3392334  -999.250000 16.891000748 0.0070000002 0.5483400226 2.1250000000 86.000000000 148.50019836 0.7000032067 50.696361542  -999.250000 0.7140280604
 1817.4916992  -999.250000 16.672000885 0.0000000000 0.5092800260 2.1389999390 86.000000000 147.25100708 0.6920063496 50.696998596  -999.250000 0.6960144043
 1817.6440430  -999.250000 15.164000511 -0.020000000 0.5312500000 2.1519999504 82.752601624 149.99780273 0.6770120263 49.712791443  -999.250000 0.6810120344
 1817.7965088  -999.250000 14.687999725 -0.021000000 0.4985400140 2.1700000763 83.062751770 152.74780273 0.6450256109 49.228389740  -999.250000 0.6949887872
 1817.9488525  -999.250000 14.734000206 -0.015000000 0.5000000000 2.1640000343 82.500450134 154.74839783 0.6140248775 48.994186401  -999.250000 0.6780136228
 1818.1011963  -999.250000 14.984000206 -0.009000000 0.4335900247 2.1459999084 84.871200562 157.24600220 0.5900384188 49.477226257  -999.250000 0.6480480433
 1818.2536621  -999.250000 14.531000137 -0.011000000 0.4482400119 2.1210000515 76.444763184 159.24839783 0.5680176616 47.698425293  -999.250000 0.6270167828
 1818.4060059  -999.250000 14.468998909 -0.014000000 0.4633800089 2.1189999580 78.185203552 160.49800110 0.5540224314 46.963180542  -999.250000 0.6130223870
 1818.5584717  -999.250000 14.477000237 -0.016000001 0.4775400162 2.1089999676 78.188003540 160.74980164 0.5450072289 46.728187561  -999.250000 0.5980120301
 1818.7108154  -999.250000 14.234000206 -0.014000000 0.4545899928 2.0999999046 80.309600830 160.25079346 0.5350160599 47.476799011  -999.250000 0.6059871912
 1818.8632813  -999.250000 14.125000000 -0.014000000 0.4492200017 2.0880000591 90.055191040 160.00019836 0.5280056000 47.743785858  -999.250000 0.6359759569
 1819.0156250  -999.250000 14.063000679 -0.012000000 0.4765599966 2.0899999142 86.316009521 159.25059509 0.5210056305 46.728813171  -999.250000 0.6529863477
 1819.1680908  -999.250000 14.093998909 -0.013000000 0.4780300260 2.0959999561 94.618347168 159.74960327 0.5160039663 46.743988037  -999.250000 0.6460056305
 1819.3204346  -999.250000 14.671999931 -0.012000000 0.4682599902 2.1050000191 86.694366455 159.99980164 0.5140016079 46.977813721  -999.250000 0.6240176558
 1819.4729004  -999.250000 15.522999763 -0.016000001 0.5078099966 2.1070001125 93.494544983 161.74859619 0.5120016336 47.961212158  -999.250000 0.6040160060
 1819.6252441  -999.250000 16.016000748 -0.012000000 0.4726599753 2.1050000191 93.874702454 163.24879456 0.5110007524 48.430622101  -999.250000 0.5840160251
 1819.7777100  -999.250000 15.171999931 -0.011000000 0.5136700273 2.0899999142 98.746093750 163.74961853 0.5100007653 48.696784973  -999.250000 0.5700111985
 1819.9300537  -999.250000 14.944999695 -0.009000000 0.4780300260 2.0799999237 100.31175232 164.24960327 0.5129976273 49.696197510  -999.250000 0.5670023561
 1820.0825195  -999.250000 14.859000206 -0.007000000 0.4980500042 2.0799999237 95.067207336 163.50057983 0.5149983764 49.462188721  -999.250000 0.5699976087
 1820.2348633  -999.250000 14.656001091 -0.003000000 0.4624000192 2.0920000076 91.752655029 163.00039673 0.5209951997 48.931427002  -999.250000 0.5759951472
 1820.3872070  -999.250000 14.961000443 -0.003000000 0.4365200102 2.1040000916 88.505203247 163.24960327 0.5229967833 48.697372437  -999.250000 0.5889791846
 1820.5396729  -999.250000 14.765999794 -0.005000000 0.4409199953 2.1110000610 91.622497559 164.24919128 0.5249983668 48.961788177  -999.250000 0.5939959884
 1820.6920166  -999.250000 14.796999931 -0.007000000 0.4326200187 2.1170001030 90.751403809 163.25160217 0.5329871774 48.681449890  -999.250000 0.6059808135
 1820.8444824  -999.250000 14.805000305 -0.008000000 0.4267599881 2.1110000610 93.497795105 162.75039673 0.5509855747 48.181400299  -999.250000 0.6139935851
 1820.9968262  -999.250000 14.772999763 -0.011000000 0.4565399885 2.1040000916 93.000801086 161.00279236 0.5659759641 47.916423798  -999.250000 0.6209887862
 1821.1492920  -999.250000 15.227000237 -0.009000000 0.4404299855 2.0999999046 95.186248779 160.75019836 0.5809879303 48.165798187  -999.250000 0.6309919953
 1821.3016357  -999.250000 14.671999931 -0.008000000 0.4404299855 2.0999999046 96.561904907 159.75080872 0.5989855528 48.915397644  -999.250000 0.6459879875
 1821.4541016  -999.250000 14.586000443 -0.005000000 0.3784199953 2.0980000496 92.940902710 160.24960327 0.6039959788 48.181587219  -999.250000 0.6609880328
 1821.6064453  -999.250000 14.694999695 -0.004000000 0.4213899970 2.0880000591 93.062904358 159.25080872 0.6089960337 47.681400299  -999.250000 0.6729903817
 1821.7589111  -999.250000 14.913999557 -0.005000000 0.4248000085 2.0720000267 91.751052856 157.75120544 0.6189920306 47.696987152  -999.250000 0.6879880428
 1821.9112549  -999.250000 15.140999794 -0.002000000 0.4560500085 2.0739998817 100.61788940 155.75160217 0.6219975948 48.945995331  -999.250000 0.6959935427
 1822.0637207  -999.250000 15.164000511 -0.002000000 0.4243199825 2.0920000076 103.93534851 155.75000000 0.6130071878 47.962791443  -999.250000 0.7039936185
 1822.2160645  -999.250000 15.180000305 -0.006000000 0.4243199825 2.1150000095 102.00155640 156.49940491 0.6060056090 45.948612213  -999.250000 0.6850152016
 1822.3684082  -999.250000 15.522999763 -0.008000000 0.4111299813 2.1289999485 94.450111389 156.99920654 0.5940191746 45.167251587  -999.250000 0.6550480127
 1822.5208740  -999.250000 14.977000237 -0.018999999 0.4306600094 2.1040000916 87.380661011 158.24899292 0.5740160346 45.461765289  -999.250000 0.6180295944
 1822.6732178  -999.250000 14.765999794 -0.020000000 0.4428699911 2.0840001106 83.631004333 158.25000000 0.5540320277 46.959598541  -999.250000 0.6000288725
 1822.8256836  -999.250000 14.727000237 -0.028000001 0.4677700102 2.0659999847 85.936149597 158.74961853 0.5390120149 46.236579895  -999.250000 0.5810151696
 1822.9780273  -999.250000 14.703000069 -0.022000000 0.4536100030 2.0799999237 87.747100830 157.75160217 0.5210288763 46.251972198  -999.250000 0.5630288720
 1823.1304932  -999.250000 14.663999557 -0.021000000 0.4204100072 2.0959999561 94.369689941 157.00059509 0.5110079646 46.758594513  -999.250000 0.5630000234
 1823.2828369  -999.250000 14.836000443 -0.011000000 0.4511699975 2.1040000916 93.001098633 156.00079346 0.5109999776 47.243610382  -999.250000 0.5809855461
 1823.4353027  -999.250000 14.968999863 -0.012000000 0.4663099945 2.1070001125 97.184654236 154.75100708 0.5159959793 46.759387970  -999.250000 0.5979864001
 1823.5876465  -999.250000 14.453000069 -0.012000000 0.4843800068 2.1170001030 94.065505981 153.00140381 0.5259920359 46.002605438  -999.250000 0.6009976268
 1823.7401123  -999.250000 14.453000069 -0.018999999 0.4409199953 2.1310000420 89.878349304 152.25059509 0.5449848175 46.477619171  -999.250000 0.6059960127
 1823.8924561  -999.250000 14.531000137 -0.020000000 0.4135699868 2.1480000019 85.191757202 150.00180054 0.5579895973 46.493988037  -999.250000 0.6449687481
 1824.0449219  -999.250000 14.633000374 -0.022000000 0.4355500042 2.1410000324 84.500549316 148.50120544 0.5659936070 47.008586884  -999.250000 0.6949599385
 1824.1972656  -999.250000 14.633000374 -0.015000000 0.4213899970 2.1459999084 85.749000549 146.75140381 0.5779904127 47.493610382  -999.250000 0.7229775786
 1824.3496094  -999.250000 14.647999763 -0.012000000 0.4526399970 2.1459999084 90.242797852 147.49879456 0.5949727893 47.758575439  -999.250000 0.7060272098
 1824.5020752  -999.250000 15.125000000 -0.010000000 0.4272499979 2.1480000019 87.065559387 149.49839783 0.6099879742 47.494213104  -999.250000 0.6770232320
