# LAS format log file from PETREL
# Project units are specified as depth units
#==================================================================
~Version information
VERS.   2.0:
WRAP.   NO:
#==================================================================
~Well
STRT .m      933.99749756 :
STOP .m      3610.7521973 :
STEP .m     0.00000000 :
NULL .        -999.250000 :
COMP.           : COMPANY
WELL.  30/6-8   : WELL
FLD.            : FIELD
LOC.            : LOCATION
SRVC.           : SERVICE COMPANY
DATE.  2018-09-11 14:48:31   : Log Export Date {yyyy-MM-dd HH:mm:ss}
PROV.           : PROVINCE
UWI.   30/6-8   : UNIQUE WELL ID
API.            : API NUMBER
#==================================================================
~Curve
DEPT .m                   : DEPTH
Lithology_geolink ._      : Lithology_geolink
CALI .in                  : CALI
DRHO .g/cm3               : DRHO
NPHI .m3/m3               : NPHI
RHOB .g/cm3               : RHOB
GR .gAPI                  : GR
DTC .us/ft                : DTC
DTE .us/ft                : DTE
RDEP .ohm.m               : RDEP
SP .mV                    : SP
RSHA .ohm.m               : RSHA
RMED .ohm.m               : RMED
~Parameter
#==================================================================
~Ascii
# ...
 2711.5920410 16.000000000 13.659999847 -0.020000000 0.1935088187 2.7027289867 50.332035065 66.758460999 63.945297241 11.022858620 78.105796814 29.903898239 29.903898239
 2711.7443848 16.000000000 13.585000038 -0.014000000 0.1619740725 2.7182726860 49.565399170 66.113327026 63.107704163 12.085147858 77.917396545 29.560672760 29.560672760
 2711.8967285 16.000000000 13.526000023 -0.014000000 0.1520560533 2.7152841091 50.095703125 66.390945435 63.409645081 11.942548752 77.671997070 26.858001709 26.858001709
 2712.0490723 5.0000000000 13.518000603 -0.016000001 0.1496015787 2.6948509216 50.682773590 67.458435059 64.648162842 10.312941551 78.142959595 24.175802231 24.175802231
 2712.2016602 5.0000000000 13.531998634 -0.015000000 0.1506498158 2.6613326073 53.154266357 70.756973267 67.851318359 8.8451089859 79.165794373 15.189480782 15.189480782
 2712.3540039 5.0000000000 13.550000191 -0.012000000 0.1693496555 2.6218814850 58.508037567 75.920578003 72.950805664 7.7710189819 78.672203064 8.2693204880 8.2693204880
 2712.5063477 5.0000000000 13.583000183 -0.013000000 0.2128181458 2.5795993805 65.056976318 80.408004761 77.525756836 6.8395452499 79.164802551 5.2148461342 5.2148461342
 2712.6586914 5.0000000000 13.626998901 -0.015000000 0.2552990019 2.5443620682 70.182151794 83.315132141 80.345977783 6.1452980042 78.514350891 4.5718221664 4.5718221664
 2712.8110352 6.0000000000 13.677999496 -0.014000000 0.2733739913 2.5279521942 71.448005676 84.252822876 81.231979370 5.5842885971 78.794898987 4.9524374008 4.9524374008
 2712.9636230 6.0000000000 13.715000153 -0.012000000 0.2758749425 2.5302751064 69.989707947 83.660758972 80.805801392 5.2296795845 78.982597351 5.6676793098 5.6676793098
 2713.1159668 6.0000000000 13.723999977 -0.013000000 0.2805322111 2.5391597748 68.394515991 83.046531677 80.211524963 5.1803965569 79.071800232 6.2400031090 6.2400031090
 2713.2683105 6.0000000000 13.692999840 -0.016000001 0.2818915546 2.5446193218 68.326637268 82.953620911 79.997093201 5.2422647476 78.566581726 6.5517311096 6.5517311096
 2713.4206543 6.0000000000 13.650999069 -0.017999999 0.2766184807 2.5474617481 69.704689026 82.926239014 79.937019348 5.2972788811 76.825599670 6.7034711838 6.7034711838
 2713.5732422 6.0000000000 13.640001297 -0.017999999 0.2756843269 2.5499866009 70.464408875 83.016273499 80.094787598 5.3554296494 76.961616516 6.8003973961 6.8003973961
 2713.7255859 6.0000000000 13.638999939 -0.017000001 0.2770245373 2.5499932766 69.742294312 83.325790405 80.325111389 5.4210448265 78.761398315 6.7047243118 6.7047243118
 2713.8779297 6.0000000000 13.638999939 -0.018999999 0.2736442685 2.5443978310 68.080368042 83.418716431 80.476188660 5.2723531723 78.515800476 6.3479232788 6.3479232788
 2714.0302734 6.0000000000 13.637999535 -0.021000000 0.2825343609 2.5366961956 67.671020508 84.020431519 81.202087402 5.1713604927 78.951354980 5.7120866776 5.7120866776
 2714.1828613 6.0000000000 13.637999535 -0.025000000 0.2914997935 2.5291817188 67.460044861 84.151725769 81.319160461 5.0373716354 79.228797913 5.1068463326 5.1068463326
 2714.3352051 6.0000000000 13.628999710 -0.024000000 0.2976241708 2.5288321972 66.068511963 84.117431641 81.086746216 4.7826728821 78.734603882 4.7736277580 4.7736277580
 2714.4875488 6.0000000000 13.619000435 -0.023000000 0.2752838135 2.5302391052 65.538169861 84.518859863 81.476768494 4.4211997986 79.134803772 4.8711724281 4.8711724281
 2714.6398926 6.0000000000 13.609000206 -0.021000000 0.2652117908 2.5370962620 67.129058838 84.479179382 81.557220459 4.2971682549 78.638748169 4.8945283890 4.8945283890
 2714.7922363 6.0000000000 13.600000381 -0.022000000 0.2663234174 2.5434231758 69.624839783 84.974311829 81.951141357 4.3320960999 78.793251038 4.1720623970 4.1720623970
 2714.9448242 6.0000000000 13.588999748 -0.021000000 0.2684212923 2.5354342461 69.375022888 85.373138428 82.375000000 4.3530769348 78.639404297 3.3573911190 3.3573911190
 2715.0971680 6.0000000000 13.578999519 -0.021000000 0.2594726384 2.5196039677 67.974105835 85.207092285 82.360458374 4.5208449364 78.865798950 3.4206879139 3.4206879139
 2715.2495117 6.0000000000 13.568999290 -0.025000000 0.2548924685 2.5085146427 66.593109131 84.956428528 82.002906799 4.6517596245 80.230346680 3.8415770531 3.8415770531
 2715.4018555 6.0000000000 13.560000420 -0.028000001 0.2564503849 2.5099501610 66.619750977 84.388816833 81.440864563 4.6034088135 79.891304016 4.5858507156 4.5858507156
 2715.5544434 6.0000000000 13.560000420 -0.029999999 0.2691870630 2.5172591209 67.400398254 83.540977478 80.729408264 4.8971281052 80.567993164 5.3906855583 5.3906855583
 2715.7067871 6.0000000000 13.564000130 -0.030999999 0.2807484567 2.5273470879 68.090408325 82.792221069 80.002349854 5.2283720970 79.483200073 6.5885572433 6.5885572433
 2715.8591309 6.0000000000 13.567999840 -0.029999999 0.2922554314 2.5376465321 69.568519592 82.463890076 79.464523315 5.4420495033 79.666397095 7.6072525978 7.6072525978
 2716.0114746 6.0000000000 13.571999550 -0.024000000 0.2956405580 2.5451922417 72.598945618 82.269783020 79.309967041 5.6051921844 79.264953613 7.9539036751 7.9539036751
 2716.1640625 6.0000000000 13.574999809 -0.017999999 0.3022219837 2.5461306572 72.775772095 81.899795532 79.109161377 5.6430449486 79.666198730 7.3038592339 7.3038592339
 2716.3164063 6.0000000000 13.576999664 -0.017000001 0.3059489727 2.5379562378 69.932815552 82.368225098 79.467216492 5.3379487991 79.223785400 5.8801345825 5.8801345825
 2716.4687500 6.0000000000 13.578999519 -0.017999999 0.3052986860 2.5249264240 67.109046936 83.219978333 80.241287231 5.0184450150 77.949195862 4.8124542236 4.8124542236
 2716.6210938 6.0000000000 13.581000328 -0.016000001 0.2920141220 2.5127885342 66.183609009 83.552032471 80.644020081 4.7760238647 77.831161499 4.2606730461 4.2606730461
 2716.7731934 5.0000000000 13.583999634 -0.015000000 0.2821300030 2.5041518211 65.893402100 83.594947815 80.750000000 4.5736761093 79.109809875 3.9856250286 3.9856250286
 2716.9257813 5.0000000000 13.585999489 -0.016000001 0.2760800123 2.4992711544 65.083465576 83.731521606 80.758697510 4.4728655815 79.978096008 3.8691394329 3.8691394329
 2717.0781250 5.0000000000 13.586999893 -0.018999999 0.2851000130 2.5015807152 64.980384827 83.983436584 80.960235596 4.4449810982 79.171546936 3.8991663456 3.8991663456
 2717.2304688 5.0000000000 13.586999893 -0.021000000 0.2852799892 2.5100679398 66.511840820 83.881248474 80.969612122 4.4412755966 79.698791504 4.1427402496 4.1427402496
 2717.3828125 5.0000000000 13.585999489 -0.020000000 0.2908200026 2.5183370113 66.460609436 83.583175659 80.581710815 4.5274262428 79.324394226 4.6862149239 4.6862149239
 2717.5351563 5.0000000000 13.585999489 -0.016000001 0.2728700042 2.5239579678 65.715881348 83.212043762 80.225395203 4.6606502533 79.137596130 5.3763399124 5.3763399124
 2717.6877441 5.0000000000 13.585000038 -0.014000000 0.2645899951 2.5303499699 64.740501404 82.808120728 79.980979919 4.8643364906 79.011795044 5.7933945656 5.7933945656
 2717.8400879 5.0000000000 13.583999634 -0.012000000 0.2703500092 2.5374190807 63.805206299 82.655700684 79.869209290 5.1425409317 78.764503479 5.8746628761 5.8746628761
 2717.9924316 5.0000000000 13.583999634 -0.013000000 0.2785600126 2.5455827713 63.228927612 82.641075134 79.734367371 5.4620990753 79.074798584 5.8050699234 5.8050699234
 2718.1447754 5.0000000000 13.578999519 -0.016000001 0.2934900224 2.5511901379 63.374225616 82.644027710 79.711364746 5.6328105927 79.046203613 5.8161506653 5.8161506653
 2718.2973633 5.0000000000 13.565999985 -0.018999999 0.2916899920 2.5542519093 63.753322601 82.980888367 80.112960815 5.5731534958 79.732902527 5.8638076782 5.8638076782
 2718.4497070 5.0000000000 13.550999641 -0.022000000 0.3048200011 2.5512897968 63.401409149 83.446205139 80.464279175 5.3964395523 79.915390015 6.0310001373 6.0310001373
 2718.6020508 5.0000000000 13.536000252 -0.021000000 0.2955699861 2.5419166088 62.448001862 83.934669495 80.971450806 5.0725045204 79.171195984 6.0289297104 6.0289297104
 2718.7543945 5.0000000000 13.524000168 -0.018999999 0.2919099927 2.5262339115 61.673934937 85.177246094 82.276542664 4.8398752213 79.512596130 5.7039966583 5.7039966583
