# LAS format log file from PETREL
# Project units are specified as depth units
#==================================================================
~Version information
VERS.   2.0:
WRAP.   NO:
#==================================================================
~Well
STRT .m      933.99749756 :
STOP .m      3610.7521973 :
STEP .m     0.00000000 :
NULL .        -999.250000 :
COMP.           : COMPANY
WELL.  30/6-8   : WELL
FLD.            : FIELD
LOC.            : LOCATION
SRVC.           : SERVICE COMPANY
DATE.  2018-09-11 14:48:31   : Log Export Date {yyyy-MM-dd HH:mm:ss}
PROV.           : PROVINCE
UWI.   30/6-8   : UNIQUE WELL ID
API.            : API NUMBER
#==================================================================
~Curve
DEPT .m                   : DEPTH
Lithology_geolink ._      : Lithology_geolink
CALI .in                  : CALI
DRHO .g/cm3               : DRHO
NPHI .m3/m3               : NPHI
RHOB .g/cm3               : RHOB
GR .gAPI                  : GR
DTC .us/ft                : DTC
DTE .us/ft                : DTE
RDEP .ohm.m               : RDEP
SP .mV                    : SP
RSHA .ohm.m               : RSHA
RMED .ohm.m               : RMED
~Parameter
#==================================================================
~Ascii
# ...
 1292.4423828  -999.250000 19.843000412 0.0149999997 0.3666700125 2.0889792442 49.344928741 140.23374939 135.65620422 1.4079799652 62.752754211 1.3689631224 1.3689631224
 1292.5948486  -999.250000 19.884000778 0.0230000000 0.3732099831 2.0971667767 50.504352570 139.84313965 135.32003784 1.3830416203 67.439796448 1.3230447769 1.3230447769
 1292.7471924  -999.250000 19.946998596 0.0209999997 0.3941999674 2.1042239666 53.220527649 140.86180115 136.34379578 1.4090048075 69.810394287 1.3509438038 1.3509438038
 1292.8995361  -999.250000 19.787000656 0.0149999997 0.3976399899 2.1009447575 55.125850677 141.35905457 136.74929810 1.4149975777 69.061050415 1.2810271978 1.2810271978
 1293.0520020  -999.250000 19.556999207 0.0120000001 0.3977999985 2.0919387341 56.190704346 141.85372925 137.34400940 1.4120215178 69.123802185 1.3149784803 1.3149784803
 1293.2043457  -999.250000 19.329999924 0.0149999997 0.4029000103 2.0854051113 59.560115814 142.25990295 137.67407227 1.4390047789 68.873947144 1.2880400419 1.2880400419
 1293.3568115  -999.250000 19.343999863 0.0230000000 0.4159999788 2.0872333050 55.958351135 141.09893799 136.48335266 1.4450192451 68.812347412 1.3380744457 1.3380744457
 1293.5091553  -999.250000 19.311000824 0.0340000018 0.4335100055 2.0957818031 51.526870728 139.84719849 135.32812500 1.4530415535 69.374252319 1.3690367937 1.3690367937
 1293.6616211  -999.250000 19.273000717 0.0410000011 0.4361399710 2.1064176559 46.372947693 139.65806580 135.10826111 1.5050536394 69.687751770 1.4150232077 1.4150232077
 1293.8139648  -999.250000 20.170999527 0.0480000004 0.4391299784 2.1163198948 43.813373566 138.91438293 134.40620422 1.5720120668 71.874954224 1.4439911842 1.4439911842
 1293.9664307  -999.250000 19.552000046 0.0579999983 0.4408000112 2.1305031776 44.283027649 138.54756165 134.02978516 1.5869903564 73.056190491 1.4330408573 1.4330408573
 1294.1187744  -999.250000 19.378999710 0.0680000037 0.4601699710 2.1452646255 46.818984985 138.81521606 134.12496948 1.5749711990 67.061195374 1.4840128422 1.4840128422
 1294.2712402  -999.250000 19.108999252 0.1010000035 0.4721699953 2.1592676640 54.286552429 139.07772827 134.46281433 1.5389360189 67.308097839 1.4999039173 1.4999039173
 1294.4235840  -999.250000 19.138999939 0.0350000001 0.4465200007 2.1197967529 57.748649597 140.14653015 135.66401672 1.4989751577 65.497596741 1.4399182796 1.4399182796
 1294.5760498  -999.250000 19.283000946 0.0089999996 0.4279899895 2.0545063019 56.056743622 142.15525818 137.70075989 1.4679664373 63.759609222 1.3379199505 1.3379199505
 1294.7283936  -999.250000 18.770000458 -0.018999999 0.3899599910 2.0109617710 52.153545380 143.88099670 139.34373474 1.4469759464 70.373352051 1.2879703045 1.2879703045
 1294.8808594  -999.250000 18.572000504 -0.011000000 0.3890800178 1.9923198223 49.097652435 144.87818909 140.28657532 1.4169183969 69.557891846 1.2510015965 1.2510015965
 1295.0332031  -999.250000 18.474000931 -0.010000000 0.3716199994 1.9877798557 51.374622345 144.52685547 139.91172791 1.3659800291 67.625656128 1.2519999743 1.2519999743
 1295.1855469  -999.250000 18.452999115 -0.013000000 0.3761700094 1.9801486731 50.909130096 144.20364380 139.67161560 1.3410079479 69.686294556 1.2519847155 1.2519847155
 1295.3380127  -999.250000 18.399999619 -0.017999999 0.3802199960 1.9753173590 54.806621552 144.35154724 139.88034058 1.3510575294 70.061149597 1.2329568863 1.2329568863
 1295.4903564  -999.250000 18.364999771 -0.022000000 0.4027999938 1.9790654182 52.156623840 144.82241821 140.29661560 1.3750368357 70.126251221 1.2150088549 1.2150088549
 1295.6428223  -999.250000 18.322000504 -0.021000000 0.4224700034 1.9907051325 52.936897278 144.72381592 140.11566162 1.4210568666 72.931892395 1.2260512114 1.2260512114
 1295.7951660  -999.250000 18.253999710 -0.015000000 0.4312599897 2.0035989285 51.565727234 142.65519714 138.12892151 1.4920600653 67.807945251 1.2900928259 1.2900928259
 1295.9476318  -999.250000 18.194999695 -0.003000000 0.4269699752 2.0171365738 54.968677521 140.26446533 135.62300110 1.5670609474 63.999496460 1.4060745239 1.4060745239
 1296.0999756  -999.250000 18.149999619 0.0070000002 0.4234500229 2.0297472477 54.559642792 137.04492188 132.40431213 1.6430913210 64.627807617 1.4990528822 1.4990528822
 1296.2524414  -999.250000 18.111999512 0.0130000003 0.4338600039 2.0369844437 50.364040375 133.60467529 129.18524170 1.7571376562 69.373901367 1.5650913715 1.5650913715
 1296.4047852  -999.250000 18.093999863 0.0140000004 0.4395600259 2.0403792858 43.529621124 132.57563782 128.12503052 1.8430192471 69.311248779 1.6220215559 1.6220215559
 1296.5572510  -999.250000 18.149000168 0.0080000004 0.4353900254 2.0373594761 41.819004059 132.33221436 127.82169342 1.8669599295 69.622901917 1.6489952803 1.6489952803
 1296.7095947  -999.250000 18.551000595 0.0049999999 0.4358700216 2.0364272594 45.565078735 132.14624023 127.54098511 1.8419270515 68.936546326 1.6459647417 1.6459647417
 1296.8620605  -999.250000 19.127000809 0.0020000001 0.4455499947 2.0460739136 48.167118073 133.17956543 128.55799866 1.7508301735 69.625205994 1.6018654108 1.6018654108
 1297.0144043  -999.250000 18.513000488 0.0060000001 0.4708900154 2.0656497478 55.091949463 135.30293274 130.73416138 1.6448510885 70.375701904 1.5178222656 1.5178222656
 1297.1667480  -999.250000 18.351999283 0.0109999999 0.4675599933 2.0842180252 53.817157745 137.81072998 133.28019714 1.5519623756 71.438652039 1.4068917036 1.4068917036
 1297.3192139  -999.250000 18.666000366 0.0189999994 0.4428499937 2.0894517899 58.999549866 141.36770630 136.83518982 1.5048727989 74.734748840 1.2718199492 1.2718199492
 1297.4715576  -999.250000 18.469999313 0.0240000002 0.4472700059 2.1071782112 58.815055847 143.86842346 139.27685547 1.4519550800 68.810447693 1.1969759464 1.1969759464
 1297.6240234  -999.250000 18.483999252 0.0130000003 0.4472700059 2.1521124840 61.371250153 146.40330505 141.90988159 1.3959351778 68.120849609 1.1669903994 1.1669903994
 1297.7763672  -999.250000 18.378999710 0.0099999998 0.4477299750 2.2031097412 59.810722351 147.84996033 143.22866821 1.3689831495 66.808341980 1.1630176306 1.1630176306
 1297.9288330  -999.250000 18.818000793 0.0120000001 0.4406000078 2.2060186863 56.969352722 145.26585388 140.68690491 1.3479880095 63.503162384 1.1850600243 1.1850600243
 1298.0811768  -999.250000 18.736999512 0.0240000002 0.4492900074 2.1642212868 57.406574249 142.75329590 138.23440552 1.3330231905 68.687095642 1.2600504160 1.2600504160
 1298.2336426  -999.250000 19.194999695 0.0340000018 0.4370000064 2.1322102547 58.120147705 141.02061462 136.48805237 1.3621072769 70.057495117 1.3230047226 1.3230047226
 1298.3859863  -999.250000 19.224000931 0.0320000015 0.4318000078 2.1212174892 55.092700958 140.46739197 135.94158936 1.4290273190 67.876007080 1.3259735107 1.3259735107
 1298.5384521  -999.250000 19.615999222 0.0219999999 0.3931800127 2.1151144505 53.464149475 137.80650330 133.16345215 1.4629520178 70.373901367 1.2930816412 1.2930816412
 1298.6907959  -999.250000 19.872997284 0.0179999992 0.4086600244 2.1087660789 50.438026428 130.74272156 126.04880524 1.4329726696 70.311798096 1.3440897465 1.3440897465
 1298.8432617  -999.250000 19.368999481 0.0099999998 0.4193600118 2.1016073227 50.468250275 124.51457214 119.88476563 1.3989102840 71.310195923 1.4560528994 1.4560528994
 1298.9956055  -999.250000 19.287000656 0.0089999996 0.4580099881 2.0954279900 50.001251221 121.62734985 117.09425354 1.3429231644 70.811096191 1.4887245893 1.4887245893
 1299.1479492  -999.250000 19.497999191 0.0099999998 0.4667699933 2.0905230045 50.784107208 126.65012360 122.19317627 1.2949943542 70.873397827 1.3168812990 1.3168812990
 1299.3004150  -999.250000 19.649999619 0.0109999999 0.4469300210 2.0845694542 54.650676727 139.39570618 134.84448242 1.2879831791 70.125198364 1.1688055992 1.1688055992
 1299.4527588  -999.250000 19.808000565 0.0080000004 0.4170100093 2.0781166553 52.441207886 146.62345886 142.08743286 1.2809631824 70.626152039 1.0880120993 1.0880120993
 1299.6052246  -999.250000 20.031999588 0.0020000001 0.3783900142 2.0710041523 56.431999207 146.96105957 142.35044861 1.2349736691 73.294349670 1.1030457020 1.1030457020
