# LAS format log file from PETREL
# Project units are specified as depth units
#==================================================================
~Version information
VERS.   2.0:
WRAP.   NO:
#==================================================================
~Well
STRT .m      2773.3432617 :
STOP .m      3341.0317383 :
STEP .m     0.00000000 :
NULL .        -999.250000 :
COMP.           : COMPANY
WELL.  30/6-22   : WELL
FLD.            : FIELD
LOC.            : LOCATION
SRVC.           : SERVICE COMPANY
DATE.  2018-09-11 14:48:30   : Log Export Date {yyyy-MM-dd HH:mm:ss}
PROV.           : PROVINCE
UWI.   30/6-22   : UNIQUE WELL ID
API.            : API NUMBER
#==================================================================
~Curve
DEPT .m                   : DEPTH
Lithology_geolink ._      : Lithology_geolink
CALI .in                  : CALI
DRHO .g/cm3               : DRHO
NPHI .m3/m3               : NPHI
RHOB .g/cm3               : RHOB
GR .gAPI                  : GR
DTC .us/ft                : DTC
DTE .us/ft                : DTE
RDEP .ohm.m               : RDEP
SP .mV                    : SP
RSHA .ohm.m               : RSHA
RMED .ohm.m               : RMED
~Parameter
#==================================================================
~Ascii
# ...
 2963.5378418 5.0000000000 8.3590002060 0.0060000001 0.1977500021 2.4679999352 46.916252136 77.589523315 77.369606018 2.2011249065  -999.250000 1.8510433435 1.8510433435
 2963.6904297 5.0000000000 8.3590002060 0.0080000004 0.1846699864 2.4779999256 50.076507568 75.615776062 75.862487793 2.2269229889  -999.250000 2.4871218204 2.4871218204
 2963.8427734 5.0000000000 8.3590002060 0.0030000000 0.1963699907 2.4279999733 50.608692169 76.718475342 76.690116882 2.2149486542  -999.250000 3.4350898266 3.4350898266
 2963.9951172 5.0000000000 8.3590002060 0.0040000002 0.2135199904 2.3710000515 48.862628937 79.301292419 79.185600281 2.2069745064  -999.250000 3.2873504162 3.2873504162
 2964.1474609 2.0000000000 8.3590002060 0.0040000002 0.2210499942 2.3299999237 49.902698517 81.618827820 81.780487061 2.2027692795  -999.250000 2.2525675297 2.2525675297
 2964.3000488 2.0000000000 8.3590002060 0.0020000001 0.2208799869 2.3120000362 52.128627777 83.806884766 83.685050964 2.1545577049  -999.250000 1.7480769157 1.7480769157
 2964.4523926 2.0000000000 8.3590002060 0.0010000000 0.2171699852 2.3029999733 53.798686981 83.971801758 84.249275208 2.0855383873  -999.250000 1.6049679518 1.6049679518
 2964.6047363 2.0000000000 8.3590002060 0.0040000002 0.2141200006 2.3080000877 57.319389343 83.954307556 83.997993469 2.0134174824  -999.250000 1.6001472473 1.6001472473
 2964.7570801 2.0000000000 8.3590002060 0.0040000002 0.2085999995 2.3220000267 58.004783630 83.539985657 83.532981873 1.9228172302  -999.250000 1.6233606339 1.6233606339
 2964.9094238 2.0000000000 8.3590002060 0.0099999998 0.2026899904 2.3570001125 58.787864685 83.477302551 83.207534790 1.8852452040  -999.250000 1.6990624666 1.6990624666
 2965.0620117 2.0000000000 8.3590002060 0.0120000001 0.1986500025 2.3829998970 58.757499695 83.062217712 82.939994812 1.9365769625  -999.250000 1.9205962420 1.9205962420
 2965.2143555 2.0000000000 8.3590002060 0.0120000001 0.2007099986 2.3870000839 58.352420807 82.285896301 82.257278442 2.0266537666  -999.250000 2.1686730385 2.1686730385
 2965.3666992 2.0000000000 8.3590002060 0.0089999996 0.2007900029 2.3759999275 55.622352600 81.649291992 81.744552612 2.1286976337  -999.250000 2.2733583450 2.2733583450
 2965.5190430 2.0000000000 8.3590002060 0.0089999996 0.1993199885 2.3619999886 54.748191833 81.569297791 81.693786621 2.2376248837  -999.250000 2.3288750648 2.3288750648
 2965.6716309 2.0000000000 8.3590002060 0.0070000002 0.1938100010 2.3589999676 55.183986664 81.984382629 81.771392822 2.3676924706  -999.250000 2.3022627831 2.3022627831
 2965.8239746 2.0000000000 8.3590002060 0.0080000004 0.1983600110 2.3710000515 52.383800507 82.160728455 82.236038208 2.4750769138  -999.250000 2.1875832081 2.1875832081
 2965.9763184 2.0000000000 8.3590002060 0.0089999996 0.2033900023 2.3870000839 51.094661713 83.306564331 83.177780151 2.4865136147  -999.250000 2.1229486465 2.1229486465
 2966.1286621 2.0000000000 8.3590002060 0.0080000004 0.2155299932 2.3759999275 48.224723816 84.188591003 84.406059265 2.4104759693  -999.250000 2.1147403717 2.1147403717
 2966.2812500 2.0000000000 8.3590002060 0.0049999999 0.2170599997 2.3489999771 43.403419495 85.779006958 85.788772583 2.3011219501  -999.250000 2.0601923466 2.0601923466
 2966.4335938 2.0000000000 8.3590002060 0.0010000000 0.2272500098 2.3099999428 43.010288239 87.125534058 86.857383728 2.1640384197  -999.250000 1.9338845015 1.9338845015
 2966.5859375 2.0000000000 8.3590002060 -0.004000000 0.2308900058 2.2769999504 43.989658356 87.830223083 87.933471680 2.0140144825  -999.250000 1.7597136497 1.7597136497
 2966.7382813 2.0000000000 8.3590002060 -0.007000000 0.2375800014 2.2539999485 44.716533661 89.735252380 89.582916260 1.8601778746  -999.250000 1.5592211485 1.5592211485
 2966.8906250 2.0000000000 8.3590002060 -0.004000000 0.2309300005 2.2509999275 45.454071045 90.677230835 90.950836182 1.6892837286  -999.250000 1.3976202011 1.3976202011
 2967.0432129 2.0000000000 8.3590002060 -0.006000000 0.2345100045 2.2500000000 46.716331482 91.896720886 91.935455322 1.5403333902  -999.250000 1.3189102411 1.3189102411
 2967.1955566 2.0000000000 8.3590002060 -0.009000000 0.2279199958 2.2449998856 47.688270569 92.478019714 92.483177185 1.4365705252  -999.250000 1.3048845530 1.3048845530
 2967.3479004 2.0000000000 8.3590002060 -0.006000000 0.2384499907 2.2420001030 46.167072296 92.254577637 92.308906555 1.3695647717  -999.250000 1.2867567539 1.2867567539
 2967.5002441 2.0000000000 8.3590002060 -0.007000000 0.2372999936 2.2430000305 44.158630371 92.368690491 92.364440918 1.3018461466  -999.250000 1.2488076687 1.2488076687
 2967.6528320 2.0000000000 8.3590002060 -0.008000000 0.2406599969 2.2490000725 43.868225098 92.521377563 92.260475159 1.2702499628  -999.250000 1.2089102268 1.2089102268
 2967.8051758 2.0000000000 8.3590002060 -0.007000000 0.2395899892 2.2590000629 42.813396454 91.424362183 91.393554688 1.3092691898  -999.250000 1.1949744225 1.1949744225
 2967.9575195 2.0000000000 8.3590002060 -0.005000000 0.2303400040 2.2769999504 42.093791962 89.057144165 89.268058777 1.3512239456  -999.250000 1.1908911467 1.1908911467
 2968.1098633 2.0000000000 8.3590002060 -0.007000000 0.2204499990 2.3129999638 41.130973816 86.119163513 85.900558472 1.3862547874  -999.250000 1.1740288734 1.1740288734
 2968.2624512 2.0000000000 8.3590002060 -0.003000000 0.2042200118 2.3570001125 41.353359222 83.054122925 83.072837830 1.4393141270  -999.250000 1.1818717718 1.1818717718
 2968.4147949 2.0000000000 8.3590002060 -0.004000000 0.1913899928 2.3640000820 44.679817200 82.540489197 82.445312500 1.4882949591  -999.250000 1.4746346474 1.4746346474
 2968.5671387 2.0000000000 8.3590002060 -0.010000000 0.1966300011 2.3220000267 47.128013611 83.883666992 84.064483643 1.5345312357  -999.250000 1.8824239969 1.8824239969
 2968.7194824 2.0000000000 8.3590002060 -0.009000000 0.2022600025 2.2860000134 46.681312561 86.337356567 86.236259460 1.6174855232  -999.250000 1.7916634083 1.7916634083
 2968.8718262 2.0000000000 8.3590002060 -0.005000000 0.2116000056 2.2820000648 50.303726196 86.919143677 87.148986816 1.7185817957  -999.250000 1.5145577192 1.5145577192
 2969.0244141 5.0000000000 8.3590002060 0.0010000000 0.2002899945 2.3129999638 58.345287323 86.419403076 86.544075012 1.8398396969  -999.250000 1.4230641127 1.4230641127
 2969.1767578 5.0000000000 8.3590002060 0.0049999999 0.1936800033 2.3469998837 62.293972015 84.681640625 84.611061096 1.9704223871  -999.250000 1.4347664118 1.4347664118
 2969.3291016 5.0000000000 8.3590002060 0.0130000003 0.1819300056 2.3919999599 66.797378540 81.644081116 81.677017212 2.0360529423  -999.250000 1.7114903927 1.7114903927
 2969.4814453 5.0000000000 8.3590002060 0.0149999997 0.1822199970 2.4289999008 67.889015198 79.755607605 79.622756958 2.0471057892  -999.250000 2.2296490669 2.2296490669
 2969.6340332 5.0000000000 8.3590002060 0.0209999997 0.1855600029 2.4570000172 63.295970917 80.059730530 80.115760803 2.0693013668  -999.250000 2.7808589935 2.7808589935
 2969.7863770 5.0000000000 8.3590002060 0.0130000003 0.2006100118 2.4100000858 56.725845337 80.249923706 80.323127747 2.1166729927  -999.250000 3.2251024246 3.2251024246
 2969.9387207 2.0000000000 8.3590002060 0.0099999998 0.2009699941 2.3599998951 48.174522400 79.326454163 79.629539490 2.2224783897  -999.250000 3.3934974670 3.3934974670
 2970.0910645 2.0000000000 8.3809995651 0.0089999996 0.1872200072 2.3789999485 47.822360992 77.833106995 77.655014038 2.4538846016  -999.250000 3.0014617443 3.0014617443
 2970.2436523 2.0000000000 8.4479999542 0.0170000009 0.1760300100 2.4820001125 54.585960388 74.103729248 73.995979309 2.8461539745  -999.250000 2.2685449123 2.2685449123
 2970.3959961 2.0000000000 8.5459995270 0.0189999994 0.1903100014 2.5759999752 64.731651306 71.399894714 71.497467041 3.1809935570  -999.250000 2.2045896053 2.2045896053
 2970.5483398 2.0000000000 8.6260004044 0.0120000001 0.2161899954 2.5999999046 76.669891357 71.589157104 71.446983337 3.3359472752  -999.250000 3.2370400429 3.2370400429
 2970.7006836 2.0000000000 8.6479997635 0.0049999999 0.2270500064 2.5889999866 85.514480591 72.294960022 72.385986328 3.4844231606  -999.250000 4.9596734047 4.9596734047
