# LAS format log file from PETREL
# Project units are specified as depth units
#==================================================================
~Version information
VERS.   2.0:
WRAP.   NO:
#==================================================================
~Well
STRT .m      922.25012207 :
STOP .m      4009.0009766 :
STEP .m     0.00000000 :
NULL .        -999.250000 :
COMP.           : COMPANY
WELL.  30/6-11   : WELL
FLD.            : FIELD
LOC.            : LOCATION
SRVC.           : SERVICE COMPANY
DATE.  2018-09-11 14:48:30   : Log Export Date {yyyy-MM-dd HH:mm:ss}
PROV.           : PROVINCE
UWI.   30/6-11   : UNIQUE WELL ID
API.            : API NUMBER
#==================================================================
~Curve
DEPT .m                   : DEPTH
Lithology_geolink ._      : Lithology_geolink
CALI .in                  : CALI
DRHO .g/cm3               : DRHO
NPHI .m3/m3               : NPHI
RHOB .g/cm3               : RHOB
GR .gAPI                  : GR
DTC .us/ft                : DTC
RDEP .ohm.m               : RDEP
SP .mV                    : SP
RSHA .ohm.m               : RSHA
RMED .ohm.m               : RMED
~Parameter
#==================================================================
~Ascii
# ...
 2771.0000000 13.000000000 12.552000046 -0.004000000 0.2476899922 2.4898931980 58.705001831 114.86913300 1.4490000010 37.380001068 1.6979999542 1.6979999542
 2771.1247559 13.000000000 12.553001404 0.0030000000 0.2487199903 2.5039875507 58.790000916 114.71560669 1.4570000172 37.808998108 1.6959999800 1.6959999800
 2771.2497559 13.000000000 12.555999756 0.0089999996 0.2423999906 2.5102741718 58.881999969 114.57066345 1.4630000591 37.506000519 1.6929999590 1.6929999590
 2771.3752441 13.000000000 12.559000015 0.0089999996 0.2295999974 2.5083794594 59.748001099 114.45806122 1.4700000286 35.854999542 1.6959999800 1.6959999800
 2771.4997559 13.000000000 12.559000015 0.0049999999 0.2168100029 2.5027167797 60.890998840 114.37783813 1.4730000496 34.459999084 1.7009999752 1.7009999752
 2771.6247559 13.000000000 12.557999611 0.0030000000 0.2163500041 2.4976816177 62.025001526 114.31944275 1.4739999771 34.067001343 1.7070000172 1.7070000172
 2771.7500000 13.000000000 12.555000305 0.0030000000 0.2203700095 2.4949946404 63.270000458 114.26586151 1.4730000496 34.153999329 1.7109999657 1.7109999657
 2771.8750000 13.000000000 12.552000046 0.0040000002 0.2276300043 2.4942836761 64.293998718 114.19315338 1.4689999819 34.337001801 1.7100000381 1.7100000381
 2772.0000000 13.000000000 12.550999641 0.0030000000 0.2348600030 2.4927248955 64.122001648 114.06228638 1.4650000334 34.125999451 1.7039999962 1.7039999962
 2772.1250000 13.000000000 12.552000046 -0.002000000 0.2351099998 2.4883730412 62.888999939 113.83124542 1.4620000124 33.594001770 1.6950000525 1.6950000525
 2772.2502441 13.000000000 12.553999901 -0.007000000 0.2329700142 2.4850993156 61.328998566 113.51548767 1.4579999447 33.087001801 1.6829999685 1.6829999685
 2772.3752441 13.000000000 12.557999611 -0.006000000 0.2286199927 2.4864313602 59.741001129 113.15632629 1.4509999752 33.134998322 1.6619999409 1.6619999409
 2772.5000000 13.000000000 12.559999466 0.0030000000 0.2230200022 2.4937567711 59.186000824 112.81477356 1.4429999590 33.773998260 1.6449999809 1.6449999809
 2772.6250000 13.000000000 12.560999870 0.0120000001 0.2198999971 2.5056242943 59.501998901 112.56687927 1.4320000410 34.602001190 1.6349999905 1.6349999905
 2772.7500000 13.000000000 12.559000015 0.0179999992 0.2177199870 2.5131731033 60.099998474 112.55252838 1.4170000553 35.258998871 1.6280000210 1.6280000210
 2772.8750000 13.000000000 12.557000160 0.0209999997 0.2205400020 2.5138924122 61.959999084 112.74216461 1.3839999437 35.395999908 1.6230000257 1.6230000257
 2773.0000000 13.000000000 12.555999756 0.0160000008 0.2296800017 2.5075092316 64.082000732 113.04728699 1.3539999723 35.196998596 1.6230000257 1.6230000257
 2773.1250000 13.000000000 12.555999756 0.0060000001 0.2374899983 2.4947018623 65.531997681 113.39154816 1.3370000124 35.175998688 1.6280000210 1.6280000210
 2773.2500000 13.000000000 12.559000015 -0.010000000 0.2455100119 2.4764361382 66.099998474 113.71691895 1.3259999752 35.680999756 1.6289999485 1.6289999485
 2773.3750000 13.000000000 12.574999809 -0.032000002 0.2519699931 2.4525589943 64.162002563 114.01279449 1.3240000010 37.789001465 1.6109999418 1.6109999418
 2773.4997559 13.000000000 12.602999687 -0.052000001 0.2555800080 2.4315986633 61.258998871 114.36991119 1.3289999962 39.884998322 1.5850000381 1.5850000381
 2773.6247559 13.000000000 12.641999245 -0.048999999 0.2542800009 2.4244716167 58.771999359 114.83914948 1.3350000381 41.069000244 1.5659999847 1.5659999847
 2773.7497559 13.000000000 12.683000565 -0.037000000 0.2515900135 2.4311785698 56.722000122 115.40256500 1.3380000591 41.680999756 1.5599999428 1.5599999428
 2773.8747559 13.000000000 12.711000443 -0.017000001 0.2469899952 2.4477243423 55.087001801 115.99836731 1.3339999914 41.423000336 1.5850000381 1.5850000381
 2773.9997559 13.000000000 12.706998825 0.0030000000 0.2411700040 2.4668383598 54.798999786 116.52486420 1.3259999752 40.762001038 1.6169999838 1.6169999838
 2774.1250000 13.000000000 12.670000076 0.0020000001 0.2393899858 2.4747307301 55.912998199 116.78096008 1.3190000057 40.064998627 1.6380000114 1.6380000114
 2774.2500000 13.000000000 12.619000435 -0.005000000 0.2392999977 2.4692029953 57.833999634 116.67694092 1.3140000105 39.276000977 1.6469999552 1.6469999552
 2774.3750000 13.000000000 12.566999435 -0.020000000 0.2390200049 2.4580178261 60.471000671 116.29623413 1.3179999590 37.710998535 1.6380000114 1.6380000114
 2774.5000000 13.000000000 12.536999702 -0.037999999 0.2368300110 2.4465465546 61.470001221 115.75469971 1.3279999495 36.263000488 1.6239999533 1.6239999533
 2774.6252441 13.000000000 12.532999039 -0.041000001 0.2333900034 2.4397447109 60.696998596 115.19717407 1.3400000334 35.418998718 1.6119999886 1.6119999886
 2774.7502441 13.000000000 12.539999008 -0.037999999 0.2289800048 2.4425346851 59.573001862 114.78896332 1.3500000238 35.062000275 1.6030000448 1.6030000448
 2774.8750000 13.000000000 12.553001404 -0.028999999 0.2233399898 2.4514622688 58.423999786 114.67049408 1.3609999418 35.820999146 1.5980000496 1.5980000496
 2775.0000000 13.000000000 12.564999580 -0.014000000 0.2183700055 2.4619891644 57.888000488 114.73312378 1.3650000095 36.780998230 1.5989999771 1.5989999771
 2775.1250000 13.000000000 12.572999954 -0.007000000 0.2187799960 2.4703054428 57.890998840 114.90483856 1.3650000095 37.153999329 1.6030000448 1.6030000448
 2775.2500000 13.000000000 12.578000069 -0.002000000 0.2210399956 2.4746336937 58.180999756 115.12111664 1.3619999886 36.903999329 1.6089999676 1.6089999676
 2775.3750000 13.000000000 12.585000038 -0.001000000 0.2246999890 2.4750998020 60.145000458 115.33312988 1.3580000401 35.487998962 1.6139999628 1.6139999628
 2775.5000000 13.000000000 12.593999863 -0.002000000 0.2285799980 2.4730484486 62.741001129 115.52086639 1.3539999723 34.280998230 1.6180000305 1.6180000305
 2775.6250000 13.000000000 12.602000237 -0.004000000 0.2291299999 2.4712159634 64.898002625 115.68817902 1.3519999981 33.949001312 1.6210000515 1.6210000515
 2775.7500000 13.000000000 12.604998589 -0.007000000 0.2286899984 2.4690337181 66.387001038 115.83038330 1.3509999514 34.104999542 1.6239999533 1.6239999533
 2775.8747559 13.000000000 12.595999718 -0.012000000 0.2287400067 2.4646487236 66.502998352 115.92894745 1.3509999514 34.747001648 1.6260000467 1.6260000467
 2775.9997559 13.000000000 12.579999924 -0.020000000 0.2311799973 2.4566690922 65.985000610 115.96364594 1.3509999514 35.160999298 1.6250000000 1.6250000000
 2776.1247559 13.000000000 12.562999725 -0.028999999 0.2359499931 2.4451000690 65.681999207 115.91539764 1.3530000448 35.139999390 1.6210000515 1.6210000515
 2776.2497559 13.000000000 12.550999641 -0.037000000 0.2425099909 2.4350237846 65.636001587 115.76032257 1.3539999723 34.917999268 1.6150000095 1.6150000095
 2776.3747559 13.000000000 12.548000336 -0.044000000 0.2480299920 2.4295389652 65.440002441 115.55108643 1.3530000448 34.452999115 1.6080000401 1.6080000401
 2776.5000000 13.000000000 12.550999641 -0.048000000 0.2484799922 2.4299154282 64.858001709 115.32091522 1.3509999514 34.270999908 1.6069999933 1.6069999933
 2776.6250000 13.000000000 12.557000160 -0.046000000 0.2425699979 2.4355461597 63.993999481 115.10641479 1.3480000496 34.619998932 1.6109999418 1.6109999418
 2776.7500000 13.000000000 12.562000275 -0.041000001 0.2350399941 2.4446108341 63.007999420 114.94101715 1.3430000544 35.369998932 1.6180000305 1.6180000305
 2776.8750000 13.000000000 12.566999435 -0.035000000 0.2264200002 2.4550964832 61.685001373 114.86196899 1.3359999657 36.755001068 1.6289999485 1.6289999485
 2777.0002441 13.000000000 12.571000099 -0.026000001 0.2172100097 2.4665102959 60.909000397 114.87209320 1.3320000172 37.518001556 1.6339999437 1.6339999437
 2777.1252441 13.000000000 12.574000359 -0.020000000 0.2140500098 2.4770948887 60.804000854 114.93347931 1.3300000429 37.266998291 1.6310000420 1.6310000420
 2777.2502441 13.000000000 12.579000473 -0.015000000 0.2125000060 2.4858846664 60.946998596 115.01819611 1.3309999704 36.501998901 1.6219999790 1.6219999790
