# LAS format log file from PETREL
# Project units are specified as depth units
#==================================================================
~Version information
VERS.   2.0:
WRAP.   NO:
#==================================================================
~Well
STRT .m      933.99749756 :
STOP .m      3610.7521973 :
STEP .m     0.00000000 :
NULL .        -999.250000 :
COMP.           : COMPANY
WELL.  30/6-8   : WELL
FLD.            : FIELD
LOC.            : LOCATION
SRVC.           : SERVICE COMPANY
DATE.  2018-09-11 14:48:31   : Log Export Date {yyyy-MM-dd HH:mm:ss}
PROV.           : PROVINCE
UWI.   30/6-8   : UNIQUE WELL ID
API.            : API NUMBER
#==================================================================
~Curve
DEPT .m                   : DEPTH
Lithology_geolink ._      : Lithology_geolink
CALI .in                  : CALI
DRHO .g/cm3               : DRHO
NPHI .m3/m3               : NPHI
RHOB .g/cm3               : RHOB
GR .gAPI                  : GR
DTC .us/ft                : DTC
DTE .us/ft                : DTE
RDEP .ohm.m               : RDEP
SP .mV                    : SP
RSHA .ohm.m               : RSHA
RMED .ohm.m               : RMED
~Parameter
#==================================================================
~Ascii
# ...
 3604.0466309  -999.250000 11.189000130 0.0340000018 0.1464799941 2.2788906097 37.714229584  -999.250000  -999.250000 10.878480911 85.376579285 24.099384308 24.099384308
 3604.1989746  -999.250000 10.885999680 0.0560000017 0.1503800005 2.2414879799 37.627212524  -999.250000  -999.250000 10.645595551 84.812629700 23.608999252 23.608999252
 3604.3515625  -999.250000 10.331999779 0.0829999968 0.1549800038 2.2086338997 37.788379669  -999.250000  -999.250000 10.522687912 85.762351990 23.608999252 23.608999252
 3604.5039063  -999.250000 9.9219999313 0.1080000028 0.1589300036 2.1894497871 37.663749695  -999.250000  -999.250000 10.508000374 85.741630554 23.605705261 23.605705261
 3604.6562500  -999.250000 9.4890003204 0.1239999980 0.1627599895 2.1892237663 37.599998474  -999.250000  -999.250000 10.508166313 86.233291626 23.437999725 23.437999725
 3604.8085938  -999.250000 9.3940000534 0.1289999932 0.1639699936 2.1927759647 37.599998474  -999.250000  -999.250000 10.516749382 86.309020996 23.436191559 23.436191559
 3604.9609375  -999.250000 9.3649997711 0.1360000074 0.1647699922 2.1968507767 37.600017548  -999.250000  -999.250000 10.555000305 87.054573059 23.342191696 23.342191696
 3605.1135254  -999.250000 9.3389997482 0.1389999986 0.1650599986 2.2021632195 37.601001740  -999.250000  -999.250000 10.554332733 86.008430481 23.250000000 23.250000000
 3605.2658691  -999.250000 9.3170003891 0.1430000067 0.1650599986 2.2088041306 37.602096558  -999.250000  -999.250000 10.523536682 85.765350342 23.252101898 23.252101898
 3605.4182129  -999.250000 9.3000001907 0.1400000006 0.1650499851 2.2102761269 37.649059296  -999.250000  -999.250000 10.547153473 84.503982544 23.343999863 23.343999863
 3605.5705566  -999.250000 9.2880001068 0.1420000046 0.1650499851 2.2066760063 37.602058411  -999.250000  -999.250000 10.555288315 84.053611755 23.342191696 23.342191696
 3605.7231445  -999.250000 9.2749996185 0.1480000019 0.1650499851 2.2082045078 37.654850006  -999.250000  -999.250000 10.570980072 84.565513611 23.246097565 23.246097565
 3605.8754883  -999.250000 9.2629995346 0.1539999992 0.1650499851 2.2140460014 37.603149414  -999.250000  -999.250000 10.617178917 85.568016052 23.062999725 23.062999725
 3606.0278320  -999.250000 9.2559995651 0.1550000012 0.1650499851 2.2174608707 37.695766449  -999.250000  -999.250000 10.624691963 85.252174377 23.068403244 23.068403244
 3606.1801758  -999.250000 9.2589998245 0.1529999971 0.1650400013 2.2162201405 37.633670807  -999.250000  -999.250000 10.609000206 84.694595337 23.342191696 23.342191696
 3606.3327637  -999.250000 9.2629995346 0.1509999931 0.1650400013 2.2146756649 37.667144775  -999.250000  -999.250000 10.608854294 84.418350220 23.246110916 23.246110916
 3606.4851074  -999.250000 9.2670001984 0.1459999979 0.1650499851 2.2133781910  -999.250000  -999.250000  -999.250000 10.602134705 84.388000488 23.066600800 23.066600800
 3606.6374512  -999.250000 9.2709999084 0.1389999986 0.1652000099 2.2104246616  -999.250000  -999.250000  -999.250000 10.608854294 84.390602112 23.246110916 23.246110916
 3606.7897949  -999.250000 9.2709999084 0.1289999932 0.1654299945 2.2028081417  -999.250000  -999.250000  -999.250000 10.602134705 84.507598877 23.064788818 23.064788818
 3606.9421387  -999.250000 9.2670001984 0.1260000020 0.1656699926 2.1935138702  -999.250000  -999.250000  -999.250000 10.609000206 84.221771240 23.157808304 23.157808304
 3607.0947266  -999.250000 9.2620000839 0.1270000041 0.1659000069 2.1899561882  -999.250000  -999.250000  -999.250000 10.609000206 83.727348328 23.250000000 23.250000000
 3607.2470703  -999.250000 9.2580003738 0.1280000061 0.1661300063 2.1900000572  -999.250000  -999.250000  -999.250000 10.609000206 85.018844604 23.250000000 23.250000000
 3607.3994141  -999.250000 9.2550001144 0.1270000041 0.1662299931 2.1870832443  -999.250000  -999.250000  -999.250000 10.609000206 85.293998718 23.250000000 23.250000000
 3607.5517578  -999.250000 9.2550001144 0.1289999932 0.1662400067 2.1846880913  -999.250000  -999.250000  -999.250000 10.609000206 85.292808533 23.250000000 23.250000000
 3607.7043457  -999.250000 9.2550001144 0.1309999973 0.1662299931 2.1868996620  -999.250000  -999.250000  -999.250000 10.609000206 85.215034485 23.250000000 23.250000000
 3607.8566895  -999.250000 9.2550001144 0.1260000020 0.1662299931 2.1893169880  -999.250000  -999.250000  -999.250000 10.609000206 84.416893005 23.250000000 23.250000000
 3608.0090332  -999.250000 9.2550001144 0.1180000007 0.1662299931 2.1832935810  -999.250000  -999.250000  -999.250000 10.609000206 84.321998596 23.250000000 23.250000000
 3608.1613770  -999.250000 9.2550001144 0.1199999973 0.1662299931 2.1780321598  -999.250000  -999.250000  -999.250000 10.609000206 84.165405273 23.250000000 23.250000000
 3608.3139648  -999.250000 9.2580003738 0.1239999980 0.1662299931 2.1810970306  -999.250000  -999.250000  -999.250000 10.609000206 83.979400635 23.250000000 23.250000000
 3608.4663086  -999.250000 9.2639999390 0.1239999980 0.1662199944 2.1866848469  -999.250000  -999.250000  -999.250000 10.609000206 83.871444702 23.250000000 23.250000000
 3608.6186523  -999.250000 9.2700004578 0.1209999993 0.1662199944 2.1876976490  -999.250000  -999.250000  -999.250000 10.609000206 82.727287292 23.250000000 23.250000000
 3608.7709961  -999.250000 9.2749996185 0.1150000021 0.1662199944 2.1816160679  -999.250000  -999.250000  -999.250000  -999.250000  -999.250000  -999.250000  -999.250000
 3608.9233398  -999.250000 9.2790002823 0.1089999974 0.1662099957 2.1723866463  -999.250000  -999.250000  -999.250000  -999.250000  -999.250000  -999.250000  -999.250000
 3609.0759277  -999.250000 9.2829999924 0.1049999967 0.1661799997  -999.250000  -999.250000  -999.250000  -999.250000  -999.250000  -999.250000  -999.250000  -999.250000
 3609.2282715  -999.250000 9.2860002518 0.1059999987 0.1661300063  -999.250000  -999.250000  -999.250000  -999.250000  -999.250000  -999.250000  -999.250000  -999.250000
 3609.3806152  -999.250000 9.2899999619 0.1120000035 0.1660799980  -999.250000  -999.250000  -999.250000  -999.250000  -999.250000  -999.250000  -999.250000  -999.250000
 3609.5329590  -999.250000 9.2930002213 0.1159999967 0.1660300046  -999.250000  -999.250000  -999.250000  -999.250000  -999.250000  -999.250000  -999.250000  -999.250000
 3609.6855469  -999.250000 9.2899999619 0.1169999987 0.1659799963  -999.250000  -999.250000  -999.250000  -999.250000  -999.250000  -999.250000  -999.250000  -999.250000
 3609.8378906  -999.250000 9.2849998474 0.1169999987 0.1659400016  -999.250000  -999.250000  -999.250000  -999.250000  -999.250000  -999.250000  -999.250000  -999.250000
 3609.9902344  -999.250000 9.2810001373 0.1169999987 0.1658900082  -999.250000  -999.250000  -999.250000  -999.250000  -999.250000  -999.250000  -999.250000  -999.250000
 3610.1425781  -999.250000 9.2770004272 0.1169999987 0.1658399999  -999.250000  -999.250000  -999.250000  -999.250000  -999.250000  -999.250000  -999.250000  -999.250000
 3610.2951660  -999.250000 9.2819995880 0.1199999973 0.1657900065  -999.250000  -999.250000  -999.250000  -999.250000  -999.250000  -999.250000  -999.250000  -999.250000
 3610.4475098  -999.250000 9.2880001068 0.1230000034 0.1657399982  -999.250000  -999.250000  -999.250000  -999.250000  -999.250000  -999.250000  -999.250000  -999.250000
 3610.5998535  -999.250000 9.2919998169 0.1250000000 0.1657000035  -999.250000  -999.250000  -999.250000  -999.250000  -999.250000  -999.250000  -999.250000  -999.250000
 3610.7521973  -999.250000 9.2740001678 0.1230000034 0.1656500101  -999.250000  -999.250000  -999.250000  -999.250000  -999.250000  -999.250000  -999.250000  -999.250000
