# LAS format log file from PETREL
# Project units are specified as depth units
#==================================================================
~Version information
VERS.   2.0:
WRAP.   NO:
#==================================================================
~Well
STRT .m      360.12121582 :
STOP .m      3233.9282227 :
STEP .m     0.00000000 :
NULL .        -999.250000 :
COMP.           : COMPANY
WELL.  30/6-23   : WELL
FLD.            : FIELD
LOC.            : LOCATION
SRVC.           : SERVICE COMPANY
DATE.  2018-09-11 14:48:31   : Log Export Date {yyyy-MM-dd HH:mm:ss}
PROV.           : PROVINCE
UWI.   30/6-23   : UNIQUE WELL ID
API.            : API NUMBER
#==================================================================
~Curve
DEPT .m                   : DEPTH
Lithology_geolink ._      : Lithology_geolink
CALI .in                  : CALI
DRHO .g/cm3               : DRHO
NPHI .m3/m3               : NPHI
RHOB .g/cm3               : RHOB
GR .gAPI                  : GR
DTC .us/ft                : DTC
DTE .us/ft                : DTE
RDEP .ohm.m               : RDEP
SP .mV                    : SP
RSHA .ohm.m               : RSHA
RMED .ohm.m               : RMED
~Parameter
#==================================================================
~Ascii
# ...
 2488.8447266 6.0000000000 12.320300102 0.0049999999  -999.250000 2.4742000103 64.390830994 138.81080627 138.58479309 1.1441828012 142.58590698  -999.250000 1.5202839375
 2488.9970703 6.0000000000 12.359399796 0.0024000001  -999.250000 2.5439999104 61.541316986 138.82369995 138.58479309 1.1334669590 143.33229065  -999.250000 1.3855310678
 2489.1494141 6.0000000000 12.359399796 0.0062000002  -999.250000 2.6289999485 59.811183929 138.81390381 138.58479309 1.1128308773 141.83430481  -999.250000 1.2802031040
 2489.3017578 6.0000000000 12.445300102 -0.001200000  -999.250000 2.6867001057 62.360500336 138.61885071 138.58479309 1.0697000027 141.58470154  -999.250000 1.2196999788
 2489.4541016 6.0000000000 12.507800102 -0.006700000  -999.250000 2.6168000698 68.373497009 138.76417542 138.58479309 1.0058000088 143.58470154  -999.250000 1.1864999533
 2489.6066895 6.0000000000 12.414099693 -0.009400000  -999.250000 2.5515000820 71.858139038 138.79789734 138.58479309 0.9542585015 144.33430481  -999.250000 1.1054623127
 2489.7590332 6.0000000000 12.359399796 -0.001100000  -999.250000 2.5097000599 72.944122314 138.82058716 138.58479309 0.9283878207 144.08430481  -999.250000 1.0820000172
 2489.9113770 6.0000000000 12.359399796 -0.004500000  -999.250000 2.4902000427 73.768798828 138.81390381 138.58479309 0.9207999706 143.83470154  -999.250000 1.0820000172
 2490.0637207 6.0000000000 12.359399796 -0.007800000  -999.250000 2.4632999897 72.863403320 138.81080627 138.58479309 0.9169999957 144.45970154  -999.250000 1.0937999487
 2490.2163086 6.0000000000 12.375000000 -0.010400000  -999.250000 2.4504001141 74.247146606 138.81080627 138.58479309 0.9153006673 143.45889282  -999.250000 1.1260484457
 2490.3686523 6.0000000000 12.468799591 -0.010200000  -999.250000 2.4470999241 75.089462280 138.82369995 138.58479309 0.9157062769 142.95629883  -999.250000 1.1564521790
 2490.5209961 6.0000000000 12.468799591 -0.008900000  -999.250000 2.4595999718 76.061912537 138.80101013 138.58479309 0.9196103811 140.83650208  -999.250000 1.3135968447
 2490.6733398 6.0000000000 12.414099693 -0.006300000  -999.250000 2.4601998329 75.255401611 138.61572266 138.58479309 0.9261000156 141.95970154  -999.250000 1.3739999533
 2490.8259277 6.0000000000 12.453100204 -0.004500000  -999.250000 2.4688999653 70.890472412 138.76455688 138.58479309 0.9367227554 143.95509338  -999.250000 1.3700969219
 2490.9782715 6.0000000000 12.492199898 -0.005200000  -999.250000 2.4702000618 70.875450134 138.82369995 138.58479309 0.9509263039 141.08930969  -999.250000 1.3681983948
 2491.1306152 6.0000000000 12.507800102 -0.004800000  -999.250000 2.4734001160 74.335441589 138.81390381 138.58479309 0.9673286080 143.96150208  -999.250000 1.3671953678
 2491.2829590 6.0000000000 12.507800102 -0.007400000  -999.250000 2.4721999168 76.982902527 138.81080627 138.58479309 0.9851999879 145.08470154  -999.250000 1.3643000126
 2491.4353027 6.0000000000 12.507800102 -0.010600000  -999.250000 2.4601998329 74.973999023 138.81080627 138.58479309 1.0018999577 145.20970154  -999.250000 1.3350000381
 2491.5878906 6.0000000000 12.507800102 -0.008600000  -999.250000 2.4742999077 72.681045532 138.81080627 138.58479309 1.0164208412 143.58430481  -999.250000 1.3241984844
 2491.7402344 6.0000000000 12.507800102 -0.009000000  -999.250000 2.4806001186 73.457679749 138.82369995 138.58479309 1.0294218063 143.33950806  -999.250000 1.3233281374
 2491.8925781 6.0000000000 12.507800102 -0.005500000  -999.250000 2.4913001060 73.819396973 138.81390381 138.58479309 1.0429999828 146.33470154  -999.250000 1.4033000469
 2492.0449219 6.0000000000 12.507800102 -0.002100000  -999.250000 2.4923000336 72.027000427 138.61885071 138.58479309 1.0578000546 143.45970154  -999.250000 1.5370999575
 2492.1975098 6.0000000000 12.507800102 -0.003700000  -999.250000 2.4883999825 67.667053223 138.76455688 138.58479309 1.0742266178 144.83430481  -999.250000 1.5653046370
 2492.3498535 6.0000000000 12.507800102 -0.007000000  -999.250000 2.4790000916 67.697845459 138.82369995 138.58479309 1.0908266306 144.58410645  -999.250000 1.5058153868
 2492.5021973 6.0000000000 12.507800102 -0.008500000  -999.250000 2.4765999317 67.545005798 138.80101013 138.58479309 1.1074242592 144.21189880  -999.250000 1.4530359507
 2492.6545410 6.0000000000 12.507800102 -0.017100001  -999.250000 2.4667000771 69.171997070 138.80767822 138.58479309 1.1225999594 145.58470154  -999.250000 1.4131000042
 2492.8071289 6.0000000000 12.507800102 -0.022800000  -999.250000 2.4672999382 69.233123779 138.81080627 138.58479309 1.1335068941 145.20849609  -999.250000 1.4033360481
 2492.9594727 6.0000000000 12.507800102 -0.022800000  -999.250000 2.4779000282 68.252067566 138.82369995 138.58479309 1.1377928257 144.46029663  -999.250000 1.4258108139
 2493.1118164 6.0000000000 12.507800102 -0.018999999  -999.250000 2.4883999825 69.047966003 138.81390381 138.58479309 1.1332818270 144.83650208  -999.250000 1.4325938225
 2493.2641602 6.0000000000 12.507800102 -0.014000000  -999.250000 2.4923999310 72.268699646 138.81080627 138.58479309 1.1219999790 145.95970154  -999.250000 1.4286999702
 2493.4165039 6.0000000000 12.507800102 -0.011300000  -999.250000 2.4825000763 73.183998108 138.61892700 138.58479309 1.1096999645 144.95970154  -999.250000 1.4101999998
 2493.5690918 6.0000000000 12.507800102 -0.003600000  -999.250000 2.4881999493 75.531089783 138.75164795 138.58479309 1.1006910801 144.21029663  -999.250000 1.3769185543
 2493.7214355 6.0000000000 12.515600204 -0.000500000  -999.250000 2.4907999039 73.094116211 138.82058716 138.58479309 1.0950963497 144.58709717  -999.250000 1.3261078596
 2493.8737793 6.0000000000 12.570300102 0.0027999999  -999.250000 2.4718000889 75.225097656 138.81390381 138.58479309 1.0928000212 146.08470154  -999.250000 1.2685999870
 2494.0261230 6.0000000000 12.617200851 0.0041000000  -999.250000 2.4721999168 73.051803589 138.81080627 138.58479309 1.0938999653 144.70970154  -999.250000 1.2577999830
 2494.1787109 6.0000000000 12.648400307 0.0026000000  -999.250000 2.4665000439 74.569923401 138.81080627 138.58479309 1.0968074799 144.83430481  -999.250000 1.3468438387
 2494.3310547 6.0000000000 12.648400307 0.0014000000  -999.250000 2.4834001064 73.402297974 138.82369995 138.58479309 1.1015065908 144.58770752  -999.250000 1.4365718365
 2494.4833984 6.0000000000 12.617200851 0.0033000000  -999.250000 2.4858999252 75.212799072 138.80101013 138.58479309 1.1055999994 146.45970154  -999.250000 1.4814000130
 2494.6357422 6.0000000000 12.570300102 0.0005000000  -999.250000 2.4865999222 75.149002075 138.80767822 138.58479309 1.1115000248 144.58470154  -999.250000 1.5117000341
 2494.7883301 6.0000000000 12.578100204 0.0007000000  -999.250000 2.4781999588 76.192649841 138.61854553 138.58479309 1.1225353479 145.08169556  -999.250000 1.5459610224
 2494.9406738 6.0000000000 12.617200851 0.0096000005  -999.250000 2.4767999649 74.222846985 138.77680969 138.58479309 1.1446567774 143.21310425  -999.250000 1.5840939283
 2495.0930176 6.0000000000 12.648400307 0.0261000004  -999.250000 2.4635999203 69.388618469 138.81375122 138.58479309 1.1800465584 145.33470154  -999.250000 1.6426109076
 2495.2453613 6.0000000000 12.648400307 0.0249000005  -999.250000 2.4235000610 65.904296875 138.81080627 138.58479309 1.2091000080 145.33470154  -999.250000 1.6493999958
 2495.3979492 6.0000000000 12.656200409 0.0195000004  -999.250000 2.4066998959 66.229492188 138.81080627 138.58479309 1.2189023495 143.21531677  -999.250000 1.6181795597
 2495.5502930 6.0000000000 12.609399796 0.0147000002  -999.250000 2.4421000481 71.588958740 138.79789734 138.58479309 1.2203959227 146.71391296  -999.250000 1.6055250168
 2495.7026367 6.0000000000 12.507800102 0.0035999999  -999.250000 2.5102999210 75.057159424 138.82058716 138.58479309 1.2178990841 149.33090210  -999.250000 1.6212359667
 2495.8549805 6.0000000000 12.398401260 -0.051700000  -999.250000 2.5982000828 77.406501770 138.81393433 138.58479309 1.2173000574 146.95970154  -999.250000 1.7060999870
 2496.0073242 6.0000000000 12.484399796 -0.025300000  -999.250000 2.7595000267 79.938499451 138.81080627 138.58479309 1.2208000422 149.08470154  -999.250000 1.7158000469
