# LAS format log file from PETREL
# Project units are specified as depth units
#==================================================================
~Version information
VERS.   2.0:
WRAP.   NO:
#==================================================================
~Well
STRT .m      2773.3432617 :
STOP .m      3341.0317383 :
STEP .m     0.00000000 :
NULL .        -999.250000 :
COMP.           : COMPANY
WELL.  30/6-22   : WELL
FLD.            : FIELD
LOC.            : LOCATION
SRVC.           : SERVICE COMPANY
DATE.  2018-09-11 14:48:30   : Log Export Date {yyyy-MM-dd HH:mm:ss}
PROV.           : PROVINCE
UWI.   30/6-22   : UNIQUE WELL ID
API.            : API NUMBER
#==================================================================
~Curve
DEPT .m                   : DEPTH
Lithology_geolink ._      : Lithology_geolink
CALI .in                  : CALI
DRHO .g/cm3               : DRHO
NPHI .m3/m3               : NPHI
RHOB .g/cm3               : RHOB
GR .gAPI                  : GR
DTC .us/ft                : DTC
DTE .us/ft                : DTE
RDEP .ohm.m               : RDEP
SP .mV                    : SP
RSHA .ohm.m               : RSHA
RMED .ohm.m               : RMED
~Parameter
#==================================================================
~Ascii
# ...
 3036.6896973 6.0000000000 8.8269996643 -0.003000000 0.2514199913 2.5869998932 95.159278870 81.297668457 81.401824951 5.5747981071  -999.250000 6.6001920700 6.6001920700
 3036.8422852 6.0000000000 8.8179998398 -0.003000000 0.2515500188 2.5690000057 93.934959412 80.262039185 80.475944519 5.5329484940  -999.250000 6.8502116203 6.8502116203
 3036.9946289 6.0000000000 8.7989997864 0.0049999999 0.2414500117 2.5729999542 87.672454834 79.308029175 79.071823120 5.5249743462  -999.250000 7.3528780937 7.3528780937
 3037.1469727 6.0000000000 8.7910003662 0.0109999999 0.2079299986 2.5829999447 78.880119324 76.697608948 76.915367126 5.5207757950  -999.250000 8.1132879257 8.1132879257
 3037.2993164 6.0000000000 8.7720003128 0.0089999996 0.1804999858 2.5729999542 74.497756958 75.183555603 74.919075012 5.4860095978  -999.250000 8.7775192261 8.7775192261
 3037.4516602 2.0000000000 8.6780004501 0.0080000004 0.1643700004 2.5339999199 63.198703766 72.420906067 72.678123474 5.4884471893  -999.250000 8.4650382996 8.4650382996
 3037.6042480 2.0000000000 8.5590000153 0.0140000004 0.1749500036 2.5099999905 48.607280731 71.928665161 71.800971985 5.5815000534  -999.250000 7.2234230042 7.2234230042
 3037.7565918 2.0000000000 8.5629997253 0.0199999996 0.1759399921 2.5069999695 42.510738373 73.774673462 73.934684753 5.6589169502  -999.250000 6.0452108383 6.0452108383
 3037.9089355 2.0000000000 8.6269998550 0.0399999991 0.1852799952 2.5569999218 51.888446808 76.024276733 76.137374878 5.6455621719  -999.250000 5.4592738152 5.4592738152
 3038.0612793 2.0000000000 8.6479997635 0.0509999990 0.1876499951 2.5969998837 73.384231567 78.393775940 78.394821167 5.5545816422  -999.250000 5.9349226952 5.9349226952
 3038.2138672 5.0000000000 8.6440000534 0.0540000014 0.1987199932 2.5980000496 90.408378601 79.952445984 79.912475586 5.4672050476  -999.250000 6.9541473389 6.9541473389
 3038.3662109 5.0000000000 8.5989999771 0.0520000011 0.2024500072 2.5510001183 90.682304382 80.967041016 80.653198242 5.3426346779  -999.250000 6.9726991653 6.9726991653
 3038.5185547 5.0000000000 8.5279998779 0.0560000017 0.2302699983 2.5139999390 75.935600281 80.375267029 80.630676270 5.1291122437  -999.250000 6.3032288551 6.3032288551
 3038.6708984 5.0000000000 8.5080003738 0.0649999976 0.2570399940 2.5190000534 65.181930542 80.155097961 80.047744751 4.8341202736  -999.250000 5.8727021217 5.8727021217
 3038.8234863 2.0000000000 8.5399999619 0.0839999989 0.2581999898 2.5590000153 69.314498901 80.138198853 80.272666931 4.4417629242  -999.250000 5.8117370605 5.8117370605
 3038.9758301 2.0000000000 8.5349998474 0.0829999968 0.2298100144 2.5439999104 70.388877869 80.553276062 80.306297302 3.9372243881  -999.250000 5.9215383530 5.9215383530
 3039.1281738 2.0000000000 8.4329996109 0.0540000014 0.2058399916 2.4509999752 56.648429871 81.029624939 81.126976013 3.5053744316  -999.250000 5.2215328217 5.2215328217
 3039.2805176 2.0000000000 8.3680000305 0.0289999992 0.2010300010 2.3770000935 43.977611542 82.450241089 82.512565613 3.2517788410  -999.250000 3.9033846855 3.9033846855
 3039.4331055 2.0000000000 8.3680000305 0.0219999999 0.2340800166 2.3710000515 42.503124237 83.370651245 83.172866821 2.9973397255  -999.250000 3.1548652649 3.1548652649
 3039.5854492 2.0000000000 8.3850002289 0.0149999997 0.2501600087 2.3989999294 51.102954865 83.892387390 83.883186340 2.7388975620  -999.250000 3.1356668472 3.1356668472
 3039.7377930 2.0000000000 8.3819999695 0.0140000004 0.2682099938 2.4200000763 59.723503113 84.368713379 84.342987061 2.5673279762  -999.250000 3.3940639496 3.3940639496
 3039.8901367 2.0000000000 8.3680000305 0.0140000004 0.2444799989 2.4170000553 51.522521973 84.134071350 84.413978577 2.4629135132  -999.250000 3.4021298885 3.4021298885
 3040.0424805 2.0000000000 8.3809995651 0.0080000004 0.2318199873 2.4019999504 41.076442719 84.386329651 84.291236877 2.4455239773  -999.250000 3.0139424801 3.0139424801
 3040.1950684 2.0000000000 8.4110002518 0.0089999996 0.2127799988 2.4010000229 41.827342987 83.070495605 83.265396118 2.5551023483  -999.250000 2.7959935665 2.7959935665
 3040.3474121 2.0000000000 8.4200000763 0.0140000004 0.2216099948 2.4000000954 47.843181610 81.438232422 81.415649414 2.7267949581  -999.250000 2.9518783092 2.9518783092
 3040.4997559 2.0000000000 8.4200000763 0.0230000000 0.2143600136 2.4110000134 59.207031250 80.280670166 79.995697021 2.8504030704  -999.250000 3.2465648651 3.2465648651
 3040.6520996 2.0000000000 8.4379997253 0.0260000005 0.2157099843 2.4430000782 62.433086395 78.895248413 78.814651489 2.9132261276  -999.250000 3.8049037457 3.8049037457
 3040.8046875 2.0000000000 8.4420003891 0.0370000005 0.1926499903 2.4690001011 54.382991791 77.461868286 77.481575012 2.9605641365  -999.250000 4.8265576363 4.8265576363
 3040.9570313 2.0000000000 8.4490003586 0.0419999994 0.1898300052 2.4949998856 55.183765411 79.762695313 80.000846863 3.0493013859  -999.250000 5.8406472206 5.8406472206
 3041.1093750 2.0000000000 8.4879999161 0.0370000005 0.1958300024 2.4760000706 59.351009369 83.452835083 83.452743530 3.2528815269  -999.250000 5.4672060013 5.4672060013
 3041.2617188 2.0000000000 8.4809999466 0.0130000003 0.2170299888 2.4739999771 62.348793030 84.071388245 84.126380920 3.5459904671  -999.250000 4.0990962982 4.0990962982
 3041.4143066 2.0000000000 8.4709997177 0.0010000000 0.2515500188 2.5009999275 72.127960205 83.971801758 84.003532410 3.7510383129  -999.250000 3.4991793633 3.4991793633
 3041.5666504 5.0000000000 8.4709997177 -0.015000000 0.2783699930 2.5409998894 86.580474854 83.124137878 83.223068237 3.7564551830  -999.250000 3.6873075962 3.6873075962
 3041.7189941 5.0000000000 8.4639997482 -0.041999999 0.2666699886 2.5450000763 93.419258118 82.171470642 82.083267212 3.6720192432  -999.250000 4.5174818039 4.5174818039
 3041.8713379 5.0000000000 8.4610004425 -0.071999997 0.2427599877 2.5280001163 84.871307373 81.745681763 81.579635620 3.6757113934  -999.250000 5.6802306175 5.6802306175
 3042.0236816 5.0000000000 8.4610004425 -0.075999998 0.2299799919 2.5280001163 74.595886230 81.586502075 81.575370789 3.8238606453  -999.250000 5.9320049286 5.9320049286
 3042.1762695 5.0000000000 8.4610004425 -0.074000001 0.2452500015 2.5350000858 76.695259094 82.698982239 82.684799194 4.0027756691  -999.250000 5.3114228249 5.3114228249
 3042.3286133 5.0000000000 8.4650001526 -0.072999999 0.2554799914 2.5429999828 85.010765076 83.928833008 84.174118042 4.1236538887  -999.250000 5.2235131264 5.2235131264
 3042.4809570 5.0000000000 8.5039997101 -0.057000000 0.2511300147 2.5710000992 94.312683105 84.800735474 84.842628479 4.2253646851  -999.250000 5.4594402313 5.4594402313
 3042.6333008 6.0000000000 8.5410003662 -0.052999999 0.2664400041 2.5720000267 100.13621521 85.322715759 85.096595764 4.2820143700  -999.250000 5.6840047836 5.6840047836
 3042.7858887 6.0000000000 8.5710000992 -0.057999998 0.2714500129 2.5929999352 94.520973206 83.724990845 83.812484741 4.2850704193  -999.250000 5.8923850060 5.8923850060
 3042.9382324 6.0000000000 8.6840000153 -0.050000001 0.2498399913 2.6040000916 83.411056519 81.819625854 81.882759094 4.2960448265  -999.250000 5.9502310753 5.9502310753
 3043.0905762 2.0000000000 8.7709999084 -0.033000000 0.1989600062 2.6419999599 67.850494385 80.740577698 80.846725464 4.3029999733  -999.250000 5.6732606888 5.6732606888
 3043.2429199 2.0000000000 8.7889995575 -0.029999999 0.1542100012 2.6119999886 57.051025391 79.482650757 79.284790039 4.3030767441  -999.250000 5.2463126183 5.2463126183
 3043.3955078 2.0000000000 8.7889995575 -0.018999999 0.1364500076 2.6129999161 55.220050812 77.955368042 78.196708679 4.3187241554  -999.250000 4.8962306976 4.8962306976
 3043.5478516 2.0000000000 8.7889995575 -0.004000000 0.1500300020 2.6089999676 59.464164734 78.998420715 78.932571411 4.2749357224  -999.250000 4.7797369957 4.7797369957
 3043.7001953 2.0000000000 8.7889995575 0.0040000002 0.1800000072 2.6159999371 67.471511841 80.427444458 80.392440796 4.1087327003  -999.250000 5.2095422745 5.2095422745
 3043.8525391 2.0000000000 8.7889995575 0.0080000004 0.2382099926 2.6170001030 79.427597046 84.462532043 84.725105286 3.9113123417  -999.250000 6.0707259178 6.0707259178
