# LAS format log file from PETREL
# Project units are specified as depth units
#==================================================================
~Version information
VERS.   2.0:
WRAP.   NO:
#==================================================================
~Well
STRT .m      360.12121582 :
STOP .m      3233.9282227 :
STEP .m     0.00000000 :
NULL .        -999.250000 :
COMP.           : COMPANY
WELL.  30/6-23   : WELL
FLD.            : FIELD
LOC.            : LOCATION
SRVC.           : SERVICE COMPANY
DATE.  2018-09-11 14:48:31   : Log Export Date {yyyy-MM-dd HH:mm:ss}
PROV.           : PROVINCE
UWI.   30/6-23   : UNIQUE WELL ID
API.            : API NUMBER
#==================================================================
~Curve
DEPT .m                   : DEPTH
Lithology_geolink ._      : Lithology_geolink
CALI .in                  : CALI
DRHO .g/cm3               : DRHO
NPHI .m3/m3               : NPHI
RHOB .g/cm3               : RHOB
GR .gAPI                  : GR
DTC .us/ft                : DTC
DTE .us/ft                : DTE
RDEP .ohm.m               : RDEP
SP .mV                    : SP
RSHA .ohm.m               : RSHA
RMED .ohm.m               : RMED
~Parameter
#==================================================================
~Ascii
# ...
 2305.9645996 6.0000000000 12.617200851 -0.012900000  -999.250000 2.4263999462 72.191841125 138.76759338 138.58479309 1.4414907694 127.20990753  -999.250000 1.6601967812
 2306.1171875 6.0000000000 12.601599693 -0.011600000  -999.250000 2.4433999062 72.470840454 138.81080627 138.58479309 1.4357944727 127.33910370  -999.250000 1.6582938433
 2306.2695313 6.0000000000 12.578100204 -0.008400000  -999.250000 2.4551999569 72.981803894 138.81080627 138.58479309 1.4341080189 128.71290588  -999.250000 1.6875452995
 2306.4218750 6.0000000000 12.617200851 -0.010400000  -999.250000 2.4474999905 72.985588074 138.82369995 138.58479309 1.4391186237 130.71130371  -999.250000 1.7158000469
 2306.5742188 6.0000000000 12.617200851 -0.013400000  -999.250000 2.4258999825 71.487144470 138.81393433 138.58479309 1.4507340193 131.71290588  -999.250000 1.7157717943
 2306.7268066 6.0000000000 12.601599693 -0.015699999  -999.250000 2.4168000221 73.939476013 138.81080627 138.58479309 1.4719738960 133.71049500  -999.250000 1.6982501745
 2306.8791504 6.0000000000 12.531200409 -0.015200000  -999.250000 2.4337000847 72.088020325 138.81080627 138.58479309 1.4950233698 133.95989990  -999.250000 1.7140455246
 2307.0314941 6.0000000000 12.507800102 -0.016600000  -999.250000 2.4633998871 68.109809875 138.81080627 138.58479309 1.5096094608 134.08711243  -999.250000 1.8049769402
 2307.1838379 6.0000000000 12.507800102 -0.014600000  -999.250000 2.4981999397 64.001892090 138.63261414 138.58479309 1.5155012608 135.58450317  -999.250000 1.9777051210
 2307.3361816 6.0000000000 12.507800102 -0.010900000  -999.250000 2.5004999638 63.763828278 138.76751709 138.58479309 1.5162968636 135.45910645  -999.250000 2.1053559780
 2307.4887695 6.0000000000 12.507800102 -0.011200000  -999.250000 2.4828999043 71.332656860 138.81080627 138.58479309 1.5143836737 135.08149719  -999.250000 2.0149219036
 2307.6411133 6.0000000000 12.507800102 -0.012200000  -999.250000 2.4560000896 75.532539368 138.81080627 138.58479309 1.5092803240 134.08229065  -999.250000 1.8034700155
 2307.7934570 6.0000000000 12.507800102 -0.006200000  -999.250000 2.4479000568 80.105567932 138.82369995 138.58479309 1.4969650507 132.58049011  -999.250000 1.6600903273
 2307.9458008 6.0000000000 12.507800102 -0.002800000  -999.250000 2.4512999058 80.397315979 138.81393433 138.58479309 1.4751473665 129.96691895  -999.250000 1.5917264223
 2308.0983887 6.0000000000 12.507800102 -0.004400000  -999.250000 2.4514999390 80.467376709 138.81080627 138.58479309 1.4421911240 134.44169617  -999.250000 1.5458528996
 2308.2507324 6.0000000000 12.531200409 -0.004600000  -999.250000 2.4577999115 79.866104126 138.81080627 138.58479309 1.4082567692 128.83529663  -999.250000 1.5312190056
 2308.4030762 6.0000000000 12.507800102 -0.005800000  -999.250000 2.4537999630 78.686088562 138.82369995 138.58479309 1.3812637329 129.21170044  -999.250000 1.5430233479
 2308.5554199 6.0000000000 12.507800102 -0.009900000  -999.250000 2.4463000298 77.811950684 138.62197876 138.58479309 1.3586734533 130.46051025  -999.250000 1.5576250553
 2308.7080078 6.0000000000 12.507800102 -0.011500000  -999.250000 2.4414999485 81.582305908 138.76455688 138.58479309 1.3420590162 130.94810486  -999.250000 1.5732377768
 2308.8603516 6.0000000000 12.507800102 -0.007500000  -999.250000 2.4444000721 81.490966797 138.81080627 138.58479309 1.3292843103 127.33349609  -999.250000 1.5849640369
 2309.0126953 6.0000000000 12.507800102 -0.008100000  -999.250000 2.4381000996 82.146842957 138.81080627 138.58479309 1.3194892406 126.58631134  -999.250000 1.5624405146
 2309.1650391 6.0000000000 12.507800102 -0.006800000  -999.250000 2.4356999397 76.446990967 138.82366943 138.58479309 1.3127933741 127.58729553  -999.250000 1.5253655910
 2309.3173828 6.0000000000 12.507800102 -0.006800000  -999.250000 2.4339001179 79.868446350 138.81393433 138.58479309 1.3085985184 129.20890808  -999.250000 1.5039079189
 2309.4699707 6.0000000000 12.531200409 -0.003900000  -999.250000 2.4386000633 79.402557373 138.81080627 138.58479309 1.3077000380 128.71211243  -999.250000 1.5088578463
 2309.6223145 6.0000000000 12.546899796 -0.003400000  -999.250000 2.4437003136 82.607856750 138.81080627 138.58479309 1.3077031374 130.20629883  -999.250000 1.5449750423
 2309.7746582 6.0000000000 12.609399796 -0.004300000  -999.250000 2.4381999969 78.782638550 138.82369995 138.58479309 1.3096028566 128.08711243  -999.250000 1.5918563604
 2309.9270020 6.0000000000 12.593799591 -0.006100000  -999.250000 2.4440000057 80.359046936 138.62197876 138.58479309 1.3114001751 129.58590698  -999.250000 1.6269873381
 2310.0795898 6.0000000000 12.632800102 -0.006400000  -999.250000 2.4477999210 76.953453064 138.76455688 138.58479309 1.3114963770 130.34109497  -999.250000 1.6190439463
 2310.2319336 6.0000000000 12.632800102 -0.007400000  -999.250000 2.4586000443 75.415473938 138.81080627 138.58479309 1.3103953600 132.33129883  -999.250000 1.6015249491
 2310.3842773 6.0000000000 12.601599693 -0.009900000  -999.250000 2.4540998936 77.339797974 138.81080627 138.58479309 1.3074920177 130.21231079  -999.250000 1.5546326637
 2310.5366211 6.0000000000 12.624999046 -0.011800000  -999.250000 2.4386999607 82.143478394 138.82376099 138.58479309 1.3024893999 131.83590698  -999.250000 1.5126514435
 2310.6889648 6.0000000000 12.648400307 -0.006400000  -999.250000 2.4432001114 86.359565735 138.81394958 138.58479309 1.2958925962 132.58250427  -999.250000 1.4823920727
 2310.8413086 6.0000000000 12.617200851 -0.006900000  -999.250000 2.4363000393 82.092903137 138.81080627 138.58479309 1.2913000584 131.20970154  -999.250000 1.4774999619
 2310.9936523 6.0000000000 12.648400307 -0.008600000  -999.250000 2.4449999332 81.144203186 138.81080627 138.58479309 1.2891999483 131.08470154  -999.250000 1.4853999615
 2311.1462402 6.0000000000 12.609399796 -0.010700000  -999.250000 2.4358999729 77.660629272 138.82366943 138.58479309 1.2901031971 131.08689880  -999.250000 1.4941093922
 2311.2985840 6.0000000000 12.609399796 -0.010400000  -999.250000 2.4381000996 78.171371460 138.62205505 138.58479309 1.2921061516 132.46290588  -999.250000 1.5000562668
 2311.4509277 6.0000000000 12.648400307 -0.014200000  -999.250000 2.4361999035 72.788902283 138.76417542 138.58479309 1.2960000038 134.45970154  -999.250000 1.5351999998
 2311.6032715 6.0000000000 12.648400307 -0.017500000  -999.250000 2.4491000175 75.099403381 138.81080627 138.58479309 1.3006999493 133.20970154  -999.250000 1.5858999491
 2311.7558594 6.0000000000 12.671899796 -0.014500000  -999.250000 2.4614000320 76.978797913 138.82366943 138.58479309 1.3047060966 131.08369446  -999.250000 1.6260204315
 2311.9082031 6.0000000000 12.796899796 -0.011800000  -999.250000 2.4702999592 78.404975891 138.81393433 138.58479309 1.3085048199 130.45649719  -999.250000 1.6386640072
 2312.0605469 6.0000000000 12.796899796 -0.013800000  -999.250000 2.4700000286 75.268814087 138.81080627 138.58479309 1.3115015030 128.46130371  -999.250000 1.6161468029
 2312.2128906 6.0000000000 12.796899796 -0.014400000  -999.250000 2.4744000435 72.784599304 138.81080627 138.58479309 1.3125000000 129.45970154  -999.250000 1.5829999447
 2312.3654785 6.0000000000 12.796899796 -0.012000000  -999.250000 2.4628999233 76.163124084 138.81080627 138.58479309 1.3134001493 130.20829773  -999.250000 1.5536310673
 2312.5178223 6.0000000000 12.796899796 -0.014900000  -999.250000 2.4435000420 76.860534668 138.63261414 138.58479309 1.3135000467 129.33349609  -999.250000 1.5106405020
 2312.6701660 6.0000000000 12.796899796 -0.016100001  -999.250000 2.4351999760 76.627723694 138.76751709 138.58479309 1.3135000467 128.58670044  -999.250000 1.4736202955
 2312.8225098 6.0000000000 12.796899796 -0.009800000  -999.250000 2.4482998848 72.838699341 138.81080627 138.58479309 1.3135000467 129.83470154  -999.250000 1.4862999916
 2312.9748535 6.0000000000 12.796899796 -0.005400000  -999.250000 2.4649999142 70.978103638 138.81080627 138.58479309 1.3135999441 132.58470154  -999.250000 1.5595999956
 2313.1274414 6.0000000000 12.796899796 -0.006500000  -999.250000 2.4570999146 72.328445435 138.82366943 138.58479309 1.3145012856 130.58790588  -999.250000 1.6200060844
