# LAS format log file from PETREL
# Project units are specified as depth units
#==================================================================
~Version information
VERS.   2.0:
WRAP.   NO:
#==================================================================
~Well
STRT .m      933.99749756 :
STOP .m      3610.7521973 :
STEP .m     0.00000000 :
NULL .        -999.250000 :
COMP.           : COMPANY
WELL.  30/6-8   : WELL
FLD.            : FIELD
LOC.            : LOCATION
SRVC.           : SERVICE COMPANY
DATE.  2018-09-11 14:48:31   : Log Export Date {yyyy-MM-dd HH:mm:ss}
PROV.           : PROVINCE
UWI.   30/6-8   : UNIQUE WELL ID
API.            : API NUMBER
#==================================================================
~Curve
DEPT .m                   : DEPTH
Lithology_geolink ._      : Lithology_geolink
CALI .in                  : CALI
DRHO .g/cm3               : DRHO
NPHI .m3/m3               : NPHI
RHOB .g/cm3               : RHOB
GR .gAPI                  : GR
DTC .us/ft                : DTC
DTE .us/ft                : DTE
RDEP .ohm.m               : RDEP
SP .mV                    : SP
RSHA .ohm.m               : RSHA
RMED .ohm.m               : RMED
~Parameter
#==================================================================
~Ascii
# ...
 1826.4521484  -999.250000 18.687999725 0.0060000001 0.4653300047 2.0261740685 48.122070313 146.40260315 143.67369080 0.6050240397 75.433143616 0.6130384207 0.6130384207
 1826.6046143  -999.250000 18.516000748 0.0010000000 0.4887699783 2.0342986584 46.915622711 146.56329346 143.83335876 0.6150264740 74.247947693 0.6290601492 0.6290601492
 1826.7569580  -999.250000 18.437999725 -0.013000000 0.5078099966 2.0244901180 50.916698456 145.96733093 143.13127136 0.6260448098 73.810997009 0.6540159583 0.6540159583
 1826.9094238  -999.250000 18.437999725 0.0020000001 0.4897499979 2.0123810768 54.246170044 144.30097961 141.56947327 0.6400456429 73.809646606 0.6589711308 0.6589711308
 1827.0617676  -999.250000 18.422000885 0.0089999996 0.4721699953 2.0078010559 52.655948639 142.68414307 139.86795044 0.6590223908 73.245491028 0.6469904184 0.6469904184
 1827.2141113  -999.250000 18.641000748 0.0309999995 0.4677700102 2.0166287422 52.623950958 141.42416382 138.63114929 0.6730095744 71.063697815 0.6409919858 0.6409919858
 1827.3665771  -999.250000 17.858999252 0.0230000000 0.4570299983 2.0097107887 51.970203400 139.84767151 137.01243591 0.6789888144 72.751304626 0.6360239983 0.6360239983
 1827.5189209  -999.250000 17.952999115 0.0080000004 0.4409199953 1.9641352892 52.714443207 136.81225586 134.02125549 0.6719583273 74.185997009 0.6510416865 0.6510416865
 1827.6713867  -999.250000 18.422000885 0.0040000002 0.4272499979 1.9194514751 49.868015289 136.58435059 133.83726501 0.6459591389 74.186599731 0.6769999862 0.6769999862
 1827.8237305  -999.250000 18.437999725 0.0000000000 0.4516600072 1.9074875116 46.965023041 141.41746521 138.65609741 0.6289687753 74.436752319 0.6769183278 0.6769183278
 1827.9761963  -999.250000 19.125000000 0.0010000000 0.4487300217 1.9324350357 45.309394836 145.55038452 142.73851013 0.6159759760 74.748245239 0.6428317428 0.6428317428
 1828.1285400  -999.250000 18.077999115 0.0020000001 0.4360400140 1.9686501026 43.811496735 148.67602539 145.83084106 0.6059640050 74.436897278 0.5729519725 0.5729519725
 1828.2810059  -999.250000 18.266000748 0.0000000000 0.4130899906 1.9938930273 43.189804077 151.17123413 148.40213013 0.5909495354 74.814605713 0.5529831648 0.5529831648
 1828.4333496  -999.250000 17.733999252 0.0010000000 0.4184600115 2.0089228153 43.939125061 149.49842834 146.77020264 0.5699783564 76.301239014 0.5460336208 0.5460336208
 1828.5858154  -999.250000 17.937999725 0.0040000002 0.4174800217 2.0194189548 44.417201996 146.57981873 143.84889221 0.5610120296 72.230659485 0.5600023866 0.5600023866
 1828.7381592  -999.250000 17.733999252 0.0089999996 0.4199199975 2.0271329880 49.064895630 145.66117859 142.87992859 0.5660383701 64.645202637 0.5610448122 0.5610448122
 1828.8906250  -999.250000 17.468999863 0.0109999999 0.4511699975 2.0382661819 49.655097961 146.20274353 143.37554932 0.5780432224 71.254707336 0.5750408173 0.5750408173
 1829.0429688  -999.250000 17.625000000 -0.002000000 0.4770500064 2.0467717648 49.276042938 147.87084961 145.10763550 0.5960144401 73.624404907 0.5920352936 0.5920352936
 1829.1954346  -999.250000 17.766000748 0.0020000001 0.5122100115 2.0658738613 46.188976288 150.21559143 147.50628662 0.6049976349 73.875350952 0.6140744686 0.6140744686
 1829.3477783  -999.250000 17.343999863 -0.006000000 0.5009800196 2.1061232090 46.593399048 146.51234436 143.71371460 0.6039967537 74.436798096 0.6450095773 0.6450095773
 1829.5001221  -999.250000 17.327999115 -0.001000000 0.5170900226 2.1538217068 46.224460602 139.46537781 136.61793518 0.6020144224 74.935699463 0.6509743929 0.6509743929
 1829.6525879  -999.250000 17.718999863 -0.001000000 0.4643599987 2.1691987514 49.623123169 134.66206360 131.90759277 0.6110192537 74.751251221 0.6348798275 0.6348798275
 1829.8049316  -999.250000 17.531000137 0.0030000000 0.4638700187 2.1404659748 48.844303131 131.91671753 129.17076111 0.6190432310 75.686752319 0.5849471092 0.5849471092
 1829.9573975  -999.250000 17.156000137 0.0010000000 0.4526399970 2.0994846821 48.958858490 136.06236267 133.25036621 0.6370192766 76.000801086 0.5630000234 0.5630000234
 1830.1097412  -999.250000 17.516000748 -0.008000000 0.4873000085 2.0804049969 44.752403259 142.11944580 139.30673218 0.6449591517 76.727981567 0.5630769134 0.5630769134
 1830.2622070  -999.250000 17.437999725 -0.004000000 0.4648400247 2.0929956436 45.754581451 140.84628296 138.09466553 0.6279663444 68.006965637 0.5950745344 0.5950745344
 1830.4145508  -999.250000 17.297000885 0.0000000000 0.4653300047 2.1111319065 47.665229797 138.51908875 135.62992859 0.6139880419 71.310844421 0.6260552406 0.6260552406
 1830.5670166  -999.250000 17.343999863 0.0010000000 0.4692400098 2.1109826565 51.502105713 139.10501099 136.20782471 0.6089904308 71.253059387 0.6489350200 0.6489350200
 1830.7193604  -999.250000 17.281000137 -0.001000000 0.4863300025 2.0915167332 52.370601654 142.76356506 139.93101501 0.6050159931 72.936195374 0.6218655705 0.6218655705
 1830.8718262  -999.250000 17.812999725 -0.005000000 0.4877899885 2.0731732845 50.989925385 148.47297668 145.73866272 0.6100192666 72.999450684 0.5799301863 0.5799301863
 1831.0241699  -999.250000 18.077999115 -0.010000000 0.4340800047 2.0637919903 46.811500549 152.29447937 149.50958252 0.6179615855 73.188400269 0.5509967804 0.5509967804
 1831.1766357  -999.250000 17.656000137 -0.008000000 0.4555699825 2.0581839085 46.349704742 152.56547546 149.70780945 0.6059471369 73.934494019 0.5500576496 0.5500576496
 1831.3289795  -999.250000 18.547000885 0.0000000000 0.4340800047 2.0532438755 48.728267670 150.14477539 147.34860229 0.5839887857 73.310394287 0.5740176439 0.5740176439
 1831.4813232  -999.250000 19.343999863 0.0109999999 0.4501999915 2.0493168831 54.494239807 147.72004700 144.98159790 0.5769935846 72.936698914 0.5849807262 0.5849807262
 1831.6337891  -999.250000 17.812999725 0.0109999999 0.4257799983 2.0409467220 50.902542114 146.59060669 143.80876160 0.5730072260 73.379554749 0.5729783773 0.5729783773
 1831.7861328  -999.250000 17.766000748 -0.002000000 0.4335900247 2.0344362259 49.456092834 145.92651367 143.15051270 0.5759831667 75.674736023 0.5640192032 0.5640192032
 1831.9385986  -999.250000 18.516000748 -0.005000000 0.4501999915 2.0431466103 44.097232819 144.09109497 141.36747742 0.5689711571 70.994644165 0.5720000267 0.5720000267
 1832.0909424  -999.250000 19.187999725 -0.012000000 0.4521499872 2.0486066341 45.435821533 141.54699707 138.76649475 0.5569880009 69.185096741 0.5719760060 0.5719760060
 1832.2434082  -999.250000 17.516000748 -0.008000000 0.4492200017 2.0477755070 44.543468475 139.35717773 136.49681091 0.5519927740 68.809646606 0.5619951487 0.5619951487
 1832.3957520  -999.250000 17.483999252 -0.007000000 0.4697299898 2.0436937809 49.724330902 139.31147766 136.41084290 0.5490000248 68.250801086 0.5599904060 0.5599904060
 1832.5482178  -999.250000 17.797000885 -0.003000000 0.4482400119 2.0504822731 51.948818207 141.19564819 138.37069702 0.5490120649 69.012825012 0.5559879541 0.5559879541
 1832.7005615  -999.250000 18.406000137 -0.004000000 0.4648400247 2.0644261837 56.431392670 144.06573486 141.30610657 0.5540216565 74.748847961 0.5509855747 0.5509855747
 1832.8530273  -999.250000 17.297000885 -0.011000000 0.4423799813 2.0756146908 53.684913635 146.59881592 143.85032654 0.5630288720 74.686447144 0.5449928045 0.5449928045
 1833.0053711  -999.250000 17.483999252 -0.010000000 0.4746099710 2.1212422848 52.397800446 143.10569763 140.35554504 0.5750448108 74.871597290 0.5420415998 0.5420415998
 1833.1578369  -999.250000 17.187999725 -0.012000000 0.4565399885 2.2198636532 49.841976166 138.06524658 135.27835083 0.5890263915 74.122497559 0.5551248789 0.5551248789
 1833.3101807  -999.250000 17.077999115 -0.011000000 0.4506800175 2.2929112911 49.002704620 133.41233826 130.63648987 0.6000144482 73.498199463 0.6070576906 0.6070576906
 1833.4625244  -999.250000 17.266000748 -0.007000000 0.4233399928 2.2598381042 50.693054199 130.16732788 127.27477264 0.6090256572 72.997695923 0.6429311633 0.6429311633
 1833.6149902  -999.250000 17.016000748 -0.005000000 0.4331099987 2.1645991802 53.843952179 132.79093933 129.97860718 0.6250288486 72.183593750 0.5999454856 0.5999454856
