# LAS format log file from PETREL
# Project units are specified as depth units
#==================================================================
~Version information
VERS.   2.0:
WRAP.   NO:
#==================================================================
~Well
STRT .m      176.60998535 :
STOP .m      3556.0803223 :
STEP .m     0.00000000 :
NULL .        -999.250000 :
COMP.           : COMPANY
WELL.  30/6-5   : WELL
FLD.            : FIELD
LOC.            : LOCATION
SRVC.           : SERVICE COMPANY
DATE.  2018-09-11 14:48:31   : Log Export Date {yyyy-MM-dd HH:mm:ss}
PROV.           : PROVINCE
UWI.   30/6-5   : UNIQUE WELL ID
API.            : API NUMBER
#==================================================================
~Curve
DEPT .m                   : DEPTH
Lithology_geolink ._      : Lithology_geolink
CALI .in                  : CALI
DRHO .g/cm3               : DRHO
NPHI .m3/m3               : NPHI
RHOB .g/cm3               : RHOB
PEF .b/e                  : PEF
GR .gAPI                  : GR
DTC .us/ft                : DTC
DTE .us/ft                : DTE
RDEP .ohm.m               : RDEP
SP .mV                    : SP
RSHA .ohm.m               : RSHA
RMED .ohm.m               : RMED
~Parameter
#==================================================================
~Ascii
# ...
 1303.1508789  -999.250000 18.702999115 0.0070000002 0.4817276001 2.0620200634  -999.250000 54.407100677 138.67192078 139.64129639 1.3200881481 57.373172760 1.6929999590 1.2269999981
 1303.3033447  -999.250000 18.577999115 0.0020000001 0.5036670566 2.0662324429  -999.250000 54.715446472 137.23646545 138.21559143 1.3750816584 47.183242798 1.7680000067 1.3190000057
 1303.4556885  -999.250000 18.437999725 -0.005000000 0.5080422163 2.0700130463  -999.250000 43.946781158 135.06233215 136.01402283 1.4089711905 55.642387390 1.3109999895 1.4490000010
 1303.6081543  -999.250000 18.108999252 -0.006000000 0.4733307362 2.0770692825  -999.250000 37.012371063 127.91558075 128.86698914 1.3910024166 51.405998230 2.6949999332 1.7690000534
 1303.7604980  -999.250000 18.218999863 -0.005000000 0.4301488996 2.0802962780  -999.250000 31.230808258 127.45729828 128.34233093 1.3919807673 51.415607452 1.6069999933 2.0680000782
 1303.9128418  -999.250000 18.281000137 -0.002000000 0.4288075864 2.0687620640  -999.250000 34.915390015 128.48170471 129.39567566 1.3799759150 54.415012360 1.4759999514 1.7999999523
 1304.0653076  -999.250000 18.468999863 0.0040000002 0.4632925093 2.0544619560  -999.250000 38.815803528 130.53131104 131.41505432 1.3649687767 58.119968414 1.3739999533 1.5379999876
 1304.2176514  -999.250000 19.156000137 0.0130000003 0.5038596988 2.0355658531  -999.250000 39.684768677 137.14245605 138.06886292 1.3519502878 46.929435730 1.2960000038 1.3099999428
 1304.3701172  -999.250000 18.422000885 0.0170000009 0.5160197616 2.0157840252  -999.250000 38.342899323 141.71046448 142.64254761 1.3208125830 56.625572205 1.0269999504 1.1759999990
 1304.5224609  -999.250000 19.093999863 0.0149999997 0.5157050490 1.9967228174  -999.250000 38.009468079 143.01124573 144.02201843 1.2429263592 47.195663452 1.0870000124 1.1480000019
 1304.6749268  -999.250000 18.358999252 0.0089999996 0.4969906211 1.9833352566  -999.250000 41.941902161 142.06152344 143.01307678 1.1969183683 63.614360809 1.0529999733 1.1469999552
 1304.8272705  -999.250000 18.516000748 0.0060000001 0.4852715135 1.9759106636  -999.250000 43.152469635 141.18487549 142.18330383 1.1629726887 50.655998230 1.1189999580 1.1469999552
 1304.9797363  -999.250000 18.593999863 0.0000000000 0.4872059226 1.9627388716  -999.250000 41.693702698 141.09394836 142.10913086 1.1459832191 50.680816650 0.8750000000 1.1399999857
 1305.1320801  -999.250000 18.077999115 -0.002000000 0.5096203089 1.9507287741  -999.250000 43.475238800 141.19650269 142.12338257 1.1390048265 58.353115082 0.8280000091 1.1710000038
 1305.2845459  -999.250000 18.156000137 -0.001003203 0.5099695921 1.9474856853  -999.250000 46.071613312 141.23637390 142.17237854 1.1419807673 36.506156921 1.0140000582 1.1790000200
 1305.4368896  -999.250000 18.218999863 -0.003003205 0.5096957684 1.9493660927  -999.250000 48.750202179 141.55418396 142.60350037 1.1339855194 67.599952698 0.8550000191 1.1749999523
 1305.5893555  -999.250000 18.343999863 -0.007004804 0.4919074178 1.9508315325  -999.250000 48.793369293 141.53561401 142.51451111 1.1249784231 50.164012909 0.8479999900 1.1480000019
 1305.7416992  -999.250000 18.406000137 -0.009999199 0.4903014898 1.9503073692  -999.250000 42.691600800 141.26922607 142.17633057 1.1159888506 52.653594971 0.9419999719 1.1360000372
 1305.8940430  -999.250000 18.437999725 -0.008998399 0.5046671033 1.9521048069  -999.250000 43.810443878 140.65888977 141.66217041 1.1089903116 51.920421600 1.1349999905 1.1210000515
 1306.0465088  -999.250000 18.812999725 -0.006999199 0.5385583043 1.9614671469  -999.250000 42.753803253 138.88346863 139.95434570 1.1030000448 57.882778168 1.1200000048 1.1289999485
 1306.1988525  -999.250000 18.843999863 -0.005998399 0.5613553524 1.9808392525  -999.250000 43.932739258 138.45390320 139.42941284 1.1030129194 50.673427582 1.0440000296 1.1330000162
 1306.3513184  -999.250000 19.233999252 -0.003998398 0.5555129051 2.0013918877  -999.250000 41.748397827 138.32067871 139.23448181 1.1110432148 57.878776550 0.8140000105 1.1330000162
 1306.5036621  -999.250000 18.483999252 -0.002000801 0.5466330647 2.0076057911  -999.250000 41.253829956 136.97637939 137.88249207 1.1290128231 49.416213989 0.8690000176 1.1089999676
 1306.6561279  -999.250000 18.577999115 -0.003001603 0.5378966331 1.9964637756  -999.250000 42.842399597 136.40238953 137.37248230 1.1370311975 53.651195526 0.9589999914 1.1210000515
 1306.8084717  -999.250000 18.500000000 -0.005000000 0.5087450147 1.9870073795  -999.250000 42.339492798 135.06562805 136.02165222 1.1500111818 52.161407471 1.0650000572 1.1299999952
 1306.9609375  -999.250000 19.891000748 -0.004996795 0.4900746942 1.9886940718  -999.250000 40.479709625 135.90628052 136.88101196 1.1570031643 54.399593353 1.1080000401 1.1729999781
 1307.1132813  -999.250000 18.766000748 -0.000995192 0.4959676266 1.9955493212  -999.250000 43.812923431 137.74720764 138.74800110 1.1580120325 52.405395508 0.9250000119 1.1840000153
 1307.2657471  -999.250000 18.906000137 0.0049983985 0.5054820180 1.9995142221  -999.250000 43.788909912 139.07711792 140.01708984 1.1630384922 52.163208008 1.0030000210 1.1840000153
 1307.4180908  -999.250000 19.766000748 0.0039975964 0.4942469001 1.9967646599  -999.250000 46.246997833 140.45487976 141.46249390 1.1749967337 54.385982513 0.8550000191 1.1740000248
 1307.5705566  -999.250000 20.063001633 0.0009951962 0.4904047251 1.9854501486  -999.250000 45.324817657 141.40220642 142.39259338 1.1739840508 48.184043884 0.7950000167 1.1920000315
 1307.7229004  -999.250000 19.577999115 -0.002004006 0.4995944798 1.9672781229  -999.250000 48.988193512 142.22026062 143.23417664 1.1689968109 56.887584686 1.0069999695 1.1990000010
 1307.8753662  -999.250000 18.891000748 -0.007006405 0.5176225305 1.9472705126  -999.250000 45.304283142 142.97463989 143.94664001 1.1679487228 51.170421600 0.8330000043 1.1879999638
 1308.0277100  -999.250000 18.875000000 -0.011000801 0.5004616380 1.9345897436  -999.250000 42.587596893 144.05519104 144.99162292 1.1519678831 55.635982513 0.7779999971 1.1759999990
 1308.1800537  -999.250000 18.781000137 -0.011996797 0.4775628746 1.9313235283  -999.250000 40.594226837 145.09692383 146.12959290 1.1419687271 49.410804749 0.7300000191 1.1469999552
 1308.3325195  -999.250000 20.000000000 -0.007996796 0.4686959088 1.9362097979  -999.250000 40.693202972 144.65982056 145.60089111 1.1289615631 51.416404724 0.7210000157 1.1519999504
 1308.4848633  -999.250000 18.391000748 -0.003992795 0.4885439277 1.9368470907  -999.250000 42.315101624 143.61631775 144.66465759 1.1169663668 54.651790619 0.8569999933 1.1349999905
 1308.6373291  -999.250000 18.937999725 0.0050072116 0.5059232116 1.9429557323  -999.250000 43.197608948 143.96562195 144.91549683 1.1029840708 52.904396057 0.7509999871 1.1410000324
 1308.7896729  -999.250000 18.468999863 0.0139975986 0.4974120557 1.9536083937  -999.250000 46.192279816 144.04953003 145.13894653 1.0979903936 52.409603119 0.8820000291 1.1230000257
 1308.9421387  -999.250000 18.922000885 0.0109919868 0.4874924719 1.9622150660  -999.250000 47.973201752 142.88139343 143.82522583 1.0940223932 53.915607452 0.7720000148 1.1189999580
 1309.0944824  -999.250000 18.233999252 0.0009951923 0.5030419827 1.9639070034  -999.250000 49.270633698 143.06663513 143.98339844 1.1009999514 56.888568878 0.9259999990 1.1000000238
 1309.2469482  -999.250000 18.452999115 -0.004996798 0.5179415345 1.9616007805  -999.250000 44.963695526 143.76481628 144.80239868 1.1009935141 49.682441711 0.9850000143 1.1319999695
 1309.3992920  -999.250000 18.483999252 -0.003000000 0.5126718283 1.9657297134  -999.250000 43.306491852 143.32804871 144.34764099 1.0990096331 57.897190094 0.7009999752 1.1490000486
 1309.5517578  -999.250000 18.452999115 -0.002996797 0.5150210857 1.9711370468  -999.250000 41.289413452 144.31980896 145.37934875 1.1020288467 55.155998230 0.9369999766 1.1510000229
 1309.7041016  -999.250000 18.141000748 -0.000995994 0.5219634175 1.9857089520  -999.250000 43.909999847 144.36074829 145.27749634 1.1110191345 55.144790649 1.0279999971 1.1540000439
