# LAS format log file from PETREL
# Project units are specified as depth units
#==================================================================
~Version information
VERS.   2.0:
WRAP.   NO:
#==================================================================
~Well
STRT .m      2773.3432617 :
STOP .m      3341.0317383 :
STEP .m     0.00000000 :
NULL .        -999.250000 :
COMP.           : COMPANY
WELL.  30/6-22   : WELL
FLD.            : FIELD
LOC.            : LOCATION
SRVC.           : SERVICE COMPANY
DATE.  2018-09-11 14:48:30   : Log Export Date {yyyy-MM-dd HH:mm:ss}
PROV.           : PROVINCE
UWI.   30/6-22   : UNIQUE WELL ID
API.            : API NUMBER
#==================================================================
~Curve
DEPT .m                   : DEPTH
Lithology_geolink ._      : Lithology_geolink
CALI .in                  : CALI
DRHO .g/cm3               : DRHO
NPHI .m3/m3               : NPHI
RHOB .g/cm3               : RHOB
GR .gAPI                  : GR
DTC .us/ft                : DTC
DTE .us/ft                : DTE
RDEP .ohm.m               : RDEP
SP .mV                    : SP
RSHA .ohm.m               : RSHA
RMED .ohm.m               : RMED
~Parameter
#==================================================================
~Ascii
# ...
 3300.0363770 3.0000000000 8.6479997635 0.0120000001 0.1610300094 2.3529999256 56.509548187 78.230201721 78.187599182 3.0519535542  -999.250000 4.1077852249 4.1077852249
 3300.1887207 3.0000000000 8.6479997635 0.0109999999 0.1788400114 2.3359999657 54.978004456 78.946128845 78.843582153 3.0229327679  -999.250000 3.9735689163 3.9735689163
 3300.3410645 3.0000000000 8.6479997635 0.0089999996 0.1813900024 2.3340001106 53.112285614 80.517486572 80.360595703 2.9808797836  -999.250000 3.7044198513 3.7044198513
 3300.4934082 5.0000000000 8.6479997635 0.0080000004 0.1964599937 2.3580000401 52.669021606 81.869270325 81.756538391 2.9059391022  -999.250000 3.3424293995 3.3424293995
 3300.6459961 5.0000000000 8.6479997635 0.0099999998 0.2067900151 2.3780000210 53.308086395 82.871871948 83.116615295 2.8681919575  -999.250000 2.9860560894 2.9860560894
 3300.7983398 5.0000000000 8.6479997635 0.0130000003 0.2215600014 2.4079999924 53.959754944 85.064331055 84.934799194 2.9281394482  -999.250000 2.6917355061 2.6917355061
 3300.9506836 5.0000000000 8.6479997635 0.0070000002 0.2249200046 2.3859999180 55.055541992 86.210975647 86.385070801 3.0151283741  -999.250000 2.5270063877 2.5270063877
 3301.1030273 5.0000000000 8.6479997635 0.0020000001 0.2181100100 2.3980000019 56.641483307 86.339401245 86.267608643 3.0951185226  -999.250000 2.5314197540 2.5314197540
 3301.2556152 5.0000000000 8.6479997635 0.0020000001 0.2181800008 2.4179999828 58.187458038 85.632209778 85.306930542 3.1691184044  -999.250000 2.7950768471 2.7950768471
 3301.4079590 3.0000000000 8.6120004654 -0.002000000 0.2175399959 2.4249999523 57.703948975 84.049171448 84.187133789 3.2060208321  -999.250000 3.4432516098 3.4432516098
 3301.5603027 3.0000000000 8.5329999924 -0.006000000 0.2109300047 2.3849999905 55.801589966 82.697853088 82.658256531 3.2189905643  -999.250000 4.2235031128 4.2235031128
 3301.7126465 3.0000000000 8.4560003281 -0.013000000 0.1919599921 2.3619999886 55.545986176 81.284858704 81.048233032 3.2129583359  -999.250000 4.5365772247 4.5365772247
 3301.8652344 3.0000000000 8.3839998245 -0.009000000 0.1768700033 2.3650000095 54.898578644 79.550659180 79.700019836 3.1868591309  -999.250000 4.2712526321 4.2712526321
 3302.0175781 3.0000000000 8.3719997406 0.0000000000 0.1616600007 2.3949999809 50.087013245 79.201301575 79.294982910 3.1428892612  -999.250000 3.7261185646 3.7261185646
 3302.1699219 3.0000000000 8.4119997025 0.0040000002 0.1487099975 2.3919999599 45.731666565 79.486640930 79.505416870 3.0738444328  -999.250000 3.1766459942 3.1766459942
 3302.3222656 3.0000000000 8.4589996338 -0.001000000 0.1334000081 2.3789999485 44.895065308 80.056823730 79.828674316 2.9768588543  -999.250000 2.9560530186 2.9560530186
 3302.4746094 3.0000000000 8.5080003738 0.0030000000 0.1286199987 2.3780000210 41.816013336 79.313934326 79.539070129 2.8889439106  -999.250000 2.9890835285 2.9890835285
 3302.6271973 3.0000000000 8.5729999542 0.0109999999 0.1329099983 2.3659999371 39.954826355 78.880714417 78.803108215 2.8540129662  -999.250000 3.0410637856 3.0410637856
 3302.7795410 3.0000000000 8.6250000000 0.0120000001 0.1446499974 2.3610000610 40.213634491 77.790885925 78.018424988 2.8581106663  -999.250000 3.0610737801 3.0610737801
 3302.9318848 3.0000000000 8.6450004578 0.0080000004 0.1593500078 2.3759999275 40.612236023 77.736351013 77.743461609 2.9272739887  -999.250000 3.1072981358 3.1072981358
 3303.0842285 3.0000000000 8.6809997559 0.0109999999 0.1698399931 2.4079999924 43.252174377 77.753097534 77.777839661 3.0983190536  -999.250000 3.2937901020 3.2937901020
 3303.2368164 3.0000000000 8.7150001526 0.0109999999 0.1673900038 2.4219999313 44.615383148 77.447708130 77.257446289 3.2974383831  -999.250000 3.7883296013 3.7883296013
 3303.3891602 3.0000000000 8.6990003586 -0.001000000 0.1554300040 2.3910000324 47.543003082 77.597938538 77.812614441 3.4341425896  -999.250000 4.5147738457 4.5147738457
 3303.5415039 3.0000000000 8.7170000076 -0.005000000 0.1492300034 2.3870000839 50.032661438 78.562019348 78.554695129 3.5231795311  -999.250000 4.9969010353 4.9969010353
 3303.6938477 5.0000000000 8.7159996033 0.0030000000 0.1633300036 2.3970000744 48.571331024 78.294410706 78.066932678 3.6352548599  -999.250000 4.9340767860 4.9340767860
 3303.8464355 5.0000000000 8.6680002213 0.0040000002 0.1933999956 2.4159998894 46.277187347 77.925331116 78.010299683 3.7944447994  -999.250000 4.3570227623 4.3570227623
 3303.9987793 5.0000000000 8.6770000458 0.0070000002 0.2353100032 2.4210000038 43.847564697 78.595573425 78.349655151 3.9330883026  -999.250000 3.7410080433 3.7410080433
 3304.1511230 5.0000000000 8.7390003204 0.0080000004 0.2456900030 2.4179999828 46.071846008 78.186065674 78.347084045 3.9880239964  -999.250000 3.7467932701 3.7467932701
 3304.3034668 5.0000000000 8.7340002060 0.0089999996 0.2423800081 2.4170000553 48.478092194 78.626136780 78.534172058 4.0030412674  -999.250000 4.2417612076 4.2417612076
 3304.4558105 5.0000000000 8.6619997025 0.0060000001 0.2185600102 2.4130001068 55.403053284 79.119316101 79.292434692 4.0290813446  -999.250000 4.7166123390 4.7166123390
 3304.6083984 5.0000000000 8.6370000839 0.0080000004 0.2066600025 2.4300000668 63.530857086 79.707672119 79.609161377 4.0801725388  -999.250000 5.0986561775 5.0986561775
 3304.7607422 5.0000000000 8.6450004578 0.0099999998 0.2120099962 2.4279999733 61.926036835 79.568077087 79.788238525 4.1338877678  -999.250000 5.3027691841 5.3027691841
 3304.9130859 5.0000000000 8.6110000610 0.0120000001 0.2103700042 2.4219999313 60.078201294 79.644035339 79.719558716 4.0635371208  -999.250000 5.1586217880 5.1586217880
 3305.0654297 5.0000000000 8.5069999695 0.0130000003 0.2062599957 2.3900001049 58.956005096 80.073326111 79.946701050 3.7744488716  -999.250000 4.9227499962 4.9227499962
 3305.2180176 3.0000000000 8.4060001373 0.0120000001 0.1889600009 2.3570001125 58.965965271 80.138198853 80.399658203 3.4301519394  -999.250000 4.7660593987 4.7660593987
 3305.3703613 3.0000000000 8.3330001831 0.0109999999 0.1709399968 2.3540000916 61.440448761 80.138198853 79.874443054 3.1655383110  -999.250000 4.4719200134 4.4719200134
 3305.5227051 3.0000000000 8.2580003738 0.0049999999 0.1743499935 2.3619999886 57.342674255 79.312614441 79.517372131 2.8774502277  -999.250000 3.7976250648 3.7976250648
 3305.6750488 3.0000000000 8.2229995728 0.0049999999 0.1792400032 2.3670001030 45.916564941 79.184188843 79.163604736 2.5345273018  -999.250000 2.9402050972 2.9402050972
 3305.8276367 3.0000000000 8.2189998627 0.0010000000 0.2040999979 2.3580000401 40.663490295 79.294219971 79.069381714 2.2394273281  -999.250000 2.4448654652 2.4448654652
 3305.9799805 3.0000000000 8.2189998627 0.0010000000 0.2000499964 2.3450000286 40.815620422 79.201301575 79.159484863 2.0608303547  -999.250000 2.4031026363 2.4031026363
 3306.1323242 3.0000000000 8.2209997177 0.0020000001 0.1962400079 2.3580000401 39.952697754 78.662368774 78.912826538 1.9548702240  -999.250000 2.4670495987 2.4670495987
 3306.2846680 3.0000000000 8.2250003815 0.0080000004 0.1848900020 2.3610000610 38.518093109 78.799537659 78.856521606 1.8739293814  -999.250000 2.4979710579 2.4979710579
 3306.4370117 3.0000000000 8.2250003815 0.0099999998 0.1780800074 2.3659999371 39.201519012 78.724372864 78.668334961 1.8300064802  -999.250000 2.4798541069 2.4798541069
 3306.5895996 3.0000000000 8.2200002670 0.0089999996 0.1677000076 2.3599998951 40.147693634 78.294410706 78.268798828 1.8341599703  -999.250000 2.3886191845 2.3886191845
 3306.7419434 3.0000000000 8.2189998627 0.0080000004 0.1582400054 2.3659999371 40.363601685 77.817321777 77.746223450 1.8841633797  -999.250000 2.2698876858 2.2698876858
 3306.8942871 3.0000000000 8.2200002670 0.0099999998 0.1606699973 2.3849999905 40.111701965 76.927528381 77.015769958 1.9862210751  -999.250000 2.1999824047 2.1999824047
 3307.0466309 3.0000000000 8.2580003738 0.0120000001 0.1656000018 2.4089999199 36.809825897 76.386978149 76.315078735 2.1242661476  -999.250000 2.1891889572 2.1891889572
 3307.1992188 3.0000000000 8.3229999542 0.0140000004 0.1722700000 2.4319999218 36.095748901 76.322105408 76.005592346 2.2906367779  -999.250000 2.3081870079 2.3081870079
