# LAS format log file from PETREL
# Project units are specified as depth units
#==================================================================
~Version information
VERS.   2.0:
WRAP.   NO:
#==================================================================
~Well
STRT .m      581.07043457 :
STOP .m      2909.8947754 :
STEP .m     0.00000000 :
NULL .        -999.250000 :
COMP.           : COMPANY
WELL.  30/6-14   : WELL
FLD.            : FIELD
LOC.            : LOCATION
SRVC.           : SERVICE COMPANY
DATE.  2018-09-11 14:48:30   : Log Export Date {yyyy-MM-dd HH:mm:ss}
PROV.           : PROVINCE
UWI.   30/6-14   : UNIQUE WELL ID
API.            : API NUMBER
#==================================================================
~Curve
DEPT .m                   : DEPTH
Lithology_geolink ._      : Lithology_geolink
CALI .in                  : CALI
DRHO .g/cm3               : DRHO
NPHI .m3/m3               : NPHI
RHOB .g/cm3               : RHOB
GR .gAPI                  : GR
DTC .us/ft                : DTC
RDEP .ohm.m               : RDEP
SP .mV                    : SP
RSHA .ohm.m               : RSHA
RMED .ohm.m               : RMED
~Parameter
#==================================================================
~Ascii
# ...
 1047.4144287  -999.250000 17.608999252 -0.016000001  -999.250000 1.8509999514 100.92578125 126.26602936 1.4379407167 59.157600403  -999.250000 1.1570320129
 1047.5667725  -999.250000 17.608999252 -0.002000000  -999.250000 1.9210000038 96.136558533 120.76321411 1.4370024204 58.906597137  -999.250000 1.1719640493
 1047.7192383  -999.250000 17.733999252 -0.012000000  -999.250000 1.9889999628 92.693511963 117.75480652 1.4150352478 59.343299866  -999.250000 1.1710015535
 1047.8715820  -999.250000 17.625000000 -0.014000000  -999.250000 2.0099999905 94.745048523 120.24399567 1.3860696554 59.779949188  -999.250000 1.1291007996
 1048.0240479  -999.250000 17.656000137 -0.027000001  -999.250000 1.9210000038 91.692909241 133.22917175 1.3580448627 58.751651764  -999.250000 1.1250064373
 1048.1763916  -999.250000 17.702999115 -0.023000000  -999.250000 1.8519999981 91.500450134 142.72718811 1.3480240107 57.846176147  -999.250000 1.1349760294
 1048.3288574  -999.250000 17.718999863 -0.022000000  -999.250000 1.8179999590 84.324523926 143.99800110 1.3240385056 56.845603943  -999.250000 1.1300079823
 1048.4812012  -999.250000 17.672000885 -0.018999999  -999.250000 1.8029999733 87.807395935 145.99679565 1.2900544405 56.905899048  -999.250000 1.0980513096
 1048.6336670  -999.250000 17.687999725 -0.010000000  -999.250000 1.7929999828 89.996498108 145.25120544 1.2880032063 57.654796600  -999.250000 1.0580639839
 1048.7860107  -999.250000 17.718999863 -0.011000000  -999.250000 1.7860000134 96.614379883 145.49960327 1.2590464354 57.655998230  -999.250000 1.0510112047
 1048.9383545  -999.250000 17.625000000 -0.016000001  -999.250000 1.7799999714 100.42884827 146.49760437 1.2520167828 57.937320709  -999.250000 1.0669616461
 1049.0908203  -999.250000 18.108999252 -0.020000000  -999.250000 1.7860000134 100.62470245 146.00080872 1.1841089725 57.968952179  -999.250000 1.1089326143
 1049.2431641  -999.250000 17.733999252 -0.015000000  -999.250000 1.8040000200 100.50029755 145.25180054 1.1580624580 59.277847290  -999.250000 1.1239639521
 1049.3956299  -999.250000 17.625000000 -0.011000000  -999.250000 1.8170000315 104.43169403 145.00039673 1.1719776392 59.000450134  -999.250000 1.1289919615
 1049.5479736  -999.250000 17.656000137 -0.011000000  -999.250000 1.8240000010 103.81450653 145.74819946 1.1769880056 58.875301361  -999.250000 1.1270047426
 1049.7004395  -999.250000 17.641000748 -0.017999999  -999.250000 1.8079999685 105.74689484 145.99960327 1.2139407396 57.939502716  -999.250000 1.1100273132
 1049.8527832  -999.250000 17.656000137 -0.027000001  -999.250000 1.7790000439 97.956764221 147.49639893 1.2149976492 58.810897827  -999.250000 1.0740864277
 1050.0052490  -999.250000 17.656000137 -0.030999999  -999.250000 1.7500000000 100.74549103 147.99919128 1.2060143948 58.937797546  -999.250000 1.0420513153
 1050.1575928  -999.250000 17.641000748 -0.028999999  -999.250000 1.7489999533 90.524620056 146.25419617 1.2449063063 58.750450134  -999.250000 1.0429975986
 1050.3100586  -999.250000 17.656000137 -0.021000000  -999.250000 1.7719999552 95.117591858 144.00360107 1.2260303497 58.188899994  -999.250000 1.0669615269
 1050.4624023  -999.250000 17.625000000 -0.021000000  -999.250000 1.7979999781 94.501502991 143.50120544 1.1342209578 58.593025208  -999.250000 1.1039110422
 1050.6148682  -999.250000 17.641000748 -0.018999999  -999.250000 1.8250000477 104.17247772 145.99598694 1.1130336523 58.999347687  -999.250000 1.1569150686
 1050.7672119  -999.250000 17.641000748 -0.021000000  -999.250000 1.8049999475 102.69040680 147.24800110 1.1868814230 58.875202179  -999.250000 1.1430224180
 1050.9195557  -999.250000 17.625000000 -0.005000000  -999.250000 1.7920000553 106.36614227 145.50419617 1.1111824512 57.566150665  -999.250000 1.2028558254
 1051.0720215  -999.250000 17.625000000 -0.004000000  -999.250000 1.7510000467 96.765426636 150.49198914 1.1209840775 57.281448364  -999.250000 1.1091506481
 1051.2243652  -999.250000 17.500000000 0.0109999999  -999.250000 1.7460000515 94.380706787 146.01080322 1.2427070141 58.122974396  -999.250000 1.1658631563
 1051.3768311  -999.250000 17.608999252 0.0060000001  -999.250000 1.7189999819 88.946716309 146.00000000 1.1281843185 57.064701080  -999.250000 1.0891233683
 1051.5291748  -999.250000 17.843999863 0.0060000001  -999.250000 1.7339999676 90.559097290 145.00239563 1.1120383739 57.124851227  -999.250000 1.1448655128
 1051.6816406  -999.250000 17.687999725 -0.009000000  -999.250000 1.7710000277 92.871292114 142.25440979 1.0960255861 55.783153534  -999.250000 1.0771089792
 1051.8339844  -999.250000 17.687999725 -0.017000001  -999.250000 1.8259999752 95.368995667 142.74879456 1.0241730213 56.248874664  -999.250000 1.1208943129
 1051.9864502  -999.250000 17.687999725 -0.014000000  -999.250000 1.8539999723 97.185096741 144.74679565 1.0799102783 56.655345917  -999.250000 1.1030288935
 1052.1387939  -999.250000 17.702999115 -0.010000000  -999.250000 1.8329999447 98.247451782 145.49819946 1.1737742424 57.747371674  -999.250000 1.0810527802
 1052.2912598  -999.250000 17.718999863 -0.007000000  -999.250000 1.8029999733 97.564102173 145.74960327 1.1400544643 57.438499451  -999.250000 1.0250897408
 1052.4436035  -999.250000 17.718999863 -0.015000000  -999.250000 1.7690000534 105.23153687 144.50300598 1.1160577536 58.154273987  -999.250000 0.9860936999
 1052.5960693  -999.250000 17.702999115 -0.015000000  -999.250000 1.7660000324 99.010017395 143.00241089 1.1818943024 59.186344147  -999.250000 1.0089631081
 1052.7484131  -999.250000 17.687999725 -0.016000001  -999.250000 1.7829999924 98.438903809 142.00160217 1.1191009283 59.718151093  -999.250000 1.0509326458
 1052.9007568  -999.250000 17.672000885 -0.010000000  -999.250000 1.8099999428 93.200614929 145.49159241 1.0731104612 59.095504761  -999.250000 1.0749423504
 1053.0532227  -999.250000 17.672000885 -0.004000000  -999.250000 1.8070000410 98.429588318 151.49038696 1.1518733501 58.656700134  -999.250000 1.0720047951
 1053.2055664  -999.250000 17.702999115 0.0209999997  -999.250000 1.8170000315 101.18139648 151.74940491 1.1859183311 59.217651367  -999.250000 1.0849688053
 1053.3580322  -999.250000 17.625000000 0.0209999997  -999.250000 1.8120000362 101.81200409 149.25401306 1.1720224619 59.718200684  -999.250000 1.1019726992
 1053.5103760  -999.250000 17.593999863 0.0070000002  -999.250000 1.8240000010 102.74774933 144.01260376 1.1769880056 59.688076019  -999.250000 1.1379135847
 1053.6628418  -999.250000 17.547000885 -0.013000000  -999.250000 1.8109999895 101.50200653 141.00480652 1.1610256433 58.814403534  -999.250000 1.1170336008
 1053.8151855  -999.250000 17.687999725 -0.005000000  -999.250000 1.7999999523 104.49279785 141.99760437 1.1151105165 58.874851227  -999.250000 1.1060264111
 1053.9676514  -999.250000 17.641000748 0.0000000000  -999.250000 1.7779999971 102.12880707 144.99519348 1.1948719025 58.813098907  -999.250000 1.0121506453
 1054.1199951  -999.250000 17.733999252 -0.005000000  -999.250000 1.7740000486 103.62139893 145.99760437 1.2558535337 59.872447968  -999.250000 0.9740912318
 1054.2724609  -999.250000 17.750000000 -0.014000000  -999.250000 1.7899999619 100.06871033 145.00160217 1.2410241365 58.689903259  -999.250000 0.9510368109
 1054.4248047  -999.250000 17.702999115 -0.026000001  -999.250000 1.8070000410 101.37184906 143.75300598 1.2419975996 58.157276154  -999.250000 1.0118534565
 1054.5772705  -999.250000 17.672000885 -0.022000000  -999.250000 1.8190000057 92.763824463 142.00280762 1.3248670101 58.437549591  -999.250000 1.0739006996
 1054.7296143  -999.250000 17.672000885 -0.027000001  -999.250000 1.8099999428 88.506813049 139.50401306 1.3110224009 58.718551636  -999.250000 1.1259167194
 1054.8819580  -999.250000 17.687999725 -0.026000001  -999.250000 1.8040000200 93.238594055 140.74699402 1.2840648890 58.126426697  -999.250000 1.1409640312
 1055.0344238  -999.250000 17.687999725 -0.028000001  -999.250000 1.7990000248 101.23718262 142.49719238 1.2889920473 57.032752991  -999.250000 1.1330128908
