# LAS format log file from PETREL
# Project units are specified as depth units
#==================================================================
~Version information
VERS.   2.0:
WRAP.   NO:
#==================================================================
~Well
STRT .m      360.12121582 :
STOP .m      3233.9282227 :
STEP .m     0.00000000 :
NULL .        -999.250000 :
COMP.           : COMPANY
WELL.  30/6-23   : WELL
FLD.            : FIELD
LOC.            : LOCATION
SRVC.           : SERVICE COMPANY
DATE.  2018-09-11 14:48:31   : Log Export Date {yyyy-MM-dd HH:mm:ss}
PROV.           : PROVINCE
UWI.   30/6-23   : UNIQUE WELL ID
API.            : API NUMBER
#==================================================================
~Curve
DEPT .m                   : DEPTH
Lithology_geolink ._      : Lithology_geolink
CALI .in                  : CALI
DRHO .g/cm3               : DRHO
NPHI .m3/m3               : NPHI
RHOB .g/cm3               : RHOB
GR .gAPI                  : GR
DTC .us/ft                : DTC
DTE .us/ft                : DTE
RDEP .ohm.m               : RDEP
SP .mV                    : SP
RSHA .ohm.m               : RSHA
RMED .ohm.m               : RMED
~Parameter
#==================================================================
~Ascii
# ...
 3227.6796875  -999.250000 2.5720000267 0.0026000000 0.2766084075 2.3269000053 56.562500000  -999.250000  -999.250000 1.6855000257 224.75000000  -999.250000 1.7012000084
 3227.8322754  -999.250000 2.5696003437 0.0026000000 0.2766084373 2.3269000053 56.562500000  -999.250000  -999.250000 1.6855013371 224.75000000  -999.250000 1.7012000084
 3227.9846191  -999.250000 2.5697999001 0.0026000000 0.2766084969 2.3269000053 56.562500000  -999.250000  -999.250000 1.6859009266 224.75000000  -999.250000 1.7012000084
 3228.1369629  -999.250000 2.5727999210 0.0026000000 0.2766085565 2.3269000053 56.562500000  -999.250000  -999.250000 1.6864999533 224.75000000  -999.250000 1.7012000084
 3228.2893066  -999.250000 2.5757999420 0.0026000000 0.2766085863 2.3269000053 56.562500000  -999.250000  -999.250000 1.6864999533 224.75000000  -999.250000 1.7012000084
 3228.4418945  -999.250000 2.5787999630 0.0027000001 0.2766086161 2.3269000053 56.562500000  -999.250000  -999.250000 1.6864999533 224.75000000  -999.250000 1.7012000084
 3228.5942383  -999.250000 2.5818998814 0.0027000001 0.2766086757 2.3269999027 56.562500000  -999.250000  -999.250000 1.6864999533 224.75000000  -999.250000 1.7012000084
 3228.7465820  -999.250000 2.5849001408 0.0027000001 0.2766087353 2.3269999027 56.562400818  -999.250000  -999.250000 1.6864999533 224.75000000  -999.250000 1.7012000084
 3228.8989258  -999.250000 2.5878999233 0.0027000001 0.2766087651 2.3269999027 56.562400818  -999.250000  -999.250000 1.6864999533 224.75000000  -999.250000 1.7012000084
 3229.0515137  -999.250000 2.5908997059 0.0027000001 0.2766088545 2.3269999027 56.562400818  -999.250000  -999.250000 1.6864999533 224.75000000  -999.250000 1.7012000084
 3229.2038574  -999.250000 2.5938999653 0.0027000001 0.2766088843 2.3269999027 56.562400818  -999.250000  -999.250000 1.6864999533 224.75000000  -999.250000 1.7012000084
 3229.3562012  -999.250000 2.5968999863 0.0027999999 0.2766088843 2.3269999027 56.562400818  -999.250000  -999.250000 1.6864999533 224.75000000  -999.250000 1.7012000084
 3229.5085449  -999.250000 2.5999996662 0.0030000000 0.2766089737 2.3269999027 56.562400818  -999.250000  -999.250000 1.6864999533 224.75000000  -999.250000 1.7012000084
 3229.6608887  -999.250000 2.6029999256 0.0031999999 0.2766090333 2.3269999027 56.562400818  -999.250000  -999.250000 1.6864999533 224.75000000  -999.250000 1.7012000084
 3229.8134766  -999.250000 2.6059999466 0.0033000000 0.2766090631 2.3269999027 56.562400818  -999.250000  -999.250000 1.6864999533 224.75000000  -999.250000 1.7012000084
 3229.9658203  -999.250000 2.6082997322 0.0035000001 0.2766091526 2.3269999027 56.562400818  -999.250000  -999.250000 1.6864999533 224.75000000  -999.250000 1.7012000084
 3230.1181641  -999.250000 2.6082000732 0.0037000000 0.2766091824 2.3271000385 56.562500000  -999.250000  -999.250000 1.6864999533 224.75000000  -999.250000 1.7012000084
 3230.2705078  -999.250000 2.6059000492 0.0038000001 0.2766091824 2.3271000385 56.562599182  -999.250000  -999.250000 1.6864999533 224.75000000  -999.250000 1.7012000084
 3230.4230957  -999.250000 2.6036000252 0.0040000002 0.2766092718 2.3271000385 56.562599182  -999.250000  -999.250000 1.6864999533 224.75000000  -999.250000 1.7012000084
 3230.5754395  -999.250000 2.6013000011 0.0041999999 0.2766093016 2.3271000385 56.562599182  -999.250000  -999.250000 1.6864999533 224.75000000  -999.250000 1.7012000084
 3230.7277832  -999.250000 2.5989000797 0.0043000001 0.2766093314 2.3271000385 56.562599182  -999.250000  -999.250000 1.6864999533 224.75000000  -999.250000 1.7012000084
 3230.8801270  -999.250000 2.5966000557 0.0044999998 0.2766093910 2.3271000385 56.562599182  -999.250000  -999.250000 1.6864999533 224.75000000  -999.250000 1.7012000084
 3231.0327148  -999.250000 2.5943000317 0.0046999999 0.2766094506 2.3271000385 56.562599182  -999.250000  -999.250000 1.6864999533 224.75000000  -999.250000 1.7012000084
 3231.1850586  -999.250000 2.5920000076 0.0049000001 0.2766094804 2.3271000385 56.562599182  -999.250000  -999.250000 1.6864999533 224.75000000  -999.250000 1.7012000084
 3231.3374023  -999.250000 2.5896999836 0.0049999999 0.2766094804 2.3271000385 56.562599182  -999.250000  -999.250000 1.6864999533 224.75000000  -999.250000 1.7012000084
 3231.4897461  -999.250000 2.5874001980 0.0052000000 0.2766095698 2.3271000385 56.562599182  -999.250000  -999.250000 1.6864999533 224.75000000  -999.250000 1.7012000084
 3231.6423340  -999.250000 2.5850000381 0.0054000001 0.2766096294 2.3271999359 56.562500000  -999.250000  -999.250000 1.6864999533 224.75000000  -999.250000 1.7012000084
 3231.7946777  -999.250000 2.5827000141 0.0055000000 0.2766096890 2.3271999359 56.562500000  -999.250000  -999.250000 1.6864999533 224.75000000  -999.250000 1.7012000084
 3231.9470215  -999.250000 2.5803999901 0.0057000001 0.2766097486 2.3271999359 56.562500000  -999.250000  -999.250000 1.6864999533 224.75000000  -999.250000 1.7012000084
 3232.0993652  -999.250000 2.5780999660 0.0059000002 0.2766098082 2.3271999359 56.562500000  -999.250000  -999.250000 1.6864999533 224.75000000  -999.250000 1.7012000084
 3232.2517090  -999.250000 2.5757999420 0.0060000001 0.2766098380 2.3271999359 56.562500000  -999.250000  -999.250000 1.6864999533 224.75000000  -999.250000 1.7012000084
 3232.4042969  -999.250000 2.5735001564 0.0062000002 0.2766098678 2.3271999359 56.562500000  -999.250000  -999.250000 1.6864999533 224.75000000  -999.250000 1.7012000084
 3232.5566406  -999.250000 2.5717999935 0.0063999998 0.2766098976 2.3271999359 56.562500000  -999.250000  -999.250000 1.6864999533 224.75000000  -999.250000 1.7012000084
 3232.7089844  -999.250000 2.5715999603 0.0065000001 0.2766098976 2.3271999359 56.562500000  -999.250000  -999.250000 1.6864999533 224.75000000  -999.250000 1.7012000084
 3232.8613281  -999.250000 2.5717000961 0.0066999998 0.2766095996 2.3271999359 56.562500000  -999.250000  -999.250000 1.6864999533 224.75000000  -999.250000 1.7012000084
 3233.0139160  -999.250000 2.5717999935 0.0068999999 0.2766088247 2.3271999359 56.562500000  -999.250000  -999.250000 1.6864999533 224.75000000  -999.250000 1.7012000084
 3233.1662598  -999.250000 2.5718998909 0.0071000000 0.2766084373 2.3273000717 56.562500000  -999.250000  -999.250000 1.6864999533 224.75000000  -999.250000 1.7012000084
 3233.3186035  -999.250000 2.5720999241 0.0071000000 0.2766084373 2.3273000717 56.562431335  -999.250000  -999.250000 1.6864999533 224.75000000  -999.250000 1.7012000084
 3233.4709473  -999.250000 2.5722000599 0.0066999998 0.2766084969 2.3273000717 56.520370483  -999.250000  -999.250000 1.6864999533 224.75000000  -999.250000 1.7012000084
 3233.6235352  -999.250000 2.5773999691 0.0062000002 0.2766085267 2.3273000717 56.377285004  -999.250000  -999.250000 1.6864999533 224.75000000  -999.250000 1.7012000084
 3233.7758789  -999.250000 2.6080996990 -0.001400000 0.2766086161 2.3273000717 56.530197144  -999.250000  -999.250000 1.6864999533  -999.250000  -999.250000 1.7012000084
 3233.9282227  -999.250000 3.0282998085 -0.069300003 0.2766086459 2.3515000343 58.032115936  -999.250000  -999.250000 1.6864999533  -999.250000  -999.250000 1.7012000084
