# LAS format log file from PETREL
# Project units are specified as depth units
#==================================================================
~Version information
VERS.   2.0:
WRAP.   NO:
#==================================================================
~Well
STRT .m      2773.3432617 :
STOP .m      3341.0317383 :
STEP .m     0.00000000 :
NULL .        -999.250000 :
COMP.           : COMPANY
WELL.  30/6-22   : WELL
FLD.            : FIELD
LOC.            : LOCATION
SRVC.           : SERVICE COMPANY
DATE.  2018-09-11 14:48:30   : Log Export Date {yyyy-MM-dd HH:mm:ss}
PROV.           : PROVINCE
UWI.   30/6-22   : UNIQUE WELL ID
API.            : API NUMBER
#==================================================================
~Curve
DEPT .m                   : DEPTH
Lithology_geolink ._      : Lithology_geolink
CALI .in                  : CALI
DRHO .g/cm3               : DRHO
NPHI .m3/m3               : NPHI
RHOB .g/cm3               : RHOB
GR .gAPI                  : GR
DTC .us/ft                : DTC
DTE .us/ft                : DTE
RDEP .ohm.m               : RDEP
SP .mV                    : SP
RSHA .ohm.m               : RSHA
RMED .ohm.m               : RMED
~Parameter
#==================================================================
~Ascii
# ...
 3263.4602051 6.0000000000 8.8929996490 0.0060000001 0.2772499919 2.5910000801 111.80868530 84.449539185 84.387603760 5.5459742546  -999.250000 7.2069644928 7.2069644928
 3263.6125488 6.0000000000 8.9010000229 0.0080000004 0.2811099887 2.5820000172 112.23470306 84.431297302 84.327934265 5.5299425125  -999.250000 7.1849374771 7.1849374771
 3263.7651367 6.0000000000 8.8929996490 0.0179999992 0.2814100087 2.5920000076 111.42664337 84.431297302 84.366539001 5.4939007759  -999.250000 7.1459517479 7.1459517479
 3263.9174805 6.0000000000 8.8730001450 0.0230000000 0.2836900055 2.6070001125 111.31806946 84.431297302 84.554023743 5.4629502296  -999.250000 7.1309838295 7.1309838295
 3264.0698242 6.0000000000 8.8579998016 0.0140000004 0.2763200104 2.6099998951 112.60725403 84.844177246 84.883850098 5.4319696426  -999.250000 7.1209659576 7.1209659576
 3264.2221680 6.0000000000 8.8669996262 0.0049999999 0.2836199999 2.6210000515 114.63582611 85.321189880 85.341514587 5.4129886627  -999.250000 7.0999341011 7.0999341011
 3264.3747559 6.0000000000 8.8950004578 0.0020000001 0.2881000042 2.6310000420 115.14678192 85.679359436 85.698577881 5.4058880806  -999.250000 7.0586705208 7.0586705208
 3264.5270996 6.0000000000 8.9219999313 -0.004000000 0.2844899893 2.6189999580 114.14105225 86.376632690 86.136985779 5.3709182739  -999.250000 6.9557690620 6.9557690620
 3264.6794434 6.0000000000 8.9300003052 -0.007000000 0.2720400095 2.6010000706 112.93093872 86.358055115 86.253829956 5.3199615479  -999.250000 6.8118104935 6.8118104935
 3264.8317871 6.0000000000 8.9300003052 -0.006000000 0.2691699862 2.5880000591 115.39205170 85.926605225 85.954597473 5.2959632874  -999.250000 6.6938667297 6.6938667297
 3264.9841309 6.0000000000 8.9300003052 -0.006000000 0.2727000117 2.5889999866 121.03059387 85.862396240 85.803970337 5.2729387283  -999.250000 6.6108961105 6.6108961105
 3265.1367188 6.0000000000 8.9300003052 -0.001000000 0.2705699801 2.5950000286 121.39631653 85.743492126 85.991943359 5.2348303795  -999.250000 6.5457792282 6.5457792282
 3265.2890625 6.0000000000 8.9300003052 0.0000000000 0.2703500092 2.5969998837 119.93537140 86.376632690 86.372100830 5.1818704605  -999.250000 6.4768528938 6.4768528938
 3265.4414063 6.0000000000 8.9230003357 0.0000000000 0.2847599983 2.5950000286 118.92136383 87.183639526 86.984039307 5.1008782387  -999.250000 6.3848385811 6.3848385811
 3265.5937500 6.0000000000 8.8800001144 -0.003000000 0.3021299839 2.5520000458 118.52758026 87.293403625 87.335792542 5.0250163078  -999.250000 6.2837901115 6.2837901115
 3265.7463379 6.0000000000 8.9029998779 0.0010000000 0.3022800088 2.5559999943 118.26779175 86.467826843 86.645385742 5.0352463722  -999.250000 6.1525263786 6.1525263786
 3265.8986816 6.0000000000 8.9949998856 -0.002000000 0.2662700117 2.5840001106 119.44831085 84.688156128 84.509445190 5.1121039391  -999.250000 6.0048751831 6.0048751831
 3266.0510254 6.0000000000 8.9630002975 0.0030000000 0.2354700118 2.6860001087 118.37004089 81.541702271 81.466087341 5.1770319939  -999.250000 5.9272804260 5.9272804260
 3266.2033691 6.0000000000 8.9300003052 0.0030000000 0.2282900065 2.7269999981 102.14950562 78.202590942 78.275482178 5.1969008446  -999.250000 6.1030645370 6.1030645370
 3266.3559570 6.0000000000 8.9300003052 0.0010000000 0.2542699873 2.7119998932 74.378532410 76.514427185 76.437469482 5.1346387863  -999.250000 6.7671871185 6.7671871185
 3266.5083008 6.0000000000 8.9300003052 -0.003000000 0.2812699974 2.6860001087 58.025066376 75.909309387 75.972358704 5.0219469070  -999.250000 7.1358976364 7.1358976364
 3266.6606445 6.0000000000 8.9300003052 -0.003000000 0.2976499796 2.7000000477 52.453601837 75.432312012 75.532295227 4.9890832901  -999.250000 6.4474935532 6.4474935532
 3266.8129883 3.0000000000 8.9280004501 0.0010000000 0.2910400033 2.7070000172 49.708370209 74.645851135 74.636344910 5.0411186218  -999.250000 5.5083365440 5.5083365440
 3266.9653320 3.0000000000 8.9230003357 0.0030000000 0.2945999801 2.7019999027 46.820892334 74.018119812 74.103034973 5.1152048111  -999.250000 5.0953717232 5.0953717232
 3267.1179199 3.0000000000 8.9239997864 -0.001000000 0.2887600064 2.6730000973 44.882076263 74.246803284 74.403648376 5.2435250282  -999.250000 5.3292593956 5.3292593956
 3267.2702637 3.0000000000 8.9169998169 -0.004000000 0.3081399798 2.6730000973 44.284011841 74.810852051 74.637786865 5.4072246552  -999.250000 6.0336923599 6.0336923599
 3267.4226074 3.0000000000 8.8699998856 0.0030000000 0.3095400035 2.6870000362 44.916709900 74.478309631 74.709709167 5.5471858978  -999.250000 6.4648990631 6.4648990631
 3267.5749512 3.0000000000 8.8090000153 -0.001000000 0.3112599850 2.7100000381 46.611053467 74.104446411 74.151977539 5.6631875038  -999.250000 6.4020562172 6.4020562172
 3267.7275391 3.0000000000 8.7889995575 -0.006000000 0.3134399951 2.6970000267 51.691158295 73.438507080 73.423843384 5.7803711891  -999.250000 6.4377837181 6.4377837181
 3267.8798828 3.0000000000 8.7889995575 -0.008000000 0.3228200078 2.6649999619 71.399597168 73.031394958 73.070236206 5.8960785866  -999.250000 6.6829743385 6.6829743385
 3268.0322266 3.0000000000 8.7889995575 -0.011000000 0.3212799728 2.6270000935 92.972610474 73.395790100 73.354782104 5.9450883865  -999.250000 7.2901377678 7.2901377678
 3268.1845703 6.0000000000 8.7889995575 -0.023000000 0.3010900021 2.6349999905 103.33486176 74.285667419 74.102958679 6.0002646446  -999.250000 7.3744115829 7.3744115829
 3268.3371582 6.0000000000 8.7869997025 -0.004000000 0.2748100162 2.6900000572 113.22766113 74.826988220 74.876281738 6.1653294563  -999.250000 6.3828592300 6.3828592300
 3268.4895020 6.0000000000 8.7720003128 0.0070000002 0.2645100057 2.7109999657 117.16239166 75.303894043 75.593139648 6.2679104805  -999.250000 5.7160754204 5.7160754204
 3268.6418457 6.0000000000 8.7320003510 -0.002000000 0.2663100064 2.6719999313 110.53244019 75.368103027 75.280052185 6.2114758492  -999.250000 5.7637834549 5.7637834549
 3268.7941895 6.0000000000 8.6549997330 -0.005000000 0.2720199823 2.5799999237 95.214546204 74.232368469 74.278076172 5.8835210800  -999.250000 6.2539019585 6.2539019585
 3268.9465332 6.0000000000 8.5209999084 -0.005000000 0.3104299903 2.4700000286 84.967201233 73.128890991 73.346115112 4.9599022865  -999.250000 7.4402694702 7.4402694702
 3269.0991211 6.0000000000 8.3959999084 -0.008000000 0.3180499971 2.3880000114 89.491783142 73.706207275 73.652404785 3.6501457691  -999.250000 8.2266483307 8.2266483307
 3269.2514648 6.0000000000 8.3590002060 -0.008000000 0.3168700039 2.3680000305 100.63958740 76.397895813 76.331207275 2.7604358196  -999.250000 6.8673090935 6.8673090935
 3269.4038086 6.0000000000 8.3590002060 -0.001000000 0.2994199991 2.3910000324 101.61654663 80.927154541 80.824279785 2.4086873531  -999.250000 4.5655512810 4.5655512810
 3269.5561523 6.0000000000 8.3590002060 -0.001000000 0.2982999980 2.4249999523 95.088325500 85.810417175 85.769287109 2.2136442661  -999.250000 3.0383059978 3.0383059978
 3269.7087402 6.0000000000 8.3750000000 0.0000000000 0.3034199774 2.4470000267 84.680686951 87.887016296 87.756149292 1.9910911322  -999.250000 1.9812784195 1.9812784195
 3269.8610840 6.0000000000 8.4270000458 0.0020000001 0.2827099860 2.4849998951 79.904685974 86.577239990 86.837898254 1.7075688839  -999.250000 1.4450592995 1.4450592995
 3270.0134277 6.0000000000 8.4750003815 -0.001000000 0.2618100047 2.4830000401 75.963203430 85.101036072 85.240707397 1.4387564659  -999.250000 1.4823061228 1.4823061228
 3270.1657715 3.0000000000 8.4700002670 -0.005000000 0.2517299950 2.4849998951 72.358039856 83.257156372 83.293563843 1.2869470119  -999.250000 1.6730335951 1.6730335951
 3270.3183594 3.0000000000 8.4469995499 -0.004000000 0.2527199984 2.4749999046 77.383117676 82.174522400 82.141494751 1.2540287971  -999.250000 1.6938303709 1.6938303709
 3270.4707031 3.0000000000 8.4300003052 -0.011000000 0.2625699937 2.4409999847 81.770629883 81.633506775 81.677276611 1.2630529404  -999.250000 1.6409519911 1.6409519911
 3270.6230469 3.0000000000 8.4329996109 -0.015000000 0.2730500102 2.4000000954 75.926078796 81.982093811 81.710861206 1.2960689068  -999.250000 1.6112083197 1.6112083197
