# LAS format log file from PETREL
# Project units are specified as depth units
#==================================================================
~Version information
VERS.   2.0:
WRAP.   NO:
#==================================================================
~Well
STRT .m      581.07043457 :
STOP .m      2909.8947754 :
STEP .m     0.00000000 :
NULL .        -999.250000 :
COMP.           : COMPANY
WELL.  30/6-14   : WELL
FLD.            : FIELD
LOC.            : LOCATION
SRVC.           : SERVICE COMPANY
DATE.  2018-09-11 14:48:30   : Log Export Date {yyyy-MM-dd HH:mm:ss}
PROV.           : PROVINCE
UWI.   30/6-14   : UNIQUE WELL ID
API.            : API NUMBER
#==================================================================
~Curve
DEPT .m                   : DEPTH
Lithology_geolink ._      : Lithology_geolink
CALI .in                  : CALI
DRHO .g/cm3               : DRHO
NPHI .m3/m3               : NPHI
RHOB .g/cm3               : RHOB
GR .gAPI                  : GR
DTC .us/ft                : DTC
RDEP .ohm.m               : RDEP
SP .mV                    : SP
RSHA .ohm.m               : RSHA
RMED .ohm.m               : RMED
~Parameter
#==================================================================
~Ascii
# ...
 1513.7584229  -999.250000 16.952999115 0.0109999999  -999.250000 2.0629999638 120.11713409 132.98698425 1.0260176659 57.499851227  -999.250000 1.0241034031
 1513.9108887  -999.250000 17.187999725 0.0130000003  -999.250000 1.9659999609 132.11538696 143.24179077 1.0180064440 57.624900818  -999.250000 0.9640480280
 1514.0632324  -999.250000 17.266000748 0.0130000003  -999.250000 1.9809999466 127.75350189 141.50140381 1.0030120611 58.124599457  -999.250000 0.9919775724
 1514.2156982  -999.250000 17.187999725 -0.006000000  -999.250000 1.9809999466 127.56315613 142.24940491 0.9770208001 58.063049316  -999.250000 0.9580272436
 1514.3680420  -999.250000 17.358999252 -0.006000000  -999.250000 2.0060000420 122.44210815 136.25480652 0.9480232596 57.000850677  -999.250000 0.9999663234
 1514.5203857  -999.250000 17.327999115 -0.009000000  -999.250000 2.0179998875 118.63110352 134.75239563 0.9260352254 57.030948639  -999.250000 0.9930111766
 1514.6728516  -999.250000 17.733999252 0.0020000001  -999.250000 2.0529999733 111.81845856 134.25039673 0.9619711637 56.938076019  -999.250000 1.0339671373
 1514.8251953  -999.250000 17.672000885 0.0070000002  -999.250000 2.0639998913 109.50370026 134.25000000 0.9709855914 57.562000275  -999.250000 1.0619552135
 1514.9776611  -999.250000 17.531000137 0.0109999999  -999.250000 2.0659999847 119.49198914 136.74800110 0.9230384231 56.189102173  -999.250000 1.0689944029
 1515.1300049  -999.250000 17.687999725 0.0049999999  -999.250000 2.0569999218 127.61199188 137.24920654 0.9140143991 55.875499725  -999.250000 1.0200784206
 1515.2824707  -999.250000 17.937999725 0.0060000001  -999.250000 2.0529999733 124.62740326 135.25160217 0.8720336556 56.562446594  -999.250000 0.9770344496
 1515.4348145  -999.250000 18.141000748 -0.003000000  -999.250000 2.0390000343 119.12940979 134.75039673 0.8550136685 56.375148773  -999.250000 0.9290384650
 1515.5872803  -999.250000 17.891000748 -0.004000000  -999.250000 2.0079998970 112.00570679 133.75079346 0.8430095911 56.188148499  -999.250000 0.9050191641
 1515.7396240  -999.250000 18.172000885 0.0080000004  -999.250000 1.9980000257 112.93724823 134.24960327 0.8410016298 54.314502716  -999.250000 0.9239848256
 1515.8920898  -999.250000 18.218999863 0.0149999997  -999.250000 1.9980000257 112.50035095 136.74800110 0.8240135908 54.125148773  -999.250000 0.9150072336
 1516.0444336  -999.250000 18.156000137 0.0209999997  -999.250000 2.0250000954 111.00120544 139.49780273 0.8479807377 54.155971527  -999.250000 0.9659591317
 1516.1968994  -999.250000 17.672000885 -0.001000000  -999.250000 2.0199999809 113.43605042 136.00280762 0.8649864197 54.780498505  -999.250000 0.9769911766
 1516.3492432  -999.250000 17.781000137 -0.007000000  -999.250000 2.0039999485 111.50155640 138.99758911 0.8280296326 54.281398773  -999.250000 0.9769999981
 1516.5017090  -999.250000 17.593999863 0.0000000000  -999.250000 1.9980000257 109.50160217 134.00399780 0.9309175014 54.468852997  -999.250000 0.9570160508
 1516.6540527  -999.250000 17.672000885 0.0030000000  -999.250000 2.0020000935 100.44526672 114.76542664 0.9839575887 55.655048370  -999.250000 0.9849776030
 1516.8063965  -999.250000 17.733999252 0.0140000004  -999.250000 2.1129999161 90.828414917 108.75960541 0.9750144482 56.093299866  -999.250000 1.2006541491
 1516.9588623  -999.250000 17.562999725 0.0140000004  -999.250000 2.2439999580 97.994239807 105.25280762 0.9999799728 55.844203949  -999.250000 1.4418069124
 1517.1112061  -999.250000 17.391000748 0.0309999995  -999.250000 2.2929999828 98.374397278 113.48678589 0.9770368338 55.032299042  -999.250000 1.5588126183
 1517.2636719  -999.250000 17.608999252 0.0070000002  -999.250000 2.1449999809 102.74649811 126.23978424 0.9560167789 55.530597687  -999.250000 1.1892964840
 1517.4160156  -999.250000 17.547000885 0.0010000000  -999.250000 2.0390000343 102.50039673 141.72517395 0.9410240054 55.718700409  -999.250000 0.9394003153
 1517.5684814  -999.250000 17.608999252 0.0010000000  -999.250000 2.0209999084 108.93284607 138.25280762 0.9429984093 55.406250000  -999.250000 0.8800472617
 1517.7208252  -999.250000 17.562999725 0.0030000000  -999.250000 2.0209999084 109.93720245 137.00100708 0.8710576892 55.031299591  -999.250000 0.8760032058
 1517.8732910  -999.250000 17.468999863 0.0209999997  -999.250000 2.0409998894 110.43760681 138.49879456 0.8200408220 55.405696869  -999.250000 0.8849927783
 1518.0256348  -999.250000 17.672000885 0.0070000002  -999.250000 2.0079998970 106.06650543 138.50000000 0.8070104122 55.968551636  -999.250000 0.8630176187
 1518.1781006  -999.250000 17.281000137 0.0099999998  -999.250000 2.0099999905 111.49564362 138.50000000 0.7980071902 56.218803406  -999.250000 0.8929759860
 1518.3304443  -999.250000 17.233999252 0.0089999996  -999.250000 2.0020000935 108.69025421 139.49919128 0.7860096097 55.281749725  -999.250000 0.9049903750
 1518.4829102  -999.250000 17.593999863 0.0109999999  -999.250000 2.0099999905 111.12304688 137.75140381 0.7690135837 55.405899048  -999.250000 0.9269823432
 1518.6352539  -999.250000 17.577999115 0.0089999996  -999.250000 2.0120000839 107.69075775 138.24960327 0.7410224080 56.280296326  -999.250000 0.9130111933
 1518.7875977  -999.250000 17.718999863 0.0060000001  -999.250000 2.0099999905 115.42559052 140.49639893 0.7350096107 55.282600403  -999.250000 0.9000207782
 1518.9400635  -999.250000 17.750000000 0.0109999999  -999.250000 2.0269999504 115.43800354 137.75219727 0.7389968038 54.531600952  -999.250000 0.8960032463
 1519.0924072  -999.250000 17.437999725 0.0099999998  -999.250000 2.0309998989 120.43000031 140.24600220 0.7669551969 53.314949036  -999.250000 0.8630528450
 1519.2448730  -999.250000 17.483999252 0.0120000001  -999.250000 2.0350000858 111.19541168 132.25640869 0.8129631877 53.499851227  -999.250000 0.8440151811
 1519.3972168  -999.250000 17.625000000 0.0179999992  -999.250000 2.0959999561 110.56400299 108.78762817 0.8808910847 54.062099457  -999.250000 0.8300223947
 1519.5496826  -999.250000 18.047000885 0.0099999998  -999.250000 2.2560000420 104.81761169 101.75559998 0.8909919858 53.563400269  -999.250000 0.9369142652
 1519.7020264  -999.250000 18.047000885 -0.011000000  -999.250000 2.5099999905 98.193313599 94.505805969 0.8880023956 53.999649048  -999.250000 1.2147772312
 1519.8544922  -999.250000 18.297000885 -0.009000000  -999.250000 2.5739998817 99.062301636 101.99399567 0.8750104308 54.749401093  -999.250000 1.4428174496
 1520.0068359  -999.250000 17.891000748 -0.016000001  -999.250000 2.2850000858 108.99203491 115.23937988 0.8680055737 56.404670715  -999.250000 1.1991955042
 1520.1593018  -999.250000 17.766000748 0.0160000008  -999.250000 2.1329998970 120.55374908 127.98978424 0.8969767690 55.938373566  -999.250000 0.9871697426
 1520.3116455  -999.250000 17.906000137 0.0070000002  -999.250000 2.0369999409 117.44050598 136.74299622 0.9139863253 55.594276428  -999.250000 0.8670961261
 1520.4641113  -999.250000 18.218999863 0.0089999996  -999.250000 2.0369999409 111.50475311 136.99980164 0.8520496488 54.875576019  -999.250000 0.8650016189
 1520.6164551  -999.250000 18.031000137 0.0000000000  -999.250000 2.0250000954 109.68945313 136.75019836 0.8120320439 55.624397278  -999.250000 0.8640007973
 1520.7687988  -999.250000 17.766000748 0.0040000002  -999.250000 2.0060000420 116.61389160 139.74519348 0.7720640898 55.687900543  -999.250000 0.8460288644
 1520.9212646  -999.250000 17.983999252 0.0109999999  -999.250000 1.9950000048 112.37840271 139.75000000 0.7430232167 54.844676971  -999.250000 0.8430023789
 1521.0736084  -999.250000 17.672000885 0.0130000003  -999.250000 1.9880000353 114.93389893 141.24760437 0.7350128293 54.719200134  -999.250000 0.8400048018
 1521.2260742  -999.250000 17.641000748 0.0109999999  -999.250000 2.0060000420 111.75255585 141.00019836 0.7519863248 55.155647278  -999.250000 0.8539887667
 1521.3784180  -999.250000 17.156000137 0.0070000002  -999.250000 2.0099999905 112.68650055 141.24960327 0.7220480442 56.123447418  -999.250000 0.8520032167
