# LAS format log file from PETREL
# Project units are specified as depth units
#==================================================================
~Version information
VERS.   2.0:
WRAP.   NO:
#==================================================================
~Well
STRT .m      581.07043457 :
STOP .m      2909.8947754 :
STEP .m     0.00000000 :
NULL .        -999.250000 :
COMP.           : COMPANY
WELL.  30/6-14   : WELL
FLD.            : FIELD
LOC.            : LOCATION
SRVC.           : SERVICE COMPANY
DATE.  2018-09-11 14:48:30   : Log Export Date {yyyy-MM-dd HH:mm:ss}
PROV.           : PROVINCE
UWI.   30/6-14   : UNIQUE WELL ID
API.            : API NUMBER
#==================================================================
~Curve
DEPT .m                   : DEPTH
Lithology_geolink ._      : Lithology_geolink
CALI .in                  : CALI
DRHO .g/cm3               : DRHO
NPHI .m3/m3               : NPHI
RHOB .g/cm3               : RHOB
GR .gAPI                  : GR
DTC .us/ft                : DTC
RDEP .ohm.m               : RDEP
SP .mV                    : SP
RSHA .ohm.m               : RSHA
RMED .ohm.m               : RMED
~Parameter
#==================================================================
~Ascii
# ...
 1972.3300781 5.0000000000 15.461000443 0.0080000004 0.3183600008 2.0720000267 73.935447693 128.49679565 0.7530488968 47.212215424  -999.250000 0.8830689192
 1972.4824219 5.0000000000 16.172000885 0.0219999999 0.3388700187 2.0920000076 76.620697021 131.24559021 0.7130640745 46.931449890  -999.250000 0.7961392999
 1972.6348877 5.0000000000 15.164000511 0.0390000008 0.3925800025 2.1349999905 75.189155579 132.74879456 0.7459735274 47.227764130  -999.250000 0.8289735317
 1972.7872314 5.0000000000 14.616999626 0.0640000030 0.4091799855 2.1819999218 77.434402466 126.01081085 0.7050656080 47.212028503  -999.250000 0.8299983740
 1972.9396973 5.0000000000 14.586000443 0.0850000009 0.3691400290 2.1879999638 76.064102173 127.49879456 0.6630336642 46.509563446  -999.250000 0.9059391022
 1973.0920410 6.0000000000 14.562999725 0.0680000037 0.3491199911 2.1329998970 81.120941162 129.74819946 0.6809855700 46.524990082  -999.250000 0.8890136480
 1973.2445068 6.0000000000 15.336000443 0.0460000001 0.3666999936 2.1389999390 81.312850952 130.74920654 0.7339575887 46.298183441  -999.250000 0.7900792956
 1973.3968506 6.0000000000 15.093999863 0.0030000000 0.4145500064 2.1389999390 81.999450684 128.50180054 0.7250072360 46.993442535  -999.250000 0.7100640535
 1973.5493164 6.0000000000 15.180000305 -0.002000000 0.4199199975 2.1819999218 81.938056946 124.25339508 0.7010191679 47.008987427  -999.250000 0.7159951925
 1973.7016602 6.0000000000 14.805000305 -0.005000000 0.3940399885 2.1480000019 78.191009521 120.75280762 0.7829343081 47.493610382  -999.250000 0.8728742003
 1973.8541260 6.0000000000 16.702999115 0.0049999999 0.3569300175 2.1040000916 82.059898376 120.75000000 0.8489471078 49.226612091  -999.250000 0.9109696150
 1974.0064697 6.0000000000 16.125000000 0.0399999991 0.3613300025 2.1250000000 77.503654480 122.74839783 0.8939639330 49.212013245  -999.250000 0.9619591236
 1974.1588135 6.0000000000 14.296999931 0.0280000009 0.3950199783 2.0880000591 79.247200012 114.76280975 1.0237919092 49.960800171  -999.250000 0.9839648008
 1974.3112793 6.0000000000 14.304999352 0.0780000016 0.4174800217 2.2130000591 74.192062378 103.25921631 1.2088516951 48.479190826  -999.250000 1.0629366636
 1974.4636230 16.000000000 14.491999626 0.0370000005 0.3735400140 2.2809998989 74.249900818 86.526824951 1.0682257414 48.244373322  -999.250000 1.2057709694
 1974.6160889 16.000000000 14.522999763 0.0659999996 0.2793000042 2.5120000839 73.375701904 82.753005981 0.9361057878 48.758586884  -999.250000 1.7425696850
 1974.7684326 5.0000000000 13.718998909 0.0199999996 0.1918899864 2.3629999161 71.627799988 94.481185913 0.9689471126 48.993621826  -999.250000 1.7360111475
 1974.9208984 5.0000000000 14.593999863 0.0529999994 0.2529299855 2.2560000420 76.309249878 106.98998260 0.9010545015 49.008987427  -999.250000 1.0745304823
 1975.0732422 5.0000000000 16.906000137 0.0359999985 0.3437500000 2.1459999084 75.438705444 133.22897339 0.9429663420 49.321746826  -999.250000 0.8801554441
 1975.2257080 5.0000000000 17.016000748 0.0049999999 0.4003900290 2.0980000496 79.122047424 133.74960327 1.1848062277 50.601974487  -999.250000 0.8250440359
 1975.3780518 5.0000000000 14.515999794 -0.014000000 0.3730500042 2.0610001087 74.878402710 126.00621033 1.0630977154 50.587013245  -999.250000 0.9788765907
 1975.5305176 5.0000000000 15.194998741 -0.013000000 0.3696300089 2.0680000782 75.749298096 123.50199890 0.9121208787 50.087402344  -999.250000 0.9789999723
 1975.6828613 5.0000000000 14.555000305 -0.007000000 0.3671900034 2.1370000839 72.502601624 122.75060272 0.8970120549 50.087001801  -999.250000 1.1378725767
 1975.8353271 5.0000000000 14.789000511 -0.006000000 0.3544900119 2.1989998817 67.317153931 121.25119781 0.8590304255 50.868373871  -999.250000 1.1469928026
 1975.9876709 5.0000000000 14.991999626 -0.004000000 0.3061499894 2.1860001087 67.687705994 123.99779510 0.7251073718 50.853012085  -999.250000 1.1809726954
 1976.1400146 5.0000000000 14.913999557 0.0170000009 0.3193399906 2.1540000439 69.435203552 130.73919678 0.7499599457 49.854602814  -999.250000 1.0512081385
 1976.2924805 6.0000000000 15.055000305 0.0489999987 0.3418000042 2.1410000324 78.056091309 135.99578857 0.8379294872 49.853000641  -999.250000 0.8981226087
 1976.4448242 6.0000000000 15.687999725 0.0630000010 0.3896499872 2.1619999409 87.922187805 135.75039673 0.9148766994 49.853000641  -999.250000 0.7622178197
 1976.5972900 6.0000000000 16.233999252 0.0280000009 0.4091799855 2.1579999924 86.064506531 128.50581360 0.9699559808 50.852199554  -999.250000 0.7550055981
 1976.7496338 6.0000000000 16.047000885 0.0049999999 0.4252899885 2.1970000267 90.555801392 123.50800323 0.9011105299 49.089828491  -999.250000 0.7809584141
 1976.9020996 6.0000000000 15.125000000 -0.004000000 0.4003900290 2.2339999676 79.009262085 118.75380707 0.8200649023 49.336799622  -999.250000 0.9418709874
 1977.0544434 5.0000000000 14.913999557 -0.008000000 0.3681600094 2.2679998875 77.376304626 118.25040436 0.8160032034 50.086399078  -999.250000 1.0988742113
 1977.2069092 5.0000000000 14.944999695 -0.012000000 0.3364300132 2.2579998970 69.381408691 122.74639893 0.7850248218 48.323410034  -999.250000 1.1999192238
 1977.3592529 5.0000000000 16.202999115 -0.005000000 0.3134799898 2.2439999580 67.064857483 121.00140381 0.8319623470 47.603576660  -999.250000 1.1550359726
 1977.5117188 5.0000000000 15.405999184 -0.004000000 0.2958999872 2.1370000839 70.809997559 127.49479675 0.9559006691 46.323024750  -999.250000 1.0600759983
 1977.6640625 5.0000000000 14.883000374 0.0089999996 0.3247100115 2.0569999218 71.624351501 127.00040436 1.0039614439 45.814407349  -999.250000 0.9770665169
 1977.8165283 5.0000000000 16.266000748 0.0390000008 0.3481400013 2.0450000763 79.306846619 122.25379944 1.0189880133 45.298412323  -999.250000 0.9200456738
 1977.9688721 5.0000000000 15.680000305 0.0579999983 0.3969699740 2.0980000496 79.749649048 107.26201630 1.0949391127 46.040405273  -999.250000 1.0109270811
 1978.1213379 5.0000000000 15.539000511 0.0680000037 0.3945299983 2.2209999561 76.315757751 88.515014648 0.9621065259 45.564380646  -999.250000 1.1059238911
 1978.2736816 5.0000000000 14.828000069 0.0160000008 0.3745099902 2.2730000019 66.382965088 82.754608154 0.7851418257 45.836784363  -999.250000 1.1229864359
 1978.4260254 16.000000000 16.187999725 0.0089999996 0.3418000042 2.3550000191 62.131805420 92.983581543 0.7620368600 46.336200714  -999.250000 1.0331441164
 1978.5784912 16.000000000 16.016000748 0.0000000000 0.3217800260 2.2790000439 65.122596741 104.49078369 0.7590023875 46.080207825  -999.250000 0.9420728683
 1978.7308350 5.0000000000 14.555000305 0.0270000007 0.3310723007 2.2190001011 73.299888611 124.46797180 0.7540079951 46.820812225  -999.250000 0.8890848756
 1978.8833008 5.0000000000 14.586000443 0.0329999998 0.3589224517 2.1410000324 77.496643066 136.49038696 0.8419294953 46.314407349  -999.250000 0.8400392532
 1979.0356445 5.0000000000 15.218999863 0.0329999998 0.3994408846 2.1410000324 79.060501099 133.25520325 0.9278622866 46.336963654  -999.250000 0.8030592203
 1979.1881104 5.0000000000 15.875000000 0.0070000002 0.4379735887 2.1640000343 82.622146606 130.00260925 0.8590553403 46.080207825  -999.250000 0.7840151787
 1979.3404541 5.0000000000 15.266000748 -0.006000000 0.4174373746 2.2339999676 81.314056396 120.50760651 0.8110384345 45.072807312  -999.250000 0.8249671459
 1979.4929199 5.0000000000 14.562999725 -0.009000000 0.3641856909 2.2929999828 78.002655029 118.00199127 0.7710320354 44.814205170  -999.250000 0.9978615046
 1979.6452637 5.0000000000 14.000000000 -0.013000000 0.3178747296 2.3029999733 72.817161560 118.99919891 0.7570112348 45.305606842  -999.250000 1.1708613634
 1979.7977295 5.0000000000 14.000000000 -0.015000000 0.3237284422 2.3090000153 72.874946594 120.74859619 0.8529230952 45.048206329  -999.250000 1.2069711685
 1979.9500732 5.0000000000 14.000000000 -0.021000000 0.3227578402 2.3050000668 73.312652588 121.49939728 0.9439271092 43.822982788  -999.250000 1.1940103769
