# LAS format log file from PETREL
# Project units are specified as depth units
#==================================================================
~Version information
VERS.   2.0:
WRAP.   NO:
#==================================================================
~Well
STRT .m      581.07043457 :
STOP .m      2909.8947754 :
STEP .m     0.00000000 :
NULL .        -999.250000 :
COMP.           : COMPANY
WELL.  30/6-14   : WELL
FLD.            : FIELD
LOC.            : LOCATION
SRVC.           : SERVICE COMPANY
DATE.  2018-09-11 14:48:30   : Log Export Date {yyyy-MM-dd HH:mm:ss}
PROV.           : PROVINCE
UWI.   30/6-14   : UNIQUE WELL ID
API.            : API NUMBER
#==================================================================
~Curve
DEPT .m                   : DEPTH
Lithology_geolink ._      : Lithology_geolink
CALI .in                  : CALI
DRHO .g/cm3               : DRHO
NPHI .m3/m3               : NPHI
RHOB .g/cm3               : RHOB
GR .gAPI                  : GR
DTC .us/ft                : DTC
RDEP .ohm.m               : RDEP
SP .mV                    : SP
RSHA .ohm.m               : RSHA
RMED .ohm.m               : RMED
~Parameter
#==================================================================
~Ascii
# ...
 736.51843262  -999.250000 17.531000137 -0.021000000  -999.250000 2.0350000858 67.992240906 158.25250244 1.0049940348 65.375434875  -999.250000 0.6490120292
 736.67083740  -999.250000 17.531000137 -0.020000000  -999.250000 2.0350000858 66.191635132 158.00050354 1.0030040741 65.624496460  -999.250000 0.6499979496
 736.82324219  -999.250000 17.547000885 -0.017999999  -999.250000 2.0329999924 66.249877930 158.49897766 0.9890280366 65.780685425  -999.250000 0.6529939771
 736.97564697  -999.250000 17.516000748 -0.014000000  -999.250000 2.0409998894 63.630256653 158.25050354 0.9890000224 65.344879150  -999.250000 0.6559939981
 737.12805176  -999.250000 17.516000748 -0.017999999  -999.250000 2.0309998989 65.933372498 158.00050354 0.9850080013 65.655372620  -999.250000 0.6589939594
 737.28045654  -999.250000 17.468999863 -0.025000000  -999.250000 2.0209999084 67.310249329 158.74851990 0.9820060134 65.344627380  -999.250000 0.6659860015
 737.43286133  -999.250000 17.483999252 -0.029999999  -999.250000 2.0099999905 71.242118835 158.25100708 0.9730179906 66.123435974  -999.250000 0.6709899902
 737.58526611  -999.250000 17.468999863 -0.027000001  -999.250000 2.0120000839 70.813880920 157.75100708 0.9470520616 65.002250671  -999.250000 0.6710000038
 737.73767090  -999.250000 17.531000137 -0.020000000  -999.250000 2.0209999084 67.819007874 157.00149536 0.9170600772 64.531936646  -999.250000 0.6719979644
 737.89007568  -999.250000 17.625000000 -0.018999999  -999.250000 2.0250000954 66.253128052 157.00000000 0.9030280113 64.968124390  -999.250000 0.6630179882
 738.04248047  -999.250000 17.547000885 -0.023000000  -999.250000 2.0269999504 69.494789124 157.49919128 0.9329519272 65.873550415  -999.250000 0.6340464950
 738.19488525  -999.250000 17.516000748 -0.025000000  -999.250000 2.0269999504 73.119194031 158.49838257 1.0188622475 64.782752991  -999.250000 0.5930656791
 738.34722900  -999.250000 17.547000885 -0.023000000  -999.250000 2.0290000439 73.374496460 158.00100708 1.1088197231 64.189193726  -999.250000 0.5820220709
 738.49963379  -999.250000 17.577999115 -0.020000000  -999.250000 2.0269999504 73.624496460 153.50900269 1.1878417730 62.628128052  -999.250000 0.6328979135
 738.65203857  -999.250000 17.656000137 -0.021000000  -999.250000 2.0329999924 77.117988586 149.00901794 1.2518718243 62.843563080  -999.250000 0.7667316794
 738.80444336  -999.250000 17.687999725 -0.013000000  -999.250000 2.0639998913 76.314628601 144.75851440 1.3278477192 63.062564850  -999.250000 0.9256815910
 738.95684814  -999.250000 17.827999115 -0.012000000  -999.250000 2.0859999657 76.437751770 143.25300598 1.4467617273 63.155815125  -999.250000 1.0158197880
 739.10925293  -999.250000 17.891000748 -0.007000000  -999.250000 2.0980000496 79.930992126 145.49549866 1.5697537661 63.094131470  -999.250000 1.0140041113
 739.26165771  -999.250000 17.891000748 -0.008000000  -999.250000 2.0959999561 85.613609314 149.24249268 1.5959478617 63.873432159  -999.250000 0.9760761261
 739.41406250  -999.250000 17.843999863 -0.008000000  -999.250000 2.0899999142 86.062126160 151.49549866 1.4942041636 65.465812683  -999.250000 0.9201121330
 739.56646729  -999.250000 17.702999115 -0.007000000  -999.250000 2.0820000172 74.960281372 154.74349976 1.3542803526 66.092750549  -999.250000 0.8281842470
 739.71887207  -999.250000 17.750000000 -0.013000000  -999.250000 2.0569999218 70.134635925 156.49649048 1.2342402935 66.094001770  -999.250000 0.7291982174
 739.87127686  -999.250000 17.625000000 -0.009000000  -999.250000 2.0390000343 71.497245789 156.50000000 1.1342002153 65.314567566  -999.250000 0.6651281714
 740.02368164  -999.250000 17.516000748 -0.011000000  -999.250000 2.0230000019 75.741493225 154.75350952 1.0541602373 65.562500000  -999.250000 0.6390520334
 740.17608643  -999.250000 17.531000137 -0.007000000  -999.250000 2.0230000019 77.435295105 155.24919128 1.0030817986 65.843551636  -999.250000 0.6389999986
 740.32843018  -999.250000 17.516000748 -0.012000000  -999.250000 2.0230000019 73.757385254 154.50149536 0.9620820880 66.093498230  -999.250000 0.6459860206
 740.48083496  -999.250000 17.500000000 -0.017000001  -999.250000 2.0209999084 75.122245789 153.75151062 0.9430380464 65.376441956  -999.250000 0.6499919891
 740.63323975  -999.250000 17.468999863 -0.024000000  -999.250000 2.0199999809 75.187873840 153.00149536 0.9499859810 65.749252319  -999.250000 0.6539919972
 740.78564453  -999.250000 17.468999863 -0.025000000  -999.250000 2.0230000019 72.006385803 152.75050354 0.9659679532 65.750000000  -999.250000 0.6639799476
 740.93804932  -999.250000 17.468999863 -0.023000000  -999.250000 2.0269999504 71.875251770 152.50050354 0.9899519682 67.028434753  -999.250000 0.6749779582
 741.09045410  -999.250000 17.452999115 -0.023000000  -999.250000 2.0269999504 69.255256653 152.50000000 1.0079640150 65.752563477  -999.250000 0.6829839945
 741.24285889  -999.250000 17.452999115 -0.025000000  -999.250000 2.0250000954 71.620246887 152.74949646 1.0209740400 65.406684875  -999.250000 0.6879900098
 741.39526367  -999.250000 17.468999863 -0.023000000  -999.250000 2.0269999504 71.313629150 152.99949646 1.0329759121 65.718376160  -999.250000 0.6899960041
 741.54766846  -999.250000 17.516000748 -0.021000000  -999.250000 2.0329999924 72.248123169 153.49897766 1.0270119905 65.999435425  -999.250000 0.6870059967
 741.70007324  -999.250000 17.547000885 -0.020000000  -999.250000 2.0350000858 76.803863525 154.49800110 1.0279979706 65.345314026  -999.250000 0.6770200133
 741.85247803  -999.250000 17.500000000 -0.022000000  -999.250000 2.0290000439 76.251129150 154.25050354 1.0180200338 64.501693726  -999.250000 0.6620300412
 742.00488281  -999.250000 17.452999115 -0.023000000  -999.250000 2.0209999084 74.503501892 154.99850464 1.0180000067 63.532939911  -999.250000 0.6430380344
 742.15728760  -999.250000 17.468999863 -0.021000000  -999.250000 2.0199999809 73.190109253 155.49919128 1.0110112429 63.469100952  -999.250000 0.6320176721
 742.30969238  -999.250000 17.437999725 -0.017000001  -999.250000 2.0250000954 72.251502991 155.50000000 1.0040111542 64.311653137  -999.250000 0.6280064583
 742.46203613  -999.250000 17.468999863 -0.021000000  -999.250000 2.0160000324 77.178115845 155.99897766 0.9860360622 64.219192505  -999.250000 0.6289979815
 742.61444092  -999.250000 17.516000748 -0.016000001  -999.250000 2.0199999809 75.441505432 156.24951172 0.9720280170 64.655120850  -999.250000 0.6339899898
 742.76684570  -999.250000 17.516000748 -0.012000000  -999.250000 2.0199999809 70.010887146 156.00048828 0.9600239992 64.780746460  -999.250000 0.6379920244
 742.91925049  -999.250000 17.516000748 -0.009000000  -999.250000 2.0199999809 64.635765076 154.25350952 0.9570060372 66.153244019  -999.250000 0.6389979720
 743.07165527  -999.250000 17.516000748 -0.008000000  -999.250000 2.0160000324 61.444381714 154.00050354 0.9609920382 65.875564575  -999.250000 0.6389999986
 743.22406006  -999.250000 17.468999863 -0.015000000  -999.250000 2.0079998970 65.055747986 153.50099182 0.9629960060 65.688377380  -999.250000 0.6389999986
 743.37646484  -999.250000 17.468999863 -0.014000000  -999.250000 2.0139999390 69.429244995 153.00100708 0.9600059986 64.782814026  -999.250000 0.6389999986
 743.52886963  -999.250000 17.516000748 -0.021000000  -999.250000 2.0179998875 69.063751221 152.25149536 0.9629939795 65.404747009  -999.250000 0.6429920197
 743.68127441  -999.250000 17.500000000 -0.025000000  -999.250000 2.0230000019 69.437255859 152.25000000 0.9610040188 65.593627930  -999.250000 0.6469920278
 743.83367920  -999.250000 17.468999863 -0.022000000  -999.250000 2.0329999924 67.317260742 152.49949646 0.9629960060 65.749687195  -999.250000 0.6499939561
 743.98608398  -999.250000 17.468999863 -0.024000000  -999.250000 2.0309998989 70.431747437 152.25050354 0.9669920206 65.157188416  -999.250000 0.6509979963
 744.13848877  -999.250000 17.483999252 -0.021000000  -999.250000 2.0329999924 74.242370605 152.49949646 0.9739859700 65.811691284  -999.250000 0.6510000229
