# LAS format log file from PETREL
# Project units are specified as depth units
#==================================================================
~Version information
VERS.   2.0:
WRAP.   NO:
#==================================================================
~Well
STRT .m      176.60998535 :
STOP .m      3556.0803223 :
STEP .m     0.00000000 :
NULL .        -999.250000 :
COMP.           : COMPANY
WELL.  30/6-5   : WELL
FLD.            : FIELD
LOC.            : LOCATION
SRVC.           : SERVICE COMPANY
DATE.  2018-09-11 14:48:31   : Log Export Date {yyyy-MM-dd HH:mm:ss}
PROV.           : PROVINCE
UWI.   30/6-5   : UNIQUE WELL ID
API.            : API NUMBER
#==================================================================
~Curve
DEPT .m                   : DEPTH
Lithology_geolink ._      : Lithology_geolink
CALI .in                  : CALI
DRHO .g/cm3               : DRHO
NPHI .m3/m3               : NPHI
RHOB .g/cm3               : RHOB
PEF .b/e                  : PEF
GR .gAPI                  : GR
DTC .us/ft                : DTC
DTE .us/ft                : DTE
RDEP .ohm.m               : RDEP
SP .mV                    : SP
RSHA .ohm.m               : RSHA
RMED .ohm.m               : RMED
~Parameter
#==================================================================
~Ascii
# ...
 1752.4261475  -999.250000 19.016000748 -0.011000000 0.5339234471 2.0043113232  -999.250000 36.781974792 148.43559265 149.44181824 0.5109951496 61.640987396 0.7680000067 0.6129999757
 1752.5784912  -999.250000 19.406000137 -0.015000000 0.5603088140 1.9997315407  -999.250000 37.186546326 148.20576477 149.27520752 0.5090032220 55.419620514 0.7739999890 0.6150000095
 1752.7309570  -999.250000 19.077999115 -0.013000000 0.5844638944 1.9992368221  -999.250000 36.295562744 149.07809448 150.10327148 0.5110023618 63.860961914 0.6750000119 0.6179999709
 1752.8833008  -999.250000 18.968999863 -0.009000000 0.5694002509 2.0006172657  -999.250000 42.341846466 149.22079468 150.20852661 0.5120000243 45.181240082 0.6880000234 0.6090000272
 1753.0356445  -999.250000 18.391000748 -0.005000000 0.5259467959 2.0017580986  -999.250000 41.002250671 149.49688721 150.56871033 0.5120064020 60.898792267 0.8259999752 0.6039999723
 1753.1881104  -999.250000 18.875000000 -0.005000000 0.5115324855 2.0024271011  -999.250000 42.401943207 148.97334290 150.07040405 0.5159951448 56.405197144 0.7329999804 0.6050000191
 1753.3404541  -999.250000 18.406000137 -0.006000000 0.5442767143 2.0036683083  -999.250000 39.874298096 147.99626160 149.10086060 0.5130096078 55.881156921 0.7829999924 0.6140000224
 1753.4929199  -999.250000 18.641000748 -0.006000000 0.5671068430 2.0046520233  -999.250000 39.441001892 146.71160889 147.65820313 0.5190095901 40.454036713 0.6549999714 0.6079999804
 1753.6452637  -999.250000 18.391000748 -0.005000000 0.5533347130 2.0088083744  -999.250000 40.688701630 144.63415527 145.72406006 0.5229983926 60.403995514 0.7900000215 0.5960000157
 1753.7977295  -999.250000 18.327999115 -0.002000000 0.5438416600 2.0176203251  -999.250000 41.126201630 143.27651978 144.25941467 0.5219832063 59.140987396 0.7189999819 0.5979999900
 1753.9500732  -999.250000 18.547000885 -0.002000000 0.5570175052 2.0203475952  -999.250000 41.615886688 142.49945068 143.42486572 0.5149951577 52.919219971 0.7620000243 0.6129999757
 1754.1025391  -999.250000 18.391000748 -0.007000000 0.5741367936 2.0074810982  -999.250000 35.933570862 141.53044128 142.60586548 0.5119928122 61.148193359 0.7009999752 0.6110000014
 1754.2548828  -999.250000 18.358999252 -0.013000000 0.5811238289 1.9851636887  -999.250000 34.095855713 143.61341858 144.53977966 0.5089904070 57.903194427 0.7030000091 0.5960000157
 1754.4073486  -999.250000 18.516000748 -0.015000000 0.5772433877 1.9670660496  -999.250000 35.257205963 145.18957520 146.28164673 0.5029928088 56.165004730 0.7319999933 0.5789999962
 1754.5596924  -999.250000 19.172000885 -0.012000000 0.5578235984 1.9556622505  -999.250000 38.252956390 146.92898560 147.87828064 0.4999919832 59.893978119 0.7049999833 0.5860000253
 1754.7121582  -999.250000 18.343999863 -0.009000000 0.5163344145 1.9466481209  -999.250000 40.094375610 148.20640564 149.26545715 0.4949927926 52.390384674 0.7229999900 0.5879999995
 1754.8645020  -999.250000 18.577999115 -0.007000000 0.4724492133 1.9444159269  -999.250000 40.243789673 149.10150146 150.17932129 0.4920064211 45.919219971 0.7229999900 0.5820000172
 1755.0169678  -999.250000 18.343999863 -0.009000000 0.4595527053 1.9563220739  -999.250000 36.367492676 149.28405762 150.24151611 0.4960047901 54.164405823 0.7089999914 0.5749999881
 1755.1693115  -999.250000 18.687999725 -0.012000000 0.4856460392 1.9829210043  -999.250000 33.244342804 148.08650208 149.20564270 0.4980064034 57.654396057 0.7429999709 0.5830000043
 1755.3216553  -999.250000 18.343999863 -0.010000000 0.5205929875 2.0155293941  -999.250000 29.728313446 148.88963318 149.96664429 0.5020048022 56.635166168 0.7519999743 0.5970000029
 1755.4741211  -999.250000 18.358999252 -0.003000000 0.5349059701 2.0316426754  -999.250000 35.536552429 148.30482483 149.33280945 0.5050144196 43.695030212 0.7059999704 0.6259999871
 1755.6264648  -999.250000 18.516000748 0.0000000000 0.5332213044 2.0099675655  -999.250000 37.848258972 147.95565796 148.93638611 0.5110079646 59.901992798 0.7680000067 0.6250000000
 1755.7789307  -999.250000 18.608999252 -0.005000000 0.5340625644 1.9650793076  -999.250000 40.495197296 148.60406494 149.62570190 0.5160119534 57.367568970 0.7269999981 0.6240000129
 1755.9312744  -999.250000 18.968999863 -0.009000000 0.5476041436 1.9379715919  -999.250000 38.499797821 147.76373291 148.84416199 0.5210000277 41.446464539 0.7509999871 0.6140000224
 1756.0837402  -999.250000 18.187999725 -0.006000000 0.5626273155 1.9480130672  -999.250000 38.366367340 149.05221558 150.06097412 0.5209904313 66.635581970 0.6610000134 0.6079999804
 1756.2360840  -999.250000 18.452999115 -0.002000000 0.5614927411 1.9769023657  -999.250000 34.780448914 150.03215027 151.12741089 0.5169968009 58.141574860 0.6999999881 0.5989999771
 1756.3885498  -999.250000 18.608999252 -0.004000000 0.5506967902 1.9958593845  -999.250000 34.435070038 149.99911499 151.03172302 0.5149976015 49.175815582 0.7239999771 0.5870000124
 1756.5408936  -999.250000 18.577999115 -0.010000000 0.5369265676 2.0005004406  -999.250000 33.227516174 148.69726563 149.74577332 0.5139920115 57.399188995 0.6679999828 0.5910000205
 1756.6933594  -999.250000 18.891000748 -0.010000000 0.5472662449 2.0053436756  -999.250000 38.534450531 148.68304443 149.60899353 0.5089951754 53.182418823 0.7630000114 0.5939999819
 1756.8457031  -999.250000 18.891000748 -0.005000000 0.5498226285 2.0173261166  -999.250000 39.970302582 149.55517578 150.67243958 0.5070000291 64.148384094 0.7670000196 0.6039999723
 1756.9981689  -999.250000 18.672000885 0.0010000000 0.5389190316 2.0313503742  -999.250000 40.775817871 149.69723511 150.81156921 0.5070024133 59.388584137 0.7189999819 0.6019999981
 1757.1505127  -999.250000 18.875000000 0.0040000002 0.5094386339 2.0390338898  -999.250000 38.619892120 149.96235657 150.97564697 0.5080032349 52.155597687 0.6679999828 0.5920000076
 1757.3028564  -999.250000 18.875000000 0.0010000000 0.4899331927 2.0367920399  -999.250000 35.438049316 149.26260376 150.20391846 0.5100032091 51.917617798 0.6859999895 0.5910000205
 1757.4553223  -999.250000 18.625000000 0.0000000000 0.5044533014 2.0287141800  -999.250000 35.466674805 147.91883850 149.03387451 0.5120000243 59.151195526 0.7250000238 0.5950000286
 1757.6076660  -999.250000 18.406000137 -0.002000000 0.5349453688 2.0137693882  -999.250000 34.501953125 149.50581360 150.54534912 0.5119951963 57.158401489 0.6280000210 0.6010000110
 1757.7601318  -999.250000 18.547000885 -0.003000000 0.5632010698 2.0022728443  -999.250000 35.721252441 150.22312927 151.31101990 0.5089783669 58.639183044 0.6769999862 0.6219999790
 1757.9124756  -999.250000 18.608999252 -0.003000000 0.5636078119 2.0019400120  -999.250000 36.657352448 149.92459106 150.94490051 0.4999952018 51.653995514 0.6600000262 0.6209999919
 1758.0649414  -999.250000 18.327999115 -0.003000000 0.5372757912 2.0107264519  -999.250000 37.500000000 150.08070374 151.18037415 0.4969904125 50.429416656 0.7469999790 0.6119999886
 1758.2172852  -999.250000 18.452999115 -0.001000000 0.5272554159 2.0207176208  -999.250000 37.497097015 149.42715454 150.47769165 0.4929903746 60.154396057 0.8539999723 0.5830000043
 1758.3697510  -999.250000 18.358999252 0.0020000001 0.5493412018 2.0253338814  -999.250000 35.687171936 148.44471741 149.49679565 0.4869975746 59.145191193 0.6439999938 0.5749999881
 1758.5220947  -999.250000 18.937999725 0.0049999999 0.5664609671 2.0226962566  -999.250000 35.341346741 149.38655090 150.29959106 0.4859967828 54.651992798 0.7229999900 0.5630000234
 1758.6745605  -999.250000 18.702999115 -0.003000000 0.5794630647 2.0111901760  -999.250000 33.685897827 150.08070374 151.10382080 0.4839879870 52.176414490 0.7400000095 0.5590000153
 1758.8269043  -999.250000 18.922000885 -0.013000000 0.5558128357 1.9990217686  -999.250000 32.813549042 149.57846069 150.62605286 0.4789952040 60.637969971 0.7279999852 0.5649999976
 1758.9793701  -999.250000 18.906000137 -0.015000000 0.5450373292 1.9996392727  -999.250000 33.157951355 150.04048157 151.10658264 0.4759880006 49.430015564 0.7110000253 0.5690000057
