# LAS format log file from PETREL
# Project units are specified as depth units
#==================================================================
~Version information
VERS.   2.0:
WRAP.   NO:
#==================================================================
~Well
STRT .m      176.60998535 :
STOP .m      3556.0803223 :
STEP .m     0.00000000 :
NULL .        -999.250000 :
COMP.           : COMPANY
WELL.  30/6-5   : WELL
FLD.            : FIELD
LOC.            : LOCATION
SRVC.           : SERVICE COMPANY
DATE.  2018-09-11 14:48:31   : Log Export Date {yyyy-MM-dd HH:mm:ss}
PROV.           : PROVINCE
UWI.   30/6-5   : UNIQUE WELL ID
API.            : API NUMBER
#==================================================================
~Curve
DEPT .m                   : DEPTH
Lithology_geolink ._      : Lithology_geolink
CALI .in                  : CALI
DRHO .g/cm3               : DRHO
NPHI .m3/m3               : NPHI
RHOB .g/cm3               : RHOB
PEF .b/e                  : PEF
GR .gAPI                  : GR
DTC .us/ft                : DTC
DTE .us/ft                : DTE
RDEP .ohm.m               : RDEP
SP .mV                    : SP
RSHA .ohm.m               : RSHA
RMED .ohm.m               : RMED
~Parameter
#==================================================================
~Ascii
# ...
 1973.7109375 19.000000000 13.187999725 0.0070000002 0.3849163651 2.2783417702  -999.250000 26.092073441 110.63632965 111.49341583 2.3128495216 53.944473267 4.3620257378 2.5139999390
 1973.8632813 19.000000000 13.187999725 0.0040000002 0.4083732665 2.2556049824  -999.250000 24.892103195 110.09710693 110.86408234 2.2189064026 51.226192474 4.2580838203 2.6149191856
 1974.0157471 19.000000000 13.180001259 0.0000000000 0.4416428804 2.2374842167  -999.250000 26.262496948 110.51195526 111.32630157 2.1019022465 47.042671204 3.2178335190 2.5370624065
 1974.1680908 19.000000000 13.187999725 -0.003000000 0.4802309871 2.2315657139  -999.250000 24.078287125 112.24063873 112.92076111 2.0409429073 71.783882141 3.0511331558 2.3571443558
 1974.3205566 19.000000000 13.194999695 -0.002000000 0.4870649576 2.2290968895  -999.250000 24.436523438 113.61293030 114.42842865 1.9698895216 45.565490723 3.1089534760 2.2890543938
 1974.4729004 19.000000000 13.194999695 -0.001000000 0.4807789922 2.2258505821  -999.250000 23.519092560 114.29106140 115.09812164 1.9009752274 54.084613800 2.5394568443 2.2380406857
 1974.6252441 19.000000000 13.305000305 -0.004000000 0.4614201784 2.2220199108  -999.250000 27.378515244 116.01540375 116.86827850 1.8699791431 59.428314209 3.2139174938 2.1840865612
 1974.7777100 19.000000000 13.187999725 -0.009000000 0.4428301752 2.2267789841  -999.250000 31.766664505 117.70824432 118.45304871 1.8439639807 45.323448181 3.0821065903 2.1370377541
 1974.9300537 19.000000000 13.187999725 -0.011000000 0.4387203455 2.2448313236  -999.250000 32.593051910 116.57144928 117.36278534 1.7989832163 57.131889343 1.6912305355 2.0251793861
 1975.0825195 19.000000000 13.585999489 -0.005000000 0.4264842570 2.2607505322  -999.250000 31.404235840 115.60846710 116.49308777 1.7779943943 52.694995880 3.0009479523 2.0819542408
 1975.2348633 19.000000000 13.108999252 0.0030000000 0.4365851581 2.2681603432  -999.250000 29.202724457 113.70340729 114.53208923 1.7709912062 50.204807281 3.3174941540 2.1109535694
 1975.3873291 19.000000000 13.101999283 0.0080000004 0.4523372650 2.2640609741  -999.250000 28.860351563 111.78086090 112.45869446 1.7599943876 52.598670959 3.7636425495 2.1679542065
 1975.5396729 19.000000000 13.101999283 0.0049999999 0.4761171937 2.2653996944  -999.250000 30.549491882 109.43176270 110.25975037 1.7529959679 61.988960266 3.1934576035 2.1450183392
 1975.6921387 19.000000000 13.108999252 -0.007000000 0.4743335843 2.2826933861  -999.250000 33.656047821 107.28284454 108.01623535 1.7479711771 46.419174194 3.4607853889 2.1759753227
 1975.8444824 19.000000000 13.101999283 -0.012000000 0.4550200403 2.2971363068  -999.250000 33.690727234 109.04148102 109.82004547 1.7299799919 58.927310944 5.0966882706 2.1969830990
 1975.9969482 19.000000000 13.101999283 -0.006000000 0.4301236868 2.2916302681  -999.250000 37.093101501 111.90446472 112.73191071 1.7049744129 44.187412262 2.6929271221 2.0980792046
 1976.1492920 5.0000000000 13.108999252 0.0040000002 0.4275092483 2.2592952251  -999.250000 36.536205292 114.75952148 115.64352417 1.6889911890 51.426158905 3.1446361542 1.9691033363
 1976.3017578 5.0000000000 13.108999252 0.0109999999 0.4332986772 2.2204623222  -999.250000 43.030948639 119.71118164 120.54644012 1.6779760122 55.254993439 2.8692209721 1.9070495367
 1976.4541016 5.0000000000 13.093999863 -0.003000000 0.4493719339 2.2036855221  -999.250000 43.000076294 121.54450989 122.33679199 1.6629831791 51.509441376 2.9709181786 1.9069999456
 1976.6064453 5.0000000000 13.125000000 -0.012000000 0.4567822218 2.2071354389  -999.250000 43.093002319 121.61532593 122.39094543 1.6419943571 48.684761047 3.0528686047 1.9299631119
 1976.7589111 5.0000000000 13.180001259 -0.014000000 0.4519040585 2.2246196270  -999.250000 41.843326569 119.97386169 120.76626587 1.6350144148 57.876380920 3.0999622345 1.9539808035
 1976.9112549 5.0000000000 13.281000137 -0.013000000 0.4357206225 2.2371907234  -999.250000 41.001426697 118.83562469 119.69022369 1.6530152559 50.019809723 3.4384570122 1.9959328175
 1977.0637207 5.0000000000 13.366999626 -0.009000000 0.4298799932 2.2404675484  -999.250000 42.780296326 118.03748322 118.91172028 1.6720241308 53.637947083 3.2251713276 1.9800128937
 1977.2160645 5.0000000000 13.461000443 -0.007000000 0.4340429008 2.2376246452  -999.250000 41.906074524 117.84799957 118.64206696 1.7020215988 53.207611084 2.9005205631 1.9859902859
 1977.3685303 5.0000000000 13.609000206 -0.004000000 0.4420584142 2.2412250042  -999.250000 41.999675751 117.75657654 118.56241608 1.7290047407 57.308662415 3.0019183159 1.9800047874
 1977.5208740 5.0000000000 13.695000648 -0.005000000 0.4289110005 2.2572927475  -999.250000 41.594600677 114.58470154 115.29941559 1.7350271940 50.120769501 3.0309767723 2.0569381714
 1977.6733398 5.0000000000 13.741999626 -0.005000000 0.4108195901 2.2770099640  -999.250000 42.343223572 113.19973755 114.01344299 1.7690329552 58.063014984 3.1988654137 2.1109569073
 1977.8256836 5.0000000000 13.812999725 -0.001000000 0.4023161530 2.2889535427  -999.250000 41.371768951 111.93802643 112.72679138 1.8099999428 52.673755646 3.2049951553 2.1909358501
 1977.9781494 5.0000000000 13.852000237 0.0070000002 0.3873899877 2.2872090340  -999.250000 37.348754883 110.46794891 111.18565369 1.8099310398 55.004840851 3.0591168404 2.2459559441
 1978.1304932 5.0000000000 13.906001091 0.0120000001 0.3665854335 2.2833950520  -999.250000 40.313400269 110.31800842 111.03685760 1.7669695616 51.204906464 3.7204694748 2.3069510460
 1978.2829590 5.0000000000 13.937999725 0.0049999999 0.3450789452 2.2806985378  -999.250000 40.817951202 108.20377350 109.05042267 1.7289439440 53.635696411 4.0587291718 2.2970080376
 1978.4353027 5.0000000000 14.022999763 -0.001000000 0.3530089557 2.2719030380  -999.250000 43.902317047 108.58779144 109.34979248 1.6939831972 52.258541107 3.5554039478 2.1501178741
 1978.5877686 5.0000000000 14.055000305 0.0000000000 0.3898318708 2.2580127716  -999.250000 39.314350128 111.70110321 112.54617310 1.6729935408 48.862205505 2.6157526970 1.9631497860
 1978.7401123 5.0000000000 14.133000374 -0.001000000 0.4197049737 2.2488119602  -999.250000 40.151115417 114.65510559 115.42623138 1.6689952612 50.617965698 2.9077651501 1.8450945616
 1978.8924561 5.0000000000 14.163999557 -0.004000000 0.4415088892 2.2487950325  -999.250000 34.060260773 117.61336517 118.49242401 1.6629767418 56.813930511 3.0268094540 1.7731152773
 1979.0449219 5.0000000000 14.202999115 -0.005000000 0.4470070004 2.2574417591  -999.250000 30.637796402 119.75911713 120.59551239 1.6339687109 49.295749664 2.8551378250 1.7730000019
 1979.1972656 5.0000000000 14.250000000 -0.003000000 0.4332678914 2.2689878941  -999.250000 26.645177841 116.31516266 117.18541718 1.5949752331 49.656227112 2.7461745739 1.9686861038
 1979.3497314 5.0000000000 14.147999763 0.0000000000 0.4132305086 2.2682945728  -999.250000 31.865272522 114.47302246 115.29708099 1.5639935732 79.580528259 4.5455570221 2.2008140087
 1979.5020752 5.0000000000 14.055000305 0.0020000001 0.4009904563 2.2522902489  -999.250000 39.691101074 114.13975525 115.01137543 1.5560071468 29.597534180 3.2900080681 2.1780183315
 1979.6545410 5.0000000000 14.022999763 0.0020000001 0.4075047672 2.2319202423  -999.250000 43.560897827 114.60777283 115.34426117 1.5650129318 62.298603058 2.8053874969 1.9981441498
 1979.8068848 5.0000000000 13.977000237 0.0010000000 0.4094889164 2.2241613865  -999.250000 40.935520172 117.94985199 118.76934814 1.5809952021 50.915592194 2.6581177711 1.8111498356
 1979.9593506 5.0000000000 13.961000443 -0.006000000 0.4088226259 2.2276270390  -999.250000 37.844200134 120.36785889 121.19483948 1.5749440193 48.195293427 2.6639952660 1.7350608110
 1980.1116943 5.0000000000 13.961000443 -0.008000000 0.4182431400 2.2287707329  -999.250000 37.972934723 121.50084686 122.32014465 1.5399575233 58.708610535 2.8889999390 1.7070000172
 1980.2641602 5.0000000000 13.977000237 -0.003000000 0.4326286316 2.2279818058  -999.250000 42.879905701 120.06475830 120.88536072 1.4869230986 63.410392761 2.3029999733 1.7350000143
