# LAS format log file from PETREL
# Project units are specified as depth units
#==================================================================
~Version information
VERS.   2.0:
WRAP.   NO:
#==================================================================
~Well
STRT .m      922.25012207 :
STOP .m      4009.0009766 :
STEP .m     0.00000000 :
NULL .        -999.250000 :
COMP.           : COMPANY
WELL.  30/6-11   : WELL
FLD.            : FIELD
LOC.            : LOCATION
SRVC.           : SERVICE COMPANY
DATE.  2018-09-11 14:48:30   : Log Export Date {yyyy-MM-dd HH:mm:ss}
PROV.           : PROVINCE
UWI.   30/6-11   : UNIQUE WELL ID
API.            : API NUMBER
#==================================================================
~Curve
DEPT .m                   : DEPTH
Lithology_geolink ._      : Lithology_geolink
CALI .in                  : CALI
DRHO .g/cm3               : DRHO
NPHI .m3/m3               : NPHI
RHOB .g/cm3               : RHOB
GR .gAPI                  : GR
DTC .us/ft                : DTC
RDEP .ohm.m               : RDEP
SP .mV                    : SP
RSHA .ohm.m               : RSHA
RMED .ohm.m               : RMED
~Parameter
#==================================================================
~Ascii
# ...
 1126.2500000  -999.250000 17.819000244 -0.004000000  -999.250000 1.9262620211 117.44499969 146.85472107 1.3880000114 66.555000305 0.5630000234 0.5630000234
 1126.3750000  -999.250000 17.834999084 -0.002000000  -999.250000 1.9338927269 118.77899933 146.81394958 1.3789999485 66.533996582 0.5600000024 0.5600000024
 1126.5000000  -999.250000 17.846000671 -0.003000000  -999.250000 1.9353070259 119.49600220 146.67326355 1.3680000305 67.205001831 0.5550000072 0.5550000072
 1126.6248779  -999.250000 17.851999283 -0.008000000  -999.250000 1.9307625294 119.89299774 146.46934509 1.3600000143 68.305000305 0.5479999781 0.5479999781
 1126.7498779  -999.250000 17.854999542 -0.015000000  -999.250000 1.9203954935 119.65799713 146.24794006 1.3530000448 68.848999023 0.5410000086 0.5410000086
 1126.8748779  -999.250000 17.857000351 -0.025000000  -999.250000 1.9052084684 118.37100220 146.06161499 1.3480000496 68.147003174 0.5350000262 0.5350000262
 1127.0001221  -999.250000 17.856000900 -0.033000000  -999.250000 1.8876973391 115.92500305 145.96624756 1.3430000544 66.530998230 0.5320000052 0.5320000052
 1127.1251221  -999.250000 17.847000122 -0.034000002  -999.250000 1.8765686750 113.39700317 146.00172424 1.3359999657 64.982002258 0.5329999924 0.5329999924
 1127.2501221  -999.250000 17.823999405 -0.028000001  -999.250000 1.8753917217 112.76499939 146.15435791 1.3289999962 64.396003723 0.5360000134 0.5360000134
 1127.3750000  -999.250000 17.781999588 -0.014000000  -999.250000 1.8836930990 114.67700195 146.42274475 1.3240000010 64.536003113 0.5410000086 0.5410000086
 1127.5000000  -999.250000 17.721000671 -0.001000000  -999.250000 1.8976275921 117.87300110 146.79396057 1.3209999800 64.567001343 0.5460000038 0.5460000038
 1127.6250000  -999.250000 17.642999649 0.0060000001  -999.250000 1.9108314514 120.16799927 147.24064636 1.3220000267 63.919998169 0.5500000119 0.5500000119
 1127.7500000  -999.250000 17.547000885 0.0040000002  -999.250000 1.9146027565 120.50000000 147.70083618 1.3240000010 62.772994995 0.5529999733 0.5529999733
 1127.8748779  -999.250000 17.431999207 -0.004000000  -999.250000 1.9088383913 119.56800079 148.13327026 1.3270000219 62.004001617 0.5559999943 0.5559999943
 1127.9998779  -999.250000 17.304000854 -0.016000001  -999.250000 1.8983192444 118.23899841 148.53604126 1.3309999704 62.287998199 0.5559999943 0.5559999943
 1128.1251221  -999.250000 17.173000336 -0.027000001  -999.250000 1.8871595860 117.16899872 148.90863037 1.3370000124 63.661003113 0.5550000072 0.5550000072
 1128.2501221  -999.250000 17.056999207 -0.030999999  -999.250000 1.8793044090 116.54799652 149.24580383 1.3470000029 65.630996704 0.5519999862 0.5519999862
 1128.3751221  -999.250000 16.969999313 -0.027000001  -999.250000 1.8779095411 116.49800110 149.53651428 1.3600000143 67.300003052 0.5490000248 0.5490000248
 1128.5000000  -999.250000 16.916000366 -0.016000001  -999.250000 1.8841634989 117.41500092 149.78968811 1.3769999743 68.082000732 0.5479999781 0.5479999781
 1128.6250000  -999.250000 16.886999130 -0.003000000  -999.250000 1.8936494589 119.14700317 150.04617310 1.3949999809 67.803001404 0.5500000119 0.5500000119
 1128.7500000  -999.250000 16.877000809 0.0080000004  -999.250000 1.9053364992 120.60500336 150.31634521 1.4140000343 66.708999634 0.5559999943 0.5559999943
 1128.8750000  -999.250000 16.877000809 0.0149999997  -999.250000 1.9181572199 120.76599884 150.58561707 1.4329999685 65.564002991 0.5649999976 0.5649999976
 1128.9998779  -999.250000 16.884000778 0.0170000009  -999.250000 1.9309365749 119.98799896 150.81834412 1.4559999704 64.838996887 0.5759999752 0.5759999752
 1129.1248779  -999.250000 16.899000168 0.0140000004  -999.250000 1.9417585135 119.40200043 150.94213867 1.4850000143 64.458000183 0.5889999866 0.5889999866
 1129.2498779  -999.250000 16.920999527 0.0080000004  -999.250000 1.9500929117 120.31199646 150.86529541 1.5219999552 64.068000793 0.5989999771 0.5989999771
 1129.3751221  -999.250000 16.945999146 0.0049999999  -999.250000 1.9581452608 122.59899902 150.59794617 1.5640000105 63.555999756 0.6069999933 0.6069999933
 1129.5001221  -999.250000 16.969999313 0.0080000004  -999.250000 1.9669344425 125.16699982 150.17411804 1.6050000191 63.037998199 0.6100000143 0.6100000143
 1129.6251221  -999.250000 16.990999222 0.0149999997  -999.250000 1.9761046171 126.55000305 149.65179443 1.6390000582 62.693996429 0.6090000272 0.6090000272
 1129.7500000  -999.250000 17.011999130 0.0199999996  -999.250000 1.9834696054 125.46399689 149.10928345 1.6590000391 62.569000244 0.6050000191 0.6050000191
 1129.8750000  -999.250000 17.033000946 0.0170000009  -999.250000 1.9818285704 122.33899689 148.62312317 1.6640000343 62.290000916 0.6019999981 0.6019999981
 1130.0000000  -999.250000 17.059999466 0.0040000002  -999.250000 1.9719187021 118.67299652 148.20515442 1.6510000229 61.523998260 0.5989999771 0.5989999771
 1130.1250000  -999.250000 17.097999573 -0.014000000  -999.250000 1.9572770596 116.66999817 147.85475159 1.6239999533 60.409000397 0.5970000029 0.5970000029
 1130.2498779  -999.250000 17.149000168 -0.030999999  -999.250000 1.9416439533 118.01000214 147.57254028 1.5859999657 59.568000793 0.5970000029 0.5970000029
 1130.3748779  -999.250000 17.212999344 -0.039999999  -999.250000 1.9284390211 121.16400146 147.35423279 1.5460000038 59.651000977 0.5960000157 0.5960000157
 1130.5001221  -999.250000 17.278999329 -0.041999999  -999.250000 1.9202245474 123.93800354 147.18598938 1.5119999647 61.008998871 0.5920000076 0.5920000076
 1130.6251221  -999.250000 17.339000702 -0.041999999  -999.250000 1.9120956659 125.22200012 147.03024292 1.4869999886 63.400997162 0.5839999914 0.5839999914
 1130.7501221  -999.250000 17.384000778 -0.046000000  -999.250000 1.8998152018 124.99400330 146.86933899 1.4739999771 65.926002502 0.5740000010 0.5740000010
 1130.8750000  -999.250000 17.410999298 -0.055000000  -999.250000 1.8841743469 124.17400360 146.70483398 1.4659999609 67.389999390 0.5640000105 0.5640000105
 1131.0000000  -999.250000 17.426000595 -0.059000000  -999.250000 1.8696795702 123.09999847 146.53776550 1.4589999914 67.125999451 0.5580000281 0.5580000281
 1131.1250000  -999.250000 17.434000015 -0.050000001  -999.250000 1.8642494678 121.61799622 146.36679077 1.4500000477 65.417999268 0.5569999814 0.5569999814
 1131.2500000  -999.250000 17.437000275 -0.025000000  -999.250000 1.8805775642 119.62300110 146.18144226 1.4359999895 63.147998810 0.5619999766 0.5619999766
 1131.3748779  -999.250000 17.437999725 0.0080000004  -999.250000 1.9098162651 117.50700378 145.97958374 1.4220000505 61.611000061 0.5680000186 0.5680000186
 1131.4998779  -999.250000 17.437999725 0.0309999995  -999.250000 1.9388704300 115.76799774 145.74772644 1.4149999619 61.669998169 0.5740000010 0.5740000010
 1131.6248779  -999.250000 17.437999725 0.0359999985  -999.250000 1.9576932192 114.69000244 145.46838379 1.4179999828 63.111000061 0.5749999881 0.5749999881
 1131.7501221  -999.250000 17.437999725 0.0230000000  -999.250000 1.9599461555 114.79299927 145.12768555 1.4329999685 64.929000854 0.5720000267 0.5720000267
 1131.8751221  -999.250000 17.437999725 0.0040000002  -999.250000 1.9455051422 116.65299988 144.72563171 1.4529999495 65.959999084 0.5659999847 0.5659999847
 1132.0001221  -999.250000 17.436000824 -0.009000000  -999.250000 1.9307631254 119.88400269 144.34814453 1.4680000544 65.583000183 0.5600000024 0.5600000024
 1132.1250000  -999.250000 17.431999207 -0.010000000  -999.250000 1.9256612062 123.25099945 144.08634949 1.4730000496 64.064002991 0.5580000281 0.5580000281
 1132.2500000  -999.250000 17.427000046 -0.001000000  -999.250000 1.9303582907 125.25299835 143.95681763 1.4650000334 62.375999451 0.5600000024 0.5600000024
 1132.3750000  -999.250000 17.423000336 0.0109999999  -999.250000 1.9413106441 125.64299774 143.94039917 1.4539999962 61.589000702 0.5649999976 0.5649999976
 1132.5000000  -999.250000 17.420000076 0.0179999992  -999.250000 1.9521120787 125.19000244 143.98675537 1.4470000267 62.220001221 0.5709999800 0.5709999800
