# LAS format log file from PETREL
# Project units are specified as depth units
#==================================================================
~Version information
VERS.   2.0:
WRAP.   NO:
#==================================================================
~Well
STRT .m      360.12121582 :
STOP .m      3233.9282227 :
STEP .m     0.00000000 :
NULL .        -999.250000 :
COMP.           : COMPANY
WELL.  30/6-23   : WELL
FLD.            : FIELD
LOC.            : LOCATION
SRVC.           : SERVICE COMPANY
DATE.  2018-09-11 14:48:31   : Log Export Date {yyyy-MM-dd HH:mm:ss}
PROV.           : PROVINCE
UWI.   30/6-23   : UNIQUE WELL ID
API.            : API NUMBER
#==================================================================
~Curve
DEPT .m                   : DEPTH
Lithology_geolink ._      : Lithology_geolink
CALI .in                  : CALI
DRHO .g/cm3               : DRHO
NPHI .m3/m3               : NPHI
RHOB .g/cm3               : RHOB
GR .gAPI                  : GR
DTC .us/ft                : DTC
DTE .us/ft                : DTE
RDEP .ohm.m               : RDEP
SP .mV                    : SP
RSHA .ohm.m               : RSHA
RMED .ohm.m               : RMED
~Parameter
#==================================================================
~Ascii
# ...
 1011.1740723  -999.250000 13.374999046 -0.106500000  -999.250000 1.8280999660 65.813652039 138.76704407 138.58479309 1.1271034479 41.584602356  -999.250000 0.8481072783
 1011.3264771  -999.250000 13.374999046 -0.107100002  -999.250000 1.8435000181 69.680976868 138.80305481 138.58479309 1.1358039379 41.334102631  -999.250000 0.8662123084
 1011.4788818  -999.250000 13.374999046 -0.100800000  -999.250000 1.8650000095 69.615921021 138.81478882 138.58479309 1.1457046270 39.834701538  -999.250000 0.8970070481
 1011.6312866  -999.250000 13.374999046 -0.101400003  -999.250000 1.8585000038 71.160453796 138.76705933 138.58479309 1.1572049856 39.834701538  -999.250000 0.9146034718
 1011.7836914  -999.250000 13.359399796 -0.110500000  -999.250000 1.8330999613 71.038681030 138.80305481 138.58479309 1.1697043180 39.834899902  -999.250000 0.9233002067
 1011.9360962  -999.250000 13.320300102 -0.121299997  -999.250000 1.8092000484 70.993171692 138.76704407 138.58479309 1.1805014610 40.334800720  -999.250000 0.9238027334
 1012.0885010  -999.250000 13.218800545 -0.129899994  -999.250000 1.8004000187 65.191856384 138.80305481 138.58479309 1.1842001677 40.584800720  -999.250000 0.9306985736
 1012.2409058  -999.250000 13.117199898 -0.130199999  -999.250000 1.7970000505 64.335914612 138.76704407 138.58479309 1.1843992472 40.834602356  -999.250000 0.9271966815
 1012.3933105  -999.250000 12.937500000 -0.114100002  -999.250000 1.8064999580 65.362403870 138.79985046 138.58479309 1.1824967861 40.584899902  -999.250000 0.9188785553
 1012.5457153  -999.250000 12.656200409 -0.105599999  -999.250000 1.7969000340 67.866821289 138.76617432 138.58479309 1.1784954071 40.835102081  -999.250000 0.8920796514
 1012.6981201  -999.250000 12.648400307 -0.097499996  -999.250000 1.7793999910 64.892730713 138.80303955 138.58479309 1.1726920605 41.334899902  -999.250000 0.8666906357
 1012.8504639  -999.250000 12.648400307 -0.086599998  -999.250000 1.7956999540 62.441139221 138.76705933 138.58479309 1.1626946926 41.584800720  -999.250000 0.8549986482
 1013.0028687  -999.250000 12.648400307 -0.082199998  -999.250000 1.8193000555 64.292472839 138.80305481 138.58479309 1.1493939161 41.834899902  -999.250000 0.8516021371
 1013.1552734  -999.250000 12.648400307 -0.089900002  -999.250000 1.8281999826 67.714546204 138.81478882 138.58479309 1.1341952085 42.334899902  -999.250000 0.8568980694
 1013.3076782  -999.250000 12.648400307 -0.092100002  -999.250000 1.8177000284 68.330085754 138.76705933 138.58479309 1.1223988533 42.834899902  -999.250000 0.8520964980
 1013.4600830  -999.250000 12.648400307 -0.095799997  -999.250000 1.7971999645 63.792491913 138.80305481 138.58479309 1.1195003986 43.334701538  -999.250000 0.8432886004
 1013.6124878  -999.250000 12.648400307 -0.095100001  -999.250000 1.7739000320 61.279670715 138.76704407 138.58479309 1.1203011274 43.334602356  -999.250000 0.8148925900
 1013.7648926  -999.250000 12.648400307 -0.104400001  -999.250000 1.7775000334 63.207160950 138.80305481 138.58479309 1.1230012178 43.084800720  -999.250000 0.7964076400
 1013.9172974  -999.250000 12.648400307 -0.109700002  -999.250000 1.8135000467 66.359611511 138.76704407 138.58479309 1.1259008646 43.334602356  -999.250000 0.8154299259
 1014.0697021  -999.250000 12.648400307 -0.104699999  -999.250000 1.8932000399 69.878898621 138.80305481 138.58479309 1.1280013323 43.084602356  -999.250000 0.8901174068
 1014.2221069  -999.250000 12.632800102 -0.101599999  -999.250000 1.9219000340 65.386154175 138.76704407 138.58479309 1.1313025951 42.834400177  -999.250000 0.9336001873
 1014.3745117  -999.250000 12.531200409 -0.112800002  -999.250000 1.8946000338 66.273048401 138.79985046 138.58479309 1.1379133463 42.084899902  -999.250000 0.9340788126
 1014.5269165  -999.250000 12.578100204 -0.111000001  -999.250000 1.8854000568 68.580131531 138.81079102 138.58479309 1.1545143127 42.334503174  -999.250000 0.9076898098
 1014.6793213  -999.250000 12.632800102 -0.103100002  -999.250000 1.8851000071 72.863906860 138.76618958 138.58479309 1.1724084616 42.085102081  -999.250000 0.8950007558
 1014.8316650  -999.250000 12.648400307 -0.101499997  -999.250000 1.8863999844 74.743827820 138.80300903 138.58479309 1.1829009056 42.584503174  -999.250000 0.8960031271
 1014.9840698  -999.250000 12.632800102 -0.105599999  -999.250000 1.8566000462 71.067504883 138.76705933 138.58479309 1.1852997541 42.084800720  -999.250000 0.9037972689
 1015.1364746  -999.250000 12.648400307 -0.108700000  -999.250000 1.8411999941 71.579086304 138.80305481 138.58479309 1.1845999956 42.334602356  -999.250000 0.8969966769
 1015.2888794  -999.250000 12.648400307 -0.107199997  -999.250000 1.8492000103 69.039024353 138.76704407 138.58479309 1.1847003698 42.084701538  -999.250000 0.8887003660
 1015.4412842  -999.250000 12.648400307 -0.103299998  -999.250000 1.8782000542 69.097816467 138.80305481 138.58479309 1.1856013536 42.084602356  -999.250000 0.8896039128
 1015.5936890  -999.250000 12.726599693 -0.108499996  -999.250000 1.8993999958 66.139511108 138.76704407 138.58479309 1.1888021231 41.835002899  -999.250000 0.8994044662
 1015.7460938  -999.250000 12.734399796 -0.110799998  -999.250000 1.9069999456 66.669670105 138.80305481 138.58479309 1.1943024397 42.584503174  -999.250000 0.9106033444
 1015.8984985  -999.250000 12.796899796 -0.112599999  -999.250000 1.9115999937 69.090492249 138.81478882 138.58479309 1.2002022266 42.084800720  -999.250000 0.9189010262
 1016.0509033  -999.250000 12.796899796 -0.116400003  -999.250000 1.8954999447 72.819549561 138.76705933 138.58479309 1.2060018778 42.334602356  -999.250000 0.9213994145
 1016.2033081  -999.250000 12.796899796 -0.120300002  -999.250000 1.8852000237 77.943443298 138.80305481 138.58479309 1.2109019756 42.085002899  -999.250000 0.9199039340
 1016.3557129  -999.250000 12.765601158 -0.116099998  -999.250000 1.8810000420 79.790756226 138.76373291 138.58479309 1.2159023285 42.834602356  -999.250000 0.9297027588
 1016.5081177  -999.250000 12.648400307 -0.119599998  -999.250000 1.8727999926 79.425163269 138.80226135 138.58479309 1.2218077183 42.585502625  -999.250000 0.9365007877
 1016.6605225  -999.250000 12.648400307 -0.115800001  -999.250000 1.8639999628 76.007049561 138.76704407 138.58479309 1.2315084934 43.584503174  -999.250000 0.9375016093
 1016.8129272  -999.250000 12.531200409 -0.111400001  -999.250000 1.8636000156 74.327140808 138.80305481 138.58479309 1.2421028614 43.334899902  -999.250000 0.9395069480
 1016.9652710  -999.250000 12.507800102 -0.109499998  -999.250000 1.8790999651 77.251091003 138.76705933 138.58479309 1.2457001209 43.584503174  -999.250000 0.9482085705
 1017.1176758  -999.250000 12.507800102 -0.106799997  -999.250000 1.8969999552 80.214988708 138.80303955 138.58479309 1.2459993362 43.084701538  -999.250000 0.9697056413
 1017.2700806  -999.250000 12.515600204 -0.102799997  -999.250000 1.9020999670 79.688552856 138.76704407 138.58479309 1.2440987825 43.084602356  -999.250000 0.9838922024
 1017.4224854  -999.250000 12.507800102 -0.101499997  -999.250000 1.8844000101 74.067405701 138.80305481 138.58479309 1.2411987782 42.834899902  -999.250000 0.9643841386
 1017.5748901  -999.250000 12.531200409 -0.101800002  -999.250000 1.8712999821 71.335197449 138.81478882 138.58479309 1.2382991314 43.334701538  -999.250000 0.9247896075
 1017.7272949  -999.250000 12.632800102 -0.100900002  -999.250000 1.8609999418 70.828453064 138.76705933 138.58479309 1.2361989021 43.334503174  -999.250000 0.8988955021
 1017.8796997  -999.250000 12.734399796 -0.100500003  -999.250000 1.8618999720 73.712493896 138.80305481 138.58479309 1.2333977222 42.834602356  -999.250000 0.8877011538
 1018.0321045  -999.250000 12.804700851 -0.100699998  -999.250000 1.8575999737 73.452766418 138.76704407 138.58479309 1.2275980711 42.584701538  -999.250000 0.8906041384
 1018.1845093  -999.250000 12.937500000 -0.104400001  -999.250000 1.8638999462 75.111534119 138.79985046 138.58479309 1.2227993011 42.584800720  -999.250000 0.9009044766
 1018.3369141  -999.250000 13.039098740 -0.105800003  -999.250000 1.8708000183 72.967124939 138.76617432 138.58479309 1.2209000587 42.834701538  -999.250000 0.9121000171
