# LAS format log file from PETREL
# Project units are specified as depth units
#==================================================================
~Version information
VERS.   2.0:
WRAP.   NO:
#==================================================================
~Well
STRT .m      922.25012207 :
STOP .m      4009.0009766 :
STEP .m     0.00000000 :
NULL .        -999.250000 :
COMP.           : COMPANY
WELL.  30/6-11   : WELL
FLD.            : FIELD
LOC.            : LOCATION
SRVC.           : SERVICE COMPANY
DATE.  2018-09-11 14:48:30   : Log Export Date {yyyy-MM-dd HH:mm:ss}
PROV.           : PROVINCE
UWI.   30/6-11   : UNIQUE WELL ID
API.            : API NUMBER
#==================================================================
~Curve
DEPT .m                   : DEPTH
Lithology_geolink ._      : Lithology_geolink
CALI .in                  : CALI
DRHO .g/cm3               : DRHO
NPHI .m3/m3               : NPHI
RHOB .g/cm3               : RHOB
GR .gAPI                  : GR
DTC .us/ft                : DTC
RDEP .ohm.m               : RDEP
SP .mV                    : SP
RSHA .ohm.m               : RSHA
RMED .ohm.m               : RMED
~Parameter
#==================================================================
~Ascii
# ...
 4001.3747559  -999.250000 7.2270002365 0.0869999975 0.1825799942 2.4308419228 86.487998962  -999.250000 4.7659997940 45.909000397 2.8159999847 2.8159999847
 4001.4997559  -999.250000 7.1459999084 0.0930000022 0.1799699962 2.4279954433 86.487998962  -999.250000 4.7639999390 46.039001465 2.9110000134 2.9110000134
 4001.6247559  -999.250000 7.0850000381 0.0989999995 0.1792499870 2.4262299538 86.487998962  -999.250000 4.7649998665 46.153999329 2.9969999790 2.9969999790
 4001.7497559  -999.250000 7.0419993401 0.1040000021 0.1800599992 2.4255270958 86.487998962  -999.250000 4.7659997940 46.180000305 3.0569999218 3.0569999218
 4001.8747559  -999.250000 7.0159997940 0.1049999967 0.1816500127 2.4246246815 86.487998962  -999.250000 4.7649998665 46.120998383 3.0950000286 3.0950000286
 4001.9995117  -999.250000 7.0040001869 0.1019999981 0.1833600104  -999.250000 86.487998962  -999.250000 4.7630000114 46.034000397 3.1159999371 3.1159999371
 4002.1245117  -999.250000 7.0000000000 0.0949999988 0.1844799966  -999.250000 86.487998962  -999.250000 4.7630000114 45.986000061 3.1270000935 3.1270000935
 4002.2495117  -999.250000 6.9980001450 0.0879999995 0.1849500090  -999.250000 86.487998962  -999.250000 4.7649998665 46.020999908 3.1340000629 3.1340000629
 4002.3745117  -999.250000 6.9970002174 0.0820000023 0.1860799938  -999.250000 86.487998962  -999.250000 4.7690000534 46.076000214 3.1380000114 3.1380000114
 4002.4995117  -999.250000 6.9930000305 0.0799999982 0.1886300147  -999.250000 86.487998962  -999.250000 4.7740001678 46.081001282 3.1400001049 3.1400001049
 4002.6247559  -999.250000 6.9899997711 0.0810000002 0.1922800094  -999.250000 86.487998962  -999.250000 4.7789998055 46.035999298 3.1429998875 3.1429998875
 4002.7497559  -999.250000 6.9869999886 0.0839999989 0.1957900077  -999.250000 86.487998962  -999.250000 4.7849998474 45.983001709 3.1449999809 3.1449999809
 4002.8742676  -999.250000 6.9860000610 0.0860000029 0.1977300048  -999.250000 86.487998962  -999.250000 4.7899999619 45.950000763 3.1459999084 3.1459999084
 4002.9992676  -999.250000 6.9860000610 0.0860000029 0.1981800050  -999.250000 86.487998962  -999.250000 4.7919998169 45.937999725 3.1470000744 3.1470000744
 4003.1245117  -999.250000 6.9879999161 0.0850000009 0.1977400035  -999.250000 86.487998962  -999.250000 4.7909998894 45.946998596 3.1480000019 3.1480000019
 4003.2490234  -999.250000 6.9899997711 0.0860000029 0.1973500103  -999.250000 86.487998962  -999.250000 4.7859997749 46.001998901 3.1470000744 3.1470000744
 4003.3740234  -999.250000 6.9910001755 0.0879999995 0.1966099888  -999.250000 86.487998962  -999.250000 4.7800002098 46.092998505 3.1470000744 3.1470000744
 4003.4992676  -999.250000 6.9899997711 0.0920000002 0.1946400106  -999.250000 86.487998962  -999.250000 4.7750000954 46.187000275 3.1459999084 3.1459999084
 4003.6242676  -999.250000 6.9850001335 0.0960000008 0.1913100034  -999.250000 86.487998962  -999.250000 4.7709999084 46.210998535 3.1470000744 3.1470000744
 4003.7492676  -999.250000 6.9780001640 0.0970000029 0.1872799993  -999.250000 86.487998962  -999.250000 4.7719998360 46.058998108 3.1480000019 3.1480000019
 4003.8740234  -999.250000 6.9710001945 0.0939999968 0.1836199909  -999.250000 86.487998962  -999.250000 4.7750000954 45.808998108 3.1489999294 3.1489999294
 4003.9990234  -999.250000 6.9679999352 0.0879999995 0.1814399958  -999.250000 86.487998962  -999.250000 4.7760000229 45.575000763 3.1500000954 3.1500000954
 4004.1240234  -999.250000 6.9689998627 0.0799999982 0.1811700016  -999.250000 86.487998962  -999.250000 4.7760000229 45.437000275 3.1510000229 3.1510000229
 4004.2490234  -999.250000 6.9730000496 0.0710000023 0.1821599901  -999.250000 86.487998962  -999.250000 4.7750000954 45.424999237 3.1500000954 3.1500000954
 4004.3740234  -999.250000 6.9790000916 0.0649999976 0.1829700023  -999.250000 86.487998962  -999.250000 4.7750000954 45.498001099 3.1489999294 3.1489999294
 4004.4990234  -999.250000 6.9840002060 0.0599999987 0.1829899997  -999.250000 86.487998962  -999.250000 4.7769999504 45.637001038 3.1480000019 3.1480000019
 4004.6240234  -999.250000 6.9869999886 0.0570000000 0.1820500046  -999.250000 86.487998962  -999.250000 4.7800002098 45.820999146 3.1480000019 3.1480000019
 4004.7490234  -999.250000 6.9869999886 0.0570000000 0.1803500056  -999.250000 86.487998962  -999.250000 4.7839999199 46.007999420 3.1489999294 3.1489999294
 4004.8737793  -999.250000 6.9840002060 0.0610000007 0.1787000149  -999.250000 86.487998962  -999.250000 4.7870001793 46.122001648 3.1489999294 3.1489999294
 4004.9987793  -999.250000 6.9800000191 0.0670000017 0.1778199971  -999.250000 86.487998962  -999.250000 4.7870001793 46.117000580 3.1510000229 3.1510000229
 4005.1237793  -999.250000 6.9780001640 0.0729999989 0.1780699939  -999.250000 86.487998962  -999.250000 4.7870001793 46.012001038 3.1519999504 3.1519999504
 4005.2487793  -999.250000 6.9780001640 0.0810000002 0.1795099974  -999.250000 86.487998962  -999.250000 4.7849998474 45.888000488 3.1519999504 3.1519999504
 4005.3737793  -999.250000 6.9809999466 0.0879999995 0.1818899959  -999.250000 86.487998962  -999.250000 4.7829999924 45.811000824 3.1519999504 3.1519999504
 4005.4987793  -999.250000 6.9840002060 0.0920000002 0.1839699894  -999.250000 86.487998962  -999.250000 4.7820000648 45.779998779 3.1530001163 3.1530001163
 4005.6237793  -999.250000 6.9840002060 0.0920000002 0.1845000088  -999.250000 86.487998962  -999.250000 4.7820000648 45.773998260 3.1530001163 3.1530001163
 4005.7485352  -999.250000 6.9819998741 0.0900000036 0.1832299978  -999.250000 86.487998962  -999.250000 4.7820000648 45.773998260 3.1540000439 3.1540000439
 4005.8735352  -999.250000 6.9769997597 0.0860000029 0.1807399988  -999.250000 86.487998962  -999.250000 4.7820000648 45.773998260 3.1549999714 3.1549999714
 4005.9985352  -999.250000 6.9720001221 0.0860000029 0.1779999882  -999.250000 86.487998962  -999.250000 4.7810001373 45.773998260 3.1549999714 3.1549999714
 4006.1264648  -999.250000 6.9699997902 0.0900000036 0.1757900119  -999.250000 86.487998962  -999.250000 4.7810001373 45.773998260 3.1549999714 3.1549999714
 4006.2517090  -999.250000 6.9710001945 0.0960000008 0.1745200008  -999.250000 86.487998962  -999.250000 4.7820000648 45.773998260 3.1549999714 3.1549999714
 4006.3767090  -999.250000 6.9780001640 0.1030000001 0.1740999967  -999.250000 86.487998962  -999.250000 4.7820000648 45.773998260 3.1540000439 3.1540000439
 4006.4985352  -999.250000 6.9869999886 0.1059999987 0.1739500016  -999.250000 86.487998962  -999.250000 4.7810001373 45.773998260 3.1530001163 3.1530001163
 4006.6237793  -999.250000 6.9930000305 0.1040000021 0.1738699973  -999.250000 86.487998962  -999.250000 4.7810001373 45.773998260 3.1510000229 3.1510000229
 4006.7482910  -999.250000 6.9940004349 0.0970000029 0.1738400012  -999.250000 86.487998962  -999.250000 4.7810001373 45.773998260 3.1489999294 3.1489999294
 4006.8764648  -999.250000 6.9899997711 0.0879999995 0.1738699973  -999.250000 86.487998962  -999.250000 4.7810001373 45.773998260 3.1480000019 3.1480000019
 4007.0014648  -999.250000 6.9869999886 0.0810000002 0.1739200056  -999.250000 86.487998962  -999.250000 4.7810001373 45.773998260 3.1480000019 3.1480000019
 4007.1264648  -999.250000 6.9869999886 0.0780000016 0.1739299893  -999.250000 86.487998962  -999.250000 4.7810001373 45.773998260 3.1470000744 3.1470000744
 4007.2512207  -999.250000 6.9920001030 0.0780000016 0.1738899946  -999.250000 86.487998962  -999.250000 4.7810001373 45.773998260 3.1470000744 3.1470000744
 4007.3762207  -999.250000 6.9980001450 0.0790000036 0.1738100052  -999.250000 86.487998962  -999.250000 4.7810001373 45.773998260 3.1459999084 3.1459999084
 4007.5012207  -999.250000 7.0000000000 0.0799999982 0.1737599969  -999.250000 86.487998962  -999.250000 4.7810001373 45.773998260 3.1459999084 3.1459999084
 4007.6262207  -999.250000 6.9980001450 0.0780000016 0.1737800092  -999.250000 86.487998962  -999.250000 4.7810001373 45.773998260 3.1470000744 3.1470000744
