# LAS format log file from PETREL
# Project units are specified as depth units
#==================================================================
~Version information
VERS.   2.0:
WRAP.   NO:
#==================================================================
~Well
STRT .m      581.07043457 :
STOP .m      2909.8947754 :
STEP .m     0.00000000 :
NULL .        -999.250000 :
COMP.           : COMPANY
WELL.  30/6-14   : WELL
FLD.            : FIELD
LOC.            : LOCATION
SRVC.           : SERVICE COMPANY
DATE.  2018-09-11 14:48:30   : Log Export Date {yyyy-MM-dd HH:mm:ss}
PROV.           : PROVINCE
UWI.   30/6-14   : UNIQUE WELL ID
API.            : API NUMBER
#==================================================================
~Curve
DEPT .m                   : DEPTH
Lithology_geolink ._      : Lithology_geolink
CALI .in                  : CALI
DRHO .g/cm3               : DRHO
NPHI .m3/m3               : NPHI
RHOB .g/cm3               : RHOB
GR .gAPI                  : GR
DTC .us/ft                : DTC
RDEP .ohm.m               : RDEP
SP .mV                    : SP
RSHA .ohm.m               : RSHA
RMED .ohm.m               : RMED
~Parameter
#==================================================================
~Ascii
# ...
 2438.6740723 5.0000000000 13.812999725 -0.007000000 0.3056600094 2.4860000610 101.31300354 87.625000000 3.8280000687 61.196998596  -999.250000 5.4530000687
 2438.8264160 5.0000000000 13.906001091 -0.005000000 0.2998000085 2.5020000935 101.18800354 87.000000000 3.9900000095 61.196998596  -999.250000 5.8670001030
 2438.9790039 5.0000000000 13.906001091 -0.002000000 0.3002938926 2.5079998970 103.75000000 86.500000000 4.1090002060 61.916000366  -999.250000 5.7500000000
 2439.1313477 5.0000000000 13.906001091 0.0010000000 0.3027433157 2.5139999390 101.81300354 85.375000000 4.2230000496 60.712001801  -999.250000 5.6479997635
 2439.2836914 6.0000000000 13.906001091 -0.003000000 0.3110423386 2.5060000420 102.87500000 85.375000000 4.2379999161 60.696998596  -999.250000 5.5739998817
 2439.4360352 6.0000000000 13.836000443 -0.004000000 0.3125000000 2.5000000000 101.50000000 85.499992371 4.2500000000 61.712001801  -999.250000 5.5000000000
 2439.5883789 6.0000000000 13.812999725 -0.003000000 0.3144499958 2.4960000515 101.31330109 85.749603271 4.2420129776 62.211200714  -999.250000 5.4920129776
 2439.7407227 6.0000000000 13.750000000 -0.001000000 0.2968800068 2.4900000095 100.68900299 85.625205994 4.2380061150 62.461601257  -999.250000 5.6477499008
 2439.8930664 6.0000000000 13.703000069 -0.002000000 0.2851600051 2.4879999161 97.817611694 86.498596191 4.2070493698 62.462001801  -999.250000 5.8356986046
 2440.0456543 6.0000000000 13.633000374 -0.006000000 0.2812500000 2.4839999676 98.813003540 86.625000000 4.2189998627 62.711997986  -999.250000 5.9340000153
 2440.1979980 5.0000000000 13.633000374 -0.007000000 0.2910200059 2.4860000610 97.563003540 86.625000000 4.2300000191 62.525005341  -999.250000 5.9340000153
 2440.3503418 5.0000000000 13.633000374 -0.011000000 0.3017600179 2.4820001125 95.316604614 86.250602722 4.2579550743 62.009822845  -999.250000 5.8950624466
 2440.5026855 5.0000000000 13.718998909 -0.010000000 0.3007799983 2.4820001125 92.005310059 86.250000000 4.2619938850 62.773773193  -999.250000 5.8550639153
 2440.6552734 5.0000000000 13.718998909 -0.010000000 0.3134799898 2.4820001125 92.938003540 86.250000000 4.2230000496 63.555999756  -999.250000 5.8790001869
 2440.8076172 5.0000000000 13.781000137 -0.008000000 0.3095700145 2.4879999161 95.750000000 86.250000000 4.1880002022 63.305995941  -999.250000 5.9340000153
 2440.9599609 5.0000000000 13.875000000 -0.006000000 0.3134799898 2.4920001030 96.498802185 86.749191284 4.1680321693 62.073974609  -999.250000 5.8950624466
 2441.1123047 5.0000000000 13.906001091 -0.004000000 0.3041999936 2.4879999161 91.383216858 86.999595642 4.1520256996 61.806427002  -999.250000 5.7192821503
 2441.2646484 5.0000000000 13.906001091 -0.005000000 0.2983399928 2.4839999676 94.557891846 87.124801636 4.1090693474 62.258274078  -999.250000 5.5592565536
 2441.4172363 5.0000000000 13.906001091 -0.007000000 0.2968800068 2.4790000916 97.938003540 86.625000000 4.0780000687 61.525001526  -999.250000 5.5159997940
 2441.5695801 5.0000000000 13.906001091 -0.008000000 0.2968800068 2.4820001125 101.30760193 86.749794006 3.9981279373 61.306350708  -999.250000 5.6168384552
 2441.7219238 5.0000000000 13.906001091 -0.003000000 0.2958999872 2.4820001125 100.00210571 87.249198914 3.9410912991 60.292625427  -999.250000 5.6090130806
 2441.8742676 5.0000000000 13.883000374 -0.004000000 0.3007799983 2.4820001125 100.37439728 87.250000000 3.9180369377 60.275028229  -999.250000 5.3833622932
 2442.0268555 5.0000000000 13.866999626 -0.005000000 0.2978500128 2.4790000916 98.875000000 86.875007629 3.9159998894 61.555999756  -999.250000 5.0349998474
 2442.1791992 5.0000000000 13.852000237 -0.008000000 0.2929700017 2.4790000916 96.125000000 86.749992371 3.9100000858 61.541000366  -999.250000 4.6880002022
 2442.3315430 5.0000000000 13.859000206 -0.005000000 0.2900399864 2.4820001125 96.249801636 86.999603271 3.8810465336 62.320747375  -999.250000 4.6520576477
 2442.4838867 5.0000000000 13.890999794 -0.004000000 0.2802700102 2.4860000610 97.935295105 86.625602722 3.8630287647 62.321998596  -999.250000 4.9485239983
 2442.6364746 5.0000000000 13.906001091 -0.002000000 0.2929700017 2.4900000095 97.938003540 86.250000000 3.8359999657 63.368999481  -999.250000 5.2540001869
 2442.7888184 5.0000000000 13.906001091 -0.007000000 0.2900399864 2.4839999676 95.813003540 86.250000000 3.8090000153 63.087001801  -999.250000 5.3159999847
 2442.9411621 5.0000000000 13.906001091 -0.006000000 0.3041999936 2.4800000191 92.380500793 85.875602722 3.8479375839 63.336597443  -999.250000 5.1482686996
 2443.0935059 5.0000000000 13.906001091 -0.010000000 0.2973600030 2.4769999981 99.738182068 85.625411987 3.9059069157 63.275100708  -999.250000 4.9023942947
 2443.2458496 6.0000000000 13.906001091 -0.007000000 0.2876000106 2.4839999676 102.80809784 85.125801086 3.9139871597 63.275001526  -999.250000 4.8400993347
 2443.3984375 6.0000000000 13.906001091 -0.006000000 0.2729499936 2.4920001030 110.06300354 85.250000000 3.8299999237 63.993999481  -999.250000 5.1209998131
 2443.5507813 6.0000000000 13.906001091 -0.006000000 0.2753899992 2.4960000515 103.19900513 85.499595642 3.7071967125 63.993999481  -999.250000 5.4055442810
 2443.7031250 5.0000000000 13.906001091 -0.009000000 0.2866200209 2.4800000191 99.319213867 86.248794556 3.5642290115 64.493202209  -999.250000 5.3281250000
 2443.8554688 5.0000000000 13.906001091 -0.013000000 0.2905299962 2.4630000591 95.069816589 87.248397827 3.4981057644 63.994800568  -999.250000 4.9306378365
 2444.0080566 5.0000000000 13.906001091 -0.012000000 0.2856400013 2.4489998817 95.375000000 88.125007629 3.4920001030 63.462005615  -999.250000 4.3790001869
 2444.1604004 5.0000000000 13.906001091 -0.009000000 0.2739299834 2.4430000782 97.000000000 89.125000000 3.5060000420 62.993995667  -999.250000 3.9300000668
 2444.3127441 5.0000000000 13.906001091 -0.006000000 0.2729499936 2.4319999218 98.186103821 89.125000000 3.5309598446 63.243598938  -999.250000 3.5416224003
 2444.4650879 5.0000000000 13.906001091 -0.010000000 0.2758799791 2.4300000668 97.064804077 89.000198364 3.5859117508 63.774150848  -999.250000 3.5779407024
 2444.6176758 5.0000000000 13.890999794 -0.015000000 0.2797900140 2.4360001087 92.875000000 88.500000000 3.6070001125 62.993995667  -999.250000 4.1680002213
 2444.7700195 5.0000000000 13.812999725 -0.015000000 0.2919899821 2.4630000591 93.313003540 86.375000000 3.6860001087 61.993999481  -999.250000 5.1209998131
 2444.9223633 5.0000000000 13.812999725 -0.012000000 0.2958999872 2.4800000191 101.11250305 85.376602173 3.7748577595 62.710849762  -999.250000 5.6162066460
 2445.0747070 6.0000000000 13.812999725 -0.003000000 0.2963899970 2.5000000000 106.61618805 84.750999451 3.9387371540 62.212802887  -999.250000 5.4652438164
 2445.2270508 6.0000000000 13.812999725 -0.003000000 0.2846699953 2.5020000935 116.60897064 84.625198364 4.1247019768 62.960800171  -999.250000 5.3591699600
 2445.3796387 6.0000000000 13.812999725 -0.001000000 0.2851600051 2.5060000420 110.12500000 84.625000000 4.1449999809 62.462001801  -999.250000 5.6170001030
 2445.5319824 6.0000000000 13.827999115 -0.003000000 0.2758799791 2.5039999485 107.69190216 84.375404358 4.0351758003 63.242748260  -999.250000 5.8626065254
 2445.6843262 5.0000000000 13.906001091 -0.001000000 0.2788099945 2.4979999065 102.07202148 84.749397278 3.8792500496 64.741600037  -999.250000 5.6253814697
 2445.8366699 5.0000000000 13.913999557 -0.004000000 0.2719700038 2.4800000191 103.74729919 84.999595642 3.7342324257 64.805900574  -999.250000 4.9231266975
 2445.9892578 5.0000000000 14.000000000 -0.008000000 0.2758799791 2.4590001106 107.62500000 85.375000000 3.5610001087 64.836997986  -999.250000 4.0310001373
 2446.1416016 5.0000000000 14.000000000 -0.008000000 0.2758799791 2.4449999332 103.87500000 85.375000000 3.4200000763 64.555999756  -999.250000 3.5720000267
 2446.2939453 5.0000000000 14.000000000 -0.002000000 0.2661100030 2.4509999752 103.12619781 85.125396729 3.2442815304 65.492500305  -999.250000 3.5610177517
