# LAS format log file from PETREL
# Project units are specified as depth units
#==================================================================
~Version information
VERS.   2.0:
WRAP.   NO:
#==================================================================
~Well
STRT .m      176.60998535 :
STOP .m      3556.0803223 :
STEP .m     0.00000000 :
NULL .        -999.250000 :
COMP.           : COMPANY
WELL.  30/6-5   : WELL
FLD.            : FIELD
LOC.            : LOCATION
SRVC.           : SERVICE COMPANY
DATE.  2018-09-11 14:48:31   : Log Export Date {yyyy-MM-dd HH:mm:ss}
PROV.           : PROVINCE
UWI.   30/6-5   : UNIQUE WELL ID
API.            : API NUMBER
#==================================================================
~Curve
DEPT .m                   : DEPTH
Lithology_geolink ._      : Lithology_geolink
CALI .in                  : CALI
DRHO .g/cm3               : DRHO
NPHI .m3/m3               : NPHI
RHOB .g/cm3               : RHOB
PEF .b/e                  : PEF
GR .gAPI                  : GR
DTC .us/ft                : DTC
DTE .us/ft                : DTE
RDEP .ohm.m               : RDEP
SP .mV                    : SP
RSHA .ohm.m               : RSHA
RMED .ohm.m               : RMED
~Parameter
#==================================================================
~Ascii
# ...
 2872.2614746 3.0000000000 8.4919996262 0.0010000000 0.2106325775 2.2768266201 4.3832821846 31.202999115 93.049606323 89.281028748 19.108999252 61.916397095 5.6020002365 18.266000748
 2872.4138184 3.0000000000 8.5080003738 -0.003000000 0.2174157351 2.3000106812 4.5592370033 30.593999863 93.499511719 89.770469666 16.781000137 60.914295197 5.5199999809 18.516000748
 2872.5661621 3.0000000000 8.5080003738 0.0030000000 0.2254327834 2.3161122799 4.7068009377 31.750000000 94.948875427 91.057998657 16.547000885 58.607101440 4.2189998627 17.483999252
 2872.7187500 3.0000000000 8.4919996262 0.0130000003 0.2294017226 2.3179442883 4.5825519562 35.094001770 95.047523499 91.133392334 16.375000000 59.298599243 6.1519999504 17.343999863
 2872.8710938 3.0000000000 8.4919996262 0.0209999997 0.2276714146 2.3061177731 4.4428858757 38.187999725 94.050010681 90.268142700 16.781000137 61.049709320 5.2230000496 17.062999725
 2873.0234375 3.0000000000 8.5080003738 0.0230000000 0.2238247693 2.2842898369 4.3718080521 39.030998230 94.858489990 90.772163391 18.297000885 65.222389221 4.4260001183 18.516000748
 2873.1757813 3.0000000000 8.4919996262 0.0219999999 0.2253029495 2.2577893734 4.2516794205 35.530998230 95.687652588 91.807975769 23.843999863 59.856899261 4.3319997787 19.952999115
 2873.3283691 3.0000000000 8.5080003738 0.0099999998 0.2230787128 2.2339262962 4.0515265465 33.000000000 96.071464539 92.168159485 29.327999115 60.417598724 4.7579998970 27.968999863
 2873.4807129 3.0000000000 8.5080003738 0.0000000000 0.2165675461 2.2187645435 3.9041812420 30.968999863 95.617782593 91.880950928 29.062999725 60.292697906 5.2620000839 36.094001770
 2873.6330566 3.0000000000 8.4919996262 -0.009000000 0.2098339349 2.2127435207 4.0171732903 29.858999252 95.387687683 91.656227112 42.469001770 60.104396820 4.5000000000 34.280998230
 2873.7854004 3.0000000000 8.4919996262 -0.009000000 0.2079385519 2.2111241817 4.1249151230 27.843999863 95.241615295 91.366165161 42.780998230 59.106201172 7.8239998817 38.812999725
 2873.9377441 3.0000000000 8.4919996262 -0.007000000 0.2043841928 2.2094135284 4.0719966888 26.516000748 95.141166687 91.276184082 41.875000000 59.239013672 8.4689998627 38.437999725
 2874.0903320 3.0000000000 8.5159997940 -0.006000000 0.2057471573 2.2095482349 4.0703744888 25.093999863 94.925598145 91.192222595 25.656000137 64.215805054 5.3359999657 36.719001770
 2874.2426758 3.0000000000 8.4919996262 -0.005000000 0.2176492065 2.2224743366 4.1870574951 23.156000137 94.771087646 90.969429016 17.952999115 59.483802795 8.0860004425 17.125000000
 2874.3950195 3.0000000000 8.5080003738 -0.008000000 0.2329676896 2.2710590363 4.2230191231 22.358999252 92.986579895 89.057479858 17.733999252 61.228195190 4.5659999847 9.4449996948
 2874.5473633 3.0000000000 8.5159997940 -0.021000000 0.2384602278 2.3799064159 4.2349281311 22.766000748 89.375877380 85.551383972 13.500000000 59.486606598 5.8979997635 9.3360004425
 2874.6999512 3.0000000000 8.5550003052 -0.037999999 0.2354217321 2.5419867039 4.1914944649 23.891000748 86.228172302 82.449684143 12.062999725 62.963001251 5.5310001373 9.5159997940
 2874.8522949 3.0000000000 8.5550003052 -0.017999999 0.2358413786 2.6732707024 4.6591844559 30.016000748 82.638137817 78.723876953 10.218999863 57.369621277 3.3440001011 10.203000069
 2875.0046387 3.0000000000 8.5389995575 0.0340000018 0.2485638559 2.6749310493 6.0223507881 40.750000000 79.214767456 75.403350830 9.1879997253 65.849990845 5.4569997787 12.305000305
 2875.1569824 3.0000000000 8.5550003052 0.0630000010 0.2465970367 2.5720350742 7.4855017662 53.500000000 78.468696594 74.611083984 8.5159997940 62.117015839 10.390999794 12.163999557
 2875.3095703 5.0000000000 8.5550003052 0.0489999987 0.2299719155 2.4754323959 6.5491838455 60.000000000 78.585273743 74.762626648 8.9770002365 68.925399780 7.9380002022 9.7580003738
 2875.4619141 5.0000000000 8.5550003052 0.0250000004 0.1992338747 2.4348745346 5.6709599495 63.155998230 79.894363403 76.082031250 9.0469999313 51.625228882 6.3520002365 10.734000206
 2875.6142578 5.0000000000 8.5389995575 0.0140000004 0.1813590378 2.4449613094 5.0226855278 61.094001770 82.242965698 78.487464905 8.8280000687 63.604400635 6.8909997940 11.288999557
 2875.7666016 5.0000000000 8.5550003052 0.0060000001 0.1748667508 2.4863390923 4.8262500763 58.500000000 84.024696350 79.903366089 8.7340002060 62.600990295 6.2270002365 11.477000237
 2875.9189453 5.0000000000 8.5629997253 0.0160000008 0.1832291335 2.5439288616 4.3580803871 53.844001770 83.669929504 79.806419373 8.9300003052 59.493999481 7.3200001717 11.453000069
 2876.0715332 5.0000000000 8.5860004425 0.0379999988 0.1954727769 2.5863435268 3.7833139896 58.405998230 83.168853760 79.355392456 9.2030000687 67.603797913 7.4340000153 11.046999931
 2876.2238770 5.0000000000 8.5939998627 0.0610000007 0.2105900645 2.5794255733 3.3562772274 66.500000000 82.487113953 78.731933594 9.6560001373 66.211769104 12.109000206 10.383000374
 2876.3762207 6.0000000000 8.5860004425 0.0579999983 0.2199606001 2.5216562748 3.5297868252 78.375000000 82.202232361 78.460548401 10.508000374 54.241416931 8.3129997253 10.484000206
 2876.5285645 6.0000000000 8.5550003052 0.0419999994 0.2263504714 2.4488854408 4.0204181671 84.375000000 82.852279663 78.937652588 10.656000137 60.737209320 10.187999725 11.022999763
 2876.6811523 6.0000000000 8.5389995575 0.0199999996 0.2202510983 2.3908319473 4.2811441422 87.313003540 84.996742249 81.115447998 11.109000206 64.614402771 8.3669996262 10.640999794
 2876.8334961 6.0000000000 8.4919996262 0.0109999999 0.2142639011 2.3573658466 4.3264727592 79.625000000 88.349815369 84.584953308 13.352000237 67.208969116 7.0349998474 10.538999557
 2876.9858398 6.0000000000 8.4919996262 0.0199999996 0.2130133957 2.3325576782 4.6215753555 69.313003540 91.715232849 87.980712891 14.694999695 53.502433777 5.9650001526 11.203000069
 2877.1381836 6.0000000000 8.4919996262 0.0199999996 0.2172075659 2.3051762581 4.9799857140 58.030998230 94.423385620 90.623046875 16.968999863 66.845787048 5.5040001869 11.984000206
 2877.2907715 5.0000000000 8.4919996262 0.0099999998 0.2258167714 2.2804856300 4.9696593285 52.000000000 96.500938416 92.555824280 18.452999115 60.482597351 5.6370000839 12.453000069
 2877.4431152 5.0000000000 8.4919996262 0.0020000001 0.2334563434 2.2630879879 4.5520544052 47.875000000 97.858787537 93.978759766 18.437999725 60.982200623 4.2579998970 13.522999763
 2877.5954590 2.0000000000 8.4919996262 0.0060000001 0.2389040738 2.2509970665 4.5858221054 45.030998230 98.440223694 94.600425720 17.593999863 61.726791382 4.8239998817 16.500000000
 2877.7478027 2.0000000000 8.4840002060 0.0070000002 0.2339115143 2.2404832840 4.4751186371 42.000000000 97.790191650 94.003448486 17.891000748 59.108100891 6.5120000839 15.875000000
 2877.9003906 2.0000000000 8.4689998627 0.0049999999 0.2219128758 2.2362434864 4.5485901833 36.780998230 97.168357849 93.356292725 16.858999252 60.413402557 7.4380002022 15.000000000
 2878.0527344 2.0000000000 8.4689998627 0.0000000000 0.2162931263 2.2411837578 4.4209647179 30.672000885 98.097290039 94.252212524 17.031000137 58.991817474 4.4879999161 12.843999863
 2878.2050781 2.0000000000 8.4840002060 -0.005000000 0.2148638964 2.2509644032 4.3990192413 27.766000748 98.631362915 94.876686096 15.819999695 65.721389771 3.9219999313 12.718999863
 2878.3574219 1.0000000000 8.4689998627 -0.006000000 0.2129575610 2.2593762875 4.4108266830 26.812999725 97.433471680 93.581321716 15.069999695 59.731800079 3.5820000172 12.968999863
 2878.5097656 1.0000000000 8.4689998627 -0.006000000 0.2090854198 2.2650768757 4.3033957481 28.406000137 95.641098022 91.881851196 17.843999863 60.229095459 3.6930000782 13.741999626
 2878.6623535 1.0000000000 8.4689998627 0.0030000000 0.2076704353 2.2692487240 4.5514211655 29.531000137 95.689178467 91.732864380 19.202999115 59.064998627 5.6519999504 15.390999794
 2878.8146973 1.0000000000 8.4689998627 0.0120000001 0.2098527998 2.2667076588 4.9944071770 30.968999863 96.102821350 92.305572510 19.625000000 65.907783508 5.0590000153 17.406000137
