# LAS format log file from PETREL
# Project units are specified as depth units
#==================================================================
~Version information
VERS.   2.0:
WRAP.   NO:
#==================================================================
~Well
STRT .m      933.99749756 :
STOP .m      3610.7521973 :
STEP .m     0.00000000 :
NULL .        -999.250000 :
COMP.           : COMPANY
WELL.  30/6-8   : WELL
FLD.            : FIELD
LOC.            : LOCATION
SRVC.           : SERVICE COMPANY
DATE.  2018-09-11 14:48:31   : Log Export Date {yyyy-MM-dd HH:mm:ss}
PROV.           : PROVINCE
UWI.   30/6-8   : UNIQUE WELL ID
API.            : API NUMBER
#==================================================================
~Curve
DEPT .m                   : DEPTH
Lithology_geolink ._      : Lithology_geolink
CALI .in                  : CALI
DRHO .g/cm3               : DRHO
NPHI .m3/m3               : NPHI
RHOB .g/cm3               : RHOB
GR .gAPI                  : GR
DTC .us/ft                : DTC
DTE .us/ft                : DTE
RDEP .ohm.m               : RDEP
SP .mV                    : SP
RSHA .ohm.m               : RSHA
RMED .ohm.m               : RMED
~Parameter
#==================================================================
~Ascii
# ...
 3245.6018066 6.0000000000 12.564999580 -0.006000000 0.2817099988 2.5825543404 78.080001831 85.417663574 82.471870422 7.4730000496 73.543998718 9.8520002365 9.8520002365
 3245.7541504 6.0000000000 12.564999580 -0.006000000 0.2775700092 2.5837845802 79.325996399 85.013504028 82.158386230 7.4920001030 73.574996948 9.9689998627 9.9689998627
 3245.9064941 6.0000000000 12.564999580 -0.004000000 0.2842900157 2.5891945362 79.399879456 84.908401489 81.987937927 7.5509057045 73.544052124 9.8831377029 9.8831377029
 3246.0588379 6.0000000000 12.564999580 -0.002000000 0.2971900105 2.5954809189 79.745887756 84.717895508 81.700004578 7.5819005966 73.294799805 9.8520994186 9.8520994186
 3246.2114258 6.0000000000 12.566999435 -0.001000000 0.2995400131 2.5987915993 79.771003723 84.224235535 81.211189270 7.6479997635 73.574996948 9.8979997635 9.8979997635
 3246.3637695 6.0000000000 12.569999695 0.0030000000 0.2924300134 2.6016726494 78.835998535 83.896080017 81.005813599 7.6209998131 73.199996948 10.241999626 10.241999626
 3246.5161133 6.0000000000 12.574000359 0.0060000001 0.2860099971 2.6060452461 76.287078857 84.099250793 81.156250000 7.5980367661 73.637298584 10.562485695 10.562485695
 3246.6684570 6.0000000000 12.576999664 0.0040000002 0.2889499962 2.6058363914 74.409004211 84.447113037 81.544197083 7.5740385056 74.043350220 10.453176498 10.453176498
 3246.8210449 6.0000000000 12.581000328 0.0000000000 0.2912299931 2.6007323265 74.754997253 84.700469971 81.903129578 7.5310001373 74.543998718 9.7030000687 9.7030000687
 3246.9733887 6.0000000000 12.584000587 -0.007000000 0.2954899967 2.5924069881 77.837997437 84.996566772 82.222427368 7.4920001030 74.357002258 9.3750000000 9.3750000000
 3247.1257324 6.0000000000 12.584000587 -0.009000000 0.2965500057 2.5869948864 81.461997986 85.413253784 82.519195557 7.4019999504 74.263000488 9.5159997940 9.5159997940
 3247.2780762 6.0000000000 12.581999779 -0.009000000 0.2908799946 2.5855307579 81.334205627 85.490890503 82.625000000 7.3710494041 74.013397217 9.7186746597 9.7186746597
 3247.4304199 6.0000000000 12.579000473 -0.009000000 0.2826299965 2.5844981670 78.472999573 85.461807251 82.633697510 7.3949999809 73.638000488 9.6879997253 9.6879997253
 3247.5830078 6.0000000000 12.576000214 -0.008000000 0.2856000066 2.5847151279 75.555000305 85.789634705 82.841606140 7.4219999313 73.824996948 9.5159997940 9.5159997940
 3247.7353516 6.0000000000 12.574000359 -0.007000000 0.2896299958 2.5876607895 74.665000916 85.923126221 82.985450745 7.4060001373 73.418998718 9.4060001373 9.4060001373
 3247.8876953 6.0000000000 12.571000099 -0.004000000 0.2878400087 2.5931737423 75.756256104 85.462860107 82.633483887 7.4489312172 72.670196533 9.5158233643 9.5158233643
 3248.0400391 6.0000000000 12.569000244 -0.001000000 0.2839899957 2.5985653400 77.074775696 85.146888733 82.233703613 7.5078110695 74.538002014 9.6555519104 9.6555519104
 3248.1926270 6.0000000000 12.572999954 -0.001000000 0.2860600054 2.5995373726 78.402999878 85.089683533 82.191390991 7.6640000343 73.857002258 9.6719999313 9.6719999313
 3248.3449707 6.0000000000 12.579999924 -0.001000000 0.2902500033 2.5975255966 79.656997681 84.911041260 82.096870422 7.7620000839 73.857002258 9.7189998627 9.7189998627
 3248.4973145 6.0000000000 12.586999893 -0.001000000 0.2854299843 2.5966558456 80.006446838 84.521240234 81.744514465 7.8278946877 73.575447083 9.9835758209 9.9835758209
 3248.6496582 6.0000000000 12.593000412 0.0020000001 0.2857399881 2.5993769169 77.993461609 83.647773743 80.690605164 7.8549137115 73.201194763 10.350822449 10.350822449
 3248.8022461 6.0000000000 12.600000381 0.0030000000 0.2851699889 2.6027865410 74.599998474 83.058998108 80.066390991 7.7620000839 73.043998718 10.750000000 10.750000000
 3248.9545898 6.0000000000 12.611001015 -0.002000000 0.2908700109 2.5989341736 73.603996277 82.941184998 80.003913879 7.6799998283 73.638000488 11.102000237 11.102000237
 3249.1069336 6.0000000000 12.631999016 -0.010000000 0.2968299985 2.5870032310 77.176002502 83.486343384 80.472923279 7.6989998817 73.513000488 10.875000000 10.875000000
 3249.2592773 6.0000000000 12.657999992 -0.014000000 0.3045099974 2.5732944012 82.233894348 84.353332520 81.414558411 7.6251182556 73.543945313 10.181112289 10.181112289
 3249.4116211 6.0000000000 12.678000450 -0.009000000 0.3085399866 2.5723519325 85.516998291 85.467910767 82.637435913 7.5310001373 73.357002258 9.4530000687 9.4530000687
 3249.5642090 6.0000000000 12.687000275 0.0000000000 0.3088999987 2.5874977112 85.855003357 86.712600708 83.821853638 7.2579998970 74.638000488 8.9610004425 8.9610004425
 3249.7165527 6.0000000000 12.689998627 0.0040000002 0.3012999892 2.6046214104 84.777000427 87.116470337 84.099777222 6.9409999847 76.199996948 8.7270002365 8.7270002365
 3249.8688965 6.0000000000 12.694000244 0.0060000001 0.2987099886 2.6137244701 83.425163269 86.788543701 83.867866516 6.7153615952 75.794647217 8.7270002365 8.7270002365
 3250.0212402 6.0000000000 12.696998596 0.0049999999 0.2959800065 2.6158556938 83.095054626 86.843917847 84.049995422 6.5943870544 74.921798706 8.7728528976 8.7728528976
 3250.1738281 6.0000000000 12.700000763 0.0020000001 0.3147000074 2.6145017147 83.571998596 87.533874512 84.567955017 6.5939998627 74.199996948 8.6409997940 8.6409997940
 3250.3261719 6.0000000000 12.703001022 -0.003000000 0.3206299841 2.6098763943 84.013000488 88.445755005 85.451667786 6.7150001526 73.607002258 8.3830003738 8.3830003738
 3250.4785156 6.0000000000 12.704999924 -0.004000000 0.3146800101 2.6036379337 83.366035461 88.309173584 85.465126038 6.9017009735 73.731803894 8.1643495560 8.1643495560
 3250.6308594 6.0000000000 12.704999924 -0.004000000 0.2790600061 2.6008441448 82.250579834 87.092849731 84.313934326 7.0774369240 73.762901306 8.3354501724 8.3354501724
 3250.7834473 6.0000000000 12.704999924 -0.004000000 0.2438400090 2.5982272625 80.739997864 84.532936096 81.572463989 7.2270002365 72.324996948 9.2030000687 9.2030000687
 3250.9357910 6.0000000000 12.704999924 -0.003000000 0.2124699950 2.5944662094 79.199996948 81.337905884 78.376480103 7.3239998817 73.824996948 10.522999763 10.522999763
 3251.0881348 6.0000000000 12.704999924 0.0000000000 0.2007299960 2.5967297554 77.578002930 79.220108032 76.411994934 7.4299998283 73.449996948 11.796999931 11.796999931
 3251.2404785 6.0000000000 12.704999924 0.0020000001 0.2203200012 2.6096384525 74.596778870 79.388069153 76.420028687 7.5817565918 73.918251038 12.319163322 12.319163322
 3251.3928223 6.0000000000 12.704000473 0.0010000000 0.2568799853 2.6268577576 73.130996704 80.355476379 77.402961731 7.6020002365 73.668998718 11.937999725 11.937999725
 3251.5454102 6.0000000000 12.704000473 -0.002000000 0.2842499912 2.6396811008 74.736000061 81.222038269 78.333488464 7.4959998131 74.107002258 10.718999863 10.718999863
 3251.6977539 6.0000000000 12.704000473 -0.003000000 0.2936300039 2.6434967518 77.320999146 81.893775940 78.894409180 7.3090000153 73.824996948 9.6250000000 9.6250000000
 3251.8500977 6.0000000000 12.704000473 -0.004000000 0.2945699990 2.6386327744 79.187011719 81.913124084 78.984924316 6.9266128540 74.387100220 8.6345872879 8.6345872879
 3252.0024414 6.0000000000 12.704000473 -0.004000000 0.2905299962 2.6305828094 79.565795898 81.541725159 78.662757874 6.6219758987 73.734100342 7.8933739662 7.8933739662
 3252.1550293 6.0000000000 12.704000473 -0.006000000 0.2882600129 2.6253781319 80.223999023 81.804595947 78.970123291 6.3319997787 73.513000488 7.5510001183 7.5510001183
 3252.3073730 6.0000000000 12.704000473 -0.008000000 0.2892799973 2.6240441799 81.454002380 82.771301270 79.825668335 6.1129999161 73.232002258 7.5159997940 7.5159997940
 3252.4597168 6.0000000000 12.704000473 -0.009000000 0.3040100038 2.6261777878 81.827407837 83.505157471 80.563613892 6.0431122780 73.886947632 7.5549373627 7.5549373627
 3252.6120605 6.0000000000 12.701000214 -0.011000000 0.3288300037 2.6310787201 81.437248230 83.923988342 81.013404846 5.8954734802 75.103103638 7.5161247253 7.5161247253
 3252.7646484 6.0000000000 12.694999695 -0.014000000 0.3357199728 2.6345508099 80.102996826 84.013710022 80.980590820 5.7769999504 74.982002258 7.5159997940 7.5159997940
