# LAS format log file from PETREL
# Project units are specified as depth units
#==================================================================
~Version information
VERS.   2.0:
WRAP.   NO:
#==================================================================
~Well
STRT .m      933.99749756 :
STOP .m      3610.7521973 :
STEP .m     0.00000000 :
NULL .        -999.250000 :
COMP.           : COMPANY
WELL.  30/6-8   : WELL
FLD.            : FIELD
LOC.            : LOCATION
SRVC.           : SERVICE COMPANY
DATE.  2018-09-11 14:48:31   : Log Export Date {yyyy-MM-dd HH:mm:ss}
PROV.           : PROVINCE
UWI.   30/6-8   : UNIQUE WELL ID
API.            : API NUMBER
#==================================================================
~Curve
DEPT .m                   : DEPTH
Lithology_geolink ._      : Lithology_geolink
CALI .in                  : CALI
DRHO .g/cm3               : DRHO
NPHI .m3/m3               : NPHI
RHOB .g/cm3               : RHOB
GR .gAPI                  : GR
DTC .us/ft                : DTC
DTE .us/ft                : DTE
RDEP .ohm.m               : RDEP
SP .mV                    : SP
RSHA .ohm.m               : RSHA
RMED .ohm.m               : RMED
~Parameter
#==================================================================
~Ascii
# ...
 2894.4719238 5.0000000000 13.618000031 -0.020000000 0.3236621916 2.5686020851 68.258712769 84.612358093 81.736778259 6.8870000839 72.761795044 8.7263984680 8.7263984680
 2894.6245117 5.0000000000 13.618000031 -0.021000000 0.3250087798 2.5702304840 68.061889648 84.815017700 81.763366699 6.8869743347 72.566589355 8.6333980560 8.6333980560
 2894.7768555 5.0000000000 13.619000435 -0.017999999 0.3215174079 2.5753386021 68.670188904 84.762382507 81.721694946 6.8828010559 71.268806458 8.6957044601 8.6957044601
 2894.9291992 5.0000000000 13.614000320 -0.012000000 0.3198987544 2.5840165615 69.469520569 84.357963562 81.408714294 6.8520193100 72.168601990 8.8055973053 8.8055973053
 2895.0815430 5.0000000000 13.614000320 -0.007000000 0.3191028237 2.5915904045 68.767379761 84.134971619 81.261604309 6.8549761772 72.110748291 8.8980636597 8.8980636597
 2895.2341309 5.0000000000 13.618000031 -0.006000000 0.3147036433 2.5938644409 67.564254761 84.547332764 81.532997131 6.8524641991 72.572998047 8.9060001373 8.9060001373
 2895.3864746 5.0000000000 13.613000870 -0.013000000 0.3376216888 2.5876715183 66.343109131 84.641555786 81.608612061 6.9102244377 72.326805115 8.9063529968 8.9063529968
 2895.5388184 5.0000000000 13.613000870 -0.017999999 0.3262107968 2.5786445141 64.333732605 84.431297302 81.563476563 6.9451537132 72.607398987 8.9608983994 8.9608983994
 2895.6911621 5.0000000000 13.613000870 -0.021000000 0.3204282820 2.5731365681 62.743785858 84.373687744 81.408966064 6.9691491127 72.671707153 8.9450769424 8.9450769424
 2895.8435059 5.0000000000 13.607000351 -0.021000000 0.2944369614 2.5722250938 63.759819031 84.194770813 81.247093201 7.0001277924 73.229400635 8.9610004425 8.9610004425
 2895.9960938 5.0000000000 13.604999542 -0.020000000 0.2987964153 2.5724644661 67.957046509 84.071769714 81.177795410 7.0199232101 72.823394775 8.9606475830 8.9606475830
 2896.1484375 6.0000000000 13.604999542 -0.016000001 0.3070111275 2.5774013996 73.243530273 84.209060669 81.125000000 7.0079231262 72.569801331 8.9060001373 8.9060001373
 2896.3007813 6.0000000000 13.605999947 -0.015000000 0.3014756441 2.5822257996 74.561462402 84.119331360 81.122093201 6.9959421158 71.764205933 8.9062652588 8.9062652588
 2896.4531250 6.0000000000 13.607000351 -0.013000000 0.2987760305 2.5826885700 73.192329407 83.896247864 81.055885315 6.9836802483 72.018402100 8.9615507126 8.9615507126
 2896.6057129 6.0000000000 13.614000320 -0.011000000 0.3025411665 2.5797476768 70.448333740 83.908424377 81.084281921 6.9337244034 72.862007141 9.0468969345 9.0468969345
 2896.7580566 6.0000000000 13.623998642 -0.011000000 0.3091295660 2.5772764683 70.355232239 84.354476929 81.425796509 6.8908457756 73.636795044 9.0296993256 9.0296993256
 2896.9104004 6.0000000000 13.626998901 -0.012000000 0.3088751733 2.5781052113 71.950950623 84.879089355 81.922103882 6.8665504456 73.446784973 8.8263435364 8.8263435364
 2897.0627441 6.0000000000 13.628000259 -0.013000000 0.3183306456 2.5799038410 73.488632202 85.234664917 82.338134766 6.7968397141 72.949996948 8.5692558289 8.5692558289
 2897.2153320 6.0000000000 13.630999565 -0.015000000 0.3187492490 2.5795814991 73.303771973 85.462028503 82.421974182 6.7764720917 72.947746277 8.4771203995 8.4771203995
 2897.3676758 6.0000000000 13.628999710 -0.017999999 0.3247228265 2.5746171474 71.391876221 85.236152649 82.218513489 6.7106218338 72.671005249 8.4924030304 8.4924030304
 2897.5200195 6.0000000000 13.630001068 -0.021000000 0.3078139722 2.5703949928 67.792472839 84.762779236 81.833358765 6.6518015862 72.982803345 8.5552501678 8.5552501678
 2897.6723633 5.0000000000 13.623998642 -0.017000001 0.3165051639 2.5738384724 65.382232666 84.491233826 81.555885315 6.6210384369 73.098724365 8.5938119888 8.5938119888
 2897.8247070 5.0000000000 13.630001068 -0.013000000 0.3010202646 2.5814385414 65.434860229 84.640151978 81.560417175 6.6289491653 71.395599365 8.5546998978 8.5546998978
 2897.9772949 5.0000000000 13.649000168 -0.013000000 0.2887084186 2.5867016315 66.352485657 84.387619019 81.333168030 6.6209483147 72.578002930 8.5073461533 8.5073461533
 2898.1296387 5.0000000000 13.647999763 -0.016000001 0.2819937170 2.5871932507 67.512130737 83.941825867 81.058525085 6.6126799583 73.044403076 8.4059486389 8.4059486389
 2898.2819824 5.0000000000 13.645000458 -0.018999999 0.2843363583 2.5790290833 67.376419067 84.174682617 81.141281128 6.5627355576 73.111663818 8.3977012634 8.3977012634
 2898.4343262 5.0000000000 13.642999649 -0.018999999 0.3007575274 2.5709133148 67.264610291 84.240455627 81.183784485 6.5079741478 74.073799133 8.3355016708 8.3355016708
 2898.5869141 5.0000000000 13.640999794 -0.023000000 0.2930186987 2.5682609081 68.458404541 84.147102356 81.269409180 6.5039486885 73.879386902 8.2572956085 8.2572956085
 2898.7392578 5.0000000000 13.638999939 -0.024000000 0.2988216281 2.5693337917 70.536361694 84.192802429 81.375000000 6.4958972931 72.544601440 8.1479034424 8.1479034424
 2898.8916016 5.0000000000 13.637001038 -0.025000000 0.2811620831 2.5708115101 70.584892273 84.401641846 81.377906799 6.4799809456 72.638000488 8.1333980560 8.1333980560
 2899.0439453 5.0000000000 13.633998871 -0.022000000 0.2949341238 2.5679440498 69.484214783 84.491233826 81.444114685 6.4769043922 72.636749268 8.1951913834 8.1951913834
 2899.1965332 5.0000000000 13.630999565 -0.022000000 0.3037746847 2.5632507801 69.392433167 84.373527527 81.427795410 6.4647202492 72.478248596 8.2187519073 8.2187519073
 2899.3488770 5.0000000000 13.628000259 -0.021000000 0.3176725209 2.5578763485 70.071937561 84.385772705 81.375000000 6.4300255775 72.022811890 8.1875448227 8.1875448227
 2899.5012207 5.0000000000 13.625000000 -0.016000001 0.3005427718 2.5650396347 71.008018494 84.298118591 81.375000000 6.4340000153 73.546401978 8.1171016693 8.1171016693
 2899.6535645 6.0000000000 13.621000290 -0.014000000 0.2898033261 2.5804846287 73.513168335 84.268203735 81.377899170 6.4339036942 73.918846130 8.1325473785 8.1325473785
 2899.8059082 6.0000000000 13.628999710 -0.014000000 0.2856661379 2.5876710415 77.283470154 84.518623352 81.444114685 6.4140768051 73.886398315 8.0388526917 8.0388526917
 2899.9584961 6.0000000000 13.621000290 -0.014000000 0.2957517207 2.5882084370 79.695159912 84.403015137 81.430816650 6.4260964394 73.630592346 8.0160961151 8.0160961151
 2900.1108398 6.0000000000 13.621000290 -0.017000001 0.3087307513 2.5842645168 81.280021667 84.268417358 81.444381714 6.4413266182 72.480796814 8.0314035416 8.0314035416
 2900.2631836 6.0000000000 13.621999741 -0.017999999 0.2967289388 2.5829634666 82.829841614 84.252510071 81.416290283 6.4920964241 72.295509338 8.0944528580 8.0944528580
 2900.4155273 6.0000000000 13.631999969 -0.017999999 0.2960463166 2.5818021297 81.353485107 84.059799194 81.075355530 6.5120959282 72.608200073 8.1888446808 8.1888446808
 2900.5681152 6.0000000000 13.631999969 -0.013000000 0.2875815928 2.5845422745 81.743591309 83.554130554 80.595245361 6.5270767212 72.779777527 8.3209552765 8.3209552765
 2900.7204590 6.0000000000 13.633000374 -0.011000000 0.3067674637 2.5914440155 82.294578552 83.505584717 80.597686768 6.5390000343 70.582206726 8.4692497253 8.4692497253
 2900.8728027 6.0000000000 13.623998642 -0.010000000 0.3114066422 2.5911521912 81.453414917 83.924255371 80.894195557 6.5388264656 71.701004028 8.5074481964 8.5074481964
 2901.0251465 6.0000000000 13.623000145 -0.008000000 0.3093133867 2.5878403187 81.330184937 84.013931274 81.002899170 6.5118722916 71.865249634 8.4211835861 8.4211835861
 2901.1777344 6.0000000000 13.623000145 -0.006000000 0.3176307082 2.5888457298 77.285469055 84.029701233 81.075111389 6.4960956573 72.879249573 8.3191919327 8.3191919327
 2901.3300781 6.0000000000 13.623000145 -0.006000000 0.3116197586 2.5872797966 80.320144653 84.147102356 81.197204590 6.5078716278 71.795402527 8.2192497253 8.2192497253
 2901.4824219 6.0000000000 13.623000145 -0.010000000 0.3114674985 2.5825545788 80.521652222 84.325981140 81.255805969 6.4880256653 72.014198303 8.2581987381 8.2581987381
 2901.6347656 6.0000000000 13.623000145 -0.014000000 0.3099119365 2.5759036541 84.180198669 84.373687744 81.394020081 6.4919085503 72.199699402 8.2894525528 8.2894525528
