# LAS format log file from PETREL
# Project units are specified as depth units
#==================================================================
~Version information
VERS.   2.0:
WRAP.   NO:
#==================================================================
~Well
STRT .m      581.07043457 :
STOP .m      2909.8947754 :
STEP .m     0.00000000 :
NULL .        -999.250000 :
COMP.           : COMPANY
WELL.  30/6-14   : WELL
FLD.            : FIELD
LOC.            : LOCATION
SRVC.           : SERVICE COMPANY
DATE.  2018-09-11 14:48:30   : Log Export Date {yyyy-MM-dd HH:mm:ss}
PROV.           : PROVINCE
UWI.   30/6-14   : UNIQUE WELL ID
API.            : API NUMBER
#==================================================================
~Curve
DEPT .m                   : DEPTH
Lithology_geolink ._      : Lithology_geolink
CALI .in                  : CALI
DRHO .g/cm3               : DRHO
NPHI .m3/m3               : NPHI
RHOB .g/cm3               : RHOB
GR .gAPI                  : GR
DTC .us/ft                : DTC
RDEP .ohm.m               : RDEP
SP .mV                    : SP
RSHA .ohm.m               : RSHA
RMED .ohm.m               : RMED
~Parameter
#==================================================================
~Ascii
# ...
 2749.5700684 6.0000000000 13.546999931 -0.017999999 0.2543900013 2.5429999828 108.87500000 84.375007629 3.9709999561 65.336997986 8.2031507492 5.6090002060
 2749.7224121 6.0000000000 13.546999931 -0.016000001 0.2524400055 2.5429999828 104.00000000 84.125000000 3.9790000916 65.586997986 8.8648710251 5.6799998283
 2749.8747559 6.0000000000 13.546999931 -0.017000001 0.2504900098 2.5450000763 110.68800354 84.000000000 3.9570000172 65.055999756 8.4629487991 5.7189998627
 2750.0270996 6.0000000000 13.546999931 -0.014000000 0.2607399821 2.5390000343 114.00000000 84.500000000 3.9530000687 66.055999756 8.1266155243 5.6599998474
 2750.1796875 6.0000000000 13.546999931 -0.015000000 0.2656300068 2.5409998894 124.18800354 84.500000000 3.9100000858 65.336997986 7.7980513573 5.5510001183
 2750.3320313 6.0000000000 13.546999931 -0.014000000 0.2685500085 2.5450000763 119.56300354 84.625000000 3.8670001030 65.586997986 7.5597629547 5.4340000153
 2750.4843750 6.0000000000 13.546999931 -0.017000001 0.2597700059 2.5450000763 109.56300354 85.375000000 3.8139998913 65.619003296 7.7065253258 5.3829998970
 2750.6367188 6.0000000000 13.546999931 -0.015000000 0.2656300068 2.5450000763 105.12500000 85.375000000 3.7950000763 65.336997986 7.7338705063 5.3439998627
 2750.7893066 5.0000000000 13.546999931 -0.015000000 0.2539100051 2.5429999828 105.68800354 85.625007629 3.7660000324 66.305999756 8.0768976212 5.3400001526
 2750.9416504 5.0000000000 13.546999931 -0.014000000 0.2651399970 2.5490000248 106.75000000 85.499992371 3.7339999676 67.244003296 8.9033460617 5.3200001717
 2751.0939941 5.0000000000 13.546999931 -0.017000001 0.2622100115 2.5490000248 108.43800354 85.499992371 3.7030000687 65.711997986 8.0258302689 5.3130002022
 2751.2463379 5.0000000000 13.546999931 -0.013000000 0.2729499936 2.5529999733 112.50000000 84.875000000 3.6840000153 65.525001526 7.9453744888 5.2729997635
 2751.3986816 5.0000000000 13.546999931 -0.012000000 0.2587899864 2.5510001183 110.56300354 85.250000000 3.6600000858 66.025001526 7.9221105576 5.2620000839
 2751.5512695 5.0000000000 13.546999931 -0.009000000 0.2602500021 2.5469999313 106.93800354 85.250000000 3.6559998989 65.494003296 7.4704518318 5.2620000839
 2751.7036133 5.0000000000 13.546999931 -0.006000000 0.2524400055 2.5490000248 101.75000000 85.499992371 3.6719999313 64.961997986 7.4610257149 5.2969999313
 2751.8559570 5.0000000000 13.546999931 -0.007000000 0.2568399906 2.5490000248 108.50000000 86.000000000 3.6519999504 63.993999481 7.2430515289 5.3090000153
 2752.0083008 5.0000000000 13.546999931 -0.007000000 0.2558600008 2.5529999733 112.56300354 85.875000000 3.6619999409 63.211997986 7.2619037628 5.3439998627
 2752.1608887 6.0000000000 13.546999931 -0.012000000 0.2695299983 2.5469999313 115.62500000 85.875000000 3.6540000439 64.994003296 7.1055030823 5.3590002060
 2752.3132324 6.0000000000 13.546999931 -0.013000000 0.2739299834 2.5529999733 113.18800354 86.250000000 3.6429998875 64.430999756 7.4787979126 5.2769999504
 2752.4655762 6.0000000000 13.546999931 -0.013000000 0.2753899992 2.5550000668 113.56300354 85.625007629 3.6170001030 64.430999756 7.4221858978 5.2150001526
 2752.6179199 6.0000000000 13.546999931 -0.011000000 0.2709999979 2.5639998913 113.43800354 85.625007629 3.6089999676 64.180999756 7.5195293427 5.2189998627
 2752.7705078 6.0000000000 13.546999931 -0.010000000 0.2631800175 2.5639998913 112.00000000 85.250000000 3.5959999561 64.930999756 8.6762819290 5.2379999161
 2752.9228516 6.0000000000 13.546999931 -0.010000000 0.2617200017 2.5680000782 109.25000000 85.499992371 3.6019999981 64.680999756 7.5306954384 5.2420001030
 2753.0751953 6.0000000000 13.546999931 -0.011000000 0.2666000128 2.5629999638 110.37500000 85.875000000 3.5899999142 64.150001526 7.7223720551 5.2069997787
 2753.2275391 6.0000000000 13.546999931 -0.012000000 0.2641600072 2.5610001087 111.12500000 85.250000000 3.6370000839 64.650001526 7.8125681877 5.2420001030
 2753.3798828 5.0000000000 13.546999931 -0.012000000 0.2622100115 2.5639998913 109.31300354 84.000000000 3.6349999905 64.930999756 9.8033847809 5.5590000153
 2753.5324707 5.0000000000 13.546999931 -0.017999999 0.2451199889 2.5680000782 97.500000000 84.249992371 3.6210000515 64.961997986 7.8303747177 5.8909997940
 2753.6848145 5.0000000000 13.546999931 -0.017000001 0.2524400055 2.5659999847 99.875000000 84.875000000 3.6329998970 64.930999756 8.0692110062 6.0469999313
 2753.8371582 5.0000000000 13.546999931 -0.016000001 0.2587899864 2.5639998913 101.56300354 85.000000000 3.6189999580 65.461997986 8.1943998337 5.8359999657
 2753.9895020 5.0000000000 13.546999931 -0.014000000 0.2748999894 2.5550000668 107.12500000 85.250000000 3.6170001030 66.244003296 8.9652786255 5.6250000000
 2754.1420898 5.0000000000 13.546999931 -0.012000000 0.2602500021 2.5590000153 108.43800354 85.875000000 3.6129999161 65.494003296 7.9373173714 5.4099998474
 2754.2944336 5.0000000000 13.546999931 -0.013000000 0.2573200166 2.5550000668 104.43800354 86.250000000 3.6070001125 65.244003296 7.5791411400 5.3359999657
 2754.4467773 5.0000000000 13.546999931 -0.010000000 0.2568399906 2.5610001087 108.75000000 86.250000000 3.5659999847 66.275001526 7.0147171021 5.1909999847
 2754.5991211 6.0000000000 13.546999931 -0.009000000 0.2680699825 2.5659999847 109.68800354 86.500000000 3.5390000343 66.555999756 7.2369132042 5.1129999161
 2754.7517090 6.0000000000 13.546999931 -0.011000000 0.2700200081 2.5659999847 111.18800354 86.875007629 3.5000000000 65.400001526 7.4253973961 5.0700001717
 2754.9040527 6.0000000000 13.546999931 -0.010000000 0.2705100179 2.5680000782 116.18800354 87.375000000 3.4860000610 63.900001526 7.2585382462 5.0199999809
 2755.0563965 6.0000000000 13.616998672 -0.014000000 0.2802700102 2.5590000153 116.00000000 87.250000000 3.4570000172 63.900001526 7.1643013954 5.0079998970
 2755.2087402 6.0000000000 13.625000000 -0.010000000 0.2851600051 2.5550000668 121.37500000 87.625000000 3.4590001106 64.400001526 7.3968763351 4.9959998131
 2755.3610840 6.0000000000 13.633000374 -0.016000001 0.2807599902 2.5450000763 116.25000000 87.375000000 3.4509999752 64.400001526 7.3283367157 5.0000000000
 2755.5136719 6.0000000000 13.633000374 -0.017000001 0.2773399949 2.5450000763 115.31300354 87.250000000 3.4430000782 64.650001526 7.5502853394 5.0199999809
 2755.6660156 6.0000000000 13.633000374 -0.016000001 0.2734400034 2.5490000248 117.50000000 87.375000000 3.4340000153 64.650001526 7.4184265137 5.0469999313
 2755.8183594 6.0000000000 13.633000374 -0.013000000 0.2788099945 2.5550000668 115.50000000 87.250000000 3.4279999733 66.400001526 7.4607934952 5.0159997940
 2755.9707031 6.0000000000 13.633000374 -0.009000000 0.2778300047 2.5529999733 111.12500000 87.250000000 3.4240000248 65.900001526 7.4450769424 5.0159997940
 2756.1232910 6.0000000000 13.633000374 -0.012000000 0.2778300047 2.5469999313 111.43800354 87.750000000 3.4340000153 65.055999756 7.4729104042 5.0269999504
 2756.2756348 6.0000000000 13.633000374 -0.013000000 0.2841799855 2.5450000763 109.75000000 87.500000000 3.4300000668 66.305999756 7.9006247520 5.0229997635
 2756.4279785 6.0000000000 13.633000374 -0.017999999 0.2817400098 2.5429999828 111.93800354 87.125000000 3.4409999847 67.055999756 7.6731038094 5.0199999809
 2756.5803223 6.0000000000 13.633000374 -0.017000001 0.2753899992 2.5469999313 106.87500000 87.500000000 3.4360001087 67.025001526 7.3993172646 4.9840002060
 2756.7329102 5.0000000000 13.633000374 -0.015000000 0.2641600072 2.5510001183 112.50000000 87.500000000 3.4200000763 66.275001526 7.1488008499 4.9530000687
 2756.8852539 5.0000000000 13.663999557 -0.009000000 0.2587899864 2.5629999638 110.00000000 86.875007629 3.4200000763 66.275001526 7.1838846207 4.9219999313
 2757.0375977 5.0000000000 13.687999725 -0.007000000 0.2583000064 2.5629999638 106.43800354 88.125007629 3.4119999409 66.994003296 7.2697243690 4.8909997940
 2757.1899414 5.0000000000 13.718998909 -0.008000000 0.2553700209 2.5550000668 110.43800354 87.625000000 3.3949999809 65.744003296 7.2341728210 4.9099998474
