# LAS format log file from PETREL
# Project units are specified as depth units
#==================================================================
~Version information
VERS.   2.0:
WRAP.   NO:
#==================================================================
~Well
STRT .m      2773.3432617 :
STOP .m      3341.0317383 :
STEP .m     0.00000000 :
NULL .        -999.250000 :
COMP.           : COMPANY
WELL.  30/6-22   : WELL
FLD.            : FIELD
LOC.            : LOCATION
SRVC.           : SERVICE COMPANY
DATE.  2018-09-11 14:48:30   : Log Export Date {yyyy-MM-dd HH:mm:ss}
PROV.           : PROVINCE
UWI.   30/6-22   : UNIQUE WELL ID
API.            : API NUMBER
#==================================================================
~Curve
DEPT .m                   : DEPTH
Lithology_geolink ._      : Lithology_geolink
CALI .in                  : CALI
DRHO .g/cm3               : DRHO
NPHI .m3/m3               : NPHI
RHOB .g/cm3               : RHOB
GR .gAPI                  : GR
DTC .us/ft                : DTC
DTE .us/ft                : DTE
RDEP .ohm.m               : RDEP
SP .mV                    : SP
RSHA .ohm.m               : RSHA
RMED .ohm.m               : RMED
~Parameter
#==================================================================
~Ascii
# ...
 3226.8845215 6.0000000000 9.2189998627 -0.004000000 0.2414699942 2.6300001144 97.027519226 81.092208862 81.199531555 5.7930436134  -999.250000 7.5680737495 7.5680737495
 3227.0368652 6.0000000000 9.2189998627 -0.010000000 0.2396599948 2.6210000515 97.972259521 81.505073547 81.450424194 5.8200626373  -999.250000 7.6140284538 7.6140284538
 3227.1892090 6.0000000000 9.2189998627 -0.022000000 0.2409300059 2.6400001049 97.513298035 81.569297791 81.461753845 5.8590755463  -999.250000 7.6319742203 7.6319742203
 3227.3415527 6.0000000000 9.2060003281 -0.016000001 0.2474399954 2.6240000725 98.323661804 81.456542969 81.268867493 5.9060449600  -999.250000 7.6160178185 7.6160178185
 3227.4941406 6.0000000000 9.1660003662 -0.028999999 0.2535299957 2.6159999371 101.23001099 80.838050842 80.975746155 5.9340481758  -999.250000 7.6272940636 7.6272940636
 3227.6464844 6.0000000000 9.1169996262 -0.029999999 0.2569499910 2.5999999046 101.54434204 81.045417786 80.861679077 5.9490127563  -999.250000 7.7191839218 7.7191839218
 3227.7988281 6.0000000000 9.0839996338 -0.025000000 0.2512400150 2.6050000191 99.885551453 81.092208862 80.996810913 5.9570336342  -999.250000 7.8340768814 7.8340768814
 3227.9511719 6.0000000000 9.0719995499 -0.020000000 0.2571600080 2.5940001011 98.358207703 81.092208862 81.235260010 5.9780449867  -999.250000 7.8818683624 7.8818683624
 3228.1037598 6.0000000000 9.0699996948 -0.020000000 0.2624000013 2.5829999447 96.618377686 81.804237366 81.589477539 6.0060930252  -999.250000 7.7995872498 7.7995872498
 3228.2561035 6.0000000000 9.0699996948 -0.014000000 0.2727400064 2.6150000095 97.051361084 82.142601013 82.035476685 6.0349936485  -999.250000 7.6709599495 7.6709599495
 3228.4084473 6.0000000000 9.0699996948 -0.014000000 0.2627800107 2.6240000725 98.521400452 82.064033508 82.225181580 6.0309362411  -999.250000 7.6460399628 7.6460399628
 3228.5607910 6.0000000000 9.0699996948 -0.021000000 0.2720700204 2.6389999390 98.147766113 82.046302795 82.174140930 5.9909410477  -999.250000 7.6710114479 7.6710114479
 3228.7133789 6.0000000000 9.0699996948 -0.017000001 0.2741099894 2.6289999485 99.243637085 82.344932556 82.076454163 5.9539070129  -999.250000 7.6779999733 7.6779999733
 3228.8657227 6.0000000000 9.0699996948 -0.023000000 0.2735799849 2.6289999485 98.503532410 81.793235779 81.940803528 5.9249329567  -999.250000 7.6780319214 7.6780319214
 3229.0180664 6.0000000000 9.0699996948 -0.028000001 0.2575300038 2.6530001163 96.342208862 81.999710083 82.003059387 5.8829259872  -999.250000 7.6979999542 7.6979999542
 3229.1704102 6.0000000000 9.0699996948 -0.030999999 0.2533299923 2.6770000458 97.093338013 82.459091187 82.170692444 5.8369436264  -999.250000 7.6979007721 7.6979007721
 3229.3227539 6.0000000000 9.0699996948 -0.024000000 0.2536900043 2.6840000153 97.921340942 81.997726440 82.191947937 5.8019409180  -999.250000 7.6358461380 7.6358461380
 3229.4753418 6.0000000000 9.0699996948 -0.046000000 0.2644599974 2.6380000114 96.899780273 82.441413879 82.241867065 5.7648558617  -999.250000 7.5397758484 7.5397758484
 3229.6276855 6.0000000000 9.0699996948 -0.057999998 0.2701300085 2.6219999790 99.328857422 82.224487305 82.353721619 5.7198987007  -999.250000 7.4699659348 7.4699659348
 3229.7800293 6.0000000000 9.0749998093 -0.048000000 0.2713699937 2.6549999714 102.35729980 82.476821899 82.553451538 5.6568832397  -999.250000 7.4490270615 7.4490270615
 3229.9323730 6.0000000000 9.0889997482 -0.039000001 0.2591699958 2.6459999084 101.92277527 82.935424805 82.776145935 5.5839185715  -999.250000 7.4659485817 7.4659485817
 3230.0849609 6.0000000000 9.1049995422 -0.046999998 0.2581999898 2.6099998951 103.03222656 83.297561646 83.220352173 5.5328722000  -999.250000 7.4336128235 7.4336128235
 3230.2373047 6.0000000000 9.1070003510 -0.052999999 0.2595700026 2.5880000591 103.72908783 83.575286865 83.717048645 5.4929375648  -999.250000 7.3128080368 7.3128080368
 3230.3896484 6.0000000000 9.1070003510 -0.052000001 0.2809399962 2.6029999256 105.65598297 84.320915222 84.073852539 5.4539422989  -999.250000 7.1928796768 7.1928796768
 3230.5419922 6.0000000000 9.1190004349 -0.028000001 0.2739500105 2.6240000725 107.51763916 84.431297302 84.292503357 5.4179139137  -999.250000 7.1178846359 7.1178846359
 3230.6945801 6.0000000000 9.1230001450 -0.028000001 0.2692300081 2.6129999161 108.54300690 84.314361572 84.535903931 5.3637590408  -999.250000 7.0456790924 7.0456790924
 3230.8469238 7.0000000000 9.1180000305 -0.022000000 0.2583299875 2.5899999142 109.78414917 84.943855286 84.674644470 5.2886881828  -999.250000 6.9454770088 6.9454770088
 3230.9992676 7.0000000000 9.1129999161 -0.005000000 0.2586199939 2.6070001125 109.39561462 84.926734924 84.806091309 5.2238845825  -999.250000 6.8367691040 6.8367691040
 3231.1516113 7.0000000000 9.0930004120 0.0080000004 0.2699199915 2.6040000916 108.34281921 84.908401489 84.964630127 5.1878976822  -999.250000 6.7649230957 6.7649230957
 3231.3039551 7.0000000000 9.0749998093 0.0049999999 0.2613599896 2.5940001011 108.28247833 84.908401489 85.069793701 5.1558847427  -999.250000 6.7410097122 6.7410097122
 3231.4565430 7.0000000000 9.0699996948 0.0030000000 0.2553199828 2.5959999561 107.49868774 85.321189880 85.212532043 5.1198463440  -999.250000 6.7440285683 6.7440285683
 3231.6088867 7.0000000000 9.0699996948 -0.003000000 0.2429599911 2.6029999256 107.85009766 84.972610474 85.215476990 5.0879678726  -999.250000 6.7499103546 6.7499103546
 3231.7612305 7.0000000000 9.0699996948 -0.007000000 0.2421699911 2.6219999790 108.49845123 85.026268005 85.158714294 5.0780162811  -999.250000 6.7218561172 6.7218561172
 3231.9135742 7.0000000000 9.0699996948 -0.012000000 0.2533299923 2.6170001030 107.39248657 85.339050293 85.153579712 5.0830192566  -999.250000 6.6769485474 6.6769485474
 3232.0661621 7.0000000000 9.0810003281 -0.009000000 0.2495599985 2.6129999161 106.61886597 85.267105103 85.146911621 5.0890240669  -999.250000 6.6610283852 6.6610283852
 3232.2185059 7.0000000000 9.1190004349 -0.007000000 0.2621699870 2.6119999886 108.04946136 84.954208374 85.009849548 5.0940237045  -999.250000 6.6668462753 6.6668462753
 3232.3708496 7.0000000000 9.1379995346 -0.003000000 0.2555199862 2.6199998856 109.79932404 84.908401489 84.901473999 5.0990800858  -999.250000 6.6348209381 6.6348209381
 3232.5231934 7.0000000000 9.0939998627 -0.001000000 0.2473600060 2.6189999580 108.34127045 84.612785339 84.733863831 5.1242341995  -999.250000 6.5790863037 6.5790863037
 3232.6757813 6.0000000000 9.0349998474 0.0000000000 0.2246699929 2.6159999371 106.86062622 83.920372009 83.837455750 5.1976299286  -999.250000 6.6064181328 6.6064181328
 3232.8281250 6.0000000000 8.9799995422 -0.006000000 0.2113400102 2.6050000191 104.91152191 82.285072327 82.271087646 5.3287248611  -999.250000 6.6934032440 6.6934032440
 3232.9804688 6.0000000000 8.9399995804 -0.005000000 0.2168600112 2.6199998856 103.14900208 80.395057678 80.322921753 5.4794583321  -999.250000 6.7774648666 6.7774648666
 3233.1328125 6.0000000000 8.9300003052 -0.002000000 0.2141900063 2.6270000935 101.57046509 78.487045288 78.338096619 5.6225161552  -999.250000 6.9229230881 6.9229230881
 3233.2851563 6.0000000000 8.9300003052 -0.010000000 0.2166000009 2.6640000343 94.221916199 76.581604004 76.540695190 5.7838687897  -999.250000 7.2114486694 7.2114486694
 3233.4377441 6.0000000000 8.9300003052 -0.014000000 0.2183700055 2.6689999104 85.472358704 75.496528625 75.401962280 6.0556988716  -999.250000 7.6651778221 7.6651778221
 3233.5900879 5.0000000000 8.9300003052 -0.015000000 0.2300600111 2.6809999943 82.231285095 74.542526245 74.781921387 6.4090032578  -999.250000 8.3262443542 8.3262443542
 3233.7424316 5.0000000000 8.9300003052 -0.025000000 0.2388200015 2.6610000134 82.949325562 74.517425537 74.611145020 6.7217211723  -999.250000 9.0252246857 9.0252246857
 3233.8947754 5.0000000000 8.9300003052 -0.048999999 0.2430599928 2.6649999619 84.610679626 74.842468262 74.749557495 6.9465031624  -999.250000 9.4063301086 9.4063301086
 3234.0473633 5.0000000000 8.9300003052 -0.044000000 0.2425099909 2.7190001011 86.066749573 75.199523926 74.911125183 7.1036925316  -999.250000 9.5090675354 9.5090675354
