# LAS format log file from PETREL
# Project units are specified as depth units
#==================================================================
~Version information
VERS.   2.0:
WRAP.   NO:
#==================================================================
~Well
STRT .m      933.99749756 :
STOP .m      3610.7521973 :
STEP .m     0.00000000 :
NULL .        -999.250000 :
COMP.           : COMPANY
WELL.  30/6-8   : WELL
FLD.            : FIELD
LOC.            : LOCATION
SRVC.           : SERVICE COMPANY
DATE.  2018-09-11 14:48:31   : Log Export Date {yyyy-MM-dd HH:mm:ss}
PROV.           : PROVINCE
UWI.   30/6-8   : UNIQUE WELL ID
API.            : API NUMBER
#==================================================================
~Curve
DEPT .m                   : DEPTH
Lithology_geolink ._      : Lithology_geolink
CALI .in                  : CALI
DRHO .g/cm3               : DRHO
NPHI .m3/m3               : NPHI
RHOB .g/cm3               : RHOB
GR .gAPI                  : GR
DTC .us/ft                : DTC
DTE .us/ft                : DTE
RDEP .ohm.m               : RDEP
SP .mV                    : SP
RSHA .ohm.m               : RSHA
RMED .ohm.m               : RMED
~Parameter
#==================================================================
~Ascii
# ...
 3070.0368652 5.0000000000 12.595000267 -0.023000000 0.3481737375 2.3399410248 64.040672302 98.747863770 95.767402649 9.9758625031 93.137153625 20.756950378 20.756950378
 3070.1892090 18.000000000 12.602999687 -0.017999999 0.3505113423 2.2552940845 58.198375702 101.91664124 99.063117981 10.771723747 91.890007019 30.656126022 30.656126022
 3070.3415527 18.000000000 12.611001015 -0.014000000 0.3575987518 2.1430153847 49.610000610 106.91066742 103.98126221 11.819999695 92.293998718 40.094001770 40.094001770
 3070.4941406 18.000000000 12.619000435 -0.014000000 0.3693837523 1.9792881012 40.886001587 110.50807953 107.62706757 13.421999931 92.638000488 43.030998230 43.030998230
 3070.6464844 18.000000000 12.626000404 -0.014000000 0.4017716348 1.7960269451 35.465686798 115.38504791 112.55581665 16.822549820 92.544151306 40.379249573 40.379249573
 3070.7988281 18.000000000 12.633999825 -0.014000000 0.4464900196 1.6499153376 30.472002029 121.33329773 118.34719849 22.443984985 92.918395996 32.356872559 32.356872559
 3070.9511719 18.000000000 12.644000053 -0.012000000 0.4963860512 1.5615750551 26.600000381 124.19354248 121.22237396 24.843999863 92.638000488 26.516000748 26.516000748
 3071.1037598 18.000000000 12.654000282 -0.012000000 0.5251225829 1.5127620697 24.635999680 125.91984558 123.10740662 19.906000137 93.638000488 30.202999115 30.202999115
 3071.2561035 18.000000000 12.664999962 -0.017000001 0.5352997780 1.4817346334 24.003015518 126.49005890 123.67942047 12.628662109 94.012397766 35.928825378 35.928825378
 3071.4084473 18.000000000 12.678999901 -0.020000000 0.5476323366 1.4646276236 23.907152176 124.29814148 121.29561615 7.6290063858 93.233253479 41.491085052 41.491085052
 3071.5607910 18.000000000 12.694999695 -0.018999999 0.5614334941 1.4713981152 23.636867523 118.25945282 115.22776031 4.7203121185 94.446098328 17.779150009 17.779150009
 3071.7133789 18.000000000 12.693000793 -0.017000001 0.5072031617 1.5318788290 22.542999268 108.96153259 106.00237274 3.2890000343 95.107002258 6.2150001526 6.2150001526
 3071.8657227 18.000000000 12.651000023 -0.017000001 0.3958261013 1.6846827269 20.812000275 98.062927246 94.989021301 2.4240000248 94.949996948 2.6270000935 2.6270000935
 3072.0180664 3.0000000000 12.553001404 -0.015000000 0.2624265552 1.9117624760 20.738119125 87.823471069 84.812347412 1.9527552128 95.356353760 1.5417391062 1.5417391062
 3072.1704102 3.0000000000 12.416000366 -0.017000001 0.1730365902 2.1294693947 22.098815918 81.525909424 78.600227356 1.6534792185 96.105796814 1.3233476877 1.3233476877
 3072.3227539 3.0000000000 12.303000450 -0.023000000 0.1522167176 2.2581539154 23.232000351 79.185729980 76.307563782 1.4400000572 97.138000488 1.3710000515 1.3710000515
 3072.4753418 3.0000000000 12.250000954 -0.026000001 0.1501805484 2.2947609425 23.594999313 79.045074463 76.085800171 1.2819999456 96.607002258 1.5030000210 1.5030000210
 3072.6276855 3.0000000000 12.225000381 -0.023000000 0.1567528397 2.2971472740 24.102188110 79.036178589 76.084449768 1.1901472807 95.639549255 1.6877039671 1.6877039671
 3072.7800293 3.0000000000 12.206000328 -0.018999999 0.1585088223 2.3023581505 24.964616776 78.293716431 75.494705200 1.1460705996 96.231048584 1.8667131662 1.8667131662
 3072.9323730 3.0000000000 12.196999550 -0.015000000 0.1515305787 2.3162941933 25.058000565 78.074417114 75.130798340 1.1330000162 96.138000488 1.9919999838 1.9919999838
 3073.0849609 3.0000000000 12.194000244 -0.015000000 0.1394072771 2.3334724903 24.537000656 78.300392151 75.275222778 1.1430000067 96.482002258 2.0639998913 2.0639998913
 3073.2373047 3.0000000000 12.189000130 -0.017999999 0.1323313266 2.3418185711 24.658805847 78.481819153 75.552627563 1.1579760313 95.950851440 1.9511808157 1.9511808157
 3073.3896484 3.0000000000 12.190999985 -0.022000000 0.1331636161 2.3369486332 25.305961609 79.255691528 76.436454773 1.1739743948 96.356353760 1.7063926458 1.7063926458
 3073.5419922 3.0000000000 12.204000473 -0.023000000 0.1354299337 2.3265442848 26.224054337 80.382812500 77.437866211 1.2009135485 96.449699402 1.4249024391 1.4249024391
 3073.6945801 3.0000000000 12.218999863 -0.021000000 0.1416401267 2.3194949627 26.947000504 80.926292419 77.914817810 1.2380000353 96.418998718 1.2719999552 1.2719999552
 3073.8469238 3.0000000000 12.229998589 -0.018999999 0.1479123980 2.3188865185 27.247999191 81.444526672 78.496406555 1.2799999714 95.324996948 1.2849999666 1.2849999666
 3073.9992676 3.0000000000 12.237000465 -0.018999999 0.1494033784 2.3249256611 27.346841812 81.674621582 78.702056885 1.3468928337 95.606552124 1.3898320198 1.3898320198
 3074.1516113 3.0000000000 12.248999596 -0.017999999 0.1452770680 2.3346443176 28.349390030 82.441642761 79.586013794 1.4578220844 95.607002258 1.4708701372 1.4708701372
 3074.3041992 3.0000000000 12.274999619 -0.017999999 0.1434817761 2.3432826996 29.881000519 83.325790405 80.519409180 1.6119999886 94.232002258 1.4809999466 1.4809999466
 3074.4565430 3.0000000000 12.314000130 -0.020000000 0.1533956677 2.3433120251 29.820999146 83.685859680 80.651229858 1.7990000248 94.013000488 1.5599999428 1.5599999428
 3074.6088867 3.0000000000 12.336000443 -0.022000000 0.1631478965 2.3361651897 28.964372635 84.174682617 81.228675842 1.9797104597 94.262603760 1.8984576464 1.8984576464
 3074.7612305 3.0000000000 12.331998825 -0.021000000 0.1618142724 2.3304922581 29.155691147 83.500236511 80.622047424 2.1447355747 94.762199402 2.5190048218 2.5190048218
 3074.9135742 3.0000000000 12.321998596 -0.020000000 0.1519921869 2.3341979980 29.485000610 81.636825562 78.667564392 2.3340001106 93.732002258 2.9590001106 2.9590001106
 3075.0661621 3.0000000000 12.312999725 -0.023000000 0.1408570707 2.3479080200 31.037000656 79.542114258 76.456459045 2.5469999313 93.888000488 2.8420000076 2.8420000076
 3075.2185059 3.0000000000 12.308000565 -0.025000000 0.1305888891 2.3702771664 30.032609940 77.388481140 74.326576233 2.7127344608 93.732254028 2.7251870632 2.7251870632
 3075.3708496 3.0000000000 12.309000015 -0.024000000 0.1236549169 2.3951783180 28.798978806 76.041580200 73.093078613 2.8218252659 94.137351990 2.7459664345 2.7459664345
 3075.5231934 3.0000000000 12.310000420 -0.018999999 0.1205089092 2.4128501415 29.597431183 76.458351135 73.435905457 2.9137055874 93.047500610 2.8028175831 2.8028175831
 3075.6757813 3.0000000000 12.310000420 -0.016000001 0.1323331147 2.4160273075 32.595001221 77.774803162 74.828231812 3.0039999485 92.388000488 2.9389998913 2.9389998913
 3075.8281250 3.0000000000 12.310999870 -0.015000000 0.1457678825 2.4109239578 34.499000549 78.685684204 75.876113892 3.1429998875 92.513000488 3.2479999065 3.2479999065
 3075.9804688 5.0000000000 12.326000214 -0.013000000 0.1506663859 2.4077181816 36.416923523 79.345237732 76.468505859 3.3955950737 91.733253479 3.6104192734 3.6104192734
 3076.1328125 5.0000000000 12.368000031 -0.007000000 0.1421652883 2.4150750637 42.105747223 79.332832336 76.291778564 3.7568414211 91.513702393 3.9987552166 3.9987552166
 3076.2854004 5.0000000000 12.411999702 -0.003000000 0.1330167502 2.4380669594 49.359001160 78.334518433 75.338493347 4.1989998817 91.668998718 4.6599998474 4.6599998474
 3076.4377441 5.0000000000 12.470000267 -0.006000000 0.1413940489 2.4674754143 53.099998474 77.422111511 74.589096069 4.7300000191 90.699996948 5.6090002060 5.6090002060
 3076.5900879 5.0000000000 12.571000099 -0.013000000 0.1688800156 2.4943716526 54.138336182 77.422294617 74.462173462 5.3310365677 89.889297485 6.4007310867 6.4007310867
 3076.7424316 5.0000000000 12.685000420 -0.017999999 0.1938368976 2.5106308460 54.129020691 77.831138611 74.869201660 6.0029234886 89.357856750 7.1468043327 7.1468043327
 3076.8947754 5.0000000000 12.756999969 -0.020000000 0.2106169164 2.5162615776 53.653999329 78.194702148 75.338134766 6.7069997787 88.699996948 8.3199996948 8.3199996948
 3077.0473633 5.0000000000 12.814000130 -0.021000000 0.2274306566 2.5169966221 53.016998291 78.418899536 75.401565552 7.3790001869 89.043998718 9.6879997253 9.6879997253
 3077.1997070 5.0000000000 12.838999748 -0.018999999 0.2431965172 2.5177185535 53.727859497 77.668289185 74.700965881 7.9720497131 87.951744080 9.5472259521 9.5472259521
