# LAS format log file from PETREL
# Project units are specified as depth units
#==================================================================
~Version information
VERS.   2.0:
WRAP.   NO:
#==================================================================
~Well
STRT .m      2773.3432617 :
STOP .m      3341.0317383 :
STEP .m     0.00000000 :
NULL .        -999.250000 :
COMP.           : COMPANY
WELL.  30/6-22   : WELL
FLD.            : FIELD
LOC.            : LOCATION
SRVC.           : SERVICE COMPANY
DATE.  2018-09-11 14:48:30   : Log Export Date {yyyy-MM-dd HH:mm:ss}
PROV.           : PROVINCE
UWI.   30/6-22   : UNIQUE WELL ID
API.            : API NUMBER
#==================================================================
~Curve
DEPT .m                   : DEPTH
Lithology_geolink ._      : Lithology_geolink
CALI .in                  : CALI
DRHO .g/cm3               : DRHO
NPHI .m3/m3               : NPHI
RHOB .g/cm3               : RHOB
GR .gAPI                  : GR
DTC .us/ft                : DTC
DTE .us/ft                : DTE
RDEP .ohm.m               : RDEP
SP .mV                    : SP
RSHA .ohm.m               : RSHA
RMED .ohm.m               : RMED
~Parameter
#==================================================================
~Ascii
 2773.3432617 7.0000000000 3.3629999161 -0.925000012 0.4946099818 1.7920000553 164.50120544 86.211906433 81.677101135 7.4590191841 40.000000000 8.0207881927 8.0207881927
 2773.4956055 7.0000000000 3.3629999161 -0.916000009 0.4846599996 1.7970000505 164.56610107 85.165580750 80.506561279 7.1499228477 36.000000000 7.9973750114 7.9973750114
 2773.6479492 7.0000000000 3.3629999161 -0.916999996 0.4327099919 1.7920000553 158.44839478 85.430282593 80.563919067 6.9373340607 32.000000000 7.8281664848 7.8281664848
 2773.8005371 6.0000000000 3.3629999161 -0.925000012 0.4545800090 1.7840000391 153.12860107 85.935211182 81.122528076 7.0746827126 26.000000000 7.6381535530 7.6381535530
 2773.9528809 6.0000000000 3.3629999161 -0.926999986 0.4550099969 1.7879999876 153.57090759 87.043388367 82.145843506 7.0407304764 19.000000000 7.5507307053 7.5507307053
 2774.1052246 6.0000000000 3.3629999161 -0.935999990 0.4954200089 1.7949999571 160.86297607 88.114112854 83.365844727 6.9093747139 7.5000000000 7.5214710236 7.5214710236
 2774.2575684 6.0000000000 3.3629999161 -0.958999991 0.4993299842 1.7890000343 159.70553589 88.039428711 82.910041809 6.8438844681 -16.25000000 7.3622016907 7.3622016907
 2774.4101563 7.0000000000 3.3629999161 -0.963000000 0.4915599823 1.7999999523 168.01960754 87.089042664 82.457550049 6.7300081253 5.5000000000 7.1751074791 7.1751074791
 2774.5625000 7.0000000000 3.3629999161 -0.968999982 0.4840399921 1.7949999571 169.86659241 87.250648499 82.378799438 6.8204803467 56.000000000 7.0074419975 7.0074419975
 2774.7148438 7.0000000000 3.3629999161 -0.976000011 0.4815000296 1.7890000343 181.77644348 88.041725159 83.076774597 6.9730963707 56.000000000 6.9496150017 6.9496150017
 2774.8671875 7.0000000000 3.3629999161 -0.971000016 0.4820100069 1.7799999714 171.66706848 87.941535950 83.240943909 6.9842977524 53.500000000 6.9107017517 6.9107017517
 2775.0195313 7.0000000000 3.3629999161 -0.945999980 0.4899899960 1.8120000362 175.95559692 88.704208374 83.751312256 7.1189985275 52.000000000 6.9842863083 6.9842863083
 2775.1721191 7.0000000000 3.3629999161 -0.939000010 0.4804399908 1.8159999847 171.48077393 89.278350830 84.470252991 7.2237310410 50.000000000 7.1193752289 7.1193752289
 2775.3244629 7.0000000000 3.3629999161 -0.927999973 0.5010800362 1.8289999962 182.37258911 88.301429749 83.614768982 7.4053559303 47.500000000 7.3662691116 7.3662691116
 2775.4768066 7.0000000000 3.3629999161 -0.920000017 0.4722900093 1.8209999800 182.10096741 88.651794434 83.889183044 7.7540383339 44.000000000 7.6025094986 7.6025094986
 2775.6291504 7.0000000000 3.3629999161 -0.916999996 0.4815900028 1.8279999495 179.54939270 87.892524719 82.890548706 8.0676431656 39.000000000 7.8638033867 7.8638033867
 2775.7817383 7.0000000000 3.3629999161 -0.917999983 0.4753099680 1.8200000525 171.67308044 87.684806824 82.939750671 8.1341724396 30.000000000 8.1543073654 8.1543073654
 2775.9340820 7.0000000000 3.3629999161 -0.917999983 0.4950200021 1.8220000267 163.68629456 88.298362732 83.597640991 8.1533660889 14.000000000 8.2891149521 8.2891149521
 2776.0864258 6.0000000000 3.3629999161 -0.919000030 0.4968000054 1.8279999495 157.09735107 89.723571777 84.444015503 8.2947301865 54.000000000 8.3013362885 8.3013362885
 2776.2387695 6.0000000000 3.3629999161 -0.925000012 0.4934899807 1.8359999657 154.33534241 89.709030151 84.916687012 8.3678655624 58.000000000 8.3373756409 8.3373756409
 2776.3913574 6.0000000000 3.3629999161 -0.926999986 0.4847600162 1.8530000448 163.22720337 89.178298950 84.192764282 8.1493101120 56.000000000 8.4802322388 8.4802322388
 2776.5437012 6.0000000000 3.3629999161 -0.929000020 0.4692599773 1.8619999886 172.27403259 88.356071472 83.508811951 8.2633943558 53.000000000 8.5892400742 8.5892400742
 2776.6960449 6.0000000000 3.3629999161 -0.911000013 0.4547399879 1.8990000486 174.62980652 87.536544800 82.880218506 8.0938549042 48.500000000 8.6144809723 8.6144809723
 2776.8483887 6.0000000000 3.3629999161 -0.906000018 0.4535399973 1.9210000038 162.22596741 87.102836609 82.154960632 7.6640958786 41.500000000 8.6635189056 8.6635189056
 2777.0007324 6.0000000000 3.3629999161 -0.897000015 0.4702099860 1.9299999475 159.74279785 87.262878418 82.308685303 7.3606991768 44.500000000 8.6135206223 8.6135206223
 2777.1533203 6.0000000000 3.3629999161 -0.876999974 0.4882000089 1.9500000477 159.09133911 86.372573853 81.669334412 6.9124903679 57.000000000 8.5640001297 8.5640001297
 2777.3056641 6.0000000000 3.3629999161 -0.869000018 0.4615000188 1.9559999704 168.50601196 85.493476868 80.506546021 6.4467401505 60.500000000 8.5629520416 8.5629520416
 2777.4580078 6.0000000000 3.3629999161 -0.871999979 0.4522700012 1.9600000381 169.08053589 83.209938049 78.358146667 6.3159422874 72.500000000 8.4548845291 8.4548845291
 2777.6103516 6.0000000000 3.3629999161 -0.864000022 0.4418600202 1.9819999933 164.44119263 80.491020203 75.694030762 6.2078351974 72.500000000 8.4477519989 8.4477519989
 2777.7629395 6.0000000000 3.3629999161 -0.864000022 0.4495700002 2.0039999485 158.24519348 76.388618469 71.342796326 6.2990002632 72.000000000 8.9497690201 8.9497690201
 2777.9152832 16.000000000 3.3629999161 -0.870999992 0.4261000156 2.0230000019 144.78245544 72.404441833 67.516792297 6.8156828880 72.000000000 10.179336548 10.179336548
 2778.0676270 16.000000000 3.3629999161 -0.867999971 0.3906999826 2.0729999542 135.15686035 70.346862793 65.283699036 6.9877400398 72.500000000 11.981730461 11.981730461
 2778.2199707 6.0000000000 3.3629999161 -0.851000011 0.3568100035 2.1540000439 125.65615082 70.744903564 65.997512817 6.8614711761 72.500000000 13.711375237 13.711375237
 2778.3725586 6.0000000000 3.3629999161 -0.837000012 0.3432700038 2.2420001030 135.48939514 74.900070190 70.052268982 7.2233119011 72.500000000 14.351256371 14.351256371
 2778.5249023 6.0000000000 3.3629999161 -0.805000007 0.3723099828 2.3020000458 156.73678589 80.287902832 75.162986755 7.6066637039 73.000000000 12.849510193 12.849510193
 2778.6772461 6.0000000000 3.3629999161 -0.792999983 0.4398400187 2.2880001068 168.31610107 85.244712830 80.406326294 7.8843750954 73.000000000 10.415654182 10.415654182
 2778.8295898 7.0000000000 3.3629999161 -0.774999976 0.4961500168 2.2509999275 175.09014893 88.065681458 83.546943665 8.2305679321 72.500000000 8.9344034195 8.9344034195
 2778.9819336 7.0000000000 3.3629999161 -0.763000011 0.5252400041 2.1919999123 171.61160278 90.552810669 85.300392151 8.0791311264 72.500000000 8.5701246262 8.5701246262
 2779.1345215 7.0000000000 3.3629999161 -0.734000027 0.5496099591 2.1719999313 183.11778259 90.789772034 86.211372375 7.6790862083 72.500000000 9.2119131088 9.2119131088
 2779.2868652 7.0000000000 3.3629999161 -0.723999977 0.5267300010 2.1670000553 182.39183044 91.692443848 86.667961121 7.5830960274 72.500000000 10.238739967 10.238739967
 2779.4392090 7.0000000000 3.3629999161 -0.703000009 0.5292199850 2.1889998913 184.03125000 92.162399292 87.046821594 7.3837790489 72.500000000 10.825105667 10.825105667
 2779.5915527 7.0000000000 3.3629999161 -0.740000010 0.5016500354 2.2300000191 174.34620667 90.915771484 86.018165588 7.0487265587 72.500000000 10.313962936 10.313962936
 2779.7441406 7.0000000000 3.3629999161 -0.785000026 0.4964500070 2.2829999924 171.38821411 90.771362305 85.864219666 6.7110962868 72.000000000 9.5844230652 9.5844230652
 2779.8964844 7.0000000000 3.3629999161 -0.774999976 0.4757899940 2.4609999657 172.76803589 90.777999878 85.973976135 6.7188076973 73.000000000 9.2139806747 9.2139806747
 2780.0488281 7.0000000000 3.3629999161 -0.721000016 0.4588199854 2.4470000267 174.65023804 90.859230042 85.998710632 6.4916539192 73.000000000 9.0050954819 9.0050954819
 2780.2011719 7.0000000000 3.3629999161 -0.393000007 0.5005800128 2.5280001163 177.19831848 90.663024902 85.799438477 6.3513464928 73.000000000 8.9109802246 8.9109802246
 2780.3537598 7.0000000000 3.3629999161 -0.197999999 0.5204899907 2.3059999943 171.88760376 90.424194336 85.350852966 6.1793985367 73.000000000 8.8062906265 8.8062906265
 2780.5061035 7.0000000000 3.3629999161 -0.061999999 0.5225299597 2.1789999008 172.99639893 90.312072754 85.555870056 6.0380096436 73.500000000 8.8336725235 8.8336725235
