# LAS format log file from PETREL
# Project units are specified as depth units
#==================================================================
~Version information
VERS.   2.0:
WRAP.   NO:
#==================================================================
~Well
STRT .m      581.07043457 :
STOP .m      2909.8947754 :
STEP .m     0.00000000 :
NULL .        -999.250000 :
COMP.           : COMPANY
WELL.  30/6-14   : WELL
FLD.            : FIELD
LOC.            : LOCATION
SRVC.           : SERVICE COMPANY
DATE.  2018-09-11 14:48:30   : Log Export Date {yyyy-MM-dd HH:mm:ss}
PROV.           : PROVINCE
UWI.   30/6-14   : UNIQUE WELL ID
API.            : API NUMBER
#==================================================================
~Curve
DEPT .m                   : DEPTH
Lithology_geolink ._      : Lithology_geolink
CALI .in                  : CALI
DRHO .g/cm3               : DRHO
NPHI .m3/m3               : NPHI
RHOB .g/cm3               : RHOB
GR .gAPI                  : GR
DTC .us/ft                : DTC
RDEP .ohm.m               : RDEP
SP .mV                    : SP
RSHA .ohm.m               : RSHA
RMED .ohm.m               : RMED
~Parameter
#==================================================================
~Ascii
# ...
 2905.0180664  -999.250000 11.812999725 0.1330000013 0.1777300090 2.4449999332 113.87500000 74.000000000 2.2170000076 93.430999756 2.2990000248 1.7230000496
 2905.1704102  -999.250000 11.758000374 0.1340000033 0.1782200038 2.4449999332 113.87500000 74.000000000 2.2109999657 93.900001526 2.2990000248 1.7239999771
 2905.3227539  -999.250000 11.727000237 0.1319999993 0.1782200038 2.4389998913 113.87500000 74.000000000 2.2149999142 94.836997986 2.2990000248 1.7239999771
 2905.4750977  -999.250000 11.727000237 0.1389999986 0.1782200038 2.4409999847 113.87500000 74.000000000 2.2090001106 94.336997986 2.2990000248 1.7230000496
 2905.6276855  -999.250000 11.727000237 0.1490000039 0.1782200038 2.4509999752 113.87500000 74.000000000 2.2149999142 94.336997986 2.2990000248 1.7239999771
 2905.7800293  -999.250000 11.727000237 0.1459999979 0.1782200038 2.4489998817 113.87500000 74.000000000 2.2170000076 93.336997986 2.2990000248 1.7239999771
 2905.9323730  -999.250000 11.727000237 0.1439999938 0.1782200038 2.4470000267 113.87500000 74.000000000 2.3710000515 93.525001526 2.2990000248 1.7209999561
 2906.0847168  -999.250000 11.727000237 0.1400000006 0.1782200038 2.4379999638 113.87500000 74.000000000 2.3750000000 94.525001526 2.2990000248 1.7239999771
 2906.2373047  -999.250000 11.727000237 0.1480000019 0.1782200038 2.4430000782 113.87500000 74.000000000 2.3729999065 93.525001526 2.2990000248 1.7259999514
 2906.3896484  -999.250000 11.727000237 0.1459999979 0.1782200038 2.4409999847 113.87500000 74.000000000 2.3689999580 94.775001526 2.2990000248 1.7259999514
 2906.5419922  -999.250000 11.727000237 0.1459999979 0.1782200038 2.4389998913 113.87500000 74.000000000 2.3750000000 95.525001526 2.2990000248 1.7259999514
 2906.6943359  -999.250000 11.727000237 0.1400000006 0.1782200038 2.4340000153 113.87500000 74.000000000 2.3710000515 94.836997986 2.2990000248 1.7259999514
 2906.8469238  -999.250000 11.727000237 0.1400000006 0.1782200038 2.4360001087 113.87500000 74.000000000 2.3789999485 94.775001526 2.2990000248 1.7259999514
 2906.9992676  -999.250000 11.727000237 0.1369999945 0.1782200038 2.4319999218 113.87500000 74.000000000 2.3710000515 94.305999756 2.2990000248 1.7269999981
 2907.1516113  -999.250000 11.727000237 0.1389999986 0.1782200038 2.4319999218 113.87500000 74.000000000 2.3729999065 94.836997986  -999.250000 1.7269999981
 2907.3039551  -999.250000 11.727000237 0.1389999986 0.1782200038 2.4300000668 113.87500000 74.000000000 2.3750000000 95.775001526  -999.250000 1.7269999981
 2907.4562988  -999.250000 11.727000237 0.1389999986 0.1782200038 2.4319999218 113.87500000 74.000000000 2.3710000515 95.025001526  -999.250000 1.7259999514
 2907.6088867  -999.250000 11.727000237 0.1299999952 0.1782200038 2.4240000248 113.87500000 74.000000000 2.3810000420 94.836997986  -999.250000 1.7269999981
 2907.7612305  -999.250000 11.727000237 0.1280000061 0.1782200038 2.4240000248 113.87500000 74.000000000 2.3810000420 95.586997986  -999.250000 1.7239999771
 2907.9135742  -999.250000 11.727000237 0.1239999980 0.1782200038 2.4179999828 113.87500000 74.000000000 0.8569999933 96.086997986  -999.250000 1.7269999981
 2908.0659180  -999.250000 11.727000237 0.1280000061 0.1782200038 2.4240000248 113.87500000 74.000000000 0.8569999933 94.525001526  -999.250000 1.7259999514
 2908.2185059  -999.250000 11.727000237 0.1230000034 0.1782200038 2.4119999409 113.87500000 74.000000000 0.8569999933 94.586997986  -999.250000 1.7289999723
 2908.3708496  -999.250000 11.711001396 0.1239999980 0.1782200038 2.4100000858 113.87500000 74.000000000 0.8569999933 94.836997986  -999.250000 1.7289999723
 2908.5231934  -999.250000 11.694998741 0.1330000013 0.1782200038 2.4140000343 113.87500000 74.000000000 0.8569999933 95.336997986  -999.250000 1.7289999723
 2908.6755371  -999.250000 11.656000137 0.1490000039 0.1782200038 2.4300000668 113.87500000 74.000000000 0.8569999933 93.836997986  -999.250000 1.7289999723
 2908.8281250  -999.250000 11.632999420 0.1589999944 0.1787099987 2.4379999638 113.87500000 74.000000000 0.8569999933 93.369003296  -999.250000 1.7289999723
 2908.9804688  -999.250000 11.632999420 0.1659999937 0.1787099987 2.4430000782 113.87500000 74.000000000 0.8569999933 94.336997986  -999.250000 1.7289999723
 2909.1328125  -999.250000 11.632999420 0.1650000066 0.1787099987 2.4389998913 113.87500000 74.000000000 0.8569999933 94.836997986  -999.250000 1.7289999723
 2909.2851563  -999.250000 11.632999420 0.1640000045 0.1787099987 2.4379999638 113.87500000 74.000000000 0.8569999933 94.836997986  -999.250000 1.7289999723
 2909.4375000  -999.250000 11.632999420 0.1640000045 0.1787099987 2.4379999638 113.87500000 74.000000000 0.8569999933 64.438003540  -999.250000 1.7289999723
 2909.5900879  -999.250000 11.632999420 0.1640000045 0.1787099987 2.4379999638 113.87500000 74.000000000 0.8569999933 64.625000000  -999.250000 1.7289999723
 2909.7424316  -999.250000 11.632999420 0.1640000045 0.1787099987 2.4379999638  -999.250000  -999.250000  -999.250000  -999.250000  -999.250000  -999.250000
 2909.8947754  -999.250000 11.632999420 0.1640000045 0.1787099987 2.4379999638  -999.250000  -999.250000  -999.250000  -999.250000  -999.250000  -999.250000
