# LAS format log file from PETREL
# Project units are specified as depth units
#==================================================================
~Version information
VERS.   2.0:
WRAP.   NO:
#==================================================================
~Well
STRT .m      933.99749756 :
STOP .m      3610.7521973 :
STEP .m     0.00000000 :
NULL .        -999.250000 :
COMP.           : COMPANY
WELL.  30/6-8   : WELL
FLD.            : FIELD
LOC.            : LOCATION
SRVC.           : SERVICE COMPANY
DATE.  2018-09-11 14:48:31   : Log Export Date {yyyy-MM-dd HH:mm:ss}
PROV.           : PROVINCE
UWI.   30/6-8   : UNIQUE WELL ID
API.            : API NUMBER
#==================================================================
~Curve
DEPT .m                   : DEPTH
Lithology_geolink ._      : Lithology_geolink
CALI .in                  : CALI
DRHO .g/cm3               : DRHO
NPHI .m3/m3               : NPHI
RHOB .g/cm3               : RHOB
GR .gAPI                  : GR
DTC .us/ft                : DTC
DTE .us/ft                : DTE
RDEP .ohm.m               : RDEP
SP .mV                    : SP
RSHA .ohm.m               : RSHA
RMED .ohm.m               : RMED
~Parameter
#==================================================================
~Ascii
# ...
 2177.5820313 5.0000000000 20.577999115 0.0130000003 0.4193940759 2.2088975906 51.231452942 121.08566284 118.23236084 1.0627167225 73.812797546 1.0610096455 1.0610096455
 2177.7343750 5.0000000000 20.702999115 0.0260000005 0.3969699740 2.1651837826 53.823116302 119.35955811 116.55556488 1.0040512085 74.187805176 1.0627179146 1.0627179146
 2177.8867188 5.0000000000 20.733999252 0.0189999994 0.4145500064 2.1143131256 56.966396332 121.34638214 118.65771484 1.0200929642 74.748199463 0.9748589993 0.9748589993
 2178.0393066 5.0000000000 20.437997818 0.0149999997 0.4155777395 2.0717821121 56.150142670 125.83629608 123.11713409 1.0487933159 74.499900818 0.9308365583 0.9308365583
 2178.1916504 5.0000000000 20.843999863 0.0000000000 0.4453068674 2.0630056858 54.921047211 127.92663574 125.11214447 1.0058368444 74.688697815 0.8971248269 0.8971248269
 2178.3439941 5.0000000000 20.483999252 -0.002000000 0.4433599710 2.1119534969 51.408905029 127.71082306 125.05355072 0.9720256329 75.248199463 0.9231121540 0.9231121540
 2178.4963379 5.0000000000 20.952999115 -0.004000000 0.4272499979 2.1811227798 52.316001892 125.76226044 123.00338745 0.9799359441 74.999198914 0.9580128193 0.9580128193
 2178.6489258 5.0000000000 20.969001770 0.0089999996 0.4355304241 2.2232587337 53.260669708 122.27243805 119.35800934 0.9598894119 75.057693481 0.9620817304 0.9620817304
 2178.8012695 5.0000000000 20.468999863 0.0170000009 0.4234526753 2.2211308479 55.451297760 124.24600220 121.36686707 0.9371439815 74.362602234 0.9789759517 0.9789759517
 2178.9536133 5.0000000000 20.266000748 0.0460000001 0.4935992360 2.2216892242 51.777595520 126.59816742 123.87263489 0.9671474695 71.994789124 0.9740095735 0.9740095735
 2179.1059570 5.0000000000 20.358999252 0.0509999990 0.4619100094 2.2390949726 50.714393616 124.30907440 121.61909485 1.0129615068 70.694808960 0.9768621922 0.9768621922
 2179.2585449 5.0000000000 20.547000885 0.0309999995 0.4510768950 2.2637398243 49.302185059 123.34289551 120.51087189 1.0010577440 73.436897278 0.9340240359 0.9340240359
 2179.4108887 5.0000000000 20.422000885 0.0049999999 0.3930738866 2.2912569046 53.683940887 122.19331360 119.33880615 1.0133317709 73.624000549 0.9393942356 0.9393942356
 2179.5632324 5.0000000000 20.516000748 -0.004000000 0.3955623209 2.3124992847 52.868453979 118.93333435 116.25698090 1.0822063684 73.625198364 1.0211104155 1.0211104155
 2179.7155762 5.0000000000 20.280998230 -0.002000000 0.4282199740 2.3319709301 57.925579071 117.87491608 115.18080139 1.1249840260 73.872596741 1.0439583063 1.0439583063
 2179.8679199 5.0000000000 20.327999115 -0.001000000 0.4365200102 2.3500816822 54.059795380 118.27213287 115.47110748 1.1200159788 73.434791565 1.0312340260 1.0312340260
 2180.0205078 5.0000000000 20.358999252 -0.005000000 0.4408425391 2.3617594242 53.043167114 117.48172760 114.77597809 1.1246393919 73.061599731 1.1046057940 1.1046057940
 2180.1728516 5.0000000000 20.452999115 -0.007000000 0.3925448358 2.3593277931 48.965896606 116.83967590 114.11213684 1.0495584011 73.185096741 1.2302207947 1.2302207947
 2180.3251953 5.0000000000 21.172000885 -0.011000000 0.3706099987 2.2942831516 54.744392395 117.13819122 114.25135040 0.9580544829 73.000801086 1.2754518986 1.2754518986
 2180.4775391 5.0000000000 20.406000137 -0.003000000 0.3662099838 2.1932346821 52.999000549 119.98888397 117.05702972 0.9751570821 73.558189392 1.1043140888 1.1043140888
 2180.6301270 5.0000000000 20.406000137 0.0099999998 0.4004526138 2.1355962753 52.665611267 127.13631439 124.44489288 1.0239952803 72.688102722 0.8907163143 0.8907163143
 2180.7824707 5.0000000000 20.422000885 0.0120000001 0.4394218326 2.1532733440 48.037151337 133.42120361 130.74041748 1.0229232311 73.125801086 0.8320479989 0.8320479989
 2180.9348145 5.0000000000 20.594001770 0.0089999996 0.4218268692 2.2199633121 49.329624176 133.77902222 130.91337585 1.0069679022 73.502006531 0.8423493505 0.8423493505
 2181.0871582 5.0000000000 21.047000885 0.0109999999 0.3886699975 2.2563762665 54.491584778 129.04589844 126.24794769 0.9968397021 74.436599731 0.9512820244 0.9512820244
 2181.2397461 5.0000000000 21.327999115 0.0329999998 0.3754962683 2.2633161545 51.884616852 122.43013000 119.68156433 0.9468702078 74.621597290 1.0391683578 1.0391683578
 2181.3920898 5.0000000000 20.437997818 0.0270000007 0.3794197440 2.2661767006 53.844951630 118.40987396 115.62981415 0.9200336933 74.127304077 1.0741490126 1.0741490126
 2181.5444336 5.0000000000 20.406000137 0.0060000001 0.3979148269 2.2846076488 47.631748199 118.35292816 115.56672668 0.9270575643 74.805900574 1.1051824093 1.1051824093
 2181.6967773 5.0000000000 20.391000748 -0.010000000 0.3759799898 2.2916054726 49.024890900 121.13529205 118.42637634 0.9390929341 73.749404907 1.1427788734 1.1427788734
 2181.8491211 5.0000000000 20.391000748 -0.004000000 0.4033200145 2.2798650265 47.130908966 122.69384003 119.96312714 0.9680929184 73.873397827 1.0736154318 1.0736154318
 2182.0017090 5.0000000000 20.391000748 -0.004000000 0.4125827551 2.2575490475 48.962390900 122.70633698 119.81372833 0.9971970916 73.679389954 0.9536201954 0.9536201954
 2182.1540527 5.0000000000 20.500000000 0.0099999998 0.4018388987 2.2526316643 47.591453552 124.02460480 121.20844269 1.0378895998 72.315498352 0.8750720024 0.8750720024
 2182.3063965 5.0000000000 20.577999115 0.0170000009 0.3886699975 2.2693941593 47.063499451 122.32908630 119.52384949 1.0147756338 73.247596741 0.8902468085 0.8902468085
 2182.4587402 5.0000000000 20.577999115 0.0280000009 0.3579100072 2.2906284332 47.233024597 121.00082397 118.12789917 0.9449679255 72.813606262 0.9669390917 0.9669390917
 2182.6113281 5.0000000000 20.562999725 0.0070000002 0.3627758920 2.2903888226 51.608123779 122.03627777 119.16934967 0.9351105690 73.621894836 0.9479327202 0.9479327202
 2182.7636719 5.0000000000 20.577999115 0.0120000001 0.3540547788 2.2536180019 54.513900757 121.93171692 119.15477753 0.9578464031 73.191398621 0.9340192080 0.9340192080
 2182.9160156 5.0000000000 20.547000885 0.0230000000 0.3881800175 2.1952874660 50.963092804 120.58383942 117.79174042 0.9260705113 74.309593201 0.9382371902 0.9382371902
 2183.0683594 5.0000000000 20.500000000 0.0329999998 0.3881800175 2.1455354691 49.120292664 124.78292084 121.92802429 0.9482628107 73.873596191 1.0119839907 1.0119839907
 2183.2209473 5.0000000000 21.312999725 0.0070000002 0.4032942057 2.1302347183 47.657051086 128.11146545 125.28176117 1.0297403336 73.753501892 1.0064855814 1.0064855814
 2183.3732910 5.0000000000 20.266000748 0.0030000000 0.3871998489 2.1631639004 47.881759644 127.45328522 124.77319336 0.9757740498 74.679985046 0.8997595906 0.8997595906
 2183.5256348 5.0000000000 21.077999115 0.0070000002 0.3808873296 2.2277488708 49.275753021 127.87471771 125.17401123 0.9288368225 73.434799194 0.8499808311 0.8499808311
 2183.6779785 5.0000000000 21.344001770 0.0089999996 0.3979499936 2.2743790150 48.198917389 124.88272095 122.04473114 0.8947499990 73.186798096 0.8460224271 0.8460224271
 2183.8303223 5.0000000000 22.327999115 -0.001000000 0.4028300047 2.2804896832 51.565654755 122.50803375 119.75442505 0.8170127869 73.438400269 0.8529775739 0.8529775739
 2183.9829102 5.0000000000 20.858999252 -0.004000000 0.4228413999 2.2503092289 42.767578125 121.35343170 118.53780365 0.8212980628 74.187202454 0.8459230661 0.8459230661
 2184.1352539 5.0000000000 20.641000748 0.0020000001 0.4175370634 2.2019505501 46.398353577 120.31462860 117.45619965 0.8830336332 74.432395935 0.8301776052 0.8301776052
 2184.2875977 5.0000000000 20.468999863 0.0109999999 0.4531300068 2.1752915382 44.826622009 118.59989929 115.78392029 0.8898974061 73.688003540 0.8673301339 0.8673301339
 2184.4399414 5.0000000000 20.733999252 0.0140000004 0.4706999958 2.1723880768 49.046772003 118.16078949 115.38688660 0.8580544591 74.308792114 0.9700929523 0.9700929523
 2184.5925293 5.0000000000 20.655998230 0.0160000008 0.4672321081 2.1569626331 44.006912231 122.17670441 119.30966187 0.8751682639 73.630310059 0.9990432858 0.9990432858
 2184.7448730 5.0000000000 20.297000885 0.0030000000 0.4311155975 2.1179301739 45.456897736 124.73899841 121.87044525 0.9099280238 74.934501648 1.0072224140 1.0072224140
