# LAS format log file from PETREL
# Project units are specified as depth units
#==================================================================
~Version information
VERS.   2.0:
WRAP.   NO:
#==================================================================
~Well
STRT .m      176.60998535 :
STOP .m      3556.0803223 :
STEP .m     0.00000000 :
NULL .        -999.250000 :
COMP.           : COMPANY
WELL.  30/6-5   : WELL
FLD.            : FIELD
LOC.            : LOCATION
SRVC.           : SERVICE COMPANY
DATE.  2018-09-11 14:48:31   : Log Export Date {yyyy-MM-dd HH:mm:ss}
PROV.           : PROVINCE
UWI.   30/6-5   : UNIQUE WELL ID
API.            : API NUMBER
#==================================================================
~Curve
DEPT .m                   : DEPTH
Lithology_geolink ._      : Lithology_geolink
CALI .in                  : CALI
DRHO .g/cm3               : DRHO
NPHI .m3/m3               : NPHI
RHOB .g/cm3               : RHOB
PEF .b/e                  : PEF
GR .gAPI                  : GR
DTC .us/ft                : DTC
DTE .us/ft                : DTE
RDEP .ohm.m               : RDEP
SP .mV                    : SP
RSHA .ohm.m               : RSHA
RMED .ohm.m               : RMED
~Parameter
#==================================================================
~Ascii
# ...
 2201.7014160 11.000000000 13.437999725 0.0049999999 0.1717518866 2.5456974506  -999.250000 25.303411484 81.110092163 77.394210815 3.2974231243 46.279998779 8.1560001373 5.1909999847
 2201.8537598 11.000000000 13.281000137 0.0010000000 0.2097648382 2.5199799538  -999.250000 29.308845520 84.949584961 81.161354065 3.5609552860 51.281829834 2.3139998913 4.2540001869
 2202.0063477 11.000000000 13.328000069 -0.002990385 0.2377325296 2.4942002296  -999.250000 36.690498352 87.721488953 84.001121521 3.5317327976 62.366363525 6.2729997635 3.6840000153
 2202.1586914 11.000000000 13.328000069 0.0030384616 0.2478760630 2.4785592556  -999.250000 37.465347290 89.898246765 85.999626160 3.1362259388 55.334213257 5.0739998817 3.8670001030
 2202.3110352 11.000000000 13.366999626 0.0270224009 0.2560746968 2.4684247971  -999.250000 35.199016571 94.773597717 90.904953003 2.6533653736 57.868469238 6.6799998283 3.9040000439
 2202.4633789 11.000000000 13.421999931 0.0410000011 0.2856532633 2.4696006775  -999.250000 42.074016571 102.10515594 97.997802734 2.2575671673 51.474498749 2.6150000095 3.0920000076
 2202.6159668 11.000000000 13.453001022 0.0519775636 0.3241661191 2.4608328342  -999.250000 48.960098267 109.48500061 105.55404663 1.9874399900 48.878883362 1.5599999428 2.0000000000
 2202.7683105 13.000000000 13.515999794 0.0379903838 0.3603356183 2.4535198212  -999.250000 55.843200684 114.74386597 110.82659149 1.8128285408 65.281524658 1.7630000114 1.5499999523
 2202.9206543 13.000000000 13.602000237 0.0319952033 0.3745723963 2.4235465527  -999.250000 55.341495514 116.99362183 113.23442078 1.7057836056 51.464221954 1.3179999590 1.4079999924
 2203.0729980 13.000000000 13.788999557 0.0289999992 0.3877473474 2.4035608768  -999.250000 53.783252716 115.65864563 111.93906403 1.5708012581 55.579402924 1.7719999552 1.4759999514
 2203.2253418 13.000000000 13.883000374 0.0320000015 0.3838080168 2.3907406330  -999.250000 55.187747955 112.53381348 108.77113342 1.4468445778 56.647514343 1.5049999952 1.5420000553
 2203.3779297 13.000000000 13.796999931 0.0440096147 0.3888249397 2.3864898682  -999.250000 55.032100677 109.88040924 106.05760956 1.3499264717 61.920150757 1.6319999695 1.6430000067
 2203.5302734 13.000000000 13.680000305 0.0499776006 0.3935151696 2.3848822117  -999.250000 55.373847961 109.52575684 105.76517487 1.3269823790 52.341625214 1.1109999418 1.7079999447
 2203.6826172 13.000000000 13.788999557 0.0359999985 0.4076167643 2.3672580719  -999.250000 54.654296875 112.82730103 109.03473663 1.3160609007 57.202800751 1.0549999475 1.6590000391
 2203.8349609 13.000000000 13.687999725 0.0170000009 0.4221826792 2.3280558586  -999.250000 53.596004486 119.45779419 115.49084473 1.3540208340 57.762798309 1.3480000496 1.5140000582
 2203.9875488 13.000000000 14.671999931 0.0029935897 0.4238132536 2.2916817665  -999.250000 54.839000702 123.71229553 119.94306183 1.3669680357 57.010593414 0.8050000072 1.3609999418
 2204.1398926 13.000000000 13.625000000 -0.000988782 0.4123260379 2.2761819363  -999.250000 53.276844025 125.03076935 121.22361755 1.3569840193 55.943389893 0.8830000162 1.3669999838
 2204.2922363 13.000000000 13.468999863 0.0060224002 0.3924565911 2.2875339985  -999.250000 50.683040619 122.73850250 118.91050720 1.3470176458 53.599998474 1.8580000401 1.4340000153
 2204.4445801 13.000000000 13.562999725 0.0199999996 0.3976577222 2.3120820522  -999.250000 47.594753265 116.94348907 113.12567139 1.3580480814 61.069690704 1.5679999590 1.5069999695
 2204.5971680 12.000000000 13.616998672 0.0330096148 0.4149488211 2.3327705860  -999.250000 48.064697266 115.15282440 111.39234924 1.3881472349 57.087417603 2.0250000954 1.5650000572
 2204.7492676 12.000000000 14.538999557 0.0390000008 0.4238884449 2.3462271690  -999.250000 48.594001770 112.45852661 108.73416901 1.4340000153 41.081905365 1.0515624285 1.6259022951
 2204.9016113 12.000000000 14.703000069 0.0520000011 0.4104731381 2.3477513790  -999.250000 47.812999725 111.41168213 107.53531647 1.5260000229 64.060874939 0.8093862534 1.6599454880
 2205.0541992 12.000000000 14.147999763 0.0500000007 0.4124111533 2.3514692783  -999.250000 51.471004486 111.53488922 107.72182465 1.6281201839 54.669597626 2.8340001106 1.7450000048
 2205.2065430 12.000000000 13.508000374 0.0350000001 0.4096309245 2.3574421406  -999.250000 52.717601776 110.02679443 105.97308350 1.7031215429 64.168395996 0.9190000296 1.6809999943
 2205.3588867 12.000000000 13.680000305 0.0020000001 0.3976733387 2.3745942116  -999.250000 51.844001770 108.07750702 104.31613159 1.7790000439 43.880786896 1.7666416168 1.6939792633
 2205.5112305 12.000000000 13.531000137 -0.010000000 0.3498483300 2.3964550495  -999.250000 43.437999725 103.61644745 99.885223389 1.8409999609 58.065334320 2.8692324162 1.8187997341
 2205.6638184 12.000000000 13.352000237 -0.008000000 0.3176265657 2.4316847324  -999.250000 42.061496735 100.10284424 96.325752258 1.8180416822 51.436096191 7.2699999809 2.1889998913
 2205.8161621 12.000000000 13.359000206 -0.002000000 0.3103590310 2.4634466171  -999.250000 41.134616852 99.410568237 95.504074097 1.8440529108 56.440734863 3.3220000267 2.5920000076
 2205.9685059 12.000000000 13.875000000 -0.001000000 0.3284758925 2.4751186371  -999.250000 47.125648499 99.493148804 95.677032471 1.8770415783 50.053661346 3.2750751972 2.4552190304
 2206.1208496 12.000000000 13.656000137 -0.005000000 0.3446210921 2.4569745064  -999.250000 47.530998230 104.72242737 100.82239532 1.9029999971 55.460815430 3.1741619110 2.0067195892
 2206.2734375 12.000000000 13.461000443 -0.006000000 0.3577772379 2.4318201542  -999.250000 50.154796600 109.43309784 105.55744171 1.8738925457 61.557800293 2.0610001087 1.8500000238
 2206.4257813 12.000000000 13.437999725 -0.002000000 0.3631649017 2.4241008759  -999.250000 49.407402039 110.78367615 107.01396179 1.8068125248 55.887294769 3.1840000153 1.8250000477
 2206.5781250 12.000000000 13.461000443 0.0089999996 0.3787147701 2.4285233021  -999.250000 50.287998199 111.97617340 108.05210114 1.6898720264 54.823997498 2.0078847408 1.8299920559
 2206.7304688 12.000000000 13.585999489 0.0140000004 0.3941520751 2.4351999760  -999.250000 54.655998230 113.07541656 109.33293915 1.6100000143 53.578205109 2.4542803764 1.7740898132
 2206.8828125 13.000000000 13.413999557 0.0040000002 0.3954001069 2.4341361523  -999.250000 57.562999725 113.15670776 109.29273987 1.5629999638 54.974536896 1.8409856558 1.7160929441
 2207.0354004 13.000000000 13.546999931 -0.008000000 0.3767088950 2.4227261543  -999.250000 58.026691437 111.93624115 108.09503174 1.5480496883 69.575195313 1.7849999666 1.7200000286
 2207.1877441 13.000000000 13.484000206 -0.009000000 0.3545474410 2.4073495865  -999.250000 55.338401794 112.12141418 108.33414459 1.5791088343 49.706710815 2.7404689789 1.7689216137
 2207.3400879 13.000000000 13.515999794 0.0000000000 0.3467089534 2.3999300003  -999.250000 51.844001770 112.19670868 108.49175262 1.6469999552 53.270809174 2.3735911846 1.7580176592
 2207.4924316 13.000000000 13.476999283 0.0080000004 0.3460259438 2.4058909416  -999.250000 51.812999725 110.81248474 107.03195190 1.6519999504 57.504333496 1.5762789249 1.8518493176
 2207.6450195 13.000000000 13.609000206 0.0000000000 0.3372458518 2.4259421825  -999.250000 50.404094696 109.83492279 105.99013519 1.6980335712 51.488498688 2.9260001183 1.8500000238
 2207.7973633 12.000000000 13.538999557 -0.008000000 0.3297150135 2.4419503212  -999.250000 49.216346741 108.61911011 104.72982788 1.7189567089 53.204105377 3.3810000420 2.0550000668
 2207.9497070 12.000000000 13.609000206 -0.009000000 0.3266250491 2.4507286549  -999.250000 47.559947968 107.18810272 103.09239197 1.6921151876 55.135345459 3.5677008629 2.1368689537
 2208.1020508 12.000000000 13.602000237 -0.004000000 0.3297791481 2.4602468014  -999.250000 45.655998230 105.92684174 102.06797028 1.7640000582 52.862758636 3.3203973770 2.0531346798
 2208.2546387 12.000000000 13.602000237 0.0010000000 0.3292545676 2.4696452618  -999.250000 46.565654755 106.15039063 102.27292633 1.7920689583 55.817199707 3.3550000191 2.0569999218
