# LAS format log file from PETREL
# Project units are specified as depth units
#==================================================================
~Version information
VERS.   2.0:
WRAP.   NO:
#==================================================================
~Well
STRT .m      176.60998535 :
STOP .m      3556.0803223 :
STEP .m     0.00000000 :
NULL .        -999.250000 :
COMP.           : COMPANY
WELL.  30/6-5   : WELL
FLD.            : FIELD
LOC.            : LOCATION
SRVC.           : SERVICE COMPANY
DATE.  2018-09-11 14:48:31   : Log Export Date {yyyy-MM-dd HH:mm:ss}
PROV.           : PROVINCE
UWI.   30/6-5   : UNIQUE WELL ID
API.            : API NUMBER
#==================================================================
~Curve
DEPT .m                   : DEPTH
Lithology_geolink ._      : Lithology_geolink
CALI .in                  : CALI
DRHO .g/cm3               : DRHO
NPHI .m3/m3               : NPHI
RHOB .g/cm3               : RHOB
PEF .b/e                  : PEF
GR .gAPI                  : GR
DTC .us/ft                : DTC
DTE .us/ft                : DTE
RDEP .ohm.m               : RDEP
SP .mV                    : SP
RSHA .ohm.m               : RSHA
RMED .ohm.m               : RMED
~Parameter
#==================================================================
~Ascii
# ...
 3549.5273438  -999.250000 9.2659997940 0.0149999997 0.1731116176 2.5274729729  -999.250000 187.50000000  -999.250000  -999.250000 3.8550000191 125.95439911 7.0120000839 3.8889999390
 3549.6796875  -999.250000 9.4949998856 0.0170000009 0.1733571142 2.5335721970  -999.250000 187.50000000  -999.250000  -999.250000 3.9240000248 125.45961761 7.0120000839 4.3049998283
 3549.8320313  -999.250000 9.5240001678 0.0280000009 0.1729226708 2.5636482239  -999.250000 187.50000000  -999.250000  -999.250000 4.1250000000 127.70881653 7.0120000839 4.6329998970
 3549.9843750  -999.250000 9.5249996185 0.0469999984 0.1749068648 2.6131401062  -999.250000 187.50000000  -999.250000  -999.250000 4.3829998970 129.45880127 7.0120000839 4.7300000191
 3550.1367188  -999.250000 9.5249996185 0.0680000037 0.1784160584 2.6576740742  -999.250000 187.50000000  -999.250000  -999.250000 4.4840002060 131.19877625 7.0120000839 5.1950001717
 3550.2893066  -999.250000 9.4879999161 0.0820000023 0.1817494929 2.6805334091  -999.250000 187.50000000  -999.250000  -999.250000 4.5549998283 126.70840454 7.0120000839 5.3829998970
 3550.4416504  -999.250000 9.4829998016 0.0740000010 0.1832046211 2.6821248531  -999.250000 187.50000000  -999.250000  -999.250000 4.5040001869 127.45519257 7.0120000839 5.5040001869
 3550.5939941  -999.250000 9.5559997559 0.0489999987 0.1808125079 2.6567306519  -999.250000 187.50000000  -999.250000  -999.250000 4.4770002365 126.95600128 7.0120000839 5.3550000191
 3550.7463379  -999.250000 9.5780000687 0.0250000004 0.1796484739 2.6077969074  -999.250000 187.50000000  -999.250000  -999.250000 4.5349998474 126.95600128 7.0120000839 5.1560001373
 3550.8989258  -999.250000 9.5790004730 0.0160000008 0.1793346852 2.5529046059  -999.250000 187.50000000  -999.250000  -999.250000 4.3979997635 126.95600128 7.0120000839 4.8790001869
 3551.0512695  -999.250000 9.6359996796 0.0199999996 0.1800678819 2.5249564648  -999.250000 187.50000000  -999.250000  -999.250000 4.3439998627 126.95319366 7.0120000839 4.4959998131
 3551.2036133  -999.250000 9.8000001907 0.0340000018 0.1813125312 2.5319771767  -999.250000 187.50000000  -999.250000  -999.250000 4.3359999657 125.20801544 7.0120000839 4.3239998817
 3551.3559570  -999.250000 9.4770002365 0.0350000001 0.1848217398 2.5493535995  -999.250000 187.50000000  -999.250000  -999.250000 4.3359999657 126.45600891 7.0120000839 4.3049998283
 3551.5085449  -999.250000 9.3310003281 0.0270000007 0.1872508377 2.5417792797  -999.250000 187.50000000  -999.250000  -999.250000 4.3280000687 126.45121002 7.0120000839 4.2930002213
 3551.6608887  -999.250000 9.3290004730 0.0149999997 0.1873860359 2.5166413784  -999.250000 187.50000000  -999.250000  -999.250000 4.2500000000 124.95319366 7.0120000839 4.3049998283
 3551.8132324  -999.250000 9.2419996262 0.0099999998 0.1883333921 2.5009980202  -999.250000 187.50000000  -999.250000  -999.250000 4.2420001030 123.20520020 7.0120000839 4.3049998283
 3551.9655762  -999.250000 9.0349998474 0.0189999994 0.1904163063 2.5054388046  -999.250000 187.50000000  -999.250000  -999.250000 4.2340002060 122.70680237 7.0120000839 4.2969999313
 3552.1179199  -999.250000 8.9540004730 0.0320000015 0.1917208284 2.5236542225  -999.250000 187.50000000  -999.250000  -999.250000 4.2270002365 123.20840454 7.0120000839 4.2969999313
 3552.2705078  -999.250000 8.9569997787 0.0540000014 0.1918899864 2.5484502316  -999.250000 187.50000000  -999.250000  -999.250000 4.2270002365 124.70040131 7.0120000839 4.2969999313
 3552.4228516  -999.250000 8.9479999542 0.0750000030 0.1918899864 2.5731673241  -999.250000 187.50000000  -999.250000  -999.250000 4.2379999161 122.95439911 7.0120000839 4.2930002213
 3552.5751953  -999.250000 8.9390001297 0.0879999995 0.1918899864 2.5922520161  -999.250000 187.50000000  -999.250000  -999.250000 4.2379999161 121.95600128 7.0120000839 4.3049998283
 3552.7275391  -999.250000 8.9429998398 0.0920000002 0.1918899864 2.6046433449  -999.250000 187.50000000  -999.250000  -999.250000 4.2300000191 121.95680237 7.0120000839 4.2930002213
 3552.8801270  -999.250000 8.9390001297 0.0869999975 0.1918899864 2.6146342754  -999.250000 187.50000000  -999.250000  -999.250000 4.2300000191 122.45280457 7.0120000839 4.2930002213
 3553.0324707  -999.250000 8.9440002441 0.0839999989 0.1918899864 2.6187441349  -999.250000 187.50000000  -999.250000  -999.250000 4.2420001030 121.45520020 7.0120000839 4.2930002213
 3553.1848145  -999.250000 8.9449996948 0.0810000002 0.1918899864 2.6111903191  -999.250000 187.50000000  -999.250000  -999.250000 4.2459998131 120.95760345 7.0120000839 4.2930002213
 3553.3371582  -999.250000 8.9449996948 0.0799999982 0.1918899864 2.5950300694  -999.250000 187.50000000  -999.250000  -999.250000 4.2459998131 121.95439911 7.0120000839 4.2930002213
 3553.4897461  -999.250000 8.9449996948 0.0740000010 0.1918899864 2.5797417164  -999.250000 187.50000000  -999.250000  -999.250000 4.2420001030 120.95040131 7.0120000839 4.2969999313
 3553.6420898  -999.250000 8.9449996948 0.0700000003 0.1918899864 2.5699026585  -999.250000 187.50000000  -999.250000  -999.250000 6.7420001030 119.21121216 7.0120000839 4.2930002213
 3553.7944336  -999.250000 8.9390001297 0.0750000030 0.1918899864 2.5663793087  -999.250000 187.50000000  -999.250000  -999.250000 6.7420001030 122.45520020 7.0120000839 4.2930002213
 3553.9467773  -999.250000 8.9440002441 0.0780000016 0.1918899864 2.5673286915  -999.250000 187.50000000  -999.250000  -999.250000 6.7420001030 121.95600128 7.0120000839 4.2930002213
 3554.0991211  -999.250000 8.9449996948 0.0799999982 0.1918899864 2.5694992542  -999.250000 187.50000000  -999.250000  -999.250000 6.7420001030 121.95319366 7.0120000839 4.2930002213
 3554.2517090  -999.250000 8.9449996948 0.0630000010 0.1918899864 2.5705988407  -999.250000 187.50000000  -999.250000  -999.250000 6.7420001030 120.20520020 7.0120000839 4.2930002213
 3554.4040527  -999.250000 8.9449996948 0.0579999983 0.1918899864 2.5734233856  -999.250000 187.50000000  -999.250000  -999.250000 6.7420001030 119.95600128 7.0120000839 4.2930002213
 3554.5563965  -999.250000 8.9449996948 0.0689999983 0.1918899864 2.5841903687  -999.250000 187.50000000  -999.250000  -999.250000 6.7420001030 119.95520020 7.0120000839 4.2930002213
 3554.7087402  -999.250000 8.9449996948 0.0790000036 0.1918899864 2.5986936092  -999.250000 187.50000000  -999.250000  -999.250000 6.7420001030 119.45800781 7.0120000839 4.2930002213
 3554.8613281  -999.250000 8.9449996948 0.0820000023 0.1918899864 2.6073977947  -999.250000 187.50000000  -999.250000  -999.250000 6.7420001030 120.70999908 7.0120000839 4.2930002213
 3555.0136719  -999.250000 8.9449996948 0.0659999996 0.1918899864 2.6035375595  -999.250000 187.50000000  -999.250000  -999.250000 6.7420001030 121.85877991 7.0120000839 4.2930002213
 3555.1660156  -999.250000 8.9449996948 0.0630000010 0.1918899864 2.5914697647  -999.250000 187.50000000  -999.250000  -999.250000 6.7420001030  -999.250000 7.0120000839 4.2930002213
 3555.3183594  -999.250000 8.9449996948 0.0570000000 0.1918899864 2.5760898590  -999.250000 187.50000000  -999.250000  -999.250000 6.7420001030  -999.250000 7.0120000839 4.2930002213
 3555.4709473  -999.250000 8.9449996948 0.0540000014 0.1918899864  -999.250000  -999.250000 187.50000000  -999.250000  -999.250000  -999.250000  -999.250000  -999.250000  -999.250000
 3555.6232910  -999.250000 8.9449996948 0.0480000004 0.1918899864  -999.250000  -999.250000 187.50000000  -999.250000  -999.250000  -999.250000  -999.250000  -999.250000  -999.250000
 3555.7756348  -999.250000 8.9449996948 0.0469999984 0.1918899864  -999.250000  -999.250000 187.50000000  -999.250000  -999.250000  -999.250000  -999.250000  -999.250000  -999.250000
 3555.9279785  -999.250000 8.9449996948 0.0469999984 0.1918899864  -999.250000  -999.250000 187.50000000  -999.250000  -999.250000  -999.250000  -999.250000  -999.250000  -999.250000
 3556.0803223  -999.250000 8.9449996948 0.0469999984 0.1918899864  -999.250000  -999.250000 187.50000000  -999.250000  -999.250000  -999.250000  -999.250000  -999.250000  -999.250000
