# LAS format log file from PETREL
# Project units are specified as depth units
#==================================================================
~Version information
VERS.   2.0:
WRAP.   NO:
#==================================================================
~Well
STRT .m      360.12121582 :
STOP .m      3233.9282227 :
STEP .m     0.00000000 :
NULL .        -999.250000 :
COMP.           : COMPANY
WELL.  30/6-23   : WELL
FLD.            : FIELD
LOC.            : LOCATION
SRVC.           : SERVICE COMPANY
DATE.  2018-09-11 14:48:31   : Log Export Date {yyyy-MM-dd HH:mm:ss}
PROV.           : PROVINCE
UWI.   30/6-23   : UNIQUE WELL ID
API.            : API NUMBER
#==================================================================
~Curve
DEPT .m                   : DEPTH
Lithology_geolink ._      : Lithology_geolink
CALI .in                  : CALI
DRHO .g/cm3               : DRHO
NPHI .m3/m3               : NPHI
RHOB .g/cm3               : RHOB
GR .gAPI                  : GR
DTC .us/ft                : DTC
DTE .us/ft                : DTE
RDEP .ohm.m               : RDEP
SP .mV                    : SP
RSHA .ohm.m               : RSHA
RMED .ohm.m               : RMED
~Parameter
#==================================================================
~Ascii
# ...
 1932.8894043 6.0000000000 13.367200851 -0.003000000  -999.250000 2.0890998840 83.093711853 138.80924988 138.58479309 0.5918980837 108.08550262  -999.250000 0.6523227096
 1933.0417480 6.0000000000 12.984399796 -0.002400000  -999.250000 2.0576000214 85.592094421 138.80436707 138.58479309 0.5906985402 108.58499908  -999.250000 0.6664882898
 1933.1940918 6.0000000000 13.250000000 -0.005900000  -999.250000 2.0322999954 83.590232849 138.70698547 138.58479309 0.5888992548 108.95980072  -999.250000 0.6518960595
 1933.3465576 6.0000000000 13.882801056 -0.002900000  -999.250000 2.0552000999 79.394668579 138.78573608 138.58479309 0.5879020691 109.08429718  -999.250000 0.6469709873
 1933.4989014 6.0000000000 14.000000000 0.0029000000  -999.250000 2.0804998875 77.733215332 138.80430603 138.58479309 0.5905095339 108.58509827  -999.250000 0.6108114123
 1933.6513672 6.0000000000 13.218800545 0.0001000000  -999.250000 2.0931999683 80.877883911 138.80923462 138.58479309 0.6024149656 109.08390045  -999.250000 0.6250253916
 1933.8037109 6.0000000000 12.906200409 0.0007000000  -999.250000 2.1059000492 84.471374512 138.70855713 138.58479309 0.6211154461 108.08580017  -999.250000 0.6567230821
 1933.9561768 6.0000000000 12.960899353 -0.000900000  -999.250000 2.1177999973 86.810829163 138.78573608 138.58479309 0.6404134631 109.45989990  -999.250000 0.6855254769
 1934.1085205 6.0000000000 12.960899353 -0.003500000  -999.250000 2.1282000542 88.715377808 138.80430603 138.58479309 0.6572094560 109.70950317  -999.250000 0.7173160315
 1934.2609863 6.0000000000 13.023400307 -0.011000000  -999.250000 2.1354999542 87.672851563 138.80923462 138.58479309 0.6690053344 109.46030426  -999.250000 0.7374743819
 1934.4133301 6.0000000000 12.679699898 -0.007200000  -999.250000 2.1710000038 78.910530090 138.70855713 138.58479309 0.6722984314 109.83510590  -999.250000 0.8462602496
 1934.5657959 5.0000000000 12.687500000 0.0003000000  -999.250000 2.2000000477 73.330657959 138.78581238 138.58479309 0.6703920364 110.33670044  -999.250000 0.9212427735
 1934.7181396 5.0000000000 12.671899796 0.0031999999  -999.250000 2.1830999851 71.439796448 138.81074524 138.58479309 0.6653952003 111.58390045  -999.250000 0.8230658770
 1934.8706055 5.0000000000 12.859399796 0.0078999996  -999.250000 2.1431999207 79.546447754 138.81080627 138.58479309 0.6593788266 110.58450317  -999.250000 0.6557146311
 1935.0229492 6.0000000000 13.039098740 0.0135000004  -999.250000 2.1245000362 80.890502930 138.80436707 138.58479309 0.6461835504 110.45919800  -999.250000 0.6024590135
 1935.1752930 6.0000000000 12.867199898 0.0175000001  -999.250000 2.1410999298 81.392852783 138.70698547 138.58479309 0.6256810427 109.83450317  -999.250000 0.5513148308
 1935.3277588 6.0000000000 13.031200409 0.0046999999  -999.250000 2.1394999027 78.972145081 138.77929688 138.58479309 0.6019864678 109.58409882  -999.250000 0.5698258877
 1935.4801025 6.0000000000 13.062500000 0.0046999999  -999.250000 2.1317999363 84.260055542 138.80273438 138.58479309 0.5850946307 108.83480072  -999.250000 0.6020964980
 1935.6325684 6.0000000000 13.804699898 0.0063999998  -999.250000 2.1191000938 85.324111938 138.80923462 138.58479309 0.5784035921 108.95800018  -999.250000 0.5977195501
 1935.7849121 6.0000000000 13.718799591 0.0057999999  -999.250000 2.1226999760 86.460937500 138.70855713 138.58479309 0.5829127431 106.83399963  -999.250000 0.6220960617
 1935.9373779 6.0000000000 13.625000000 0.0070000002  -999.250000 2.1415998936 84.138511658 138.78573608 138.58479309 0.5988219380 105.96080017  -999.250000 0.6172395349
 1936.0897217 6.0000000000 13.820300102 0.0179999992  -999.250000 2.1635999680 82.775787354 138.80430603 138.58479309 0.6262167096 107.33319855  -999.250000 0.6665202975
 1936.2421875 6.0000000000 13.546899796 0.0131999999  -999.250000 2.1542000771 85.622756958 138.80923462 138.58479309 0.6470070481 105.45749664  -999.250000 0.6919242144
 1936.3945313 6.0000000000 13.171899796 0.0046000001  -999.250000 2.1507999897 82.292518616 138.80436707 138.58479309 0.6513944864 104.08640289  -999.250000 0.7070900202
 1936.5469971 6.0000000000 13.437500000 0.0115999999  -999.250000 2.2084000111 82.308013916 138.71348572 138.58479309 0.6444790363 106.20870209  -999.250000 0.8194274306
 1936.6993408 6.0000000000 13.507800102 0.0308999997  -999.250000 2.2778999805 81.199073792 138.78097534 138.58479309 0.6313894987 105.58360291  -999.250000 0.8988671303
 1936.8518066 6.0000000000 13.601599693 0.0308999997  -999.250000 2.2799999714 84.532081604 138.80920410 138.58479309 0.6182801723 104.21089935  -999.250000 0.8575544953
 1937.0041504 6.0000000000 13.664099693 0.0328000002  -999.250000 2.2439000607 85.769599915 138.80436707 138.58479309 0.6058878303 104.95980072  -999.250000 0.6420345902
 1937.1564941 6.0000000000 14.476599693 0.0384000018  -999.250000 2.2091999054 84.890106201 138.70698547 138.58479309 0.5906806588 105.08540344  -999.250000 0.5604703426
 1937.3089600 6.0000000000 13.859399796 0.0342000015  -999.250000 2.1989998817 82.151893616 138.78573608 138.58479309 0.5665746331 105.95970154  -999.250000 0.5234066844
 1937.4613037 6.0000000000 13.953100204 0.0375999995  -999.250000 2.1993999481 82.023361206 138.80430603 138.58479309 0.5348798633 105.95909882  -999.250000 0.5317172408
 1937.6137695 6.0000000000 14.273400307 0.0436000004  -999.250000 2.2149000168 83.474273682 138.80923462 138.58479309 0.5096895695 105.20950317  -999.250000 0.5531945825
 1937.7661133 6.0000000000 14.031201363 0.0476000011  -999.250000 2.2132999897 88.315017700 138.80436707 138.58479309 0.4966968000 104.96089935  -999.250000 0.5463988185
 1937.9185791 6.0000000000 14.117198944 0.0439000018  -999.250000 2.2011001110 92.337081909 138.71356201 138.58479309 0.4927012920 106.46030426  -999.250000 0.5448995829
 1938.0709229 6.0000000000 13.906200409 0.0463999994  -999.250000 2.2039999962 92.687271118 138.78096008 138.58479309 0.4943068027 107.20790100  -999.250000 0.5444410443
 1938.2233887 6.0000000000 13.937500000 0.0562999994  -999.250000 2.2195999622 95.273475647 138.80920410 138.58479309 0.5028118491 104.95880127  -999.250000 0.5957590938
 1938.3757324 6.0000000000 13.976599693 0.0590000004  -999.250000 2.2235000134 104.36431122 138.80436707 138.58479309 0.5176163316 103.83349609  -999.250000 0.6694653630
 1938.5281982 6.0000000000 13.906200409 0.0443999991  -999.250000 2.2174999714 121.47714996 138.71348572 138.58479309 0.5380389094 102.33550262  -999.250000 0.7510694861
 1938.6805420 7.0000000000 13.953100204 0.0417999998  -999.250000 2.2184998989 133.67121887 138.78097534 138.58479309 0.5623242855 102.83510590  -999.250000 0.7944188118
 1938.8330078 7.0000000000 13.898400307 0.0467000008  -999.250000 2.2406001091 142.41772461 138.80920410 138.58479309 0.5926547647 103.33650208  -999.250000 0.8179461360
 1938.9853516 7.0000000000 13.812500000 0.0232999995  -999.250000 2.2283000946 133.63429260 138.80436707 138.58479309 0.6268307567 104.46070099  -999.250000 0.8467179537
 1939.1378174 6.0000000000 13.781200409 0.0181000009  -999.250000 2.2385001183 123.51029205 138.70689392 138.58479309 0.6652808785 105.70850372  -999.250000 0.8691758513
 1939.2901611 6.0000000000 13.664099693 0.0161000006  -999.250000 2.2335999012 106.66127014 138.78573608 138.58479309 0.7157464623 104.95860291  -999.250000 0.9165022969
 1939.4425049 6.0000000000 12.890600204 0.0092000002  -999.250000 2.2209000587 96.386680603 138.80430603 138.58479309 0.7737309933 103.58470154  -999.250000 0.9194261432
 1939.5949707 6.0000000000 12.789099693 0.0018000000  -999.250000 2.2572000027 85.865165710 138.80923462 138.58479309 0.8124113679 103.58470154  -999.250000 0.9520890713
 1939.7473145 6.0000000000 13.234399796 0.0096000005  -999.250000 2.3078000546 79.210456848 138.80436707 138.58479309 0.8265951276 103.58440399  -999.250000 0.9385492206
 1939.8997803 16.000000000 12.531200409 0.0142999999  -999.250000 2.3104000092 71.540550232 138.71356201 138.58479309 0.8204857707 103.20989990  -999.250000 0.9999264479
 1940.0521240 16.000000000 12.453100204 0.0098999999  -999.250000 2.2448999882 68.976119995 138.78096008 138.58479309 0.8026790023 103.45970154  -999.250000 0.9081335664
