# LAS format log file from PETREL
# Project units are specified as depth units
#==================================================================
~Version information
VERS.   2.0:
WRAP.   NO:
#==================================================================
~Well
STRT .m      922.25012207 :
STOP .m      4009.0009766 :
STEP .m     0.00000000 :
NULL .        -999.250000 :
COMP.           : COMPANY
WELL.  30/6-11   : WELL
FLD.            : FIELD
LOC.            : LOCATION
SRVC.           : SERVICE COMPANY
DATE.  2018-09-11 14:48:30   : Log Export Date {yyyy-MM-dd HH:mm:ss}
PROV.           : PROVINCE
UWI.   30/6-11   : UNIQUE WELL ID
API.            : API NUMBER
#==================================================================
~Curve
DEPT .m                   : DEPTH
Lithology_geolink ._      : Lithology_geolink
CALI .in                  : CALI
DRHO .g/cm3               : DRHO
NPHI .m3/m3               : NPHI
RHOB .g/cm3               : RHOB
GR .gAPI                  : GR
DTC .us/ft                : DTC
RDEP .ohm.m               : RDEP
SP .mV                    : SP
RSHA .ohm.m               : RSHA
RMED .ohm.m               : RMED
~Parameter
#==================================================================
~Ascii
# ...
 2152.6250000 6.0000000000 14.555000305 0.0260000005 0.2881000042 2.0678048134 51.122001648 101.51925659 0.8399999738 32.912998199 0.8169999719 0.8169999719
 2152.7500000 6.0000000000 14.555000305 0.0260000005 0.2951899767 2.0680434704 49.437000275 101.51304626 0.8399999738 32.657001495 0.8180000186 0.8180000186
 2152.8750000 5.0000000000 14.555999756 0.0289999992 0.3050200045 2.0712192059 47.958000183 101.50465393 0.8389999866 32.603000641 0.8169999719 0.8169999719
 2153.0000000 5.0000000000 14.557001114 0.0320000015 0.3087800145 2.0763347149 47.355998993 101.49446869 0.8370000124 32.664001465 0.8159999847 0.8159999847
 2153.1252441 5.0000000000 14.557999611 0.0350000001 0.2978700101 2.0819923878 47.643001556 101.48665619 0.8360000253 32.587001801 0.8149999976 0.8149999976
 2153.2497559 5.0000000000 14.557999611 0.0359999985 0.2827500105 2.0850980282 48.370998383 101.49147797 0.8349999785 32.229000092 0.8149999976 0.8149999976
 2153.3747559 5.0000000000 14.557999611 0.0340000018 0.2692600191 2.0851433277 50.054000854 101.51528931 0.8339999914 31.219999313 0.8169999719 0.8169999719
 2153.5000000 5.0000000000 14.557999611 0.0270000007 0.2632099986 2.0821630955 51.486999512 101.55205536 0.8339999914 30.489999771 0.8209999800 0.8209999800
 2153.6250000 5.0000000000 14.557999611 0.0219999999 0.2684099972 2.0779566765 52.138000488 101.59076691 0.8339999914 30.517999649 0.8259999752 0.8259999752
 2153.7500000 5.0000000000 14.557999611 0.0179999992 0.2748000026 2.0749058723 52.305999756 101.61692047 0.8349999785 31.089000702 0.8309999704 0.8309999704
 2153.8750000 5.0000000000 14.557999611 0.0170000009 0.2785800099 2.0753982067 51.660999298 101.61331177 0.8399999738 32.673000336 0.8379999995 0.8379999995
 2154.0000000 5.0000000000 14.557999611 0.0170000009 0.2791099846 2.0815200806 50.886001587 101.59771729 0.8460000157 33.955001831 0.8429999948 0.8429999948
 2154.1250000 5.0000000000 14.557999611 0.0199999996 0.2793000042 2.0901529789 50.498001099 101.60933685 0.8510000110 34.407001495 0.8439999819 0.8439999819
 2154.2502441 5.0000000000 14.559000015 0.0260000005 0.2803000212 2.1010375023 50.580001831 101.68143463 0.8560000062 34.416000366 0.8450000286 0.8450000286
 2154.3752441 5.0000000000 14.560998917 0.0359999985 0.2780800164 2.1137125492 52.396999359 101.80617523 0.8659999967 33.787998199 0.8500000238 0.8500000238
 2154.4997559 5.0000000000 14.562999725 0.0480000004 0.2690099776 2.1268024445 54.706001282 101.94367981 0.8740000129 33.235000610 0.8579999804 0.8579999804
 2154.6247559 5.0000000000 14.564001083 0.0500000007 0.2589699924 2.1345028877 56.404998779 102.01863861 0.8790000081 33.125999451 0.8669999838 0.8669999838
 2154.7500000 5.0000000000 14.564001083 0.0469999984 0.2492100000 2.1347839832 57.462001801 101.94458008 0.8830000162 33.297000885 0.8780000210 0.8780000210
 2154.8750000 5.0000000000 14.562000275 0.0450000018 0.2434499860 2.1344325542 57.627998352 101.74569702 0.8899999857 33.886001587 0.8930000067 0.8930000067
 2155.0000000 6.0000000000 14.560000420 0.0460000001 0.2459699959 2.1367959976 57.377998352 101.44854736 0.8960000277 34.289001465 0.9029999971 0.9029999971
 2155.1250000 6.0000000000 14.559000015 0.0540000014 0.2572599947 2.1434593201 57.273998260 101.08916473 0.8999999762 34.194000244 0.9060000181 0.9060000181
 2155.2500000 6.0000000000 14.557999611 0.0619999990 0.2737599909 2.1540186405 57.409000397 100.70957184 0.9049999714 33.706001282 0.9070000052 0.9070000052
 2155.3750000 6.0000000000 14.559000015 0.0680000037 0.2963100076 2.1641929150 57.261001587 100.36848450 0.9120000005 32.411998749 0.9060000181 0.9060000181
 2155.5002441 6.0000000000 14.560000420 0.0689999983 0.3186599910 2.1702275276 56.491001129 100.11930847 0.9169999957 31.408000946 0.9079999924 0.9079999924
 2155.6252441 6.0000000000 14.560998917 0.0659999996 0.3209600151 2.1713385582 55.222000122 99.970275879 0.9179999828 31.159999847 0.9129999876 0.9129999876
 2155.7497559 6.0000000000 14.562000275 0.0619999990 0.3166899979 2.1688096523 53.615001678 99.910011292 0.9200000167 31.376001358 0.9190000296 0.9190000296
 2155.8750000 5.0000000000 14.562999725 0.0570000000 0.3065699935 2.1646277905 50.904998779 99.912536621 0.9250000119 32.571998596 0.9300000072 0.9300000072
 2156.0000000 5.0000000000 14.562000275 0.0489999987 0.2942499816 2.1600403786 48.817001343 99.935958862 0.9319999814 33.759998322 0.9359999895 0.9359999895
 2156.1250000 5.0000000000 14.560998917 0.0419999994 0.2890800238 2.1555221081 47.884998322 99.942260742 0.9409999847 34.403999329 0.9369999766 0.9369999766
 2156.2500000 5.0000000000 14.560000420 0.0370000005 0.2849200070 2.1542580128 47.459999084 99.914581299 0.9509999752 34.709999084 0.9369999766 0.9369999766
 2156.3750000 5.0000000000 14.559000015 0.0399999991 0.2855199873 2.1606702805 47.394001007 99.762214661 0.9660000205 34.585998535 0.9390000105 0.9390000105
 2156.5000000 5.0000000000 14.559000015 0.0520000011 0.2943600118 2.1769785881 47.308998108 99.374122620 0.9760000110 34.412998199 0.9480000138 0.9480000138
 2156.6252441 5.0000000000 14.557999611 0.0649999976 0.3050200045 2.2019376755 47.012001038 98.631278992 0.9800000191 34.500000000 0.9629999995 0.9629999995
 2156.7502441 5.0000000000 14.557999611 0.0740000010 0.3150700033 2.2223682404 46.708999634 97.323295593 0.9819999933 34.880001068 0.9829999804 0.9829999804
 2156.8747559 5.0000000000 14.557999611 0.0740000010 0.3190699816 2.2302167416 47.851001740 95.716217041 0.9840000272 35.726001740 1.0119999647 1.0119999647
 2156.9997559 5.0000000000 14.557999611 0.0640000030 0.3131400049 2.2253499031 50.125000000 94.097946167 0.9850000143 36.173000336 1.0310000181 1.0310000181
 2157.1250000 5.0000000000 14.557999611 0.0570000000 0.3038600087 2.2127077579 52.729000092 92.836425781 0.9869999886 35.925998688 1.0340000391 1.0340000391
 2157.2500000 5.0000000000 14.557999611 0.0529999994 0.2957900167 2.1989796162 55.200000763 92.279663086 0.9879999757 35.313999176 1.0319999456 1.0319999456
 2157.3750000 5.0000000000 14.557999611 0.0500000007 0.2922999859 2.1889691353 57.002998352 92.693687439 0.9840000272 34.269001007 1.0269999504 1.0269999504
 2157.5000000 5.0000000000 14.557001114 0.0469999984 0.2958999872 2.1819307804 57.231998444 94.114219666 0.9789999723 33.730998993 1.0230000019 1.0230000019
 2157.6250000 5.0000000000 14.557999611 0.0439999998 0.3036800027 2.1763639450 56.481998444 95.743743896 0.9729999900 33.949001312 1.0219999552 1.0219999552
 2157.7500000 5.0000000000 14.557999611 0.0399999991 0.3111700118 2.1718692780 55.780998230 97.181396484 0.9689999819 34.564998627 1.0210000277 1.0210000277
 2157.8752441 5.0000000000 14.559000015 0.0359999985 0.3126600087 2.1683657169 55.408000946 98.144073486 0.9679999948 35.937999725 1.0199999809 1.0199999809
 2158.0002441 5.0000000000 14.559000015 0.0329999998 0.3056200147 2.1660552025 55.366001129 98.485382080 0.9720000029 37.058998108 1.0210000277 1.0210000277
 2158.1247559 5.0000000000 14.559000015 0.0320000015 0.2989400029 2.1654829979 55.402999878 98.247955322 0.9789999723 37.592998505 1.0240000486 1.0240000486
 2158.2500000 5.0000000000 14.559000015 0.0329999998 0.2946099937 2.1664552689 55.138999939 97.728981018 0.9900000095 37.924999237 1.0279999971 1.0279999971
 2158.3750000 5.0000000000 14.557999611 0.0350000001 0.2943499982 2.1697821617 53.229999542 97.108665466 1.0119999647 38.354000092 1.0379999876 1.0379999876
 2158.5000000 5.0000000000 14.557999611 0.0399999991 0.2979499996 2.1755990982 50.659999847 96.491760254 1.0340000391 38.837001801 1.0470000505 1.0470000505
 2158.6250000 5.0000000000 14.557999611 0.0430000015 0.3016500175 2.1831548214 48.202999115 95.955696106 1.0520000458 39.314998627 1.0520000458 1.0520000458
 2158.7500000 5.0000000000 14.557999611 0.0469999984 0.3061600029 2.1904573441 45.858001709 95.552078247 1.0720000267 39.769001007 1.0590000153 1.0590000153
 2158.8750000 5.0000000000 14.557999611 0.0540000014 0.3117299974 2.1984839439 43.291000366 95.279762268 1.1030000448 40.236999512 1.0750000477 1.0750000477
