# LAS format log file from PETREL
# Project units are specified as depth units
#==================================================================
~Version information
VERS.   2.0:
WRAP.   NO:
#==================================================================
~Well
STRT .m      933.99749756 :
STOP .m      3610.7521973 :
STEP .m     0.00000000 :
NULL .        -999.250000 :
COMP.           : COMPANY
WELL.  30/6-8   : WELL
FLD.            : FIELD
LOC.            : LOCATION
SRVC.           : SERVICE COMPANY
DATE.  2018-09-11 14:48:31   : Log Export Date {yyyy-MM-dd HH:mm:ss}
PROV.           : PROVINCE
UWI.   30/6-8   : UNIQUE WELL ID
API.            : API NUMBER
#==================================================================
~Curve
DEPT .m                   : DEPTH
Lithology_geolink ._      : Lithology_geolink
CALI .in                  : CALI
DRHO .g/cm3               : DRHO
NPHI .m3/m3               : NPHI
RHOB .g/cm3               : RHOB
GR .gAPI                  : GR
DTC .us/ft                : DTC
DTE .us/ft                : DTE
RDEP .ohm.m               : RDEP
SP .mV                    : SP
RSHA .ohm.m               : RSHA
RMED .ohm.m               : RMED
~Parameter
#==================================================================
~Ascii
# ...
 1643.5721436  -999.250000 18.766000748 0.0089999996 0.4721699953 2.0137000084 55.402397156 157.05485535 152.44174194 0.5370000005 73.497802734 0.5609783530 0.5609783530
 1643.7244873  -999.250000 18.781000137 0.0020000001 0.4843800068 2.0135343075 53.896232605 157.00627136 152.46989441 0.5369983912 73.000205994 0.5520304441 0.5520304441
 1643.8769531  -999.250000 18.858999252 0.0000000000 0.4843800068 2.0103039742 47.799713135 157.50405884 153.00648499 0.5360096097 73.748550415 0.5709975958 0.5709975958
 1644.0292969  -999.250000 18.937999725 0.0010000000 0.5205099583 2.0074131489 42.284202576 158.38011169 153.86943054 0.5400192738 73.560897827 0.5700288415 0.5700288415
 1644.1816406  -999.250000 19.031000137 0.0020000001 0.5073199868 1.9978742599 44.284000397 157.96099854 153.40554810 0.5520223975 73.499900818 0.5880063772 0.5880063772
 1644.3341064  -999.250000 18.937999725 -0.003000000 0.4692400098 1.9807245731 46.164211273 156.94331360 152.38151550 0.5660208464 74.060394287 0.5920240283 0.5920240283
 1644.4864502  -999.250000 19.016000748 0.0049999999 0.4492200017 1.9762698412 51.273284912 155.47209167 150.80529785 0.5790144205 73.685897827 0.6070144176 0.6070144176
 1644.6389160  -999.250000 17.531000137 0.0089999996 0.4477500021 1.9860768318 46.466526031 153.28691101 148.71406555 0.5879927874 73.624450684 0.6160672307 0.6160672307
 1644.7912598  -999.250000 17.297000885 0.0199999996 0.4541000128 1.9989264011 45.439498901 152.29896545 147.80757141 0.5850015879 73.811393738 0.6439999938 0.6439999938
 1644.9437256  -999.250000 17.437999725 0.0140000004 0.4589799941 1.9891639948 46.378257751 153.79301453 149.25366211 0.5860040188 74.060546875 0.6439799666 0.6439799666
 1645.0960693  -999.250000 17.952999115 0.0120000001 0.4960900247 1.9641700983 50.440452576 156.88436890 152.25840759 0.5910080075 73.499298096 0.6189631820 0.6189631820
 1645.2485352  -999.250000 18.281000137 0.0089999996 0.4892599881 1.9545975924 51.959842682 161.78775024 157.23431396 0.5960168242 73.686294556 0.5959640145 0.5959640145
 1645.4008789  -999.250000 18.047000885 0.0000000000 0.5048800111 1.9667670727 48.159305573 165.04142761 160.42829895 0.6030032039 73.810295105 0.5809775591 0.5809775591
 1645.5533447  -999.250000 18.702999115 -0.006000000 0.4599599838 1.9978071451 50.224407196 165.32702637 160.71545410 0.6049783826 73.371597290 0.5670023561 0.5670023561
 1645.7056885  -999.250000 18.641000748 -0.003000000 0.4643599987 2.0354745388 52.473056793 164.24284363 159.75857544 0.5959920287 72.373497009 0.5680064559 0.5680064559
 1645.8581543  -999.250000 18.672000885 0.0049999999 0.4213899970 2.0666618347 54.993320465 160.33016968 155.88694763 0.5910024047 72.067001343 0.5720888972 0.5720888972
 1646.0104980  -999.250000 18.733999252 0.0149999997 0.4243199825 2.0845158100 52.217597961 156.05844116 151.50767517 0.5920048356 74.561401367 0.6090657115 0.6090657115
 1646.1629639  -999.250000 18.781000137 0.0109999999 0.4194300175 2.0831036568 51.349479675 151.50257874 146.93103027 0.5950168371 74.796882629 0.6500144005 0.6500144005
 1646.3153076  -999.250000 18.766000748 0.0120000001 0.4399400055 2.0778787136 53.628005981 148.35438538 143.85598755 0.6020032167 68.929489136 0.6559631824 0.6559631824
 1646.4676514  -999.250000 18.750000000 0.0099999998 0.4575199783 2.0725622177 55.497097015 149.52235413 145.01611328 0.6039919853 64.883712769 0.6329823732 0.6329823732
 1646.6201172  -999.250000 18.766000748 0.0130000003 0.4672900140 2.0691740513 53.675838470 152.17291260 147.60044861 0.5989735723 70.940200806 0.6219783425 0.6219783425
 1646.7724609  -999.250000 19.000000000 0.0109999999 0.4404299855 2.0635573864 48.624549866 154.69142151 150.10021973 0.5879839659 72.686294556 0.6129951477 0.6129951477
 1646.9249268  -999.250000 19.062999725 0.0120000001 0.4404299855 2.0571730137 48.343025208 156.45996094 151.92408752 0.5779783726 72.873397827 0.6099543571 0.6099543571
 1647.0772705  -999.250000 18.858999252 0.0089999996 0.4311500192 2.0487525463 47.947463989 155.94631958 151.44783020 0.5689904094 72.624298096 0.5909855962 0.5909855962
 1647.2297363  -999.250000 18.968999863 0.0060000001 0.4580099881 2.0407543182 53.842350006 153.96131897 149.42875671 0.5629904270 72.810249329 0.5819904208 0.5819904208
 1647.3820801  -999.250000 19.047000885 0.0089999996 0.4609400034 2.0402047634 53.156700134 152.14585876 147.63165283 0.5590032339 72.499298096 0.5779951811 0.5779951811
 1647.5345459  -999.250000 18.702999115 0.0140000004 0.4594699740 2.0419292450 53.584541321 151.25398254 146.71408081 0.5609999895 72.689598083 0.5750144124 0.5750144124
 1647.6868896  -999.250000 19.312999725 0.0160000008 0.4653300047 2.0381250381 49.655345917 151.09375000 146.54100037 0.5610015988 74.186996460 0.5809983611 0.5809983611
 1647.8393555  -999.250000 19.500000000 0.0120000001 0.4575199783 2.0258748531 49.255180359 152.01791382 147.54678345 0.5620119572 74.815498352 0.5800191760 0.5800191760
 1647.9916992  -999.250000 19.250000000 0.0109999999 0.4882799983 2.0104961395 51.407901764 153.94900513 149.41645813 0.5670015812 76.686195374 0.5879967809 0.5879967809
 1648.1441650  -999.250000 19.483999252 0.0130000003 0.4775400162 2.0012104511 52.586120605 155.43879700 150.85676575 0.5680072308 76.798538208 0.5860264301 0.5860264301
 1648.2965088  -999.250000 18.547000885 0.0149999997 0.5019500256 1.9881975651 49.313049316 156.71992493 152.13656616 0.5710111856 71.622596741 0.5969904065 0.5969904065
 1648.4488525  -999.250000 18.875000000 0.0060000001 0.4663099945 1.9642735720 49.340595245 158.00851440 153.53332520 0.5780016184 70.740989685 0.5909935832 0.5909935832
 1648.6013184  -999.250000 18.672000885 0.0070000002 0.4668000042 1.9395495653 47.234687805 160.33148193 155.78492737 0.5790095925 65.767761230 0.5869951844 0.5869951844
 1648.7536621  -999.250000 18.483999252 0.0099999998 0.4570299983 1.9257538319 53.754356384 163.33728027 158.72578430 0.5830048323 73.560592651 0.5849679112 0.5849679112
 1648.9061279  -999.250000 18.000000000 0.0160000008 0.4731400013 1.9347422123 56.463371277 164.77444458 160.32029724 0.5860000253 73.307243347 0.5650095940 0.5650095940
 1649.0584717  -999.250000 19.062999725 0.0109999999 0.4824199975 1.9579347372 54.120040894 165.84751892 161.38006592 0.5859951973 71.751502991 0.5689904094 0.5689904094
 1649.2109375  -999.250000 17.827999115 0.0060000001 0.4799800217 1.9824455976 51.021617889 167.19219971 162.54304504 0.5830048323 73.311897278 0.5630192161 0.5630192161
 1649.3632813  -999.250000 17.858999252 0.0070000002 0.4594699740 1.9961621761 47.127853394 166.81277466 162.23922729 0.5850160122 73.686599731 0.5710064173 0.5710064173
 1649.5157471  -999.250000 17.858999252 0.0080000004 0.4628900290 1.9904384613 48.901420593 165.06553650 160.53140259 0.5950216651 74.060699463 0.5750191808 0.5750191808
 1649.6680908  -999.250000 18.156000137 0.0120000001 0.4492200017 1.9793595076 46.993289948 162.36729431 157.89982605 0.6040223837 73.936195374 0.5830048323 0.5830048323
 1649.8205566  -999.250000 18.156000137 0.0089999996 0.5014600158 1.9632706642 42.816375732 161.00569153 156.57385254 0.6180191636 74.067901611 0.5860000253 0.5860000253
 1649.9729004  -999.250000 18.312999725 0.0020000001 0.5004900098 1.9564514160 44.221855164 159.52905273 155.04132080 0.6259983778 76.929588318 0.5860160589 0.5860160589
 1650.1253662  -999.250000 18.266000748 0.0020000001 0.4897499979 1.9716691971 46.012310028 158.44799805 153.86997986 0.6249880195 72.929092407 0.5960192084 0.5960192084
 1650.2777100  -999.250000 17.968999863 0.0049999999 0.4238300025 2.0005874634 51.124549866 158.01309204 153.42846680 0.6199951768 70.057189941 0.6039967537 0.6039967537
 1650.4300537  -999.250000 17.875000000 0.0179999992 0.3979499936 2.0156447887 50.838897705 157.59637451 153.07479858 0.6169823408 67.684700012 0.6019727588 0.6019727588
 1650.5825195  -999.250000 17.827999115 0.0109999999 0.4399400055 1.9891167879 47.654945374 159.49897766 154.94538879 0.6059951782 66.883712769 0.5849631429 0.5849631429
 1650.7348633  -999.250000 18.312999725 0.0080000004 0.5004900098 1.9426190853 47.004959106 163.10006714 158.46191406 0.6030048132 72.935592651 0.5619646907 0.5619646907
