# LAS format log file from PETREL
# Project units are specified as depth units
#==================================================================
~Version information
VERS.   2.0:
WRAP.   NO:
#==================================================================
~Well
STRT .m      922.25012207 :
STOP .m      4009.0009766 :
STEP .m     0.00000000 :
NULL .        -999.250000 :
COMP.           : COMPANY
WELL.  30/6-11   : WELL
FLD.            : FIELD
LOC.            : LOCATION
SRVC.           : SERVICE COMPANY
DATE.  2018-09-11 14:48:30   : Log Export Date {yyyy-MM-dd HH:mm:ss}
PROV.           : PROVINCE
UWI.   30/6-11   : UNIQUE WELL ID
API.            : API NUMBER
#==================================================================
~Curve
DEPT .m                   : DEPTH
Lithology_geolink ._      : Lithology_geolink
CALI .in                  : CALI
DRHO .g/cm3               : DRHO
NPHI .m3/m3               : NPHI
RHOB .g/cm3               : RHOB
GR .gAPI                  : GR
DTC .us/ft                : DTC
RDEP .ohm.m               : RDEP
SP .mV                    : SP
RSHA .ohm.m               : RSHA
RMED .ohm.m               : RMED
~Parameter
#==================================================================
~Ascii
# ...
 3593.3752441 5.0000000000 12.593000412 -0.046000000 0.1679800004 2.5714163780 76.671997070 76.120231628 6.9530000687 41.051998138 6.9039998055 6.9039998055
 3593.5002441 5.0000000000 12.605999947 -0.046999998 0.1673699915 2.5687415600 78.026000977 76.385063171 6.9780001640 42.446998596 6.8959999084 6.8959999084
 3593.6254883 6.0000000000 12.621000290 -0.039999999 0.1681699902 2.5751671791 77.929000854 76.703521729 6.9920001030 42.964000702 6.8870000839 6.8870000839
 3593.7504883 6.0000000000 12.635001183 -0.030999999 0.1695400029 2.5894441605 77.014999390 77.056419373 7.0040001869 42.897998810 6.8800001144 6.8800001144
 3593.8754883 6.0000000000 12.647999763 -0.016000001 0.1716799885 2.6092786789 75.013000488 77.430236816 7.0170001984 41.633998871 6.8790001869 6.8790001869
 3594.0004883 5.0000000000 12.656000137 0.0020000001 0.1731899977 2.6291105747 73.551002502 77.803497314 7.0260000229 40.178001404 6.8800001144 6.8800001144
 3594.1254883 5.0000000000 12.657999992 0.0089999996 0.1713999957 2.6428406239 73.055000305 78.153121948 7.0359997749 39.080001831 6.8810000420 6.8810000420
 3594.2504883 5.0000000000 12.656999588 0.0130000003 0.1684199870 2.6480307579 72.921997070 78.451629639 7.0570001602 38.139999390 6.8819999695 6.8819999695
 3594.3752441 5.0000000000 12.654000282 0.0120000001 0.1645000130 2.6453323364 73.397003174 78.673965454 7.1139998436 37.068000793 6.9079999924 6.9079999924
 3594.5002441 5.0000000000 12.649999619 0.0099999998 0.1602599919 2.6372091770 74.266998291 78.802955627 7.1719999313 36.363998413 6.9499998093 6.9499998093
 3594.6252441 5.0000000000 12.647999763 0.0089999996 0.1585599929 2.6300463676 75.472000122 78.865745544 7.2160000801 36.138000488 6.9990000725 6.9990000725
 3594.7502441 5.0000000000 12.647999763 0.0060000001 0.1575500071 2.6234934330 76.918998718 78.898841858 7.2589998245 36.168998718 7.0520000458 7.0520000458
 3594.8752441 5.0000000000 12.649000168 -0.001000000 0.1580200046 2.6157011986 77.862998962 78.914489746 7.3189997673 36.681999207 7.1129999161 7.1129999161
 3595.0002441 5.0000000000 12.649999619 -0.012000000 0.1605599970 2.6065127850 77.291000366 78.919067383 7.3619999886 37.215000153 7.1500000954 7.1500000954
 3595.1252441 5.0000000000 12.649999619 -0.017000001 0.1635499895 2.5984461308 75.456001282 78.914115906 7.3819999695 37.542999268 7.1630001068 7.1630001068
 3595.2500000 5.0000000000 12.649000168 -0.020000000 0.1662999988 2.5961532593 73.058998108 78.897903442 7.3940000534 37.770000458 7.1750001907 7.1750001907
 3595.3750000 5.0000000000 12.645001411 -0.021000000 0.1665900052 2.5935266018 69.785003662 78.873626709 7.4050002098 37.826999664 7.2090001106 7.2090001106
 3595.5000000 5.0000000000 12.640999794 -0.025000000 0.1637400091 2.5893862247 68.095001221 78.842086792 7.4149999619 37.709999084 7.2459998131 7.2459998131
 3595.6250000 5.0000000000 12.637000084 -0.028000001 0.1612899899 2.5847587585 68.449996948 78.802642822 7.4250001907 37.514999390 7.2769999504 7.2769999504
 3595.7500000 5.0000000000 12.633999825 -0.028000001 0.1596899927 2.5817897320 69.757003784 78.752372742 7.4380002022 37.339000702 7.3039999008 7.3039999008
 3595.8750000 5.0000000000 12.630000114 -0.026000001 0.1597799957 2.5831024647 73.101997375 78.680900574 7.4619998932 37.286998749 7.3319997787 7.3319997787
 3596.0000000 5.0000000000 12.628001213 -0.024000000 0.1620199978 2.5855548382 76.026000977 78.576240540 7.4809999466 37.368000031 7.3470001221 7.3470001221
 3596.1250000 6.0000000000 12.626999855 -0.027000001 0.1649900079 2.5850257874 77.427001953 78.442977905 7.4910001755 37.493999481 7.3509998322 7.3509998322
 3596.2497559 6.0000000000 12.626999855 -0.033000000 0.1681800038 2.5815563202 78.047996521 78.288162231 7.4970002174 37.624000549 7.3530001640 7.3530001640
 3596.3747559 6.0000000000 12.626999855 -0.041999999 0.1682000011 2.5766100883 77.374000549 78.118789673 7.5069999695 37.921001434 7.3600001335 7.3600001335
 3596.4997559 6.0000000000 12.628001213 -0.050999999 0.1615399867 2.5727076530 75.964996338 77.942573547 7.5229997635 38.247001648 7.3689999580 7.3689999580
 3596.6247559 6.0000000000 12.628001213 -0.052999999 0.1519300044 2.5728719234 74.440002441 77.767150879 7.5489997864 38.474998474 7.3800001144 7.3800001144
 3596.7500000 6.0000000000 12.628999710 -0.052000001 0.1413000077 2.5753519535 73.015998840 77.603096008 7.5900001526 38.580001831 7.3959999084 7.3959999084
 3596.8750000 6.0000000000 12.630999565 -0.045000002 0.1296899915 2.5801057816 71.722999573 77.458610535 7.7129998207 38.472999573 7.4400000572 7.4400000572
 3596.9995117 6.0000000000 12.630999565 -0.029999999 0.1182900071 2.5887134075 70.930000305 77.335174561 7.8610000610 38.340999603 7.4910001755 7.4910001755
 3597.1247559 6.0000000000 12.628999710 -0.016000001 0.1139799953 2.6030273438 70.092002869 77.228401184 8.0139999390 38.285999298 7.5399999619 7.5399999619
 3597.2497559 5.0000000000 12.623999596 -0.003000000 0.1107199937 2.6237864494 68.416000366 77.130767822 8.1949996948 38.231998444 7.6079998016 7.6079998016
 3597.3742676 5.0000000000 12.614000320 0.0060000001 0.1084399968 2.6474177837 64.096000671 77.033584595 8.5129995346 37.902000427 7.8420000076 7.8420000076
 3597.4992676 5.0000000000 12.604000092 0.0080000004 0.1084199995 2.6662535667 60.534000397 76.937515259 8.7770004272 37.472999573 8.1630001068 8.1630001068
 3597.6245117 5.0000000000 12.593999863 -0.001000000 0.1123400033 2.6743907928 59.198001862 76.845748901 8.9280004501 37.151000977 8.5299997330 8.5299997330
 3597.7495117 5.0000000000 12.583000183 -0.012000000 0.1196499988 2.6712107658 58.993000031 76.761100769 9.0439996719 37.006000519 8.9600000381 8.9600000381
 3597.8745117 16.000000000 12.567999840 -0.018999999 0.1343200058 2.6613655090 60.606998444 76.685173035 9.1610002518 37.438999176 9.4739999771 9.4739999771
 3597.9995117 16.000000000 12.555000305 -0.017000001 0.1546400040 2.6525859833 62.570999146 76.622573853 9.2320003510 38.115001678 9.6450004578 9.6450004578
 3598.1242676 16.000000000 12.548000336 -0.007000000 0.1631399989 2.6501836777 64.232002258 76.570434570 9.2550001144 38.679000854 9.4239997864 9.4239997864
 3598.2492676 16.000000000 12.548999786 0.0040000002 0.1668000072 2.6507868767 66.121002197 76.517738342 9.2580003738 39.028999329 9.0509996414 9.0509996414
 3598.3742676 5.0000000000 12.559000015 0.0109999999 0.1651699990 2.6506502628 69.525001526 76.447891235 9.1840000153 38.667999268 8.4610004425 8.4610004425
 3598.4992676 5.0000000000 12.569999695 0.0099999998 0.1600999981 2.6467659473 72.180000305 76.341110229 9.0570001602 37.883998871 8.0579996109 8.0579996109
 3598.6242676 5.0000000000 12.576000214 0.0030000000 0.1570899934 2.6383144855 73.248001099 76.174629211 8.9010000229 37.088001251 7.9180002213 7.9180002213
 3598.7492676 5.0000000000 12.572999954 -0.006000000 0.1547600031 2.6292235851 73.611000061 75.867561340 8.7159996033 36.423000336 7.8660001755 7.8660001755
 3598.8742676 5.0000000000 12.552000046 -0.017000001 0.1535300016 2.6208081245 73.089996338 75.389839172 8.4230003357 35.979000092 7.9210000038 7.9210000038
 3598.9992676 5.0000000000 12.522000313 -0.028999999 0.1538300067 2.6140141487 72.247001648 74.707283020 8.2110004425 35.898998260 8.0120000839 8.0120000839
 3599.1240234 5.0000000000 12.494999886 -0.034000002 0.1553999931 2.6095550060 71.420997620 73.847854614 8.1289997101 36.037998199 8.0869998932 8.0869998932
 3599.2490234 5.0000000000 12.475999832 -0.035999998 0.1576000005 2.6074330807 70.524002075 72.893928528 8.0959997177 36.201999664 8.1400003433 8.1400003433
 3599.3740234 5.0000000000 12.470000267 -0.035999998 0.1622499973 2.6046433449 69.661003113 72.038459778 8.1180000305 36.465999603 8.1379995346 8.1379995346
 3599.4990234 5.0000000000 12.477000237 -0.035000000 0.1704299897 2.6000614166 69.777000427 71.569763184 8.1520004272 36.769001007 8.0950002670 8.0950002670
 3599.6240234 5.0000000000 12.491000175 -0.035000000 0.1770700067 2.5958693027 70.816001892 71.552223206 8.1669998169 37.124000549 8.0450000763 8.0450000763
