# LAS format log file from PETREL
# Project units are specified as depth units
#==================================================================
~Version information
VERS.   2.0:
WRAP.   NO:
#==================================================================
~Well
STRT .m      933.99749756 :
STOP .m      3610.7521973 :
STEP .m     0.00000000 :
NULL .        -999.250000 :
COMP.           : COMPANY
WELL.  30/6-8   : WELL
FLD.            : FIELD
LOC.            : LOCATION
SRVC.           : SERVICE COMPANY
DATE.  2018-09-11 14:48:31   : Log Export Date {yyyy-MM-dd HH:mm:ss}
PROV.           : PROVINCE
UWI.   30/6-8   : UNIQUE WELL ID
API.            : API NUMBER
#==================================================================
~Curve
DEPT .m                   : DEPTH
Lithology_geolink ._      : Lithology_geolink
CALI .in                  : CALI
DRHO .g/cm3               : DRHO
NPHI .m3/m3               : NPHI
RHOB .g/cm3               : RHOB
GR .gAPI                  : GR
DTC .us/ft                : DTC
DTE .us/ft                : DTE
RDEP .ohm.m               : RDEP
SP .mV                    : SP
RSHA .ohm.m               : RSHA
RMED .ohm.m               : RMED
~Parameter
#==================================================================
~Ascii
# ...
 3428.4816895 6.0000000000 12.737999916 -0.005000000 0.2599399984 2.6161983013 81.772750854 79.107376099 79.729972839 6.3907499313 74.303016663 8.6739425659 8.6739425659
 3428.6342773 6.0000000000 12.739000320 -0.006000000 0.2543500066 2.6182897091 80.982559204 79.288917542 79.866699219 6.5833101273 74.758445740 8.7769098282 8.7769098282
 3428.7866211 5.0000000000 12.739000320 -0.009000000 0.2539100051 2.6186320782 77.911140442 79.523483276 80.024993896 6.6479997635 74.548805237 8.9610004425 8.9610004425
 3428.9389648 5.0000000000 12.739000320 -0.006000000 0.2534500062 2.6195604801 73.472999573 79.316040039 79.867546082 6.8038463593 74.792190552 8.9610004425 8.9610004425
 3429.0913086 5.0000000000 12.739000320 -0.006000000 0.2725700140 2.6253840923 67.803573608 78.545021057 79.094749451 6.9491539001 74.701805115 8.9689617157 8.9689617157
 3429.2438965 5.0000000000 12.739999771 -0.005000000 0.2742699981 2.6356599331 64.792343140 77.695045471 78.123413086 6.9573326111 74.801795959 9.3862113953 9.3862113953
 3429.3962402 5.0000000000 12.739999771 -0.008000000 0.2705900073 2.6422293186 65.786346436 76.139778137 76.571159363 6.9725384712 75.177421570 9.9139995575 9.9139995575
 3429.5485840 5.0000000000 12.739999771 -0.009000000 0.2522799969 2.6378080845 70.121177673 74.781234741 75.231521606 6.9446535110 75.620811462 9.9099416733 9.9099416733
 3429.7009277 5.0000000000 12.739999771 -0.009000000 0.2604199946 2.6371479034 74.467193604 74.013366699 74.591896057 6.7160000801 76.314788818 9.7052497864 9.7052497864
 3429.8535156 5.0000000000 12.740999222 -0.010000000 0.2398800105 2.6419997215 77.209266663 73.898857117 74.519966125 6.3513665199 75.784912109 9.8152990341 9.8152990341
 3430.0058594 5.0000000000 12.740999222 -0.008000000 0.2417300045 2.6467728615 78.592918396 74.122955322 74.657135010 5.9860768318 75.352790833 9.5694999695 9.5694999695
 3430.1582031 6.0000000000 12.740999222 -0.009000000 0.2308000028 2.6493244171 78.885993958 74.912338257 75.450614929 5.6776728630 75.136192322 8.2944612503 8.2944612503
 3430.3105469 6.0000000000 12.725000381 -0.010000000 0.2575300038 2.6617639065 78.416557312 76.222702026 76.752098083 5.3487691879 75.006752014 6.9788656235 6.9788656235
 3430.4628906 6.0000000000 12.725999832 -0.010000000 0.2756399810 2.6928210258 77.894058228 77.466117859 77.990196228 5.0247693062 73.123214722 6.3023848534 6.3023848534
 3430.6154785 6.0000000000 12.729999542 -0.011000000 0.2868799865 2.7089147568 78.464530945 78.259246826 78.955368042 4.7009053230 73.966262817 5.9595503807 5.9595503807
 3430.7678223 6.0000000000 12.733999252 -0.007000000 0.2972300053 2.6982598305 81.206130981 79.075309753 79.753890991 4.4118270874 74.741004944 5.6991729736 5.6991729736
 3430.9201660 6.0000000000 12.737999916 -0.004000000 0.2955299914 2.6744704247 82.943542480 79.612457275 80.081825256 4.2995772362 75.189788818 5.5045194626 5.5045194626
 3431.0725098 6.0000000000 12.741999626 -0.002000000 0.3047499955 2.6623361111 85.386474609 80.195442200 80.741065979 4.2260193825 74.673805237 5.5343847275 5.5343847275
 3431.2250977 6.0000000000 12.743000031 -0.002000000 0.3123899996 2.6593468189 86.344917297 81.150352478 81.696563721 4.1761665344 74.913795471 5.7125325203 5.7125325203
 3431.3774414 6.0000000000 12.743000031 -0.005000000 0.3187800050 2.6515274048 87.086250305 81.776718140 82.295410156 4.1873655319 74.671401978 5.9784040451 5.9784040451
 3431.5297852 6.0000000000 12.743999481 -0.008000000 0.3164600134 2.6439783573 86.650657654 81.999229431 82.638954163 4.3622307777 74.789787292 6.2583465576 6.2583465576
 3431.6821289 6.0000000000 12.824000359 -0.014000000 0.3009600043 2.6370999813 84.537635803 82.046302795 82.602401733 4.5308461189 74.573211670 6.4819617271 6.4819617271
 3431.8347168 6.0000000000 12.906000137 -0.015000000 0.2979100049 2.6314442158 81.654403687 81.986175537 82.415847778 4.7348003387 74.484603882 6.5847663879 6.5847663879
 3431.9870605 6.0000000000 12.831999779 -0.014000000 0.3011800051 2.6262905598 78.796592712 81.464080811 82.047439575 5.1090579033 74.619018555 6.7228846550 6.7228846550
 3432.1394043 6.0000000000 12.743999481 -0.011000000 0.3271900117 2.6186518669 76.075119019 80.361297607 80.881202698 5.4767308235 75.265655518 7.1454424858 7.1454424858
 3432.2917480 6.0000000000 12.701000214 -0.008000000 0.3202899992 2.6155400276 73.541114807 78.515380859 78.881637573 5.8834805489 76.995216370 8.2258462906 8.2258462906
 3432.4440918 6.0000000000 12.670000076 -0.006000000 0.3146800101 2.6193881035 71.425270081 75.913902283 76.312049866 6.5299038887 77.652770996 10.185153961 10.185153961
 3432.5966797 5.0000000000 12.647999763 -0.004000000 0.2776699960 2.6242558956 69.833724976 74.049804688 74.463897705 7.0477504730 76.817863464 11.684354782 11.684354782
 3432.7490234 5.0000000000 12.642999649 -0.004000000 0.2610099912 2.6305310726 68.678176880 73.377998352 73.782814026 7.6630382538 76.462768555 12.274557114 12.274557114
 3432.9013672 5.0000000000 12.637000084 -0.002000000 0.2413400114 2.6376459599 68.028480530 73.019462585 73.639587402 8.4396152496 75.471771240 12.715962410 12.715962410
 3433.0537109 5.0000000000 12.630999565 -0.001000000 0.2439199984 2.6477801800 68.255256653 73.397445679 73.995513916 8.9326925278 74.953018188 12.967788696 12.967788696
 3433.2062988 5.0000000000 12.628001213 -0.002000000 0.2489999980 2.6549022198 68.140937805 74.085632324 74.484939575 9.0724544525 75.079689026 12.899177551 12.899177551
 3433.3586426 5.0000000000 12.623999596 -0.002000000 0.2583499849 2.6461842060 66.936515808 74.562599182 75.044784546 9.1866340637 73.810829163 12.573038101 12.573038101
 3433.5109863 5.0000000000 12.621000290 0.0010000000 0.2601099908 2.6327788830 65.715850830 74.571434021 75.042243958 9.1088838577 74.678016663 12.314000130 12.314000130
 3433.6633301 5.0000000000 12.618000984 0.0020000001 0.2554500103 2.6200120449 67.221504211 74.948341370 75.445709229 8.6885385513 75.170440674 12.003480911 12.003480911
 3433.8159180 5.0000000000 12.614000320 -0.001000000 0.2570100129 2.6089568138 71.641235352 74.899978638 75.365150452 8.3598117828 76.801597595 11.770898819 11.770898819
 3433.9682617 5.0000000000 12.611001015 -0.006000000 0.2595599890 2.5983889103 74.421615601 74.734077454 75.329841614 8.3990573883 75.693397522 11.672904015 11.672904015
 3434.1206055 6.0000000000 12.607000351 -0.005000000 0.2558099926 2.5963776112 73.946044922 75.494453430 76.120147705 8.4518079758 75.349792480 11.718538284 11.718538284
 3434.2729492 6.0000000000 12.604000092 -0.002000000 0.2488999963 2.6045880318 71.482635498 75.765083313 76.219589233 8.3890380859 74.981384277 11.692903519 11.692903519
 3434.4252930 6.0000000000 12.600000381 0.0020000001 0.2549400032 2.6125912666 70.611633301 75.805313110 76.234733582 8.2847881317 74.948211670 11.585557938 11.585557938
 3434.5778809 6.0000000000 12.597000122 0.0030000000 0.2779299915 2.6168460846 71.356132507 76.366645813 76.804061890 8.0670881271 74.847892761 11.567867279 11.567867279
 3434.7302246 6.0000000000 12.595999718 -0.001000000 0.2798199952 2.6189095974 71.236747742 76.347023010 76.974372864 7.9302883148 74.419593811 11.802557945 11.802557945
 3434.8825684 6.0000000000 12.595999718 -0.002000000 0.2689100206 2.6186902523 69.642730713 76.152091980 76.724380493 7.9444808960 74.454208374 12.088404655 12.088404655
 3435.0349121 6.0000000000 12.595999718 0.0000000000 0.2552599907 2.6158280373 69.662155151 76.069175720 76.495544434 7.9168658257 74.693038940 12.206346512 12.206346512
 3435.1875000 6.0000000000 12.597000122 0.0070000002 0.2572599947 2.6132464409 71.384651184 76.232643127 76.734497070 7.8618497849 75.922241211 11.962011337 11.962011337
 3435.3398438 6.0000000000 12.597000122 0.0120000001 0.2553899884 2.6165945530 72.843864441 76.375892639 76.939270020 7.9998269081 76.084014893 11.633000374 11.633000374
 3435.4921875 6.0000000000 12.597000122 0.0070000002 0.2601799965 2.6207535267 71.208320618 76.658813477 77.144104004 8.1947116852 76.539787292 11.634654045 11.634654045
 3435.6445313 6.0000000000 12.597000122 0.0020000001 0.2728399932 2.6174681187 68.765518188 76.251182556 76.874984741 8.1800003052 76.308166504 11.718095779 11.718095779
