# LAS format log file from PETREL
# Project units are specified as depth units
#==================================================================
~Version information
VERS.   2.0:
WRAP.   NO:
#==================================================================
~Well
STRT .m      2773.3432617 :
STOP .m      3341.0317383 :
STEP .m     0.00000000 :
NULL .        -999.250000 :
COMP.           : COMPANY
WELL.  30/6-22   : WELL
FLD.            : FIELD
LOC.            : LOCATION
SRVC.           : SERVICE COMPANY
DATE.  2018-09-11 14:48:30   : Log Export Date {yyyy-MM-dd HH:mm:ss}
PROV.           : PROVINCE
UWI.   30/6-22   : UNIQUE WELL ID
API.            : API NUMBER
#==================================================================
~Curve
DEPT .m                   : DEPTH
Lithology_geolink ._      : Lithology_geolink
CALI .in                  : CALI
DRHO .g/cm3               : DRHO
NPHI .m3/m3               : NPHI
RHOB .g/cm3               : RHOB
GR .gAPI                  : GR
DTC .us/ft                : DTC
DTE .us/ft                : DTE
RDEP .ohm.m               : RDEP
SP .mV                    : SP
RSHA .ohm.m               : RSHA
RMED .ohm.m               : RMED
~Parameter
#==================================================================
~Ascii
# ...
 3336.6120605  -999.250000 8.2189998627 -0.001000000 0.1153500006 2.4389998913 40.037998199  -999.250000  -999.250000 3.5650000572  -999.250000 4.9660000801 4.9660000801
 3336.7644043  -999.250000 8.2189998627 -0.001000000 0.1153500006 2.4389998913 40.037998199  -999.250000  -999.250000 3.5350000858  -999.250000 4.2560000420 4.2560000420
 3336.9169922  -999.250000 8.2189998627 -0.001000000 0.1153500006 2.4389998913 40.037998199  -999.250000  -999.250000 3.5160000324  -999.250000 3.7660000324 3.7660000324
 3337.0693359  -999.250000 8.2189998627 -0.001000000 0.1153500006 2.4389998913 40.037998199  -999.250000  -999.250000 3.5030000210  -999.250000 3.9360001087 3.9360001087
 3337.2216797  -999.250000 8.2189998627 -0.001000000 0.1153500006 2.4389998913 40.035999298  -999.250000  -999.250000 3.4969999790  -999.250000 4.5240001678 4.5240001678
 3337.3740234  -999.250000 8.2189998627 -0.001000000 0.1153500006 2.4389998913 40.026000977  -999.250000  -999.250000 3.4939999580  -999.250000 4.6380000114 4.6380000114
 3337.5266113  -999.250000 8.2189998627 -0.001000000 0.1153500006 2.4389998913 39.981998444  -999.250000  -999.250000 3.4900000095  -999.250000 4.0040001869 4.0040001869
 3337.6789551  -999.250000 8.2189998627 -0.001000000 0.1153500006 2.4389998913 21.954000473  -999.250000  -999.250000 3.4869999886  -999.250000 3.4440000057 3.4440000057
 3337.8312988  -999.250000 8.2189998627 -0.001000000 0.1153500006 2.4389998913 0.0000000000  -999.250000  -999.250000 3.4869999886  -999.250000 3.3029999733 3.3029999733
 3337.9836426  -999.250000 8.2189998627 -0.001000000 0.1153500006 2.4389998913 0.0000000000  -999.250000  -999.250000 3.4860000610  -999.250000 3.2850000858 3.2850000858
 3338.1359863  -999.250000 8.2189998627 -0.001000000 0.1153500006 2.4389998913 0.0000000000  -999.250000  -999.250000 3.4920001030  -999.250000 3.2839999199 3.2839999199
 3338.2885742  -999.250000 8.2189998627 -0.001000000 0.1153500006 2.4389998913 0.0000000000  -999.250000  -999.250000 3.5020000935  -999.250000 3.2839999199 3.2839999199
 3338.4409180  -999.250000 8.2189998627 -0.001000000 0.1153500006 2.4389998913 0.0000000000  -999.250000  -999.250000 3.5190000534  -999.250000 3.2829999924 3.2829999924
 3338.5932617  -999.250000 8.2189998627 -0.001000000 0.1153500006 2.4389998913 0.0000000000  -999.250000  -999.250000 3.5280001163  -999.250000 3.2829999924 3.2829999924
 3338.7456055  -999.250000 8.2189998627 -0.001000000 0.1153500006 2.4389998913 0.0000000000  -999.250000  -999.250000 3.5239999294  -999.250000 3.2829999924 3.2829999924
 3338.8981934  -999.250000 8.2189998627 -0.001000000 0.1153500006 2.4389998913 0.0000000000  -999.250000  -999.250000 3.5230000019  -999.250000 3.2820000648 3.2820000648
 3339.0505371  -999.250000 8.2189998627 -0.001000000 0.1153500006 2.4389998913 0.0000000000  -999.250000  -999.250000 3.5220000744  -999.250000 3.2820000648 3.2820000648
 3339.2028809  -999.250000 8.2189998627 -0.001000000 0.1153500006 2.4389998913 0.0000000000  -999.250000  -999.250000 3.5250000954  -999.250000 3.2829999924 3.2829999924
 3339.3552246  -999.250000 8.2189998627 -0.001000000 0.1153500006 2.4389998913 0.0000000000  -999.250000  -999.250000 3.5309998989  -999.250000 3.2829999924 3.2829999924
 3339.5078125  -999.250000 8.2189998627 -0.001000000 0.1153500006 2.4389998913 0.0000000000  -999.250000  -999.250000 3.5369999409  -999.250000 3.2829999924 3.2829999924
 3339.6601563  -999.250000 8.2189998627 -0.001000000 0.1153500006 2.4389998913 0.0000000000  -999.250000  -999.250000 3.5369999409  -999.250000 3.2829999924 3.2829999924
 3339.8125000  -999.250000 8.2189998627 -0.001000000 0.1153500006 2.4389998913 0.0000000000  -999.250000  -999.250000 3.5309998989  -999.250000 3.2839999199 3.2839999199
 3339.9648438  -999.250000 8.2189998627 -0.001000000 0.1153500006 2.4389998913 0.0000000000  -999.250000  -999.250000 3.5309998989  -999.250000 3.2839999199 3.2839999199
 3340.1171875  -999.250000 8.2189998627 -0.001000000 0.1153500006 2.4389998913 0.0000000000  -999.250000  -999.250000 3.5309998989  -999.250000 3.2839999199 3.2839999199
 3340.2697754  -999.250000 8.2189998627 -0.001000000 0.1153500006 2.4389998913 0.0000000000  -999.250000  -999.250000 3.5309998989  -999.250000 3.2829999924 3.2829999924
 3340.4221191  -999.250000 8.2189998627 -0.001000000 0.1153500006 2.4389998913 0.0000000000  -999.250000  -999.250000 3.5309998989  -999.250000 3.2829999924 3.2829999924
 3340.5744629  -999.250000 8.2189998627 -0.001000000 0.1153500006 2.4389998913 0.0000000000  -999.250000  -999.250000 3.5309998989  -999.250000 3.2820000648 3.2820000648
 3340.7268066  -999.250000 8.2189998627 -0.001000000 0.1153500006 2.4389998913 0.0000000000  -999.250000  -999.250000 3.5309998989  -999.250000 3.2820000648 3.2820000648
 3340.8793945  -999.250000 8.2189998627 -0.001000000 0.1153500006 2.4389998913 0.0000000000  -999.250000  -999.250000 3.5309998989  -999.250000 3.2820000648 3.2820000648
 3341.0317383  -999.250000 8.2189998627 -0.001000000 0.1153500006 2.4389998913 0.0000000000  -999.250000  -999.250000 3.5309998989  -999.250000 3.2820000648 3.2820000648
