# LAS format log file from PETREL
# Project units are specified as depth units
#==================================================================
~Version information
VERS.   2.0:
WRAP.   NO:
#==================================================================
~Well
STRT .m      581.07043457 :
STOP .m      2909.8947754 :
STEP .m     0.00000000 :
NULL .        -999.250000 :
COMP.           : COMPANY
WELL.  30/6-14   : WELL
FLD.            : FIELD
LOC.            : LOCATION
SRVC.           : SERVICE COMPANY
DATE.  2018-09-11 14:48:30   : Log Export Date {yyyy-MM-dd HH:mm:ss}
PROV.           : PROVINCE
UWI.   30/6-14   : UNIQUE WELL ID
API.            : API NUMBER
#==================================================================
~Curve
DEPT .m                   : DEPTH
Lithology_geolink ._      : Lithology_geolink
CALI .in                  : CALI
DRHO .g/cm3               : DRHO
NPHI .m3/m3               : NPHI
RHOB .g/cm3               : RHOB
GR .gAPI                  : GR
DTC .us/ft                : DTC
RDEP .ohm.m               : RDEP
SP .mV                    : SP
RSHA .ohm.m               : RSHA
RMED .ohm.m               : RMED
~Parameter
#==================================================================
~Ascii
# ...
 1202.8624268  -999.250000 17.687999725 -0.014000000  -999.250000 1.8860000372 96.863479614 142.24960327 1.5349663496 49.939552307  -999.250000 1.4580096006
 1203.0147705  -999.250000 17.702999115 -0.016000001  -999.250000 1.8650000095 104.85578156 142.25000000 1.5270191431 50.404872894  -999.250000 1.4370504618
 1203.1672363  -999.250000 17.702999115 -0.017000001  -999.250000 1.8569999933 100.19551849 142.99879456 1.4880625010 50.843299866  -999.250000 1.4030544758
 1203.3195801  -999.250000 17.718999863 -0.015000000  -999.250000 1.8600000143 98.129951477 143.24940491 1.4710408449 50.781150818  -999.250000 1.3840456009
 1203.4720459  -999.250000 17.718999863 -0.009000000  -999.250000 1.8710000515 90.575119019 143.00039673 1.4520304203 49.751651764  -999.250000 1.3800064325
 1203.6243896  -999.250000 17.702999115 -0.008000000  -999.250000 1.8630000353 94.179298401 143.74819946 1.4021199942 50.217876434  -999.250000 1.3909735680
 1203.7768555  -999.250000 17.891000748 -0.008000000  -999.250000 1.8539999723 91.941612244 144.49879456 1.3870240450 50.405696869  -999.250000 1.3840111494
 1203.9291992  -999.250000 17.937999725 -0.009000000  -999.250000 1.8329999447 95.429595947 145.49760437 1.3869999647 52.059020996  -999.250000 1.3540719748
 1204.0816650  -999.250000 17.781000137 -0.001000000  -999.250000 1.8220000267 96.623100281 146.24879456 1.3750191927 51.001705170  -999.250000 1.3240480423
 1204.2340088  -999.250000 17.781000137 -0.003000000  -999.250000 1.8120000362 94.193855286 146.74879456 1.3799879551 50.625900269  -999.250000 1.3230023384
 1204.3864746  -999.250000 17.781000137 -0.009000000  -999.250000 1.8070000410 94.249900818 144.75320435 1.3809984922 51.436695099  -999.250000 1.3449647427
 1204.5388184  -999.250000 17.750000000 -0.017999999  -999.250000 1.8129999638 90.444114685 144.00120544 1.3869903088 51.188400269  -999.250000 1.3809423447
 1204.6911621  -999.250000 17.733999252 -0.017000001  -999.250000 1.8220000267 92.807296753 143.50120544 1.3730336428 50.689201355  -999.250000 1.4139207602
 1204.8436279  -999.250000 17.733999252 -0.014000000  -999.250000 1.8350000381 92.313804626 143.50000000 1.3979599476 48.753105164  -999.250000 1.4249823093
 1204.9959717  -999.250000 17.718999863 -0.009000000  -999.250000 1.8480000496 86.888061523 143.00120544 1.4199471474 48.126502991  -999.250000 1.4269952774
 1205.1484375  -999.250000 17.733999252 -0.009000000  -999.250000 1.8650000095 86.500602722 142.25120544 1.4249919653 47.750602722  -999.250000 1.4210096598
 1205.3007813  -999.250000 17.750000000 -0.014000000  -999.250000 1.8810000420 85.191154480 141.75120544 1.4409615993 48.561046600  -999.250000 1.4299783707
 1205.4532471  -999.250000 17.718999863 -0.017999999  -999.250000 1.8980000019 92.301582336 141.75000000 1.4380047321 47.564601898  -999.250000 1.4309984446
 1205.6055908  -999.250000 17.733999252 -0.023000000  -999.250000 1.9060000181 92.499549866 141.50059509 1.4370024204 48.311199188  -999.250000 1.4369856119
 1205.7580566  -999.250000 17.733999252 -0.014000000  -999.250000 1.9270000458 91.751205444 140.25199890 1.4200272560 49.154647827  -999.250000 1.4360015392
 1205.9104004  -999.250000 17.733999252 -0.020000000  -999.250000 1.9270000458 90.253601074 141.74639893 1.4040384293 49.530097961  -999.250000 1.4310120344
 1206.0628662  -999.250000 17.718999863 -0.017000001  -999.250000 1.9270000458 90.687301636 141.50039673 1.3830336332 49.469100952  -999.250000 1.4190192223
 1206.2152100  -999.250000 17.718999863 -0.021000000  -999.250000 1.9079999924 94.428993225 142.74699402 1.3550672531 49.313373566  -999.250000 1.4130144119
 1206.3676758  -999.250000 17.702999115 -0.018999999  -999.250000 1.8990000486 97.994293213 142.75000000 1.3170609474 49.749298096  -999.250000 1.4020175934
 1206.5200195  -999.250000 17.702999115 -0.017000001  -999.250000 1.8930000067 97.438903809 143.49879456 1.2720720768 50.373996735  -999.250000 1.3890209198
 1206.6724854  -999.250000 17.718999863 -0.015000000  -999.250000 1.8769999743 105.54999542 145.74639893 1.2749952078 50.843250275  -999.250000 1.3300945759
 1206.8248291  -999.250000 17.702999115 -0.006000000  -999.250000 1.8619999886 106.68620300 145.99960327 1.2410545349 50.688251495  -999.250000 1.2870688438
 1206.9771729  -999.250000 17.702999115 -0.001000000  -999.250000 1.8409999609 106.18920135 146.49879456 1.2010960579 51.123950958  -999.250000 1.2221561670
 1207.1296387  -999.250000 18.202999115 0.0000000000  -999.250000 1.8470000029 101.75711060 146.74960327 1.1750416756 51.125000000  -999.250000 1.2409696579
 1207.2819824  -999.250000 17.625000000 -0.007000000  -999.250000 1.8519999981 97.260810852 146.50059509 1.1291104555 52.060745239  -999.250000 1.2300264835
 1207.4344482  -999.250000 17.656000137 -0.008000000  -999.250000 1.8680000305 100.24519348 146.50000000 1.0820753574 50.752105713  -999.250000 1.2300000191
 1207.5867920  -999.250000 17.687999725 -0.012000000  -999.250000 1.8660000563 101.06105042 146.25059509 1.0849928856 50.563449860  -999.250000 1.2100480795
 1207.7392578  -999.250000 17.672000885 -0.007000000  -999.250000 1.8609999418 103.18460083 147.49800110 1.0939855576 51.373699188  -999.250000 1.2010143995
 1207.8916016  -999.250000 17.625000000 -0.005000000  -999.250000 1.8480000496 106.55489349 147.50000000 1.0880144835 50.907123566  -999.250000 1.1800503731
 1208.0440674  -999.250000 17.577999115 0.0030000000  -999.250000 1.8530000448 102.31981659 147.50000000 1.0939903259 50.469703674  -999.250000 1.1889855862
 1208.1964111  -999.250000 17.531000137 0.0030000000  -999.250000 1.8619999886 99.819007874 146.50239563 1.1229304075 48.909751892  -999.250000 1.2079542875
 1208.3488770  -999.250000 17.593999863 -0.001000000  -999.250000 1.8819999695 95.631713867 145.25199890 1.1160112619 48.875049591  -999.250000 1.2319614887
 1208.5012207  -999.250000 17.733999252 -0.013000000  -999.250000 1.8830000162 96.248497009 145.49940491 1.1279711723 48.625598907  -999.250000 1.2499567270
 1208.6536865  -999.250000 17.702999115 -0.021000000  -999.250000 1.8799999952 95.688903809 144.50160217 1.1689343452 49.561496735  -999.250000 1.2719646692
 1208.8060303  -999.250000 17.702999115 -0.021000000  -999.250000 1.8700000048 95.625099182 144.50000000 1.2099343538 49.313400269  -999.250000 1.3089407682
 1208.9583740  -999.250000 17.687999725 -0.018999999  -999.250000 1.8619999886 91.509910583 144.25059509 1.2309495211 50.092124939  -999.250000 1.3508991003
 1209.1108398  -999.250000 17.687999725 -0.017999999  -999.250000 1.8530000448 96.804489136 144.00039673 1.2719342709 51.186244965  -999.250000 1.3729647398
 1209.2631836  -999.250000 17.687999725 -0.016000001  -999.250000 1.8539999723 95.378456116 143.50120544 1.3099086285 51.967124939  -999.250000 1.3869663477
 1209.4156494  -999.250000 17.672000885 -0.020000000  -999.250000 1.8489999771 97.060295105 143.99919128 1.3409502506 51.157302856  -999.250000 1.3840047121
 1209.5679932  -999.250000 17.672000885 -0.018999999  -999.250000 1.8519999981 92.695014954 144.00000000 1.3599696159 50.532001495  -999.250000 1.3869951963
 1209.7204590  -999.250000 17.672000885 -0.025000000  -999.250000 1.8459999561 88.007507324 143.75039673 1.3849599361 50.530998230  -999.250000 1.3790127039
 1209.8728027  -999.250000 17.702999115 -0.021000000  -999.250000 1.8539999723 83.445312500 143.75000000 1.3879952431 50.999248505  -999.250000 1.3829935789
 1210.0252686  -999.250000 17.656000137 -0.018999999  -999.250000 1.8539999723 84.810798645 143.99960327 1.3780159950 51.187698364  -999.250000 1.3899887800
 1210.1776123  -999.250000 17.656000137 -0.021000000  -999.250000 1.8459999561 86.185798645 144.74879456 1.3620256186 50.625904083  -999.250000 1.3979871273
 1210.3300781  -999.250000 17.641000748 -0.021000000  -999.250000 1.8350000381 93.806892395 144.75000000 1.3460128307 51.374397278  -999.250000 1.4029959440
 1210.4824219  -999.250000 17.625000000 -0.028000001  -999.250000 1.8090000153 89.195411682 145.74839783 1.3330208063 51.780349731  -999.250000 1.3820335865
