# LAS format log file from PETREL
# Project units are specified as depth units
#==================================================================
~Version information
VERS.   2.0:
WRAP.   NO:
#==================================================================
~Well
STRT .m      360.12121582 :
STOP .m      3233.9282227 :
STEP .m     0.00000000 :
NULL .        -999.250000 :
COMP.           : COMPANY
WELL.  30/6-23   : WELL
FLD.            : FIELD
LOC.            : LOCATION
SRVC.           : SERVICE COMPANY
DATE.  2018-09-11 14:48:31   : Log Export Date {yyyy-MM-dd HH:mm:ss}
PROV.           : PROVINCE
UWI.   30/6-23   : UNIQUE WELL ID
API.            : API NUMBER
#==================================================================
~Curve
DEPT .m                   : DEPTH
Lithology_geolink ._      : Lithology_geolink
CALI .in                  : CALI
DRHO .g/cm3               : DRHO
NPHI .m3/m3               : NPHI
RHOB .g/cm3               : RHOB
GR .gAPI                  : GR
DTC .us/ft                : DTC
DTE .us/ft                : DTE
RDEP .ohm.m               : RDEP
SP .mV                    : SP
RSHA .ohm.m               : RSHA
RMED .ohm.m               : RMED
~Parameter
#==================================================================
~Ascii
 360.12121582  -999.250000 18.187500000 -1.207599998  -999.250000 1.7015000582 46.410400391 138.78500366 138.58479309 2.8104000092 81.246200562  -999.250000 9696.0000000
 360.27362061  -999.250000 18.218799591 -1.224699974 0.6149646640 1.6756999493 46.168998718 138.78500366 138.58479309 2.8254001141 81.652496338  -999.250000 0.0038999999
 360.42602539  -999.250000 18.218799591 -1.223700047 0.5883126855 1.6842000484 46.515899658 138.78340149 138.58479309 2.8399000168 81.808700562  -999.250000 0.0082999999
 360.57839966  -999.250000 18.218799591 -1.219400048 0.5741923451 1.7043000460 41.419200897 138.80853271 138.58479309 2.8552999496 81.964996338  -999.250000 0.0146000003
 360.73080444  -999.250000 18.218799591 -1.209400058 0.5536113977 1.7109999657 42.015899658 138.79095459 138.58479309 2.8759999275 82.027496338  -999.250000 0.0098000001
 360.88320923  -999.250000 18.296899796 -1.199399948 0.5519744158 1.6948000193 44.932899475 138.78501892 138.58479309 2.8933999538 82.027496338  -999.250000 0.0093000000
 361.03561401  -999.250000 18.718799591 -1.206300020 0.5839153528 1.6483000517 47.595001221 138.78500366 138.58479309 2.9080998898 82.011901855  -999.250000 0.0111999996
 361.18801880  -999.250000 18.718799591 -1.200500011 0.6136774421 1.6453000307 47.918098450 138.78500366 138.58479309 2.9228000641 81.277496338  -999.250000 0.0103000002
 361.34042358  -999.250000 18.718799591 -1.192999959 0.6286228895 1.6649999619 44.784400940 138.78500366 138.58479309 2.9395000935 80.089996338  -999.250000 0.0098000001
 361.49282837  -999.250000 18.718799591 -1.169000030 0.6148107648 1.7194999456 46.131500244 138.78179932 138.58479309 2.9593999386 78.918098450  -999.250000 0.0077999998
 361.64520264  -999.250000 18.718799591 -1.160500050 0.6198235750 1.7483999729 45.342601776 138.78421021 138.58479309 2.9760000706 77.839996338  -999.250000 0.0088000000
 361.79760742  -999.250000 18.718799591 -1.156399965 0.6476551890 1.7674000263 44.839698792 138.78500366 138.58479309 2.9874000549 76.574401855  -999.250000 0.0093000000
 361.95001221  -999.250000 18.718799591 -1.144400001 0.7147523761 1.7739000320 43.787899017 138.80892944 138.58479309 2.9895999432 75.644699097  -999.250000 0.0082999999
 362.10241699  -999.250000 18.718799591 -1.131000042 0.6958598495 1.7888000011 43.083698273 138.79095459 138.58479309 2.9800000191 74.316596985  -999.250000 0.0063000000
 362.25482178  -999.250000 18.718799591 -1.150500059 0.6448866129 1.7500000000 42.492900848 138.78501892 138.58479309 2.9567000866 72.957199097  -999.250000 0.0082999999
 362.40722656  -999.250000 18.718799591 -1.124199986 0.5768913031 1.7682000399 43.697498322 138.78340149 138.58479309 2.9588999748 70.445503235  -999.250000 0.0054000001
 362.55963135  -999.250000 18.718799591 -1.112699986 0.6064951420 1.7732000351 45.520000458 138.78300476 138.58479309 2.9820001125 68.968902588  -999.250000 0.0038999999
 362.71200562  -999.250000 18.718799591 -1.114799976 0.6122033596 1.7637000084 47.696899414 138.78460693 138.58479309 3.0067000389 67.058700562  -999.250000 0.0063000000
 362.86441040  -999.250000 18.718799591 -1.110100031 0.6094249487 1.7879999876 47.197601318 138.78500366 138.58479309 3.0318000317 65.462997437  -999.250000 0.0049000001
 363.01681519  -999.250000 18.718799591 -1.097700000 0.5847216249 1.7930999994 44.728698730 138.78500366 138.58479309 3.0545001030 62.909805298  -999.250000 0.0044000000
 363.16921997  -999.250000 18.718799591 -1.111400008 0.5779393315 1.7759000063 43.116100311 138.78500366 138.58479309 3.0797998905 61.419101715  -999.250000 0.0038999999
 363.32162476  -999.250000 18.718799591 -1.100200057 0.5541273355 1.7779999971 42.137699127 138.78340149 138.58479309 3.1033999920 60.101699829  -999.250000 0.0063000000
 363.47402954  -999.250000 18.718799591 -1.086099982 0.5700827241 1.7848999500 44.270999908 138.80853271 138.58479309 3.1284000874 59.093898773  -999.250000 0.0068000001
 363.62643433  -999.250000 18.718799591 -1.067700028 0.5903139710 1.8035999537 45.521598816 138.79095459 138.58479309 3.1512000561 58.386901855  -999.250000 0.0054000001
 363.77880859  -999.250000 18.718799591 -1.048499942 0.6135442853 1.8310999870 43.163600922 138.78501892 138.58479309 3.1775000095 57.703300476  -999.250000 0.0082999999
 363.93121338  -999.250000 18.718799591 -1.041499972 0.5941305757 1.8422000408 41.837299347 138.78500366 138.58479309 3.2600998878 56.250198364  -999.250000 0.0093000000
 364.08361816  -999.250000 18.718799591 -1.034899950 0.5433779955 1.8504999876 43.439300537 138.78500366 138.58479309 3.4196999073 55.816600800  -999.250000 0.0073000002
 364.23602295  -999.250000 18.718799591 -1.008900046 0.5393957496 1.8683999777 45.798599243 138.78500366 138.58479309 3.5652999878 55.632999420  -999.250000 0.0077999998
 364.38842773  -999.250000 18.718799591 -0.959699988 0.5460566878 1.9085999727 44.582901001 138.78340149 138.58479309 3.7007000446 56.261901855  -999.250000 0.0215000007
 364.54083252  -999.250000 18.718799591 -0.892499983 0.5441007018 1.9688999653 42.022300720 138.78300476 138.58479309 3.8304998875 56.476699829  -999.250000 0.0370999984
 364.69323730  -999.250000 18.640600204 -0.817099988 0.5117375255 2.0209999084 42.988281250 138.78460693 138.58479309 3.8757998943 57.609500885  -999.250000 0.0439000018
 364.84561157  -999.250000 18.515600204 -0.724200010 0.5379276872 2.0903999805 45.437183380 138.80892944 138.58479309 3.8791999817 57.992298126  -999.250000 0.0419999994
 364.99801636  -999.250000 18.453100204 -0.629800022 0.5855995417 2.1684000492 46.847492218 138.79095459 138.58479309 3.8750000000 59.066600800  -999.250000 0.0399999991
 365.15042114  -999.250000 18.453100204 -0.542500019 0.6102424860 2.2265000343 46.317996979 138.78501892 138.58479309 3.8703000546 59.625354767  -999.250000 0.0410002023
 365.30282593  -999.250000 18.453100204 -0.461899996 0.5815839171 2.2955000401 45.801425934 138.78340149 138.58479309 3.8645000458 60.404499054  -999.250000 0.0420003012
 365.45523071  -999.250000 18.453100204 -0.393000007 0.5866532326 2.3417999744 44.435504913 138.78460693 138.58479309 3.8596999645 60.412418365  -999.250000 0.0435005799
 365.60763550  -999.250000 18.453100204 -0.317499995 0.5638277531 2.4361999035 42.962787628 138.78500366 138.58479309 3.8552000523 61.005878448  -999.250000 0.0464011617
 365.76000977  -999.250000 18.453100204 -0.259600013 0.5596731305 2.4972999096 41.938060760 138.78500366 138.58479309 3.8508007526 60.703296661  -999.250000 0.0493001007
 365.91241455  -999.250000 18.421899796 -0.214800000 0.5440063477 2.5576000214 42.745819092 138.78500366 138.58479309 3.8545033932 60.675735474  -999.250000 0.0497996993
 366.06481934  -999.250000 18.484399796 -0.256700009 0.5599346161 2.5262999535 42.838943481 138.78500366 138.58479309 3.8708040714 59.861595154  -999.250000 0.0482981578
 366.21722412  -999.250000 18.781200409 -0.342000008 0.5491617322 2.4949998856 44.562458038 138.78340149 138.58479309 3.8908033371 60.338047028  -999.250000 0.0390973538
 366.36962891  -999.250000 18.953100204 -0.470899999 0.5200420618 2.4026000500 44.361843109 138.80853271 138.58479309 3.9076032639 60.074249268  -999.250000 0.0258979388
 366.52203369  -999.250000 18.953100204 -0.654799998 0.5028980970 2.2330000401 47.075351715 138.78935242 138.58479309 3.9243032932 59.318241119  -999.250000 0.0155986380
 366.67443848  -999.250000 18.953100204 -0.907700002 0.4925161302 1.9515999556 47.339561462 138.78462219 138.58479309 3.9408056736 58.031017303  -999.250000 0.0087989988
 366.82681274  -999.250000 18.953100204 -1.019899964 0.5115643144 1.8465000391 48.983196259 138.78500366 138.58479309 3.9553050995 57.078243256  -999.250000 0.0062990389
 366.97921753  -999.250000 18.953100204 -1.016899943 0.5117253065 1.8525999784 49.468757629 138.78500366 138.58479309 3.9798040390 56.797027588  -999.250000 1.9430295229
 367.13162231  -999.250000 18.953100204 -0.999300003 0.5340661407 1.8744000196 50.259231567 138.78500366 138.58479309 3.9999029636 56.929725647  -999.250000 9696.0000000
 367.28402710  -999.250000 18.953100204 -0.992699981 0.5536366701 1.8832999468 51.430809021 138.78340149 138.58479309 4.0138010979 56.562847137  -999.250000 9696.0000000
