# LAS format log file from PETREL
# Project units are specified as depth units
#==================================================================
~Version information
VERS.   2.0:
WRAP.   NO:
#==================================================================
~Well
STRT .m      581.07043457 :
STOP .m      2909.8947754 :
STEP .m     0.00000000 :
NULL .        -999.250000 :
COMP.           : COMPANY
WELL.  30/6-14   : WELL
FLD.            : FIELD
LOC.            : LOCATION
SRVC.           : SERVICE COMPANY
DATE.  2018-09-11 14:48:30   : Log Export Date {yyyy-MM-dd HH:mm:ss}
PROV.           : PROVINCE
UWI.   30/6-14   : UNIQUE WELL ID
API.            : API NUMBER
#==================================================================
~Curve
DEPT .m                   : DEPTH
Lithology_geolink ._      : Lithology_geolink
CALI .in                  : CALI
DRHO .g/cm3               : DRHO
NPHI .m3/m3               : NPHI
RHOB .g/cm3               : RHOB
GR .gAPI                  : GR
DTC .us/ft                : DTC
RDEP .ohm.m               : RDEP
SP .mV                    : SP
RSHA .ohm.m               : RSHA
RMED .ohm.m               : RMED
~Parameter
#==================================================================
~Ascii
# ...
 2283.2260742 7.0000000000 13.171999931 -0.009000000 0.4150454998 2.1559998989 206.00000000 132.25000000 1.0640000105 46.220001221  -999.250000 1.5349999666
 2283.3784180 7.0000000000 13.171999931 0.0439999998 0.4184600115 2.1329998970 211.87500000 132.25000000 1.1529999971 47.025001526  -999.250000 1.5069999695
 2283.5310059 7.0000000000 13.312999725 0.0610000007 0.4321542680 2.0999999046 203.87500000 131.75000000 1.2150000334 47.508998871  -999.250000 1.4689999819
 2283.6833496 7.0000000000 13.640999794 0.0810000002 0.4472418427 2.1349999905 205.75000000 131.50000000 1.2300000191 48.775001526  -999.250000 1.5399999619
 2283.8356934 7.0000000000 13.491999626 0.0199999996 0.4296470284 2.1070001125 208.37500000 127.99999237 1.1929999590 48.541000366  -999.250000 1.6859999895
 2283.9880371 7.0000000000 13.265998840 0.0209999997 0.4028300047 2.1210000515 211.25000000 129.50000000 1.1189999580 48.025001526  -999.250000 1.7050000429
 2284.1403809 7.0000000000 13.265998840 0.0489999987 0.4086900055 2.1229999065 207.50000000 129.25000000 1.0759999752 47.258998871  -999.250000 1.5959999561
 2284.2929688 7.0000000000 13.210999489 0.0719999969 0.4014318287 2.1459999084 199.62500000 131.75000000 1.1019999981 48.712001801  -999.250000 1.4520000219
 2284.4453125 7.0000000000 13.180001259 0.0630000010 0.4399275184 2.1389999390 188.25000000 133.25000000 1.1849999428 49.008998871  -999.250000 1.3899999857
 2284.5976563 7.0000000000 13.242000580 0.0179999992 0.4321300089 2.1040000916 174.00000000 129.50000000 1.1410000324 47.993999481  -999.250000 1.4299999475
 2284.7500000 7.0000000000 13.819999695 0.0099999998 0.4497100115 2.0859999657 166.25000000 134.25000000 1.1069999933 47.696998596  -999.250000 1.3600000143
 2284.9025879 7.0000000000 13.640999794 0.0500000007 0.3979601562 2.0999999046 167.25000000 131.00000000 1.1260000467 47.946998596  -999.250000 1.4119999409
 2285.0549316 7.0000000000 13.288999557 0.0670000017 0.4043062627 2.1250000000 174.87500000 129.75000000 1.0750000477 48.930999756  -999.250000 1.4429999590
 2285.2072754 7.0000000000 13.319999695 0.0480000004 0.4082070291 2.1250000000 181.00000000 129.75000000 0.9860000014 48.430999756  -999.250000 1.5080000162
 2285.3596191 7.0000000000 13.265998840 0.0070000002 0.4125999808 2.0759999752 194.75000000 131.00000000 1.0110000372 48.196998596  -999.250000 1.4299999475
 2285.5122070 7.0000000000 13.336000443 0.0089999996 0.3901110291 1.9769999981 202.12500000 129.75000000 1.0410000086 48.916000366  -999.250000 1.3839999437
 2285.6645508 7.0000000000 14.015999794 0.0419999994 0.3720919192 1.9479999542 193.25000000 129.00000000 1.0349999666 48.712001801  -999.250000 1.3020000458
 2285.8168945 7.0000000000 14.805000305 0.0460000001 0.3857728243 1.9630000591 179.75000000 125.49999237 1.0759999752 48.930999756  -999.250000 1.2510000467
 2285.9692383 7.0000000000 14.375000000 0.0419999994 0.4062500000 2.0550000668 178.62500000 123.50000000 1.1610000134 47.446998596  -999.250000 1.2970000505
 2286.1215820 7.0000000000 13.319999695 0.0260000005 0.4116199911 2.0720000267 183.87500000 126.74999237 1.1180000305 47.446998596  -999.250000 1.3710000515
 2286.2741699 7.0000000000 13.421999931 0.0630000010 0.4326458275 2.1170001030 189.75000000 128.50000000 1.1280000210 47.680999756  -999.250000 1.4930000305
 2286.4265137 7.0000000000 13.461000443 0.0700000003 0.4487479925 2.1329998970 190.62500000 129.25000000 1.2350000143 48.400001526  -999.250000 1.5319999456
 2286.5788574 7.0000000000 13.508000374 0.0529999994 0.4599599838 2.1579999924 200.12500000 128.25000000 1.2669999599 48.650001526  -999.250000 1.5559999943
 2286.7312012 7.0000000000 13.359000206 0.0130000003 0.4482400119 2.1370000839 199.62500000 126.74999237 1.2480000257 48.946998596  -999.250000 1.6319999695
 2286.8837891 7.0000000000 13.272999763 0.0099999998 0.4189366698 2.0409998894 200.75000000 124.00000000 1.2610000372 50.462001801  -999.250000 1.6460000277
 2287.0361328 7.0000000000 13.359000206 0.0500000007 0.4106478393 1.9980000257 191.00000000 124.50000000 1.2319999933 50.180999756  -999.250000 1.6729999781
 2287.1884766 7.0000000000 13.336000443 0.0949999988 0.4155276716 1.9980000257 187.75000000 126.50000000 1.2269999981 49.930999756  -999.250000 1.5449999571
 2287.3408203 7.0000000000 13.555001259 0.1099999994 0.4140599966 2.0409998894 179.00000000 128.50000000 1.2309999466 48.416000366  -999.250000 1.4179999828
 2287.4934082 7.0000000000 13.578000069 0.1199999973 0.4179613888 2.0759999752 174.37500000 131.75000000 1.2079999447 49.196998596  -999.250000 1.3919999599
 2287.6457520 7.0000000000 13.453001022 0.1420000046 0.4126453698 2.0959999561 171.37500000 134.00000000 1.2400000095 48.712001801  -999.250000 1.3769999743
 2287.7980957 7.0000000000 13.531000137 0.1350000054 0.4409278035 2.1019999981 175.50000000 131.25000000 1.2489999533 47.978000641  -999.250000 1.4290000200
 2287.9504395 7.0000000000 13.366999626 0.0769999996 0.4458000064 2.0880000591 180.75000000 128.50000000 1.2309999466 47.993999481  -999.250000 1.4589999914
 2288.1027832 7.0000000000 13.296999931 0.0109999999 0.4360400140 2.1310000420 185.50000000 121.00000000 1.2539999485 47.712001801  -999.250000 1.5989999771
 2288.2553711 7.0000000000 13.866999626 -0.012000000 0.4164851606 2.2009999752 181.00000000 118.25000000 1.2380000353 47.978000641  -999.250000 1.6859999895
 2288.4077148 7.0000000000 13.758000374 -0.015000000 0.4072026312 2.2660000324 177.75000000 117.25000000 1.2220000029 46.962001801  -999.250000 1.8580000401
 2288.5600586 7.0000000000 13.250000000 -0.016000001 0.3901399970 2.2709999084 175.75000000 118.50000000 1.3070000410 47.680999756  -999.250000 1.7660000324
 2288.7124023 7.0000000000 13.265998840 -0.006000000 0.3823199868 2.2809998989 180.00000000 122.99999237 1.2829999924 48.166000366  -999.250000 1.6239999533
 2288.8649902 7.0000000000 13.734000206 -0.004000000 0.3676862717 2.2679998875 181.25000000 125.75000000 1.2460000515 46.946998596  -999.250000 1.5000000000
 2289.0173340 7.0000000000 14.453000069 -0.003000000 0.3715745211 2.2290000916 179.87500000 127.00000000 1.2819999456 47.212001801  -999.250000 1.4789999723
 2289.1696777 7.0000000000 13.328000069 0.0070000002 0.3681600094 2.2030000687 174.50000000 125.49999237 1.2649999857 45.478000641  -999.250000 1.4739999771
 2289.3220215 7.0000000000 13.531000137 0.0070000002 0.3881800175 2.1840000153 180.00000000 127.50000000 1.1510000229 46.205001831  -999.250000 1.4429999590
 2289.4746094 7.0000000000 13.430000305 0.0070000002 0.3994131386 2.1930000782 171.87500000 126.00000000 1.1480000019 46.462001801  -999.250000 1.5180000067
 2289.6269531 7.0000000000 13.484000206 0.0030000000 0.4013395011 2.1970000267 164.50000000 126.00000000 1.1460000277 45.696998596  -999.250000 1.5390000343
 2289.7792969 7.0000000000 13.772999763 0.0060000001 0.3822918832 2.2109999657 163.12500000 125.75000000 1.0930000544 45.705001831  -999.250000 1.5789999962
 2289.9316406 7.0000000000 13.265998840 0.0030000000 0.3647499979 2.2360000610 169.87500000 124.75000000 1.1349999905 45.680999756  -999.250000 1.6239999533
 2290.0842285 7.0000000000 13.265998840 -0.009000000 0.3833180070 2.2520000935 185.87500000 124.50000000 1.1809999943 46.400001526  -999.250000 1.6440000534
 2290.2365723 7.0000000000 13.265998840 -0.013000000 0.3945683539 2.2679998875 186.62500000 125.25000000 1.1619999409 45.938999176  -999.250000 1.6950000525
 2290.3889160 7.0000000000 13.265998840 -0.016000001 0.4184271991 2.2599999905 192.37500000 125.75000000 1.2120000124 45.666000366  -999.250000 1.6759999990
 2290.5412598 7.0000000000 13.265998840 -0.017999999 0.3979499936 2.2500000000 186.50000000 126.25000000 1.2660000324 45.416000366  -999.250000 1.6519999504
 2290.6936035 7.0000000000 13.265998840 -0.016000001 0.3925800025 2.2360000610 188.50000000 125.25000000 1.2519999743 46.173000336  -999.250000 1.6360000372
 2290.8459473 7.0000000000 13.265998840 -0.007000000 0.3916000128 2.2439999580 184.75599670 124.75080109 1.2669759989 46.680187225  -999.250000 1.6399935484
