# LAS format log file from PETREL
# Project units are specified as depth units
#==================================================================
~Version information
VERS.   2.0:
WRAP.   NO:
#==================================================================
~Well
STRT .m      2773.3432617 :
STOP .m      3341.0317383 :
STEP .m     0.00000000 :
NULL .        -999.250000 :
COMP.           : COMPANY
WELL.  30/6-22   : WELL
FLD.            : FIELD
LOC.            : LOCATION
SRVC.           : SERVICE COMPANY
DATE.  2018-09-11 14:48:30   : Log Export Date {yyyy-MM-dd HH:mm:ss}
PROV.           : PROVINCE
UWI.   30/6-22   : UNIQUE WELL ID
API.            : API NUMBER
#==================================================================
~Curve
DEPT .m                   : DEPTH
Lithology_geolink ._      : Lithology_geolink
CALI .in                  : CALI
DRHO .g/cm3               : DRHO
NPHI .m3/m3               : NPHI
RHOB .g/cm3               : RHOB
GR .gAPI                  : GR
DTC .us/ft                : DTC
DTE .us/ft                : DTE
RDEP .ohm.m               : RDEP
SP .mV                    : SP
RSHA .ohm.m               : RSHA
RMED .ohm.m               : RMED
~Parameter
#==================================================================
~Ascii
# ...
 2846.4951172 6.0000000000 8.7110004425 -0.014000000 0.3038800061 2.5729999542 101.38095093 87.355377197 87.296409607 3.9611122608  -999.250000 5.4695510864 5.4695510864
 2846.6474609 6.0000000000 8.7110004425 -0.014000000 0.3398899734 2.5650000572 104.15333557 88.977668762 89.145339966 3.9750640392  -999.250000 5.4133992195 5.4133992195
 2846.7998047 6.0000000000 8.7110004425 -0.015000000 0.3640399873 2.5390000343 111.04021454 91.409400940 91.522583008 3.9833281040  -999.250000 5.3376321793 5.3376321793
 2846.9523926 6.0000000000 8.7110004425 -0.013000000 0.3740700185 2.5220000744 115.53875732 93.402732849 93.457595825 4.0245051384  -999.250000 5.1665821075 5.1665821075
 2847.1047363 7.0000000000 8.7110004425 -0.008000000 0.3567200005 2.5260000229 116.48052979 93.096992493 93.195762634 4.0873446465  -999.250000 4.9915609360 4.9915609360
 2847.2570801 7.0000000000 8.7110004425 -0.009000000 0.3277999759 2.5320000648 114.16988373 91.061538696 91.042304993 4.1303124428  -999.250000 5.0638923645 5.0638923645
 2847.4094238 7.0000000000 8.7110004425 -0.004000000 0.3187099993 2.5469999313 111.18083954 89.528167725 89.379844666 4.1693201065  -999.250000 5.4253840446 5.4253840446
 2847.5620117 7.0000000000 8.7110004425 -0.001000000 0.3084999919 2.5539999008 110.79235077 87.969711304 88.004074097 4.2093448639  -999.250000 5.8466105461 5.8466105461
 2847.7143555 7.0000000000 8.7110004425 -0.001000000 0.3258700073 2.5510001183 111.21598053 87.353790283 87.401008606 4.2527608871  -999.250000 6.0461363792 6.0461363792
 2847.8666992 7.0000000000 8.7110004425 -0.004000000 0.3152500093 2.5480000973 112.33670044 86.998458862 87.236640930 4.3478255272  -999.250000 6.0629439354 6.0629439354
 2848.0190430 7.0000000000 8.7110004425 -0.004000000 0.3133200109 2.5439999104 113.39991760 87.373008728 87.328628540 4.4503679276  -999.250000 6.0560722351 6.0560722351
 2848.1713867 7.0000000000 8.7110004425 -0.005000000 0.2984600067 2.5429999828 111.77716827 87.850135803 87.793792725 4.4961214066  -999.250000 6.0649485588 6.0649485588
 2848.3239746 7.0000000000 8.7110004425 -0.007000000 0.2897900045 2.5399999619 111.80089569 86.955009460 86.654594421 4.5150799751  -999.250000 6.0571842194 6.0571842194
 2848.4763184 7.0000000000 8.7110004425 -0.010000000 0.2954899967 2.5360000134 111.53118896 85.686225891 85.804679871 4.5251040459  -999.250000 6.0805449486 6.0805449486
 2848.6286621 7.0000000000 8.7110004425 -0.009000000 0.2989400029 2.5409998894 110.44683838 86.357017517 86.278961182 4.5385370255  -999.250000 6.1486806870 6.1486806870
 2848.7810059 7.0000000000 8.7110004425 -0.010000000 0.3169000149 2.5409998894 111.32197571 87.311195374 86.997680664 4.6065521240  -999.250000 6.2335677147 6.2335677147
 2848.9335938 7.0000000000 8.7110004425 -0.013000000 0.3033699989 2.5550000668 114.93659973 87.433502197 87.691978455 4.8011150360  -999.250000 6.3052821159 6.3052821159
 2849.0859375 7.0000000000 8.7110004425 -0.013000000 0.2949799895 2.5590000153 117.59255981 88.561058044 88.357818604 5.0643944740  -999.250000 6.4662756920 6.4662756920
 2849.2382813 7.0000000000 8.7110004425 -0.012000000 0.2966200113 2.5429999828 115.32373810 89.266181946 89.443054199 5.2376170158  -999.250000 6.7502279282 6.7502279282
 2849.3906250 7.0000000000 8.7110004425 -0.013000000 0.3285599947 2.5120000839 117.06160736 91.715583801 91.435096741 5.3147840500  -999.250000 7.0289678574 7.0289678574
 2849.5432129 7.0000000000 8.7110004425 -0.010000000 0.3685200214 2.4909999371 121.62042999 95.113677979 95.196121216 5.4135308266  -999.250000 7.4024643898 7.4024643898
 2849.6955566 7.0000000000 8.7110004425 -0.008000000 0.3600899875 2.4949998856 124.04019165 99.171669006 98.909118652 5.6049313545  -999.250000 8.0837602615 8.0837602615
 2849.8479004 7.0000000000 8.7110004425 -0.009000000 0.3556600213 2.5000000000 125.78301239 100.25285339 100.16136932 5.8454580307  -999.250000 8.6728963852 8.6728963852
 2850.0002441 7.0000000000 8.7110004425 -0.007000000 0.3476100266 2.5269999504 124.02537537 99.081672668 99.300003052 6.0265202522  -999.250000 8.6590957642 8.6590957642
 2850.1525879 7.0000000000 8.7110004425 -0.006000000 0.3571900129 2.5399999619 120.71555328 98.067008972 98.107322693 6.0908975601  -999.250000 8.5473585129 8.5473585129
 2850.3051758 7.0000000000 8.7110004425 -0.006000000 0.3656600118 2.5490000248 119.39270782 97.807571411 97.569923401 6.0742626190  -999.250000 8.6043376923 8.6043376923
 2850.4575195 7.0000000000 8.7110004425 -0.004000000 0.3569900095 2.5439999104 117.62574005 96.537864685 96.708160400 5.9806599617  -999.250000 8.7711944580 8.7711944580
 2850.6098633 7.0000000000 8.7110004425 -0.007000000 0.3477999866 2.5529999733 117.85284424 94.822570801 94.650611877 5.6875038147  -999.250000 8.9158401489 8.9158401489
 2850.7622070 7.0000000000 8.7110004425 -0.006000000 0.3195199966 2.5680000782 119.30860901 92.100433350 92.041763306 5.2521796227  -999.250000 8.5200386047 8.5200386047
 2850.9147949 7.0000000000 8.7110004425 -0.007000000 0.3020800054 2.5799999237 117.34789276 90.064353943 90.007453918 4.9693188667  -999.250000 7.9039087296 7.9039087296
 2851.0671387 7.0000000000 8.7110004425 -0.008000000 0.3042600155 2.5829999447 112.37320709 88.446800232 88.512619019 4.8846235275  -999.250000 7.6434454918 7.6434454918
 2851.2194824 7.0000000000 8.7110004425 -0.009000000 0.3188100159 2.5820000172 111.17935944 88.247398376 88.346611023 4.8372945786  -999.250000 7.4468574524 7.4468574524
 2851.3718262 7.0000000000 8.7110004425 -0.003000000 0.3276100159 2.5759999752 113.58367157 89.204246521 89.179641724 4.7487840652  -999.250000 6.9296960831 6.9296960831
 2851.5244141 7.0000000000 8.7110004425 -0.005000000 0.3343299925 2.5690000057 114.53948975 90.596542358 90.886901855 4.5969905853  -999.250000 6.3987321854 6.3987321854
 2851.6767578 7.0000000000 8.7110004425 -0.005000000 0.3404299915 2.5539999008 115.12103271 92.734062195 92.833015442 4.4719038010  -999.250000 6.7402372360 6.7402372360
 2851.8291016 7.0000000000 8.7110004425 -0.005000000 0.3718299866 2.5529999733 118.36547089 94.817153931 94.544036865 4.4603924751  -999.250000 7.1398701668 7.1398701668
 2851.9814453 7.0000000000 8.7110004425 -0.010000000 0.3977299929 2.5339999199 121.04029083 96.747146606 96.746391296 4.5097999573  -999.250000 6.9982957840 6.9982957840
 2852.1337891 7.0000000000 8.7110004425 -0.016000001 0.4091700017 2.4909999371 123.19808197 98.238937378 98.554100037 4.6106219292  -999.250000 6.7855000496 6.7855000496
 2852.2863770 7.0000000000 8.7110004425 -0.018999999 0.4118700027 2.4709999561 125.39885712 99.951194763 99.821945190 4.8641953468  -999.250000 6.5590896606 6.5590896606
 2852.4387207 7.0000000000 8.7110004425 -0.022000000 0.3818799853 2.4739999771 127.61511993 100.73046875 100.62338257 5.1369614601  -999.250000 7.3266301155 7.3266301155
 2852.5910645 7.0000000000 8.7110004425 -0.020000000 0.3591400087 2.5130000114 128.22480774 99.976768494 100.00525665 5.2563681602  -999.250000 9.0202560425 9.0202560425
 2852.7434082 7.0000000000 8.7110004425 -0.015000000 0.3382000029 2.5429999828 125.18428802 97.356033325 97.263069153 5.3021860123  -999.250000 9.7949285507 9.7949285507
 2852.8959961 7.0000000000 8.7110004425 -0.017999999 0.3442599773 2.5460000038 118.84131622 93.103797913 93.118171692 5.3315849304  -999.250000 9.6258106232 9.6258106232
 2853.0483398 7.0000000000 8.7110004425 -0.014000000 0.3468999863 2.5429999828 114.81330109 91.707298279 91.958015442 5.4052095413  -999.250000 9.2240772247 9.2240772247
 2853.2006836 7.0000000000 8.7110004425 -0.014000000 0.3592499793 2.5239999294 117.11621094 93.801345825 93.616561890 5.5558252335  -999.250000 8.3612308502 8.3612308502
 2853.3530273 7.0000000000 8.7110004425 -0.011000000 0.3664099872 2.5099999905 121.77570343 95.788970947 96.053909302 5.6581602097  -999.250000 7.6483197212 7.6483197212
 2853.5056152 7.0000000000 8.7110004425 -0.007000000 0.3936000168 2.4939999580 128.36018372 99.371894836 99.181152344 5.6781764030  -999.250000 7.8154292107 7.8154292107
 2853.6579590 7.0000000000 8.7110004425 -0.005000000 0.4027399719 2.4869999886 134.44818115 101.65648651 101.92503357 5.7000961304  -999.250000 8.2416820526 8.2416820526
