# LAS format log file from PETREL
# Project units are specified as depth units
#==================================================================
~Version information
VERS.   2.0:
WRAP.   NO:
#==================================================================
~Well
STRT .m      922.25012207 :
STOP .m      4009.0009766 :
STEP .m     0.00000000 :
NULL .        -999.250000 :
COMP.           : COMPANY
WELL.  30/6-11   : WELL
FLD.            : FIELD
LOC.            : LOCATION
SRVC.           : SERVICE COMPANY
DATE.  2018-09-11 14:48:30   : Log Export Date {yyyy-MM-dd HH:mm:ss}
PROV.           : PROVINCE
UWI.   30/6-11   : UNIQUE WELL ID
API.            : API NUMBER
#==================================================================
~Curve
DEPT .m                   : DEPTH
Lithology_geolink ._      : Lithology_geolink
CALI .in                  : CALI
DRHO .g/cm3               : DRHO
NPHI .m3/m3               : NPHI
RHOB .g/cm3               : RHOB
GR .gAPI                  : GR
DTC .us/ft                : DTC
RDEP .ohm.m               : RDEP
SP .mV                    : SP
RSHA .ohm.m               : RSHA
RMED .ohm.m               : RMED
~Parameter
#==================================================================
~Ascii
# ...
 1540.6250000  -999.250000 17.635999680 0.0240000002  -999.250000 2.1667149067 121.12100220 139.02336121 1.3159999847 40.348999023 0.6140000224 0.6140000224
 1540.7500000  -999.250000 17.631999969 0.0379999988  -999.250000 2.1828658581 121.17900085 139.49584961 1.2890000343 39.345001221 0.6119999886 0.6119999886
 1540.8750000  -999.250000 17.628999710 0.0460000001  -999.250000 2.1906502247 121.36100006 139.95057678 1.2640000582 37.605998993 0.6090000272 0.6090000272
 1540.9998779  -999.250000 17.627000809 0.0509999990  -999.250000 2.1908242702 122.13500214 140.35864258 1.2450000048 36.338001251 0.6060000062 0.6060000062
 1541.1253662  -999.250000 17.627000809 0.0570000000  -999.250000 2.1872179508 123.81199646 140.71084595 1.2300000191 36.094001770 0.6029999852 0.6029999852
 1541.2501221  -999.250000 17.628999710 0.0659999996  -999.250000 2.1845703125 126.06999969 141.00901794 1.2230000496 36.761001587 0.6010000110 0.6010000110
 1541.3748779  -999.250000 17.635000229 0.0750000030  -999.250000 2.1866159439 127.48300171 141.28314209 1.2200000286 37.577999115 0.6000000238 0.6000000238
 1541.5001221  -999.250000 17.643999100 0.0799999982  -999.250000 2.1910364628 127.18399811 141.60717773 1.2220000029 38.076000214 0.6000000238 0.6000000238
 1541.6248779  -999.250000 17.653999329 0.0810000002  -999.250000 2.1941421032 125.57499695 142.00164795 1.2259999514 38.117000580 0.6039999723 0.6039999723
 1541.7500000  -999.250000 17.663000107 0.0799999982  -999.250000 2.1959991455 123.53800201 142.42225647 1.2350000143 37.571998596 0.6100000143 0.6100000143
 1541.8750000  -999.250000 17.673999786 0.0810000002  -999.250000 2.1973464489 122.03199768 142.78698730 1.2500000000 36.570999146 0.6179999709 0.6179999709
 1542.0000000  -999.250000 17.690000534 0.0820000023  -999.250000 2.1989998817 121.70300293 142.99070740 1.2719999552 35.612998962 0.6269999743 0.6269999743
 1542.1248779  -999.250000 17.712999344 0.0810000002  -999.250000 2.1989998817 122.48600006 142.84803772 1.2990000248 35.303001404 0.6359999776 0.6359999776
 1542.2498779  -999.250000 17.742000580 0.0750000030  -999.250000 2.1937582493 123.11699677 142.33232117 1.3240000010 36.061000824 0.6439999938 0.6439999938
 1542.3751221  -999.250000 17.771999359 0.0640000030  -999.250000 2.1847097874 122.47399902 141.55313110 1.3400000334 37.583000183 0.6510000229 0.6510000229
 1542.4998779  -999.250000 17.798000336 0.0570000000  -999.250000 2.1760206223 120.55200195 140.64401245 1.3409999609 39.298999786 0.6560000181 0.6560000181
 1542.6247559  -999.250000 17.818000793 0.0570000000  -999.250000 2.1720912457 118.49900055 139.74530029 1.3279999495 40.724998474 0.6570000052 0.6570000052
 1542.7501221  -999.250000 17.832000732 0.0630000010  -999.250000 2.1764490604 118.36499786 139.00050354 1.3059999943 41.772998810 0.6529999971 0.6529999971
 1542.8748779  -999.250000 17.836999893 0.0630000010  -999.250000 2.1822459698 121.15399933 138.55818176 1.2810000181 42.840999603 0.6449999809 0.6449999809
 1543.0000000  -999.250000 17.827999115 0.0509999990  -999.250000 2.1793782711 126.39399719 138.34182739 1.2580000162 44.151000977 0.6349999905 0.6349999905
 1543.1250000  -999.250000 17.799999237 0.0299999993  -999.250000 2.1672630310 131.84100342 138.32208252 1.2359999418 45.451999664 0.6240000129 0.6240000129
 1543.2500000  -999.250000 17.760000229 0.0109999999  -999.250000 2.1500875950 134.83799744 138.45622253 1.2170000076 46.238998413 0.6150000095 0.6150000095
 1543.3748779  -999.250000 17.718000412 0.0080000004  -999.250000 2.1354281902 134.48199463 138.68644714 1.1979999542 46.250000000 0.6079999804 0.6079999804
 1543.5003662  -999.250000 17.691999435 0.0179999992  -999.250000 2.1347692013 130.99200439 138.90902710 1.1809999943 45.499000549 0.6050000191 0.6050000191
 1543.6251221  -999.250000 17.695999146 0.0340000018  -999.250000 2.1438474655 126.40299988 138.96336365 1.1619999409 44.412998199 0.6029999852 0.6029999852
 1543.7498779  -999.250000 17.743000031 0.0450000018  -999.250000 2.1533102989 122.80200195 138.80113220 1.1430000067 43.483001709 0.6029999852 0.6029999852
 1543.8751221  -999.250000 17.826000214 0.0460000001  -999.250000 2.1582252979 120.73999786 138.38113403 1.1239999533 42.944999695 0.6039999723 0.6039999723
 1544.0001221  -999.250000 17.902999878 0.0410000011  -999.250000 2.1565563679 119.63300323 137.63075256 1.1119999886 42.826999664 0.6039999723 0.6039999723
 1544.1250000  -999.250000 17.936000824 0.0370000005  -999.250000 2.1500494480 118.84600067 136.42127991 1.1080000401 43.050998688 0.6019999981 0.6019999981
 1544.2500000  -999.250000 17.900999069 0.0410000011  -999.250000 2.1466033459 118.59799957 134.33085632 1.1150000095 43.620998383 0.5979999900 0.5979999900
 1544.3750000  -999.250000 17.808000565 0.0549999997  -999.250000 2.1500108242 119.27400208 131.47393799 1.1269999743 44.553001404 0.5939999819 0.5939999819
 1544.4998779  -999.250000 17.707000732 0.0710000023  -999.250000 2.1572027206 120.66500092 128.10305786 1.1349999905 45.950000763 0.5910000205 0.5910000205
 1544.6248779  -999.250000 17.628999710 0.0820000023  -999.250000 2.1638813019 121.58499908 124.54340363 1.1330000162 47.839000702 0.5889999866 0.5889999866
 1544.7501221  -999.250000 17.583999634 0.0860000029  -999.250000 2.1662952900 120.26999664 121.18099976 1.1169999838 50.104000092 0.5849999785 0.5849999785
 1544.8748779  -999.250000 17.559999466 0.0909999982  -999.250000 2.1648211479 116.47499847 118.52740479 1.0939999819 52.379001617 0.5770000219 0.5770000219
 1544.9997559  -999.250000 17.544000626 0.1019999981  -999.250000 2.1698875427 111.09600067 117.12964630 1.0690000057 54.176998138 0.5640000105 0.5640000105
 1545.1251221  -999.250000 17.531000137 0.1140000001  -999.250000 2.1826882362 106.02500153 116.95834351 1.0460000038 55.200000763 0.5479999781 0.5479999781
 1545.2500000  -999.250000 17.524999619 0.1209999993  -999.250000 2.1993298531 103.18599701 117.87413025 1.0269999504 55.547000885 0.5320000052 0.5320000052
 1545.3750000  -999.250000 17.523000717 0.1120000035  -999.250000 2.2142469883 102.52899933 119.55777740 1.0110000372 55.985000610 0.5180000067 0.5180000067
 1545.5000000  -999.250000 17.521999359 0.0909999982  -999.250000 2.2211072445 102.54199982 121.54883575 0.9980000257 57.082000732 0.5070000291 0.5070000291
 1545.6250000  -999.250000 17.521999359 0.0610000007  -999.250000 2.2141385078 101.92600250 123.18798065 0.9850000143 58.687000275 0.4979999959 0.4979999959
 1545.7498779  -999.250000 17.520999908 0.0280000009  -999.250000 2.1989507675 100.90899658 124.24577332 0.9720000029 60.164001465 0.4900000095 0.4900000095
 1545.8751221  -999.250000 17.520000458 -0.002000000  -999.250000 2.1803057194 101.06700134 124.89739990 0.9530000091 61.027000427 0.4830000103 0.4830000103
 1546.0002441  -999.250000 17.520000458 -0.024000000  -999.250000 2.1625344753 103.82399750 125.39028168 0.9269999862 61.337001801 0.4779999852 0.4779999852
 1546.1248779  -999.250000 17.520000458 -0.035999998  -999.250000 2.1495730877 108.46800232 126.00833893 0.8920000196 61.518001556 0.4769999981 0.4769999981
 1546.2501221  -999.250000 17.521999359 -0.035000000  -999.250000 2.1451337337 112.94799805 127.05045319 0.8560000062 61.786998749 0.4790000021 0.4790000021
 1546.3751221  -999.250000 17.523000717 -0.026000001  -999.250000 2.1471521854 116.19599915 128.54856873 0.8249999881 61.848999023 0.4830000103 0.4830000103
 1546.5000000  -999.250000 17.524000168 -0.014000000  -999.250000 2.1505422592 118.57499695 130.14199829 0.8069999814 61.270000458 0.4860000014 0.4860000014
 1546.6250000  -999.250000 17.524999619 -0.002000000  -999.250000 2.1542317867 120.10199738 131.64309692 0.8040000200 60.074001312 0.4839999974 0.4839999974
 1546.7500000  -999.250000 17.524999619 0.0109999999  -999.250000 2.1582891941 119.62999725 132.94013977 0.8149999976 58.553001404 0.4749999940 0.4749999940
 1546.8748779  -999.250000 17.524999619 0.0230000000  -999.250000 2.1634809971 117.13800049 134.00706482 0.8320000172 57.007999420 0.4629999995 0.4629999995
