# LAS format log file from PETREL
# Project units are specified as depth units
#==================================================================
~Version information
VERS.   2.0:
WRAP.   NO:
#==================================================================
~Well
STRT .m      176.60998535 :
STOP .m      3556.0803223 :
STEP .m     0.00000000 :
NULL .        -999.250000 :
COMP.           : COMPANY
WELL.  30/6-5   : WELL
FLD.            : FIELD
LOC.            : LOCATION
SRVC.           : SERVICE COMPANY
DATE.  2018-09-11 14:48:31   : Log Export Date {yyyy-MM-dd HH:mm:ss}
PROV.           : PROVINCE
UWI.   30/6-5   : UNIQUE WELL ID
API.            : API NUMBER
#==================================================================
~Curve
DEPT .m                   : DEPTH
Lithology_geolink ._      : Lithology_geolink
CALI .in                  : CALI
DRHO .g/cm3               : DRHO
NPHI .m3/m3               : NPHI
RHOB .g/cm3               : RHOB
PEF .b/e                  : PEF
GR .gAPI                  : GR
DTC .us/ft                : DTC
DTE .us/ft                : DTE
RDEP .ohm.m               : RDEP
SP .mV                    : SP
RSHA .ohm.m               : RSHA
RMED .ohm.m               : RMED
~Parameter
#==================================================================
~Ascii
# ...
 2422.9863281 13.000000000 13.625000000 -0.004985577 0.3331562579 2.4826269150  -999.250000 58.020999908 104.84811401 101.08745575 1.2290320396 52.963798523 1.9620000124 1.4939999580
 2423.1386719 13.000000000 13.703000069 0.0040256004 0.3281993568 2.4720368385  -999.250000 54.901092529 104.01963043 100.18310547 1.2490015030 56.950500488 2.2149999142 1.5779999495
 2423.2910156 13.000000000 13.718998909 0.0199999996 0.3197584450 2.4634180069  -999.250000 51.841896057 104.36167145 100.45567322 1.2500000000 56.634292603 2.6600000858 1.6879999638
 2423.4433594 13.000000000 13.827999115 0.0270000007 0.3161711991 2.4557991028  -999.250000 50.534103394 105.03616333 100.96984100 1.2289999723 53.702404022 1.8940000534 1.6929999590
 2423.5959473 13.000000000 13.656000137 0.0249743592 0.3165009022 2.4526166916  -999.250000 52.467002869 106.06278992 102.16980743 1.2029790878 54.576400757 2.4200000763 1.6059999466
 2423.7482910 13.000000000 13.656000137 0.0089967949 0.3083861768 2.4585995674  -999.250000 51.847156525 107.64391327 103.83256531 1.1899327040 54.699298859 2.0840001106 1.4769999981
 2423.9006348 13.000000000 13.680000305 0.0070032002 0.3034187257 2.4711234570  -999.250000 53.817405701 108.41049957 104.65639496 1.1479439735 53.638999939 1.6169999838 1.3669999838
 2424.0529785 13.000000000 13.788999557 0.0089999996 0.2936945856 2.4768126011  -999.250000 56.570060730 109.09075928 105.34230804 1.1130000353 53.641204834 1.5829999447 1.3009999990
 2424.2055664 13.000000000 13.718998909 0.0130096152 0.2920083702 2.4655239582  -999.250000 60.955001831 109.97519684 106.23853302 1.0879535675 54.985797882 2.0290000439 1.2879999876
 2424.3579102 13.000000000 13.734000206 0.0189967938 0.2917435765 2.4444587231  -999.250000 56.588893890 110.14260864 106.41983032 1.0589840412 46.214019775 1.7159999609 1.2779999971
 2424.5102539 13.000000000 13.788999557 0.0170000009 0.3070269525 2.4327168465  -999.250000 53.406398773 109.66567993 105.96380615 1.0490192175 54.328403473 1.8409999609 1.3070000410
 2424.6625977 13.000000000 13.827999115 0.0170000009 0.3154188693 2.4372723103  -999.250000 53.662059784 109.28263092 105.51377106 1.0609999895 55.835414886 2.0780000687 1.3660000563
 2424.8149414 13.000000000 13.805000305 0.0080000004 0.3181344271 2.4445466995  -999.250000 57.436546326 109.66636658 105.62373352 1.0829999447 61.679115295 1.9950000048 1.3309999704
 2424.9675293 13.000000000 13.805000305 0.0039935899 0.3070478439 2.4455819130  -999.250000 56.522399902 109.16490936 105.36648560 1.1060432196 48.064697266 1.9320000410 1.3120000362
 2425.1198730 13.000000000 13.796999931 -0.000011200 0.3003934622 2.4427099228  -999.250000 53.837841034 108.45603180 104.55815125 1.1330416203 54.200397491 1.8099999428 1.3719999790
 2425.2722168 13.000000000 13.796999931 -0.007000000 0.3011095822 2.4431812763  -999.250000 49.993541718 107.79424286 103.90558624 1.1590000391 53.827705383 1.9769999981 1.4340000153
 2425.4245605 12.000000000 13.805000305 0.0020000001 0.3009737730 2.4470617771  -999.250000 45.966346741 107.01954651 103.11767578 1.1920000315 54.882038116 2.2829999924 1.4570000172
 2425.5771484 12.000000000 13.772999763 0.0310496781 0.2989758551 2.4506585598  -999.250000 44.320796967 106.32650757 102.52988434 1.2320191860 50.563297272 1.8830000162 1.3830000162
 2425.7294922 12.000000000 13.866999626 0.0619663447 0.2856475413 2.4535357952  -999.250000 46.752254486 105.73835754 101.87065887 1.2439646721 56.253082275 1.8090000153 1.4290000200
 2425.8818359 12.000000000 13.875000000 0.0409664027 0.2747563422 2.4604136944  -999.250000 48.161006927 104.15183258 100.27041626 1.2219407558 49.454406738 1.6840000153 1.5889999866
 2426.0341797 12.000000000 13.765999794 0.0199999996 0.2704972029 2.4822554588  -999.250000 51.276943207 102.93620300 99.065086365 1.1849999428 51.578704834 5.4060001373 1.8899999857
 2426.1867676 12.000000000 13.727000237 0.0170144234 0.2665577829 2.5140786171  -999.250000 48.777000427 104.46437073 100.35263062 1.1499695778 53.271999359 2.3199999332 1.7580000162
 2426.3391113 12.000000000 13.805000305 0.0259903856 0.2765334845 2.5281531811  -999.250000 57.185543060 106.89678192 103.12611389 1.1309455633 55.764301300 1.8539999723 1.4579999447
 2426.4914551 12.000000000 13.819999695 0.0199855994 0.2939258814 2.5060088634  -999.250000 55.653896332 109.66378784 105.92193604 1.0968991518 55.950199127 1.3660000563 1.1970000267
 2426.6437988 12.000000000 13.765999794 0.0109999999 0.3206541538 2.4716308117  -999.250000 54.333232880 111.38259888 107.61446381 1.0340000391 55.449798584 1.8309999704 1.1679999828
 2426.7961426 12.000000000 13.852000237 0.0049999999 0.3281809986 2.4546256065  -999.250000 47.621242523 111.35928345 107.48236084 0.9689999819 54.703804016 2.0179998875 1.1710000038
 2426.9487305 12.000000000 13.796999931 -0.018017627 0.3316365480 2.4465718269  -999.250000 45.288097382 111.30997467 107.53773499 0.9289711714 56.446403503 1.6670000553 1.1380000114
 2427.1010742 12.000000000 13.819999695 -0.028983999 0.3392432034 2.4272522926  -999.250000 47.503757477 112.93743134 109.06796265 0.9110032320 55.012496948 1.3040000200 1.1260000467
 2427.2534180 12.000000000 14.328000069 -0.018999999 0.3495759368 2.4005403519  -999.250000 49.851715088 114.21965790 110.32832336 0.9129999876 54.075500488 1.4270000458 1.1160000563
 2427.4057617 12.000000000 13.827999115 0.0080000004 0.3514328003 2.3851993084  -999.250000 54.655345917 115.67569733 111.78855896 0.9499999881 53.761795044 0.8880000114 1.1009999514
 2427.5583496 12.000000000 13.734000206 0.0179759599 0.3554448485 2.3980109692  -999.250000 54.232898712 115.36762238 111.40315247 0.9980929494 52.397197723 1.3229999542 1.1050000191
 2427.7106934 12.000000000 13.772999763 0.0029871794 0.3605440855 2.4459729195  -999.250000 48.898334503 112.25015259 108.36127472 1.0560880899 54.949497223 1.0850000381 1.1059999466
 2427.8630371 12.000000000 13.734000206 -0.005003200 0.3509284556 2.5154886246  -999.250000 44.118541718 108.82689667 104.90078735 1.1110543013 54.014701843 2.6019999981 1.3459999561
 2428.0153809 12.000000000 13.703000069 -0.007000000 0.3192356229 2.5651700497  -999.250000 40.097557068 104.13948059 100.25305176 1.1449999809 54.448448181 3.8420000076 1.7760000229
 2428.1679688 12.000000000 13.695000648 -0.004987179 0.2835917771 2.5704677105  -999.250000 42.311698914 101.19789124 97.458992004 1.2260736227 52.860298157 4.0040001869 1.7710000277
 2428.3203125 12.000000000 13.703000069 0.0030176283 0.2695391774 2.5421631336  -999.250000 41.915916443 102.03188324 98.251518250 1.2720352411 53.576099396 3.1329998970 1.5219999552
 2428.4726563 12.000000000 13.703000069 0.0140048005 0.2839303911 2.5071437359  -999.250000 48.093299866 103.93967438 100.22707367 1.2939888239 53.638797760 2.4200000763 1.4349999428
 2428.6250000 12.000000000 13.727000237 0.0170000009 0.2996243834 2.4785013199  -999.250000 47.653495789 105.75166321 102.01367950 1.2869999409 53.512447357 1.4490000010 1.3910000324
 2428.7773438 12.000000000 13.741999626 0.0149999997 0.3071785569 2.4622910023  -999.250000 46.087299347 106.61240387 102.66294861 1.2730000019 52.545349121 2.5079998970 1.4279999733
 2428.9299316 12.000000000 13.703000069 0.0060016024 0.2973514795 2.4682149887  -999.250000 41.910907745 106.42282867 102.33006287 1.2188893557 52.762695313 2.9730000496 1.4670000076
 2429.0822754 12.000000000 13.741999626 0.0069888001 0.2872511148 2.4910254478  -999.250000 44.972457886 104.56966400 100.82275391 1.1499439478 51.953804016 2.5859999657 1.4939999580
 2429.2346191 12.000000000 13.796999931 0.0000000000 0.2751688063 2.5072579384  -999.250000 47.130958557 103.43234253 99.687324524 1.1150000095 53.702102661 3.0899999142 1.4880000353
 2429.3869629 12.000000000 13.727000237 0.0000000000 0.2779544890 2.5021548271  -999.250000 50.841796875 104.39060211 100.65890503 1.0930000544 54.391002655 3.0230000019 1.3810000420
 2429.5395508 12.000000000 13.734000206 -0.004987179 0.2949939966 2.4826102257  -999.250000 49.477703094 106.01538849 102.31079865 1.0639438629 55.641799927 2.1449999809 1.2510000467
