# LAS format log file from PETREL
# Project units are specified as depth units
#==================================================================
~Version information
VERS.   2.0:
WRAP.   NO:
#==================================================================
~Well
STRT .m      360.12121582 :
STOP .m      3233.9282227 :
STEP .m     0.00000000 :
NULL .        -999.250000 :
COMP.           : COMPANY
WELL.  30/6-23   : WELL
FLD.            : FIELD
LOC.            : LOCATION
SRVC.           : SERVICE COMPANY
DATE.  2018-09-11 14:48:31   : Log Export Date {yyyy-MM-dd HH:mm:ss}
PROV.           : PROVINCE
UWI.   30/6-23   : UNIQUE WELL ID
API.            : API NUMBER
#==================================================================
~Curve
DEPT .m                   : DEPTH
Lithology_geolink ._      : Lithology_geolink
CALI .in                  : CALI
DRHO .g/cm3               : DRHO
NPHI .m3/m3               : NPHI
RHOB .g/cm3               : RHOB
GR .gAPI                  : GR
DTC .us/ft                : DTC
DTE .us/ft                : DTE
RDEP .ohm.m               : RDEP
SP .mV                    : SP
RSHA .ohm.m               : RSHA
RMED .ohm.m               : RMED
~Parameter
#==================================================================
~Ascii
# ...
 1567.1293945  -999.250000 12.367199898 0.0044000000  -999.250000 2.0822000504 86.831748962 138.80920410 138.58479309 0.7421923280 64.336105347  -999.250000 0.7271006703
 1567.2817383  -999.250000 13.062500000 0.0082999999  -999.250000 2.0799999237 86.861824036 138.80436707 138.58479309 0.7373996973 65.208198547  -999.250000 0.7275070548
 1567.4342041  -999.250000 12.398401260 0.0070000002  -999.250000 2.0657999516 86.772819519 138.81568909 138.58479309 0.7370074987 63.335102081  -999.250000 0.7362649441
 1567.5865479  -999.250000 12.718799591 0.0008000000  -999.250000 2.0599999428 88.657318115 138.71009827 138.58479309 0.7417070270 63.584701538  -999.250000 0.7144253850
 1567.7390137  -999.250000 13.851599693 0.0027000001  -999.250000 2.0692000389 87.306861877 138.77944946 138.58479309 0.7505137920 63.584701538  -999.250000 0.7462212443
 1567.8913574  -999.250000 12.515600204 0.0019000000  -999.250000 2.0876998901 86.784774780 138.80920410 138.58479309 0.7591054440 63.585803986  -999.250000 0.8217937350
 1568.0437012  -999.250000 12.382800102 0.0022000000  -999.250000 2.0927999020 85.391868591 138.81080627 138.58479309 0.7659076452 64.959800720  -999.250000 0.8139972091
 1568.1961670  -999.250000 12.382800102 0.0002000000  -999.250000 2.0754001141 86.846977234 138.71511841 138.58479309 0.7754089832 65.084701538  -999.250000 0.8104926348
 1568.3485107  -999.250000 12.671899796 0.0027999999  -999.250000 2.0597000122 88.820739746 138.78096008 138.58479309 0.7866090536 65.084999084  -999.250000 0.8012788296
 1568.5009766  -999.250000 12.601599693 0.0062000002  -999.250000 2.0522999763 89.370590210 138.81564331 138.58479309 0.7979088426 65.459999084  -999.250000 0.7749235034
 1568.6533203  -999.250000 12.515600204 0.0104000000  -999.250000 2.0510001183 86.860946655 138.80592346 138.58479309 0.8089076281 65.834602356  -999.250000 0.8042328358
 1568.8057861  -999.250000 12.734399796 0.0080000004  -999.250000 2.0336999893 80.683403015 138.81567383 138.58479309 0.8184086680 65.709800720  -999.250000 0.8452309370
 1568.9581299  -999.250000 12.671899796 0.0066999998  -999.250000 2.0055999756 78.573928833 138.71011353 138.58479309 0.8292138577 65.833999634  -999.250000 0.8837785125
 1569.1105957  -999.250000 12.999999046 0.0109000001  -999.250000 2.0051999092 80.108505249 138.78573608 138.58479309 0.8465164900 64.960601807  -999.250000 0.8568843603
 1569.2629395  -999.250000 13.132800102 0.0076000001  -999.250000 2.0074000359 83.608772278 138.81074524 138.58479309 0.8671153188 66.084503174  -999.250000 0.8374324441
 1569.4154053  -999.250000 13.296899796 0.0068000001  -999.250000 2.0211999416 84.324844360 138.81080627 138.58479309 0.8862304091 65.835700989  -999.250000 0.8779187202
 1569.5677490  -999.250000 13.476599693 0.0040000002  -999.250000 2.0264999866 84.472404480 138.70852661 138.58479309 0.9052132368 66.460700989  -999.250000 0.8896007538
 1569.7202148  -999.250000 14.039099693 0.0030000000  -999.250000 2.0288000107 81.001449585 138.77944946 138.58479309 0.9217171073 67.708702087  -999.250000 0.8906133175
 1569.8725586  -999.250000 13.460900307 -0.000500000  -999.250000 2.0453000069 86.829284668 138.80920410 138.58479309 0.9324016571 67.084403992  -999.250000 0.8989027143
 1570.0250244  -999.250000 13.507800102 0.0052999998  -999.250000 2.0587000847 89.674957275 138.81080627 138.58479309 0.9344946742 66.708702087  -999.250000 0.9023767114
 1570.1773682  -999.250000 12.921899796 0.0019000000  -999.250000 2.0322999954 90.829544067 138.81080627 138.58479309 0.9311919212 66.084899902  -999.250000 0.9502806067
 1570.3297119  -999.250000 12.703100204 0.0023000001  -999.250000 1.9746999741 87.637825012 138.70855713 138.58479309 0.9210888147 66.334197998  -999.250000 1.0507615805
 1570.4821777  -999.250000 12.921899796 -0.002000000  -999.250000 1.9311000109 86.176383972 138.78573608 138.58479309 0.9070874453 65.709403992  -999.250000 1.0028609037
 1570.6345215  -999.250000 13.234399796 -0.003400000  -999.250000 1.9319000244 86.774093628 138.81074524 138.58479309 0.8913826942 65.333602905  -999.250000 0.9540140033
 1570.7869873  -999.250000 13.468799591 -0.003000000  -999.250000 1.9697999954 88.390480042 138.81080627 138.58479309 0.8697802424 63.960102081  -999.250000 0.8466718197
 1570.9393311  -999.250000 14.562500000 -0.000400000  -999.250000 2.0048999786 90.232543945 138.70855713 138.58479309 0.8451867104 64.460700989  -999.250000 0.8114824891
 1571.0917969  -999.250000 14.679699898 -0.003800000  -999.250000 2.0227000713 91.414512634 138.78573608 138.58479309 0.8285931945 65.709602356  -999.250000 0.7896058559
 1571.2441406  -999.250000 13.796899796 -0.003800000  -999.250000 2.0420000553 89.929855347 138.81074524 138.58479309 0.8200985789 65.583999634  -999.250000 0.7969066501
 1571.3966064  -999.250000 13.257800102 0.0024999999  -999.250000 2.0666999817 88.501068115 138.81080627 138.58479309 0.8183048368 64.710304260  -999.250000 0.8052656054
 1571.5489502  -999.250000 13.382800102 0.0013000000  -999.250000 2.0731999874 89.977531433 138.80436707 138.58479309 0.8213076591 65.085906982  -999.250000 0.8462646008
 1571.7014160  -999.250000 13.296899796 -0.000900000  -999.250000 2.0696001053 90.895614624 138.70689392 138.58479309 0.8308209777 66.582702637  -999.250000 0.9268531799
 1571.8537598  -999.250000 13.234399796 0.0035999999  -999.250000 2.0729000568 92.333106995 138.79216003 138.58479309 0.8439119458 65.335601807  -999.250000 0.9599944353
 1572.0062256  -999.250000 13.140601158 0.0077999998  -999.250000 2.0917999744 89.598304749 138.80584717 138.58479309 0.8588193655 66.457099915  -999.250000 0.9530655742
 1572.1585693  -999.250000 12.976599693 0.0108000003  -999.250000 2.0941998959 87.978981018 138.80923462 138.58479309 0.8709051013 64.835403442  -999.250000 0.9315710664
 1572.3109131  -999.250000 13.015600204 0.0071000000  -999.250000 2.1006999016 87.449325562 138.71507263 138.58479309 0.8772990108 65.710800171  -999.250000 0.8954765201
 1572.4633789  -999.250000 12.546899796 0.0008000000  -999.250000 2.1147000790 85.100105286 138.78730774 138.58479309 0.8759921193 67.085403442  -999.250000 0.8662230372
 1572.6157227  -999.250000 13.062500000 -0.001400000  -999.250000 2.1282000542 80.742248535 138.80430603 138.58479309 0.8661859035 67.959304810  -999.250000 0.8951200247
 1572.7681885  -999.250000 13.101599693 0.0016000000  -999.250000 2.1203000546 75.319801331 138.81567383 138.58479309 0.8485895395 67.458702087  -999.250000 1.0449265242
 1572.9205322  -999.250000 12.359399796 -0.011100000  -999.250000 2.0223999023 78.070335388 138.71011353 138.58479309 0.8355951905 66.209403992  -999.250000 1.0779517889
 1573.0729980  -999.250000 12.843800545 -0.016100001  -999.250000 1.9462001324 82.110260010 138.78573608 138.58479309 0.8295956254 65.834701538  -999.250000 0.8930155039
 1573.2253418  -999.250000 12.789099693 -0.006600000  -999.250000 1.9203000069 87.174118042 138.81074524 138.58479309 0.8241953254 65.834503174  -999.250000 0.7875615954
 1573.3778076  -999.250000 13.023400307 0.0003000000  -999.250000 1.9397000074 90.686141968 138.80436707 138.58479309 0.8183763027 65.584899902  -999.250000 0.7397211790
 1573.5301514  -999.250000 12.921899796 0.0020000001  -999.250000 1.9688999653 91.088623047 138.80923462 138.58479309 0.8035848141 65.708801270  -999.250000 0.7529051304
 1573.6826172  -999.250000 12.976599693 0.0055999998  -999.250000 1.9726999998 92.230606079 138.70845032 138.58479309 0.7845835090 64.585304260  -999.250000 0.7593819499
 1573.8349609  -999.250000 13.250000000 0.0097000012  -999.250000 1.9932999611 88.551574707 138.79216003 138.58479309 0.7742989659 64.958801270  -999.250000 0.8104750514
 1573.9874268  -999.250000 13.609399796 0.0115000000  -999.250000 1.9775999784 87.268966675 138.80584717 138.58479309 0.7730102539 63.835304260  -999.250000 0.7792639732
 1574.1397705  -999.250000 12.476598740 0.0052000000  -999.250000 1.9627000093 84.631065369 138.80923462 138.58479309 0.7794121504 64.208999634  -999.250000 0.7568469644
 1574.2921143  -999.250000 12.624999046 0.0002000000  -999.250000 1.9426000118 87.955169678 138.70855713 138.58479309 0.7946133614 63.335502625  -999.250000 0.8154520392
