# LAS format log file from PETREL
# Project units are specified as depth units
#==================================================================
~Version information
VERS.   2.0:
WRAP.   NO:
#==================================================================
~Well
STRT .m      922.25012207 :
STOP .m      4009.0009766 :
STEP .m     0.00000000 :
NULL .        -999.250000 :
COMP.           : COMPANY
WELL.  30/6-11   : WELL
FLD.            : FIELD
LOC.            : LOCATION
SRVC.           : SERVICE COMPANY
DATE.  2018-09-11 14:48:30   : Log Export Date {yyyy-MM-dd HH:mm:ss}
PROV.           : PROVINCE
UWI.   30/6-11   : UNIQUE WELL ID
API.            : API NUMBER
#==================================================================
~Curve
DEPT .m                   : DEPTH
Lithology_geolink ._      : Lithology_geolink
CALI .in                  : CALI
DRHO .g/cm3               : DRHO
NPHI .m3/m3               : NPHI
RHOB .g/cm3               : RHOB
GR .gAPI                  : GR
DTC .us/ft                : DTC
RDEP .ohm.m               : RDEP
SP .mV                    : SP
RSHA .ohm.m               : RSHA
RMED .ohm.m               : RMED
~Parameter
#==================================================================
~Ascii
# ...
 3797.3752441 6.0000000000 9.2530002594 -0.002000000 0.2265900075 2.6698524952 101.34400177 82.489768982 3.9440000057 50.235000610 5.9000000954 5.9000000954
 3797.5004883 6.0000000000 9.2650003433 -0.007000000 0.2270400077 2.6695237160 105.81300354 82.479820251 3.7509999275 50.298999786 5.4419999123 5.4419999123
 3797.6250000 7.0000000000 9.2700004578 -0.007000000 0.2270199955 2.6640510559 109.70800018 82.324035645 3.5750000477 50.334999084 5.1160001755 5.1160001755
 3797.7500000 7.0000000000 9.2679996490 -0.001000000 0.2265099883 2.6617231369 112.83300018 82.065757751 3.4340000153 50.314998627 4.9510002136 4.9510002136
 3797.8752441 7.0000000000 9.2620000839 0.0099999998 0.2252199948 2.6628961563 115.49800110 81.693428040 3.3350000381 50.263999939 4.8889999390 4.8889999390
 3798.0002441 7.0000000000 9.2559995651 0.0170000009 0.2238800079 2.6644217968 117.10700226 81.214859009 3.2860000134 50.195999146 4.8909997940 4.8909997940
 3798.1247559 7.0000000000 9.2519998550 0.0140000004 0.2233900130 2.6606769562 116.67299652 80.665733337 3.2909998894 50.111999512 4.9250001907 4.9250001907
 3798.2497559 7.0000000000 9.2489995956 0.0030000000 0.2238800079 2.6468102932 113.40699768 80.156768799 3.3580000401 50.063999176 4.9930000305 4.9930000305
 3798.3750000 7.0000000000 9.2460002899 -0.009000000 0.2254700065 2.6325957775 108.42600250 79.906501770 3.4749999046 50.136001587 5.1199998856 5.1199998856
 3798.5000000 7.0000000000 9.2419996262 -0.013000000 0.2280400097 2.6245081425 102.95400238 79.960433960 3.6349999905 50.355998993 5.3460001945 5.3460001945
 3798.6245117 7.0000000000 9.2370004654 -0.007000000 0.2307500094 2.6249361038 98.282997131 80.301498413 3.8299999237 50.664001465 5.7010002136 5.7010002136
 3798.7497559 6.0000000000 9.2279996872 0.0070000002 0.2317900062 2.6338634491 95.494003296 80.867210388 4.0500001907 50.883998871 6.2129998207 6.2129998207
 3798.8747559 6.0000000000 9.2119998932 0.0240000002 0.2288199961 2.6491248608 94.025001526 81.530517578 4.2719998360 50.902000427 6.8359999657 6.8359999657
 3798.9997559 6.0000000000 9.1870002747 0.0379999988 0.2222400159 2.6652963161 93.065002441 82.178817749 4.5040001869 50.728000641 7.5329999924 7.5329999924
 3799.1247559 6.0000000000 9.1520004272 0.0450000018 0.2131500095 2.6795032024 91.888999939 82.806266785 4.7430000305 50.458000183 8.2550001144 8.2550001144
 3799.2497559 6.0000000000 9.1079998016 0.0469999984 0.2036599964 2.6914119720 90.177001953 83.422599792 4.9829998016 50.213001251 8.8900003433 8.8900003433
 3799.3747559 6.0000000000 9.0609998703 0.0450000018 0.1962599903 2.6999461651 88.513999939 84.022979736 5.2150001526 50.018001556 9.3059997559 9.3059997559
 3799.4997559 6.0000000000 9.0159997940 0.0410000011 0.1917700022 2.7028837204 87.524002075 84.583152771 5.4270000458 49.868000031 9.4110002518 9.4110002518
 3799.6245117 6.0000000000 8.9799995422 0.0309999995 0.1904700100 2.6929907799 87.343002319 85.016067505 5.6050000191 49.786998749 9.2580003738 9.2580003738
 3799.7495117 6.0000000000 8.9560003281 0.0160000008 0.1919700056 2.6710743904 87.486000061 85.290847778 5.7259998322 49.808998108 9.0310001373 9.0310001373
 3799.8745117 6.0000000000 8.9420003891 -0.004000000 0.1951899976 2.6434102058 87.509002686 85.416267395 5.7890000343 49.895999908 8.9060001373 8.9060001373
 3799.9995117 6.0000000000 8.9379997253 -0.021000000 0.1982399970 2.6174128056 87.560997009 85.381721497 5.7979998589 49.977001190 8.9209995270 8.9209995270
 3800.1245117 6.0000000000 8.9390001297 -0.027000001 0.2002499998 2.6012434959 87.723999023 85.167236328 5.7569999695 49.981998444 9.0360002518 9.0360002518
 3800.2495117 6.0000000000 8.9429998398 -0.018999999 0.2013299912 2.6035373211 87.920997620 84.732002258 5.6620001793 49.882999420 9.1700000763 9.1700000763
 3800.3745117 6.0000000000 8.9460000992 0.0010000000 0.2015399933 2.6243500710 88.291000366 83.908775330 5.5240001678 49.745998383 9.2519998550 9.2519998550
 3800.4992676 6.0000000000 8.9469995499 0.0230000000 0.2008399963 2.6480479240 89.279998779 82.781723022 5.3489999771 49.626998901 9.2399997711 9.2399997711
 3800.6242676 6.0000000000 8.9460000992 0.0370000005 0.1994599849 2.6667623520 91.390998840 81.434028625 5.1519999504 49.555000305 9.0850000381 9.0850000381
 3800.7492676 6.0000000000 8.9460000992 0.0379999988 0.1988299936 2.6764612198 95.000999451 80.027427673 4.9510002136 49.522998810 8.6940002441 8.6940002441
 3800.8742676 6.0000000000 8.9469995499 0.0329999998 0.2010000050 2.6775236130 99.115997314 78.762771606 4.7670001984 49.529998779 8.1149997711 8.1149997711
 3800.9992676 6.0000000000 8.9510002136 0.0289999992 0.2055200040 2.6777691841 102.15699768 77.855514526 4.6059999466 49.618999481 7.4580001831 7.4580001831
 3801.1242676 6.0000000000 8.9569997787 0.0309999995 0.2100799978 2.6844050884 102.61000061 77.308105469 4.4670000076 49.808998108 6.8699998856 6.8699998856
 3801.2492676 6.0000000000 8.9659996033 0.0340000018 0.2123500109 2.6927075386 99.674003601 76.992599487 4.3509998322 50.062999725 6.4910001755 6.4910001755
 3801.3742676 6.0000000000 8.9750003815 0.0340000018 0.2121500075 2.6977434158 94.990997314 76.852325439 4.2529997826 50.270999908 6.3080000877 6.3080000877
 3801.4990234 6.0000000000 8.9860000610 0.0299999993 0.2116400003 2.6955490112 90.360000610 76.850616455 4.1739997864 50.360000610 6.2709999084 6.2709999084
 3801.6240234 6.0000000000 8.9949998856 0.0199999996 0.2128199935 2.6842441559 87.571998596 76.974319458 4.1180000305 50.316001892 6.2969999313 6.2969999313
 3801.7490234 6.0000000000 9.0039997101 0.0070000002 0.2154400051 2.6649115086 88.222999573 77.211654663 4.0920000076 50.189998627 6.3090000153 6.3090000153
 3801.8742676 6.0000000000 9.0109996796 -0.007000000 0.2176499963 2.6458294392 91.475997925 77.483283997 4.0879998207 50.074001312 6.3029999733 6.3029999733
 3801.9992676 6.0000000000 9.0179996490 -0.016000001 0.2184199840 2.6321187019 96.069999695 77.747657776 4.1009998322 50.025001526 6.3169999123 6.3169999123
 3802.1237793 6.0000000000 9.0240001678 -0.013000000 0.2189299911 2.6276822090 100.52999878 77.981529236 4.1259999275 50.069999695 6.3850002289 6.3850002289
 3802.2487793 7.0000000000 9.0299997330 0.0000000000 0.2214200050 2.6343116760 103.40100098 78.187171936 4.1640000343 50.191001892 6.5000000000 6.5000000000
 3802.3740234 7.0000000000 9.0349998474 0.0160000008 0.2266099900 2.6489450932 104.72000122 78.421234131 4.2129998207 50.299999237 6.6079998016 6.6079998016
 3802.4985352 7.0000000000 9.0399999619 0.0250000004 0.2335299999 2.6594474316 105.21700287 78.816558838 4.2769999504 50.326999664 6.6830000877 6.6830000877
 3802.6235352 7.0000000000 9.0450000763 0.0240000002 0.2398499995 2.6637563705 105.55300140 79.403182983 4.3550000191 50.249000549 6.7360000610 6.7360000610
 3802.7487793 7.0000000000 9.0500001907 0.0199999996 0.2413999885 2.6644108295 105.58599854 80.148880005 4.4479999542 50.106998444 6.8220000267 6.8220000267
 3802.8737793 6.0000000000 9.0570001602 0.0209999997 0.2372800112 2.6651315689 104.99900055 80.977172852 4.5500001907 49.986000061 6.9840002060 6.9840002060
 3802.9987793 6.0000000000 9.0649995804 0.0270000007 0.2308699936 2.6694552898 103.65799713 81.786926270 4.6570000648 49.937000275 7.2430000305 7.2430000305
 3803.1237793 6.0000000000 9.0740003586 0.0340000018 0.2254400104 2.6766757965 101.56099701 82.491264343 4.7620000839 49.955001831 7.6040000916 7.6040000916
 3803.2487793 6.0000000000 9.0830001831 0.0379999988 0.2215700001 2.6811296940 99.040000916 83.096595764 4.8540000916 49.992000580 8.0360002518 8.0360002518
 3803.3735352 6.0000000000 9.0909996033 0.0350000001 0.2181600034 2.6810762882 96.600997925 83.612472534 4.9279999733 50.000000000 8.4160003662 8.4160003662
 3803.4985352 6.0000000000 9.0970001221 0.0260000005 0.2138299942 2.6763241291 94.472000122 84.037033081 4.9819998741 49.963001251 8.5830001831 8.5830001831
 3803.6235352 6.0000000000 9.1009998322 0.0120000001 0.2082799971 2.6680483818 92.842002869 84.362609863 5.0180001259 49.893001556 8.4340000153 8.4340000153
