# LAS format log file from PETREL
# Project units are specified as depth units
#==================================================================
~Version information
VERS.   2.0:
WRAP.   NO:
#==================================================================
~Well
STRT .m      2773.3432617 :
STOP .m      3341.0317383 :
STEP .m     0.00000000 :
NULL .        -999.250000 :
COMP.           : COMPANY
WELL.  30/6-22   : WELL
FLD.            : FIELD
LOC.            : LOCATION
SRVC.           : SERVICE COMPANY
DATE.  2018-09-11 14:48:30   : Log Export Date {yyyy-MM-dd HH:mm:ss}
PROV.           : PROVINCE
UWI.   30/6-22   : UNIQUE WELL ID
API.            : API NUMBER
#==================================================================
~Curve
DEPT .m                   : DEPTH
Lithology_geolink ._      : Lithology_geolink
CALI .in                  : CALI
DRHO .g/cm3               : DRHO
NPHI .m3/m3               : NPHI
RHOB .g/cm3               : RHOB
GR .gAPI                  : GR
DTC .us/ft                : DTC
DTE .us/ft                : DTE
RDEP .ohm.m               : RDEP
SP .mV                    : SP
RSHA .ohm.m               : RSHA
RMED .ohm.m               : RMED
~Parameter
#==================================================================
~Ascii
# ...
 2926.9621582 1.0000000000 8.3590002060 -0.001000000 0.2028599977 2.2679998875 40.184619904 87.415542603 87.465560913 3.5550560951  -999.250000 2.6092483997 2.6092483997
 2927.1145020 1.0000000000 8.3590002060 0.0010000000 0.2003000081 2.2730000019 39.887920380 87.311561584 87.303985596 3.5616960526  -999.250000 2.6404080391 2.6404080391
 2927.2668457 1.0000000000 8.3590002060 0.0030000000 0.2037100047 2.2790000439 39.634662628 87.293403625 87.027160645 3.5236089230  -999.250000 2.6910512447 2.6910512447
 2927.4194336 1.0000000000 8.3590002060 0.0040000002 0.2008399963 2.2809998989 40.362415314 86.999000549 87.052345276 3.4627997875  -999.250000 2.6985912323 2.6985912323
 2927.5717773 1.0000000000 8.3590002060 0.0060000001 0.1939399838 2.2850000858 41.050342560 86.834251404 87.116790771 3.4381601810  -999.250000 2.6476073265 2.6476073265
 2927.7241211 1.0000000000 8.3590002060 0.0060000001 0.1823900044 2.2809998989 43.202400208 86.401222229 86.541122437 3.4582083225  -999.250000 2.5988237858 2.5988237858
 2927.8764648 1.0000000000 8.3590002060 0.0030000000 0.1726399958 2.2809998989 43.867855072 85.628456116 85.573913574 3.4840319157  -999.250000 2.5771279335 2.5771279335
 2928.0290527 1.0000000000 8.3590002060 0.0030000000 0.1700699925 2.3010001183 43.479660034 84.987121582 84.733924866 3.4880559444  -999.250000 2.5935287476 2.5935287476
 2928.1813965 1.0000000000 8.3590002060 0.0020000001 0.1790900081 2.3299999237 43.696666718 84.194145203 84.297027588 3.4951441288  -999.250000 2.6598572731 2.6598572731
 2928.3337402 1.0000000000 8.3590002060 0.0040000002 0.1844199896 2.3459999561 45.156383514 83.971778870 83.867828369 3.5130720139  -999.250000 2.7665848732 2.7665848732
 2928.4860840 1.0000000000 8.3590002060 0.0040000002 0.1832699925 2.3350000381 47.041919708 83.539222717 83.667533875 3.5219039917  -999.250000 2.8392879963 2.8392879963
 2928.6386719 1.0000000000 8.3590002060 0.0020000001 0.1795000136 2.3069999218 44.668251038 83.893150330 83.696403503 3.5098557472  -999.250000 2.8748958111 2.8748958111
 2928.7910156 1.0000000000 8.3590002060 0.0040000002 0.1837400049 2.3090000153 43.728141785 83.954307556 84.233940125 3.4917275906  -999.250000 2.8615672588 2.8615672588
 2928.9433594 1.0000000000 8.3590002060 0.0049999999 0.1963099986 2.3069999218 46.100402832 85.321365356 85.287002563 3.4574069977  -999.250000 2.8074553013 2.8074553013
 2929.0957031 1.0000000000 8.3590002060 0.0030000000 0.2024500072 2.3029999733 46.384925842 86.113227844 86.164932251 3.3833119869  -999.250000 2.7391281128 2.7391281128
 2929.2480469 1.0000000000 8.3590002060 0.0010000000 0.2050099969 2.2850000858 44.749595642 87.273536682 87.290771484 3.2974617481  -999.250000 2.6302821636 2.6302821636
 2929.4006348 1.0000000000 8.3590002060 0.0010000000 0.2044100016 2.2750000954 42.521324158 88.266586304 88.236083984 3.2135593891  -999.250000 2.5184230804 2.5184230804
 2929.5529785 1.0000000000 8.3590002060 0.0020000001 0.1986899972 2.2679998875 43.068058014 89.097343445 88.996360779 3.1588957310  -999.250000 2.4470400810 2.4470400810
 2929.7053223 1.0000000000 8.3590002060 -0.002000000 0.2039600015 2.2609999180 44.434913635 89.201499939 89.042778015 3.1459197998  -999.250000 2.4522240162 2.4522240162
 2929.8576660 1.0000000000 8.3590002060 -0.001000000 0.2018899918 2.2620000839 44.169349670 88.078773499 88.329963684 3.1359741688  -999.250000 2.4803140163 2.4803140163
 2930.0102539 1.0000000000 8.3590002060 -0.004000000 0.2046200037 2.2630000114 43.131885529 88.204307556 88.119911194 3.1322162151  -999.250000 2.5299134254 2.5299134254
 2930.1625977 1.0000000000 8.3590002060 -0.004000000 0.1974900067 2.2760000229 42.257961273 87.954383850 88.064491272 3.1594727039  -999.250000 2.6441938877 2.6441938877
 2930.3149414 1.0000000000 8.3590002060 -0.007000000 0.1884099990 2.2760000229 43.129268646 87.788658142 87.903495789 3.2186648846  -999.250000 2.7926170826 2.7926170826
 2930.4672852 1.0000000000 8.3590002060 -0.005000000 0.1861899942 2.2890000343 44.301551819 87.770401001 87.519012451 3.3023281097  -999.250000 2.8690159321 2.8690159321
 2930.6198730 1.0000000000 8.3590002060 -0.007000000 0.1803199947 2.2939999104 47.368396759 87.060150146 86.953964233 3.4686987400  -999.250000 2.8711843491 2.8711843491
 2930.7722168 1.0000000000 8.3590002060 -0.006000000 0.1843400002 2.3069999218 50.133995056 86.418411255 86.355720520 3.6808748245  -999.250000 2.8948254585 2.8948254585
 2930.9245605 1.0000000000 8.3590002060 -0.008000000 0.1836699992 2.2990000248 49.244071960 85.627151489 85.863914490 3.9159567356  -999.250000 2.9992194176 2.9992194176
 2931.0769043 1.0000000000 8.3590002060 -0.009000000 0.1886300147 2.2850000858 46.369621277 85.284172058 85.133827209 4.2856559753  -999.250000 3.2765278816 3.2765278816
 2931.2292480 1.0000000000 8.3590002060 -0.009000000 0.1791099906 2.2809998989 41.845611572 83.408065796 83.679222107 4.7415509224  -999.250000 3.5910062790 3.5910062790
 2931.3818359 1.0000000000 8.3590002060 -0.008000000 0.1544900090 2.3090000153 39.749729156 82.716957092 82.597373962 5.1396441460  -999.250000 3.7493798733 3.7493798733
 2931.5341797 1.0000000000 8.3590002060 -0.003000000 0.1290799975 2.3650000095 37.204456329 81.292655945 81.190208435 5.4683704376  -999.250000 4.0494728088 4.0494728088
 2931.6865234 1.0000000000 8.3590002060 0.0020000001 0.1196800023 2.4100000858 32.799377441 78.601119995 78.698516846 5.6371679306  -999.250000 4.7329683304 4.7329683304
 2931.8388672 1.0000000000 8.3590002060 0.0040000002 0.1320299953 2.4230000973 32.236480713 78.230201721 78.172241211 5.5330705643  -999.250000 5.4724936485 5.4724936485
 2931.9914551 1.0000000000 8.3590002060 0.0030000000 0.1431699991 2.3929998875 33.897956848 78.756156921 78.817398071 5.3894486427  -999.250000 5.3874855042 5.3874855042
 2932.1437988 1.0000000000 8.3590002060 0.0030000000 0.1490699947 2.3729999065 38.509178162 79.139228821 79.064506531 5.4454808235  -999.250000 4.5765686035 4.5765686035
 2932.2961426 1.0000000000 8.3590002060 0.0020000001 0.1402799934 2.3750000000 43.030315399 79.710700989 79.469444275 5.5047197342  -999.250000 4.0275111198 4.0275111198
 2932.4484863 1.0000000000 8.3590002060 0.0020000001 0.1358100027 2.4079999924 48.288681030 78.737991333 78.636123657 5.4692797661  -999.250000 3.9697360992 3.9697360992
 2932.6010742 1.0000000000 8.3590002060 0.0000000000 0.1225199997 2.4330000877 50.707668304 76.718528748 76.876358032 5.3790946007  -999.250000 4.3144488335 4.3144488335
 2932.7534180 1.0000000000 8.3590002060 -0.002000000 0.1156599969 2.4319999218 48.024078369 75.921958923 75.903747559 5.2667756081  -999.250000 4.9938316345 4.9938316345
 2932.9057617 1.0000000000 8.3590002060 -0.004000000 0.1077499986 2.4130001068 42.692642212 75.534736633 75.622589111 5.2391438484  -999.250000 5.5921683311 5.5921683311
 2933.0581055 1.0000000000 8.3590002060 -0.004000000 0.1119299978 2.3989999294 40.549015045 75.693382263 75.710250854 5.2564401627  -999.250000 5.6096796989 5.6096796989
 2933.2104492 1.0000000000 8.3590002060 -0.005000000 0.1182600036 2.3849999905 41.146347046 76.766815186 76.841552734 5.1857242584  -999.250000 5.1947116852 5.1947116852
 2933.3630371 1.0000000000 8.3590002060 0.0000000000 0.1238300055 2.3770000935 37.330867767 78.588493347 78.495079041 4.9852995872  -999.250000 4.6810655594 4.6810655594
 2933.5153809 1.0000000000 8.3590002060 0.0000000000 0.1382499933 2.3550000191 38.090805054 80.386772156 80.610824585 4.6478590965  -999.250000 4.1895766258 4.1895766258
 2933.6677246 1.0000000000 8.3590002060 0.0000000000 0.1562400013 2.3299999237 42.285713196 82.691184998 82.623634338 4.2566080093  -999.250000 3.6376638412 3.6376638412
 2933.8200684 1.0000000000 8.3590002060 0.0020000001 0.1747300029 2.3050000668 43.503410339 83.830467224 83.583786011 3.9587244987  -999.250000 3.0978331566 3.0978331566
 2933.9726563 1.0000000000 8.3590002060 0.0010000000 0.1796599925 2.2950000763 45.573417664 84.071823120 84.070259094 3.7595174313  -999.250000 2.7609424591 2.7609424591
 2934.1250000 1.0000000000 8.3590002060 0.0020000001 0.1707500070 2.3059999943 44.503551483 84.505561829 84.471893311 3.5745415688  -999.250000 2.6306490898 2.6306490898
