# LAS format log file from PETREL
# Project units are specified as depth units
#==================================================================
~Version information
VERS.   2.0:
WRAP.   NO:
#==================================================================
~Well
STRT .m      581.07043457 :
STOP .m      2909.8947754 :
STEP .m     0.00000000 :
NULL .        -999.250000 :
COMP.           : COMPANY
WELL.  30/6-14   : WELL
FLD.            : FIELD
LOC.            : LOCATION
SRVC.           : SERVICE COMPANY
DATE.  2018-09-11 14:48:30   : Log Export Date {yyyy-MM-dd HH:mm:ss}
PROV.           : PROVINCE
UWI.   30/6-14   : UNIQUE WELL ID
API.            : API NUMBER
#==================================================================
~Curve
DEPT .m                   : DEPTH
Lithology_geolink ._      : Lithology_geolink
CALI .in                  : CALI
DRHO .g/cm3               : DRHO
NPHI .m3/m3               : NPHI
RHOB .g/cm3               : RHOB
GR .gAPI                  : GR
DTC .us/ft                : DTC
RDEP .ohm.m               : RDEP
SP .mV                    : SP
RSHA .ohm.m               : RSHA
RMED .ohm.m               : RMED
~Parameter
#==================================================================
~Ascii
# ...
 2594.1220703 5.0000000000 12.906000137 -0.009000000 0.2592799962 2.5350000858 118.61989594 84.626205444 3.3999342918 60.508625031 5.7826151848 4.3751249313
 2594.2744141 5.0000000000 12.906000137 -0.009000000 0.2631800175 2.5409998894 113.00901794 83.626602173 3.4139776230 61.273773193 6.1193842888 4.4378991127
 2594.4267578 6.0000000000 12.906000137 -0.008000000 0.2748999894 2.5659999847 115.37119293 83.250602722 3.4279775620 61.041374207 6.3038220406 4.7065687180
 2594.5791016 6.0000000000 12.906000137 -0.016000001 0.2748999894 2.5880000591 113.50599670 83.250000000 3.3542368412 60.994148254 8.0119867325 4.9721488953
 2594.7316895 6.0000000000 12.906000137 -0.016000001 0.2773399949 2.6150000095 115.12239838 83.874000549 3.3360288143 60.728427887 7.0706009865 5.0079436302
 2594.8840332 6.0000000000 12.906000137 -0.020000000 0.2714799941 2.5899999142 112.00500488 84.374206543 3.3359999657 61.243171692 6.3434906006 4.7773699760
 2595.0363770 6.0000000000 12.906000137 -0.015000000 0.2641600072 2.5610001087 108.19411469 84.499801636 3.3909118176 61.461650848 4.9112033844 4.4804759026
 2595.1887207 6.0000000000 12.906000137 -0.018999999 0.2460899949 2.5250000954 112.18159485 84.250396729 3.3929967880 60.978775024 5.6829619408 4.3162627220
 2595.3410645 6.0000000000 12.906000137 -0.017000001 0.2329100072 2.5250000954 114.43080139 84.997596741 3.4019711018 60.993949890 6.0566220284 4.3588624001
 2595.4936523 6.0000000000 12.897998810 -0.017000001 0.2338899970 2.5209999084 125.29557800 86.372795105 3.4019999504 61.258575439 6.0898509026 4.3789682388
 2595.6459961 6.0000000000 12.906000137 -0.016000001 0.2539100051 2.5590000153 124.18980408 82.755805969 3.3770401478 60.791751862 6.4586257935 4.4299182892
 2595.7983398 6.0000000000 12.897998810 -0.028999999 0.2695299983 2.6019999981 119.69521332 82.874801636 3.4199311733 60.026229858 8.0209360123 4.6875867844
 2595.9506836 6.0000000000 12.883000374 -0.026000001 0.2827099860 2.6779999733 112.64759827 82.750396729 3.4568815231 60.756649017 8.8924417496 5.0767521858
 2596.1032715 6.0000000000 12.906000137 -0.025000000 0.2876000106 2.6429998875 110.31671143 83.124404907 3.4709775448 60.993621826 7.0250477791 5.1908187866
 2596.2556152 6.0000000000 12.906000137 -0.012000000 0.2773399949 2.6019999981 108.87730408 86.868995667 3.5079405308 60.728427887 6.8677163124 5.0552177429
 2596.4079590 5.0000000000 12.906000137 -0.014000000 0.2729499936 2.5450000763 107.25260162 86.999801636 3.5000128746 59.979202271 6.6384720802 4.8952565193
 2596.5603027 5.0000000000 12.906000137 -0.017000001 0.2612299919 2.5429999828 108.75000000 86.000000000 3.4470000267 59.993999481 6.3031539917 4.7769999504
 2596.7128906 5.0000000000 12.906000137 -0.020000000 0.2719700038 2.5369999409 114.81300354 86.250000000 3.3750000000 60.275001526 6.5378556252 4.6209998131
 2596.8652344 5.0000000000 12.906000137 -0.020000000 0.2690399885 2.5329999924 122.12500000 86.625000000 3.3090000153 60.508998871 6.3210530281 4.4689998627
 2597.0175781 5.0000000000 12.906000137 -0.021000000 0.2788099945 2.5290000439 128.00000000 86.875007629 3.2460000515 60.978000641 6.2275953293 4.3709998131
 2597.1699219 5.0000000000 12.906000137 -0.017000001 0.2939499915 2.5290000439 133.75000000 86.875007629 3.1989998817 61.243999481 6.2419037819 4.3790001869
 2597.3222656 6.0000000000 12.906000137 -0.016000001 0.3027299941 2.5329999924 136.37500000 86.125000000 3.1700000763 61.962001801 6.6453971863 4.5159997940
 2597.4748535 6.0000000000 12.906000137 -0.015000000 0.3085899949 2.5369999409 132.00000000 85.750000000 3.1740000248 62.743999481 6.5355429649 4.6370000839
 2597.6271973 6.0000000000 12.906000137 -0.017000001 0.2876000106 2.5350000858 128.12500000 84.750000000 3.1909999847 63.211997986 6.8569264412 4.6519999504
 2597.7795410 6.0000000000 12.906000137 -0.012000000 0.2880899906 2.5759999752 123.12500000 82.500000000 3.2339999676 62.993995667 6.1923012733 4.4689998627
 2597.9318848 6.0000000000 12.906000137 -0.017000001 0.2744100094 2.6679999828 115.37500000 78.750000000 3.2479999065 63.993999481 4.6548910141 4.4060001373
 2598.0844727 6.0000000000 12.906000137 -0.028000001 0.2607399821 2.7869999409 103.18800354 76.000000000 3.2300000191 64.775001526 8.3958797455 4.7300000191
 2598.2368164 6.0000000000 12.906000137 -0.032000002 0.2353499979 2.8159999847 97.688003540 78.125007629 3.2400000095 63.993999481 6.9931521416 5.2150001526
 2598.3891602 5.0000000000 12.906000137 -0.028000001 0.2382799983 2.6800000668 99.125000000 81.500000000 3.3069999218 63.993999481 3.6137435436 4.8629999161
 2598.5415039 5.0000000000 12.906000137 -0.017000001 0.2607399821 2.5490000248 105.18800354 86.125000000 3.4360001087 64.744003296 3.5393397808 4.1449999809
 2598.6940918 5.0000000000 12.906000137 -0.016000001 0.2763699889 2.4709999561 109.87500000 83.875000000 3.6449999809 63.775001526 4.4500660896 3.8239998817
 2598.8464355 5.0000000000 12.906000137 -0.017999999 0.2622100115 2.4590001106 109.50000000 82.750000000 3.7070000172 63.775001526 5.5125927925 4.2270002365
 2598.9987793 6.0000000000 12.897998810 -0.014000000 0.2568399906 2.4800000191 107.50000000 82.000000000 3.7579998970 63.524997711 7.5713911057 5.0859999657
 2599.1511230 6.0000000000 12.906000137 -0.009000000 0.2583000064 2.5039999485 101.87500000 82.000000000 3.8440001011 63.805995941 8.3870973587 5.7500000000
 2599.3034668 6.0000000000 12.897998810 -0.009000000 0.2612299919 2.5179998875 100.75000000 81.875007629 3.9920001030 63.055999756 8.3133745193 6.1519999504
 2599.4560547 5.0000000000 12.875000000 -0.011000000 0.2578099966 2.5269999504 94.875000000 81.749992371 4.1329998970 62.087001801 8.0010032654 6.3090000153
 2599.6083984 5.0000000000 12.828000069 -0.016000001 0.2534199953 2.5269999504 90.188003540 81.625000000 4.3049998283 63.305995941 7.7627630234 6.2379999161
 2599.7607422 5.0000000000 12.812999725 -0.016000001 0.2636699975 2.5290000439 91.813003540 81.875007629 4.4800000191 63.555999756 7.2176256180 6.0430002213
 2599.9130859 5.0000000000 12.812999725 -0.016000001 0.2617200017 2.5269999504 93.688003540 81.749992371 4.5269999504 63.555999756 7.2418704033 5.9340000153
 2600.0656738 5.0000000000 12.812999725 -0.011000000 0.2641600072 2.5329999924 100.75000000 82.000000000 4.5120000839 64.244003296 8.2308206558 5.9800000191
 2600.2180176 5.0000000000 12.812999725 -0.014000000 0.2578099966 2.5290000439 104.37500000 82.125000000 4.5040001869 64.775001526 7.6857628822 6.0739998817
 2600.3703613 5.0000000000 12.812999725 -0.014000000 0.2661100030 2.5329999924 113.56300354 81.875007629 4.4920001030 65.555999756 8.0761089325 6.1290001869
 2600.5227051 6.0000000000 12.812999725 -0.016000001 0.2641600072 2.5329999924 113.12500000 81.749992371 4.5549998283 66.086997986 7.3863410950 6.1409997940
 2600.6752930 6.0000000000 12.812999725 -0.015000000 0.2729499936 2.5390000343 109.93800354 81.875007629 4.6479997635 65.805999756 8.3718204498 6.1880002022
 2600.8276367 6.0000000000 12.812999725 -0.012000000 0.2670899928 2.5469999313 102.12500000 82.625000000 4.6840000153 66.055999756 8.5225257874 6.3010001183
 2600.9799805 6.0000000000 12.812999725 -0.012000000 0.2690399885 2.5490000248 99.750000000 82.125000000 4.7150001526 66.055999756 8.7721986771 6.4530000687
 2601.1323242 5.0000000000 12.812999725 -0.007000000 0.2778300047 2.5510001183 103.37500000 82.500000000 4.7579998970 66.805999756 9.6288719177 6.5430002213
 2601.2846680 5.0000000000 12.812999725 -0.011000000 0.2905299962 2.5429999828 108.81300354 82.750000000 4.7699999809 66.775001526 9.6170768738 6.6449999809
 2601.4372559 5.0000000000 12.812999725 -0.016000001 0.2944300175 2.5350000858 109.87500000 82.999992371 4.7810001373 66.025001526 9.6877717972 6.6909999847
 2601.5895996 5.0000000000 12.812999725 -0.017999999 0.2929700017 2.5329999924 104.87500000 82.500000000 4.7699999809 66.775001526 9.4069042206 6.7500000000
 2601.7419434 6.0000000000 12.812999725 -0.014000000 0.2963899970 2.5350000858 106.62500000 82.000000000 4.8319997787 66.275001526 9.5075111389 6.7849998474
