# LAS format log file from PETREL
# Project units are specified as depth units
#==================================================================
~Version information
VERS.   2.0:
WRAP.   NO:
#==================================================================
~Well
STRT .m      2773.3432617 :
STOP .m      3341.0317383 :
STEP .m     0.00000000 :
NULL .        -999.250000 :
COMP.           : COMPANY
WELL.  30/6-22   : WELL
FLD.            : FIELD
LOC.            : LOCATION
SRVC.           : SERVICE COMPANY
DATE.  2018-09-11 14:48:30   : Log Export Date {yyyy-MM-dd HH:mm:ss}
PROV.           : PROVINCE
UWI.   30/6-22   : UNIQUE WELL ID
API.            : API NUMBER
#==================================================================
~Curve
DEPT .m                   : DEPTH
Lithology_geolink ._      : Lithology_geolink
CALI .in                  : CALI
DRHO .g/cm3               : DRHO
NPHI .m3/m3               : NPHI
RHOB .g/cm3               : RHOB
GR .gAPI                  : GR
DTC .us/ft                : DTC
DTE .us/ft                : DTE
RDEP .ohm.m               : RDEP
SP .mV                    : SP
RSHA .ohm.m               : RSHA
RMED .ohm.m               : RMED
~Parameter
#==================================================================
~Ascii
# ...
 2809.9189453 6.0000000000 8.5699996948 -0.005000000 0.3179299831 2.5820000172 94.390098572 84.044525146 83.873992920 5.6339440346  -999.250000 7.2682642937 7.2682642937
 2810.0715332 6.0000000000 8.5699996948 -0.009000000 0.3268500268 2.5810000896 95.019142151 83.971588135 84.244499207 5.5025749207  -999.250000 7.3006396294 7.3006396294
 2810.2238770 6.0000000000 8.5699996948 -0.008000000 0.2959100008 2.5850000381 94.664154053 84.370147705 84.360809326 5.4497995377  -999.250000 7.2556633949 7.2556633949
 2810.3762207 6.0000000000 8.5909996033 -0.012000000 0.2950800061 2.5769999027 94.557205200 84.549430847 84.298515320 5.4247999191  -999.250000 7.2134232521 7.2134232521
 2810.5285645 6.0000000000 8.6169996262 -0.011000000 0.3102899790 2.5610001087 94.355255127 84.566802979 84.744773865 5.3997201920  -999.250000 7.1407761574 7.1407761574
 2810.6809082 6.0000000000 8.6300001144 -0.008000000 0.3268999755 2.5569999218 96.898796082 85.694221497 85.458045959 5.3645896912  -999.250000 6.9877433777 6.9877433777
 2810.8334961 6.0000000000 8.6540002823 -0.006000000 0.3468500078 2.5590000153 101.82256317 85.982528687 86.203872681 5.3003911972  -999.250000 6.7923431396 6.7923431396
 2810.9858398 6.0000000000 8.6850004196 -0.008000000 0.3437200189 2.5590000153 101.12789154 86.833206177 86.848716736 5.2245674133  -999.250000 6.7113046646 6.7113046646
 2811.1381836 6.0000000000 8.7060003281 -0.005000000 0.3380500078 2.5529999733 98.516609192 86.955703735 86.897384644 5.1706719398  -999.250000 6.7491922379 6.7491922379
 2811.2905273 6.0000000000 8.7110004425 -0.010000000 0.3393000066 2.5529999733 98.843475342 86.834472656 86.829681396 5.1295962334  -999.250000 6.7728009224 6.7728009224
 2811.4431152 6.0000000000 8.7320003510 -0.014000000 0.3345600069 2.5580000877 99.378120422 87.354385376 87.413299561 5.0663266182  -999.250000 6.7406058311 6.7406058311
 2811.5954590 6.0000000000 8.7889995575 -0.014000000 0.3384099901 2.5750000477 98.784339905 88.266586304 88.012863159 4.9825272560  -999.250000 6.5658283234 6.5658283234
 2811.7478027 6.0000000000 8.8389997482 -0.014000000 0.3348399997 2.5680000782 100.04378510 88.389099121 88.368820190 4.9238557816  -999.250000 6.2953653336 6.2953653336
 2811.9001465 6.0000000000 8.8520002365 -0.017000001 0.3419499993 2.5599999428 97.541717529 88.389099121 88.563667297 4.9059600830  -999.250000 6.0922317505 6.0922317505
 2812.0527344 6.0000000000 8.8620004654 -0.018999999 0.3392800093 2.5390000343 97.654655457 88.681503296 88.526168823 4.9009599686  -999.250000 5.9968719482 5.9968719482
 2812.2050781 6.0000000000 8.8959999084 -0.016000001 0.3329899907 2.5360000134 100.57769012 88.015548706 88.206504822 4.8959116936  -999.250000 5.9818811417 5.9818811417
 2812.3574219 6.0000000000 8.9440002441 -0.011000000 0.3388099968 2.5429999828 99.782539368 87.911293030 87.833702087 4.8848719597  -999.250000 6.0930995941 6.0930995941
 2812.5097656 6.0000000000 8.9820003510 -0.008000000 0.3487499952 2.5539999008 98.005004883 87.495422363 87.715011597 4.8689041138  -999.250000 6.3545680046 6.3545680046
 2812.6621094 6.0000000000 8.9969997406 -0.007000000 0.3418799937 2.5659999847 99.509132385 87.726669312 87.772544861 4.8570060730  -999.250000 6.5492434502 6.5492434502
 2812.8146973 6.0000000000 9.0000000000 -0.009000000 0.3246999979 2.5620000362 101.83996582 87.893226624 87.805015564 4.8580880165  -999.250000 6.5867915154 6.5867915154
 2812.9670410 6.0000000000 9.0000000000 -0.012000000 0.3204199970 2.5569999218 100.11056519 87.911293030 87.685638428 4.8691120148  -999.250000 6.5600304604 6.5600304604
 2813.1193848 6.0000000000 9.0000000000 -0.014000000 0.3426499963 2.5490000248 101.04311371 87.495422363 87.612678528 4.8830718994  -999.250000 6.4382162094 6.4382162094
 2813.2717285 6.0000000000 8.9899997711 -0.020000000 0.3556399941 2.5320000648 100.44355774 87.726669312 87.456657410 4.8918013573  -999.250000 6.2163462639 6.2163462639
 2813.4243164 6.0000000000 8.9790000916 -0.017999999 0.3528699875 2.5420000553 101.32852173 87.060150146 87.245422363 4.8604311943  -999.250000 6.1161055565 6.1161055565
 2813.5766602 6.0000000000 8.9639997482 -0.016000001 0.3150199950 2.5450000763 104.22814941 87.372245789 87.166160583 4.7894949913  -999.250000 6.2542338371 6.2542338371
 2813.7290039 6.0000000000 8.9130001068 -0.011000000 0.3142900169 2.5629999638 102.75445557 87.017623901 87.219444275 4.7266077995  -999.250000 6.4072566032 6.4072566032
 2813.8813477 6.0000000000 8.8649997711 -0.010000000 0.3226499856 2.5590000153 101.95227814 87.371482849 87.509925842 4.6776399612  -999.250000 6.4383120537 6.4383120537
 2814.0339355 6.0000000000 8.8520002365 -0.008000000 0.3329299986 2.5720000267 102.98766327 88.143051147 87.897041321 4.6326074600  -999.250000 6.3508205414 6.3508205414
 2814.1862793 6.0000000000 8.8310003281 -0.009000000 0.3147299886 2.5729999542 104.06273651 88.370933533 88.548553467 4.5834794044  -999.250000 6.0783634186 6.0783634186
 2814.3386230 6.0000000000 8.7760000229 -0.008000000 0.3111400008 2.5759999752 104.26805115 89.347373962 89.244010925 4.5184149742  -999.250000 5.7507500648 5.7507500648
 2814.4909668 6.0000000000 8.7279996872 -0.009000000 0.3211899996 2.5650000572 103.03986359 89.363311768 89.578575134 4.4455842972  -999.250000 5.5957202911 5.5957202911
 2814.6433105 6.0000000000 8.7119998932 -0.010000000 0.3401100039 2.5580000877 103.52761841 89.635169983 89.548530579 4.3937244415  -999.250000 5.5609869957 5.5609869957
 2814.7958984 6.0000000000 8.7110004425 -0.009000000 0.3447700143 2.5499999523 104.87866974 89.387496948 89.375045776 4.3505673409  -999.250000 5.5591440201 5.5591440201
 2814.9482422 6.0000000000 8.7110004425 -0.007000000 0.3476900160 2.5529999733 106.70618439 89.344703674 89.288925171 4.2968316078  -999.250000 5.5769762993 5.5769762993
 2815.1005859 6.0000000000 8.6979999542 -0.008000000 0.3340499997 2.5569999218 108.05342102 88.928817749 89.199806213 4.2762398720  -999.250000 5.5730638504 5.5730638504
 2815.2529297 6.0000000000 8.6599998474 -0.005000000 0.3356600106 2.5610001087 103.36441803 89.158065796 89.249160767 4.3062248230  -999.250000 5.4563264847 5.4563264847
 2815.4055176 6.0000000000 8.6110000610 -0.005000000 0.3320699930 2.5559999943 98.937767029 89.326347351 89.240165710 4.3411440849  -999.250000 5.3524007797 5.3524007797
 2815.5578613 6.0000000000 8.5780000687 -0.003000000 0.3292199969 2.5520000458 99.403030396 89.635704041 89.331390381 4.3590164185  -999.250000 5.4031057358 5.4031057358
 2815.7102051 6.0000000000 8.5699996948 0.0000000000 0.3310300112 2.5559999943 99.279785156 89.387962341 89.417701721 4.3609437943  -999.250000 5.5417628288 5.5417628288
 2815.8625488 6.0000000000 8.5699996948 0.0020000001 0.3275999725 2.5650000572 98.896423340 89.760391235 89.817909241 4.3539042473  -999.250000 5.7611923218 5.7611923218
 2816.0151367 6.0000000000 8.5699996948 0.0030000000 0.3440800011 2.5599999428 100.71435547 90.112800598 90.326896667 4.3417835236  -999.250000 5.9086151123 5.9086151123
 2816.1674805 6.0000000000 8.5699996948 0.0000000000 0.3335500062 2.5460000038 104.45909119 90.698188782 90.597808838 4.3145432472  -999.250000 5.8598942757 5.8598942757
 2816.3198242 6.0000000000 8.5699996948 -0.004000000 0.3495700061 2.5350000858 102.74750519 90.361457825 90.650825500 4.2573990822  -999.250000 5.7219424248 5.7219424248
 2816.4721680 6.0000000000 8.5699996948 -0.009000000 0.3468600214 2.5269999504 104.06119537 90.716079712 90.502922058 4.1824002266  -999.250000 5.5897922516 5.5897922516
 2816.6245117 6.0000000000 8.5699996948 -0.007000000 0.3611199856 2.5369999409 105.68603516 90.362220764 90.406867981 4.1074805260  -999.250000 5.4385576248 5.4385576248
 2816.7770996 6.0000000000 8.5729999542 -0.008000000 0.3418999910 2.5309998989 103.84578705 90.300201416 90.514900208 4.0261507034  -999.250000 5.2131810188 5.2131810188
 2816.9294434 6.0000000000 8.6210002899 -0.010000000 0.3420000076 2.5390000343 105.57496643 91.133285522 90.947898865 3.9202067852  -999.250000 4.9870944023 4.9870944023
 2817.0817871 6.0000000000 8.7329998016 -0.006000000 0.3176899850 2.5409998894 108.29079437 91.255798340 91.484329224 3.8215761185  -999.250000 4.8744640350 4.8744640350
