# LAS format log file from PETREL
# Project units are specified as depth units
#==================================================================
~Version information
VERS.   2.0:
WRAP.   NO:
#==================================================================
~Well
STRT .m      933.99749756 :
STOP .m      3610.7521973 :
STEP .m     0.00000000 :
NULL .        -999.250000 :
COMP.           : COMPANY
WELL.  30/6-8   : WELL
FLD.            : FIELD
LOC.            : LOCATION
SRVC.           : SERVICE COMPANY
DATE.  2018-09-11 14:48:31   : Log Export Date {yyyy-MM-dd HH:mm:ss}
PROV.           : PROVINCE
UWI.   30/6-8   : UNIQUE WELL ID
API.            : API NUMBER
#==================================================================
~Curve
DEPT .m                   : DEPTH
Lithology_geolink ._      : Lithology_geolink
CALI .in                  : CALI
DRHO .g/cm3               : DRHO
NPHI .m3/m3               : NPHI
RHOB .g/cm3               : RHOB
GR .gAPI                  : GR
DTC .us/ft                : DTC
DTE .us/ft                : DTE
RDEP .ohm.m               : RDEP
SP .mV                    : SP
RSHA .ohm.m               : RSHA
RMED .ohm.m               : RMED
~Parameter
#==================================================================
~Ascii
# ...
 2536.0268555 5.0000000000 13.543000221 -0.028999999 0.3118700087 2.4252867699 59.974288940 90.855377197 87.961997986 5.0731406212 82.587448120 5.0069484711 5.0069484711
 2536.1791992 5.0000000000 13.541998863 -0.027000001 0.3137100041 2.4238843918 59.207500458 90.977256775 88.044395447 4.8944487572 85.170104980 4.7881989479 4.7881989479
 2536.3315430 5.0000000000 13.541998863 -0.024000000 0.3021000028 2.4224731922 59.990634918 90.686965942 87.790618896 4.7223110199 85.512100220 4.5378847122 4.5378847122
 2536.4838867 5.0000000000 13.545001030 -0.017999999 0.2901300192 2.4240140915 61.748527527 90.723136902 87.759605408 4.5073618889 85.234207153 4.1903429031 4.1903429031
 2536.6364746 5.0000000000 13.548001289 -0.016000001 0.2877599895 2.4241800308 63.480895996 90.554092407 87.654090881 4.3080048561 85.922904968 3.9855768681 3.9855768681
 2536.7888184 5.0000000000 13.550999641 -0.017999999 0.2923600078 2.4235408306 66.156349182 90.139953613 87.356742859 4.1008625031 86.736801147 3.8971936703 3.8971936703
 2536.9411621 5.0000000000 13.553999901 -0.023000000 0.3050099909 2.4198877811 67.263397217 90.038986206 87.238464355 3.8642981052 87.729698181 3.7292563915 3.7292563915
 2537.0935059 5.0000000000 13.557000160 -0.022000000 0.2825199962 2.4164762497 66.761817932 89.981292725 86.951957703 3.6453139782 87.010093689 3.4975929260 3.4975929260
 2537.2460938 5.0000000000 13.560000420 -0.021000000 0.2712399960 2.4190430641 65.463081360 89.466621399 86.468925476 3.4311249256 86.109703064 3.3707261086 3.3707261086
 2537.3984375 6.0000000000 13.555999756 -0.020000000 0.2773399949 2.4244258404 65.907249451 89.211761475 86.393257141 3.2493424416 86.669746399 3.3133277893 3.3133277893
 2537.5507813 6.0000000000 13.551999092 -0.022000000 0.2787699997 2.4259474277 68.454475403 89.455818176 86.500000000 3.1128427982 86.828201294 3.1731731892 3.1731731892
 2537.7031250 6.0000000000 13.548001289 -0.017999999 0.2831200063 2.4207630157 70.472381592 89.503936768 86.523124695 3.0639646053 87.829803467 2.9155352116 2.9155352116
 2537.8557129 6.0000000000 13.543999672 -0.014000000 0.2660700083 2.4163784981 71.515586853 89.917587280 87.050598145 3.0528941154 89.326652527 2.7713797092 2.7713797092
 2538.0080566 6.0000000000 13.538999557 -0.012000000 0.2785100043 2.4190595150 69.968917847 89.955474854 86.921165466 3.0307312012 89.667053223 2.8517711163 2.8517711163
 2538.1604004 6.0000000000 13.531998634 -0.012000000 0.2755100131 2.4224436283 67.660835266 89.414009094 86.359741211 2.9747371674 89.260795593 3.2205128670 3.2205128670
 2538.3127441 6.0000000000 13.524998665 -0.010000000 0.2797499895 2.4246299267 64.812255859 89.280906677 86.313064575 2.8927531242 88.575599670 3.6916089058 3.6916089058
 2538.4650879 6.0000000000 13.517000198 -0.007000000 0.2788200080 2.4235494137 64.901268005 89.000808716 86.145698547 2.8159711361 88.763000488 3.8807051182 3.8807051182
 2538.6176758 6.0000000000 13.510000229 -0.003000000 0.2903400064 2.4252197742 67.161148071 88.538284302 85.644325256 2.8073749542 88.764503479 3.7877116203 3.7877116203
 2538.7700195 5.0000000000 13.503000259 0.0030000000 0.2940099835 2.4304735661 66.760116577 88.364311218 85.446624756 2.8859071732 89.073196411 3.5191278458 3.5191278458
 2538.9223633 5.0000000000 13.473999977 0.0140000004 0.2732400000 2.4337971210 63.239151001 88.369186401 85.488464355 3.0750896931 88.694892883 3.1300032139 3.1300032139
 2539.0747070 5.0000000000 13.435000420 0.0270000007 0.2527300119 2.4402122498 57.050453186 88.124160767 85.106636047 3.4154391289 87.113410950 2.8198750019 2.8198750019
 2539.2272949 5.0000000000 13.383000374 0.0199999996 0.2456800044 2.4605009556 52.201438904 85.184707642 82.181648254 3.8653123379 89.106246948 2.7832450867 2.7832450867
 2539.3796387 5.0000000000 13.326000214 0.0020000001 0.2382799983 2.5074455738 49.384174347 79.100311279 76.156272888 4.3473358154 88.948196411 3.2562799454 3.2562799454
 2539.5319824 5.0000000000 13.285999298 -0.009000000 0.1916999966 2.5873653889 47.341194153 72.663108826 69.730621338 5.0428428650 88.574798584 4.9968752861 4.9968752861
 2539.6843262 5.0000000000 13.258998871 -0.016000001 0.1386599988 2.6603741646 45.534088135 66.689369202 63.674144745 6.2448234558 88.515708923 12.602740288 12.602740288
 2539.8369141 5.0000000000 13.235000610 -0.020000000 0.0919699967 2.6848225594 45.253959656 62.961357117 59.967624664 8.3887834549 89.355201721 70.785057068 70.785057068
 2539.9892578 16.000000000 13.213000298 -0.020000000 0.0848099962 2.6723458767 46.085536957 63.114089966 60.263004303 12.937489510 88.984405518 476.94934082 476.94934082
 2540.1416016 16.000000000 13.203999519 -0.020000000 0.1001700014 2.6545152664 48.484035492 65.639045715 62.611827850 21.117336273 89.482299805 51.696365356 51.696365356
 2540.2939453 5.0000000000 13.196999550 -0.018999999 0.1298799962 2.6533675194 50.673694611 67.681625366 64.610603333 18.707107544 89.578704834 25.360477448 25.360477448
 2540.4462891 5.0000000000 13.192000389 -0.017000001 0.1322999895 2.6629230976 51.202285767 68.141151428 65.296188354 10.331003189 90.730194092 20.824041367 20.824041367
 2540.5988770 5.0000000000 13.192000389 -0.014000000 0.1270800084 2.6411056519 51.607849121 69.479499817 66.504440308 6.2802834511 90.167350769 14.574193001 14.574193001
 2540.7512207 5.0000000000 13.190999985 -0.011000000 0.1436199993 2.5670247078 52.830856323 73.044021606 70.074020386 4.4701442719 89.829704285 5.6898493767 5.6898493767
 2540.9035645 5.0000000000 13.192999840 -0.013000000 0.1853199899 2.4807174206 56.219245911 78.984298706 76.161659241 3.5804615021 91.293800354 2.8419775963 2.8419775963
 2541.0559082 5.0000000000 13.199999809 -0.015000000 0.2316200137 2.4231324196 60.035022736 85.146675110 82.322982788 3.1008589268 91.234107971 2.2130448818 2.2130448818
 2541.2084961 5.0000000000 13.208999634 -0.017999999 0.2464100122 2.4033899307 62.227123260 88.803588867 85.766677856 2.7448365688 91.883644104 2.2280864716 2.2280864716
 2541.3608398 5.0000000000 13.303999901 -0.017999999 0.2475799918 2.4110271931 63.913448334 89.425056458 86.470214844 2.5033712387 90.985153198 2.4543056488 2.4543056488
 2541.5131836 5.0000000000 13.434000015 -0.017999999 0.2538699806 2.4262399673 65.042404175 88.947662354 86.079505920 2.3729550838 91.635192871 2.7258555889 2.7258555889
 2541.6655273 5.0000000000 13.562999725 -0.020000000 0.2624399960 2.4325890541 64.851219177 88.713806152 85.648315430 2.3592212200 90.762397766 2.9927949905 2.9927949905
 2541.8181152 5.0000000000 13.613000870 -0.018999999 0.2632099986 2.4316670895 62.726028442 88.230087280 85.221809387 2.4287788868 90.571090698 3.2414183617 3.2414183617
 2541.9704590 5.0000000000 13.653999329 -0.018999999 0.2549999952 2.4326634407 59.419254303 88.097656250 85.217765808 2.5910031796 89.755348206 3.5361328125 3.5361328125
 2542.1228027 5.0000000000 13.692999840 -0.016000001 0.2479100078 2.4371051788 59.273525238 88.247398376 85.431655884 2.7996635437 88.174507141 3.7707147598 3.7707147598
 2542.2751465 5.0000000000 13.725998878 -0.015000000 0.2522699833 2.4435923100 61.929073334 88.115158081 85.158714294 3.0065705776 89.886894226 3.6812722683 3.6812722683
 2542.4274902 5.0000000000 13.742999077 -0.015000000 0.2534099817 2.4466891289 63.196712494 88.273391724 85.293228149 3.1843879223 89.543701172 3.4546921253 3.4546921253
 2542.5800781 5.0000000000 13.758000374 -0.015000000 0.2555299997 2.4501533508 63.418285370 88.166877747 85.349693298 3.3054127693 89.447296143 3.3591632843 3.3591632843
 2542.7324219 5.0000000000 13.763999939 -0.017000001 0.2671900094 2.4546635151 63.478942871 88.283470154 85.390548706 3.3912179470 88.888404846 3.3931248188 3.3931248188
 2542.8847656 5.0000000000 13.763999939 -0.016000001 0.2736499906 2.4606578350 63.775798798 88.077857971 85.128746033 3.4591698647 89.011795044 3.4316730499 3.4316730499
 2543.0371094 5.0000000000 13.763999939 -0.017999999 0.2840999961 2.4639010429 64.956481934 87.858985901 84.942329407 3.5122051239 88.638298035 3.3297691345 3.3297691345
 2543.1896973 5.0000000000 13.763999939 -0.017000001 0.2925399840 2.4596135616 64.482841492 89.015754700 86.178688049 3.5762450695 88.732002258 3.2580718994 3.2580718994
