# LAS format log file from PETREL
# Project units are specified as depth units
#==================================================================
~Version information
VERS.   2.0:
WRAP.   NO:
#==================================================================
~Well
STRT .m      922.25012207 :
STOP .m      4009.0009766 :
STEP .m     0.00000000 :
NULL .        -999.250000 :
COMP.           : COMPANY
WELL.  30/6-11   : WELL
FLD.            : FIELD
LOC.            : LOCATION
SRVC.           : SERVICE COMPANY
DATE.  2018-09-11 14:48:30   : Log Export Date {yyyy-MM-dd HH:mm:ss}
PROV.           : PROVINCE
UWI.   30/6-11   : UNIQUE WELL ID
API.            : API NUMBER
#==================================================================
~Curve
DEPT .m                   : DEPTH
Lithology_geolink ._      : Lithology_geolink
CALI .in                  : CALI
DRHO .g/cm3               : DRHO
NPHI .m3/m3               : NPHI
RHOB .g/cm3               : RHOB
GR .gAPI                  : GR
DTC .us/ft                : DTC
RDEP .ohm.m               : RDEP
SP .mV                    : SP
RSHA .ohm.m               : RSHA
RMED .ohm.m               : RMED
~Parameter
#==================================================================
~Ascii
# ...
 2356.6250000 12.000000000 13.659000397 -0.066000000 0.3099900186 2.1153433323 55.077999115 121.64497375 0.9840000272 36.337001801 1.3159999847 1.3159999847
 2356.7502441 12.000000000 13.762999535 -0.041999999 0.3079800010 2.1477007866 55.645000458 124.12726593 0.9499999881 37.201000214 1.2589999437 1.2589999437
 2356.8747559 12.000000000 13.836999893 -0.016000001 0.2854299843 2.1699090004 55.063999176 126.65861511 0.9369999766 37.964000702 1.1979999542 1.1979999542
 2356.9997559 12.000000000 13.840999603 -0.009000000 0.2646799982 2.1818065643 54.162998199 129.46418762 0.9409999847 38.305999756 1.1699999571 1.1699999571
 2357.1250000 12.000000000 13.779999733 -0.007000000 0.2439500093 2.1965525150 53.634998322 132.12347412 0.9539999962 38.317001343 1.1799999475 1.1799999475
 2357.2500000 12.000000000 13.685999870 -0.005000000 0.2272400111 2.2227234840 53.532001495 134.05885315 0.9710000157 38.236000061 1.2120000124 1.2120000124
 2357.3750000 12.000000000 13.578999519 0.0030000000 0.2142799944 2.2618286610 54.106998444 134.83551025 1.0089999437 37.847000122 1.3079999685 1.3079999685
 2357.5000000 12.000000000 13.494999886 0.0109999999 0.2132500112 2.3068966866 54.608001709 134.14865112 1.0479999781 37.435001373 1.4179999828 1.4179999828
 2357.6250000 12.000000000 13.439998627 0.0140000004 0.2171600014 2.3328249454 54.770000458 131.72157288 1.0820000172 37.196998596 1.5130000114 1.5130000114
 2357.7500000 12.000000000 13.381999969 0.0120000001 0.2247299999 2.3401060104 54.793998718 128.19940186 1.1230000257 37.069999695 1.5980000496 1.5980000496
 2357.8752441 12.000000000 13.315999985 -0.004000000 0.2381399870 2.3346643448 54.631000519 124.54431152 1.2100000381 36.740001678 1.6360000372 1.6360000372
 2358.0002441 12.000000000 13.277999878 -0.014000000 0.2404000163 2.3250598907 54.591999054 121.42431641 1.2960000038 36.191001892 1.6109999418 1.6109999418
 2358.1247559 12.000000000 13.288000107 -0.023000000 0.2362499982 2.3180754185 54.854000092 119.18528748 1.3630000353 35.570999146 1.5640000105 1.5640000105
 2358.2500000 12.000000000 13.329000473 -0.034000002 0.2290599942 2.3172962666 55.248001099 117.80197906 1.4249999523 35.014999390 1.5379999876 1.5379999876
 2358.3750000 12.000000000 13.380999565 -0.046999998 0.2190200090 2.3257474899 55.417999268 116.92255402 1.4830000401 34.765998840 1.5829999447 1.5829999447
 2358.5000000 12.000000000 13.407999992 -0.045000002 0.2178899944 2.3416731358 55.280998230 115.76889038 1.5039999485 35.050998688 1.6619999409 1.6619999409
 2358.6250000 12.000000000 13.399000168 -0.033000000 0.2212299854 2.3622999191 55.046001434 114.07175446 1.4950000048 35.818000793 1.7289999723 1.7289999723
 2358.7500000 12.000000000 13.378999710 -0.016000001 0.2271099985 2.3837282658 54.881000519 111.78205109 1.4809999466 36.902000427 1.7740000486 1.7740000486
 2358.8750000 12.000000000 13.367999077 0.0000000000 0.2338200063 2.4002807140 55.091999054 109.02141571 1.4609999657 38.705001831 1.7730000019 1.7730000019
 2359.0000000 12.000000000 13.380999565 -0.004000000 0.2343199849 2.4024960995 55.577999115 106.10137939 1.4490000010 39.925998688 1.7439999580 1.7439999580
 2359.1252441 12.000000000 13.413000107 -0.011000000 0.2337000072 2.3925070763 56.220001221 103.90490723 1.4429999590 40.221000671 1.7050000429 1.7050000429
 2359.2497559 12.000000000 13.465000153 -0.012000000 0.2337999940 2.3895201683 57.092998505 102.85092926 1.4379999638 40.181999207 1.6610000134 1.6610000134
 2359.3747559 12.000000000 13.539999962 0.0030000000 0.2359600067 2.3991410732 58.792999268 103.04464722 1.4299999475 39.979000092 1.5930000544 1.5930000544
 2359.5000000 12.000000000 13.607000351 0.0199999996 0.2375900149 2.4199807644 60.070999146 104.40699005 1.4229999781 39.888000488 1.5470000505 1.5470000505
 2359.6250000 12.000000000 13.640001297 0.0350000001 0.2386499941 2.4442110062 60.391998291 106.64106750 1.4210000038 39.881000519 1.5329999924 1.5329999924
 2359.7500000 12.000000000 13.631999969 0.0430000015 0.2406300008 2.4587924480 60.099998474 109.22835541 1.4220000505 39.763000488 1.5360000134 1.5360000134
 2359.8750000 12.000000000 13.567999840 0.0370000005 0.2467399985 2.4583730698 58.381000519 111.52479553 1.4400000572 39.058998108 1.5729999542 1.5729999542
 2360.0000000 12.000000000 13.475999832 0.0260000005 0.2508800030 2.4510307312 56.441001892 113.32144928 1.4670000076 38.132999420 1.6219999790 1.6219999790
 2360.1250000 12.000000000 13.390000343 0.0149999997 0.2511500120 2.4447169304 54.877998352 114.48706055 1.4969999790 37.240001678 1.6679999828 1.6679999828
 2360.2502441 12.000000000 13.307999611 0.0049999999 0.2434799969 2.4464390278 53.319000244 114.92907715 1.5349999666 36.360000610 1.7200000286 1.7200000286
 2360.3752441 12.000000000 13.229000092 -0.002000000 0.2263599932 2.4605517387 50.751998901 114.55909729 1.6039999723 35.541000366 1.8029999733 1.8029999733
 2360.4997559 13.000000000 13.173000336 -0.003000000 0.2187100053 2.4762709141 48.346000671 112.93000031 1.6649999619 35.451000214 1.8750000000 1.8750000000
 2360.6250000 13.000000000 13.145000458 -0.003000000 0.2135500014 2.4784169197 46.458999634 110.36495972 1.7070000172 36.167999268 1.9270000458 1.9270000458
 2360.7500000 13.000000000 13.125000000 0.0070000002 0.2124900073 2.4632391930 44.800998688 107.27112579 1.7439999580 37.284999847 1.9769999981 1.9769999981
 2360.8750000 13.000000000 13.101999283 0.0320000015 0.2179400027 2.4316442013 44.048000336 104.30818176 1.7929999828 38.833000183 1.9989999533 1.9989999533
 2361.0000000 13.000000000 13.083000183 0.0419999994 0.2248100042 2.3892416954 44.551998138 102.31401062 1.8270000219 39.493000031 1.9680000544 1.9680000544
 2361.1250000 13.000000000 13.074000359 0.0359999985 0.2304100096 2.3519680500 45.771999359 102.51978302 1.8430000544 39.020999908 1.8990000486 1.8990000486
 2361.2500000 13.000000000 13.072999954 0.0000000000 0.2301099896 2.3189153671 47.091999054 104.98535156 1.8480000496 38.069999695 1.8270000219 1.8270000219
 2361.3750000 13.000000000 13.076999664 -0.067000002 0.2198299915 2.2996635437 48.646999359 108.56459808 1.8329999447 36.708999634 1.7710000277 1.7710000277
 2361.5002441 13.000000000 13.081000328 -0.090999998 0.2077099979 2.3030490875 49.634998322 112.30613708 1.8099999428 36.109001160 1.7669999599 1.7669999599
 2361.6247559 13.000000000 13.084999084 -0.093999997 0.1953900009 2.3315720558 50.007999420 115.37181854 1.7910000086 36.360000610 1.8029999733 1.8029999733
 2361.7497559 13.000000000 13.090000153 -0.072999999 0.1855100095 2.3790953159 50.106998444 117.28143311 1.7769999504 36.797000885 1.8470000029 1.8470000029
 2361.8750000 13.000000000 13.100999832 -0.041000001 0.1798699945 2.4291620255 49.277000427 117.59885406 1.7799999714 37.186000824 1.9060000181 1.9060000181
 2362.0000000 13.000000000 13.112999916 -0.028000001 0.1821699888 2.4622104168 48.141998291 117.00315857 1.7949999571 37.206001282 1.9470000267 1.9470000267
 2362.1250000 13.000000000 13.121999741 -0.017999999 0.1870899945 2.4806556702 47.215999603 115.77195740 1.8170000315 36.941001892 1.9680000544 1.9680000544
 2362.2500000 13.000000000 13.128000259 -0.009000000 0.1938999891 2.4894211292 46.404998779 114.25920868 1.8420000076 36.637001038 1.9839999676 1.9839999676
 2362.3750000 13.000000000 13.133000374 0.0010000000 0.2000200152 2.4938392639 45.618000031 112.83976746 1.8839999437 36.396999359 1.9880000353 1.9880000353
 2362.5000000 13.000000000 13.137000084 0.0060000001 0.1992900074 2.4949042797 45.393001556 111.87131500 1.9190000296 36.497001648 1.9800000191 1.9800000191
 2362.6252441 13.000000000 13.140999794 0.0089999996 0.1977199912 2.4955987930 45.877998352 111.42746735 1.9420000315 37.043998718 1.9709999561 1.9709999561
 2362.7502441 13.000000000 13.145000458 0.0080000004 0.1969000101 2.4963688850 46.925998688 111.23803711 1.9639999866 37.958999634 1.9680000544 1.9680000544
 2362.8747559 13.000000000 13.151000023 0.0030000000 0.1976300031 2.4966840744 49.347999573 111.15315247 1.9960000515 39.550998688 1.9859999418 1.9859999418
