# LAS format log file from PETREL
# Project units are specified as depth units
#==================================================================
~Version information
VERS.   2.0:
WRAP.   NO:
#==================================================================
~Well
STRT .m      2773.3432617 :
STOP .m      3341.0317383 :
STEP .m     0.00000000 :
NULL .        -999.250000 :
COMP.           : COMPANY
WELL.  30/6-22   : WELL
FLD.            : FIELD
LOC.            : LOCATION
SRVC.           : SERVICE COMPANY
DATE.  2018-09-11 14:48:30   : Log Export Date {yyyy-MM-dd HH:mm:ss}
PROV.           : PROVINCE
UWI.   30/6-22   : UNIQUE WELL ID
API.            : API NUMBER
#==================================================================
~Curve
DEPT .m                   : DEPTH
Lithology_geolink ._      : Lithology_geolink
CALI .in                  : CALI
DRHO .g/cm3               : DRHO
NPHI .m3/m3               : NPHI
RHOB .g/cm3               : RHOB
GR .gAPI                  : GR
DTC .us/ft                : DTC
DTE .us/ft                : DTE
RDEP .ohm.m               : RDEP
SP .mV                    : SP
RSHA .ohm.m               : RSHA
RMED .ohm.m               : RMED
~Parameter
#==================================================================
~Ascii
# ...
 3109.8415527 6.0000000000 9.2189998627 -0.011000000 0.3167699873 2.6400001049 112.71083069 87.873878479 87.981254578 3.8109071255  -999.250000 5.2290740013 5.2290740013
 3109.9941406 6.0000000000 9.2320003510 -0.014000000 0.3118000031 2.6419999599 113.28557587 88.203231812 88.307632446 3.7817788124  -999.250000 5.2525000572 5.2525000572
 3110.1464844 6.0000000000 9.2829999924 -0.009000000 0.3047100008 2.6329998970 114.23251343 88.661140442 88.443908691 3.7357983589  -999.250000 5.3561153412 5.3561153412
 3110.2988281 6.0000000000 9.3409996033 -0.007000000 0.2962099910 2.6119999886 114.13162231 88.310859680 88.475860596 3.6939263344  -999.250000 5.3797950745 5.3797950745
 3110.4511719 6.0000000000 9.3620004654 -0.006000000 0.3095200062 2.6140000820 114.01203918 88.661041260 88.726646423 3.6709775925  -999.250000 5.3158493042 5.3158493042
 3110.6035156 6.0000000000 9.3660001755 -0.001000000 0.3061999977 2.6070001125 113.71053314 89.138053894 88.945899963 3.6639871597  -999.250000 5.2689456940 5.2689456940
 3110.7561035 6.0000000000 9.3059997559 0.0010000000 0.3046399951 2.6119999886 112.95670319 88.911331177 89.075424194 3.6599040031  -999.250000 5.2518653870 5.2518653870
 3110.9084473 6.0000000000 9.1689996719 -0.005000000 0.2807399929 2.5869998932 115.39042664 89.033180237 89.027015686 3.6397793293  -999.250000 5.2237358093 5.2237358093
 3111.0607910 6.0000000000 9.0850000381 -0.005000000 0.2846300006 2.5859999657 117.54580688 89.182502747 88.995178223 3.5937788486  -999.250000 5.1688303947 5.1688303947
 3111.2131348 6.0000000000 9.0699996948 -0.001000000 0.2840400040 2.5759999752 115.30104828 88.911407471 89.113700867 3.5247149467  -999.250000 5.1158847809 5.1158847809
 3111.3657227 6.0000000000 9.0620002747 -0.002000000 0.3001500070 2.5820000172 112.83057404 89.157066345 89.258834839 3.4356634617  -999.250000 5.0796828270 5.0796828270
 3111.5180664 6.0000000000 9.0229997635 -0.003000000 0.3060699999 2.5929999352 113.36527252 89.739814758 89.555198669 3.3657982349  -999.250000 5.0135583878 5.0135583878
 3111.6704102 6.0000000000 8.9910001755 0.0040000002 0.3079000115 2.6089999676 113.84217834 89.573234558 89.840629578 3.3238556385  -999.250000 4.9216923714 4.9216923714
 3111.8227539 6.0000000000 9.0200004578 0.0020000001 0.2979000211 2.6029999256 115.76062012 90.198417664 90.219757080 3.2788558006  -999.250000 4.8256573677 4.8256573677
 3111.9753418 6.0000000000 9.0860004425 -0.002000000 0.2989200056 2.6029999256 115.01576996 91.003150940 90.875091553 3.2338027954  -999.250000 4.7185478210 4.7185478210
 3112.1276855 6.0000000000 9.1610002518 -0.001000000 0.3052800000 2.6050000191 114.15711212 91.109497070 91.236167908 3.1927983761  -999.250000 4.6247406006 4.6247406006
 3112.2800293 6.0000000000 9.1929998398 0.0000000000 0.3169299960 2.6159999371 117.50717926 91.523063660 91.261108398 3.1508526802  -999.250000 4.5708847046 4.5708847046
 3112.4323730 6.0000000000 9.1120004654 -0.004000000 0.3220299780 2.6050000191 120.35903168 91.172943115 91.104103088 3.1049070358  -999.250000 4.5348167419 4.5348167419
 3112.5847168 6.0000000000 8.9619998932 -0.006000000 0.3046299815 2.6140000820 119.73535156 90.695945740 90.935707092 3.0759279728  -999.250000 4.4776730537 4.4776730537
 3112.7373047 6.0000000000 8.8590002060 -0.002000000 0.3032400012 2.6099998951 116.89755249 91.173027039 91.045227051 3.0608847141  -999.250000 4.4097113609 4.4097113609
 3112.8896484 6.0000000000 8.8039999008 -0.003000000 0.3047499955 2.5980000496 114.98320770 91.415504456 91.361213684 3.0429232121  -999.250000 4.3649487495 4.3649487495
 3113.0419922 6.0000000000 8.7889995575 -0.003000000 0.3109900057 2.5980000496 117.34967804 91.567024231 91.490875244 3.0309469700  -999.250000 4.3570046425 4.3570046425
 3113.1943359 6.0000000000 8.7889995575 -0.002000000 0.3143000007 2.6140000820 118.52495575 91.299789429 91.529113770 3.0198991299  -999.250000 4.3579034805 4.3579034805
 3113.3469238 6.0000000000 8.7889995575 0.0000000000 0.2989799976 2.6389999390 118.72628021 91.542594910 91.630302429 2.9988653660  -999.250000 4.3378009796 4.3378009796
 3113.4992676 6.0000000000 8.7889995575 -0.010000000 0.3103800118 2.6370000839 119.24561310 92.128196716 91.932518005 2.9778909683  -999.250000 4.3068590164 4.3068590164
 3113.6516113 6.0000000000 8.7889995575 -0.020000000 0.3154900074 2.6219999790 120.88243103 92.368400574 92.360153198 2.9608590603  -999.250000 4.2848653793 4.2848653793
 3113.8039551 6.0000000000 8.7889995575 -0.018999999 0.3147500157 2.6050000191 119.54074097 92.520904541 92.765014648 2.9388701916  -999.250000 4.2638077736 4.2638077736
 3113.9565430 6.0000000000 8.7889995575 -0.020000000 0.3186300099 2.5829999447 117.21451569 93.084602356 93.212699890 2.9118332863  -999.250000 4.2236347198 4.2236347198
 3114.1088867 6.0000000000 8.7889995575 -0.023000000 0.3161500096 2.5980000496 117.91877747 93.451080322 93.396675110 2.8858268261  -999.250000 4.1667561531 4.1667561531
 3114.2612305 7.0000000000 8.7889995575 -0.011000000 0.3268199861 2.6240000725 118.65846252 93.908157349 93.607215881 2.8588206768  -999.250000 4.1289043427 4.1289043427
 3114.4135742 7.0000000000 8.7829999924 0.0010000000 0.3263499737 2.6280000210 118.57391357 93.558044434 93.501174927 2.8309471607  -999.250000 4.1138987541 4.1138987541
 3114.5659180 7.0000000000 8.7899999619 0.0030000000 0.3207300305 2.5889999866 118.34809113 93.210487366 93.228103638 2.8200142384  -999.250000 4.0928893089 4.0928893089
 3114.7185059 7.0000000000 8.7700004578 0.0049999999 0.3176400065 2.5699999332 118.17712402 92.623779297 92.749908447 2.8229680061  -999.250000 4.0700578690 4.0700578690
 3114.8708496 7.0000000000 8.6909999847 0.0149999997 0.3228900135 2.5889999866 120.83626556 92.540603638 92.294708252 2.8179423809  -999.250000 4.0792751312 4.0792751312
 3115.0231934 7.0000000000 8.6669998169 0.0260000005 0.3267499804 2.6089999676 121.64242554 92.127044678 92.168701172 2.8090288639  -999.250000 4.1223077774 4.1223077774
 3115.1755371 7.0000000000 8.6719999313 0.0149999997 0.3372899890 2.6050000191 119.24403381 92.477157593 92.398483276 2.8150770664  -999.250000 4.1860671043 4.1860671043
 3115.3281250 7.0000000000 8.6719999313 0.0089999996 0.3488900065 2.5959999561 118.84777069 92.669380188 92.807067871 2.8311347961  -999.250000 4.1997499466 4.1997499466
 3115.4804688 7.0000000000 8.6719999313 0.0089999996 0.3493500054 2.5920000076 120.50823975 92.973907471 92.966911316 2.8521986008  -999.250000 4.1609482765 4.1609482765
 3115.6328125 7.0000000000 8.6739997864 0.0109999999 0.3456900120 2.5989999771 118.97914124 93.301452637 93.112571716 2.8831343651  -999.250000 4.1531791687 4.1531791687
 3115.7851563 7.0000000000 8.6759996414 0.0080000004 0.3219100237 2.5899999142 116.37244415 93.190589905 93.079528809 2.9040000439  -999.250000 4.1812982559 4.1812982559
 3115.9377441 7.0000000000 8.6730003357 0.0080000004 0.3301699758 2.5829999447 118.54938507 93.037223816 92.934249878 2.9040513039  -999.250000 4.2434229851 4.2434229851
 3116.0900879 7.0000000000 8.6700000763 0.0040000002 0.3413099945 2.5889999866 120.78250885 93.017601013 92.937606812 2.9121730328  -999.250000 4.3090386391 4.3090386391
 3116.2424316 7.0000000000 8.6700000763 0.0010000000 0.3665100038 2.5889999866 121.48365784 93.017601013 93.060073853 2.9391214848  -999.250000 4.3146543503 4.3146543503
 3116.3947754 7.0000000000 8.6739997864 0.0000000000 0.3620800078 2.5929999352 121.89707947 93.017601013 93.104309082 2.9580528736  -999.250000 4.2608561516 4.2608561516
 3116.5471191 7.0000000000 8.6730003357 0.0000000000 0.3498600125 2.5729999542 122.11505127 92.732795715 92.950424194 2.9690241814  -999.250000 4.2310719490 4.2310719490
 3116.6997070 7.0000000000 8.6700000763 -0.001000000 0.3279499710 2.5659999847 121.08335876 92.973976135 92.896286011 2.9739422798  -999.250000 4.2461214066 4.2461214066
 3116.8520508 7.0000000000 8.6680002213 0.0049999999 0.3347499967 2.5750000477 120.05183411 92.604049683 92.726539612 2.9649934769  -999.250000 4.2649869919 4.2649869919
 3117.0043945 7.0000000000 8.6639995575 0.0080000004 0.3345700204 2.5829999447 119.71957397 92.540603638 92.344085693 2.9639952183  -999.250000 4.2629566193 4.2629566193
