# LAS format log file from PETREL
# Project units are specified as depth units
#==================================================================
~Version information
VERS.   2.0:
WRAP.   NO:
#==================================================================
~Well
STRT .m      360.12121582 :
STOP .m      3233.9282227 :
STEP .m     0.00000000 :
NULL .        -999.250000 :
COMP.           : COMPANY
WELL.  30/6-23   : WELL
FLD.            : FIELD
LOC.            : LOCATION
SRVC.           : SERVICE COMPANY
DATE.  2018-09-11 14:48:31   : Log Export Date {yyyy-MM-dd HH:mm:ss}
PROV.           : PROVINCE
UWI.   30/6-23   : UNIQUE WELL ID
API.            : API NUMBER
#==================================================================
~Curve
DEPT .m                   : DEPTH
Lithology_geolink ._      : Lithology_geolink
CALI .in                  : CALI
DRHO .g/cm3               : DRHO
NPHI .m3/m3               : NPHI
RHOB .g/cm3               : RHOB
GR .gAPI                  : GR
DTC .us/ft                : DTC
DTE .us/ft                : DTE
RDEP .ohm.m               : RDEP
SP .mV                    : SP
RSHA .ohm.m               : RSHA
RMED .ohm.m               : RMED
~Parameter
#==================================================================
~Ascii
# ...
 2115.7695313 5.0000000000 13.281200409 0.0140000004  -999.250000 2.1171000004 81.017555237 138.78768921 138.58479309 0.8233020902 113.33409882  -999.250000 0.8835934401
 2115.9218750 6.0000000000 12.843800545 0.0120000001  -999.250000 2.1133999825 83.853416443 138.81080627 138.58479309 0.8246015906 112.95870209  -999.250000 0.7547200322
 2116.0742188 6.0000000000 13.117199898 0.0082000000  -999.250000 2.1040000916 81.424438477 138.82376099 138.58479309 0.8255998492 112.33530426  -999.250000 0.6425460577
 2116.2265625 6.0000000000 12.812499046 0.0083999997  -999.250000 2.1103999615 76.453796387 138.81394958 138.58479309 0.8255000114 112.70970154  -999.250000 0.6089000106
 2116.3789063 5.0000000000 12.843800545 0.0187999997  -999.250000 2.1278998852 71.875602722 138.71490479 138.58479309 0.8277000189 113.20970154  -999.250000 0.8295999765
 2116.5314941 5.0000000000 13.382800102 0.0309999995  -999.250000 2.1573998928 70.520896912 138.78753662 138.58479309 0.8390325308 115.08370209  -999.250000 1.1425515413
 2116.6838379 5.0000000000 14.195300102 0.0428999998  -999.250000 2.1626999378 72.953918457 138.82366943 138.58479309 0.8593510389 114.46050262  -999.250000 1.1122391224
 2116.8361816 5.0000000000 14.710900307 0.0417999998  -999.250000 2.1568999290 74.146797180 138.81393433 138.58479309 0.8912000060 114.95970154  -999.250000 1.0742000341
 2116.9885254 5.0000000000 14.117198944 0.0303000007  -999.250000 2.1268000603 75.608703613 138.71490479 138.58479309 0.9236000180 114.83470154  -999.250000 1.1054999828
 2117.1411133 5.0000000000 13.609399796 0.0181000009  -999.250000 2.1131999493 74.354286194 138.78753662 138.58479309 0.9531362653 114.46090698  -999.250000 1.0858060122
 2117.2934570 5.0000000000 13.234399796 0.0129000004  -999.250000 2.1368999481 73.280822754 138.82366943 138.58479309 0.9757230878 115.21010590  -999.250000 1.0271497965
 2117.4458008 5.0000000000 14.039099693 0.0099999998  -999.250000 2.1997001171 70.920135498 138.81393433 138.58479309 0.9901166558 115.45909882  -999.250000 0.9336194992
 2117.5981445 5.0000000000 12.921899796 0.0251000002  -999.250000 2.2620999813 65.825897217 138.71490479 138.58479309 1.0004999638 115.08470154  -999.250000 0.9458000064
 2117.7507324 5.0000000000 13.374999046 0.0434000008  -999.250000 2.2959001064 67.043235779 138.78768921 138.58479309 1.0068064928 114.46070099  -999.250000 1.0216563940
 2117.9030762 5.0000000000 14.515600204 0.0331999995  -999.250000 2.2595999241 67.440269470 138.81080627 138.58479309 1.0108077526 115.08349609  -999.250000 1.1189669371
 2118.0554199 5.0000000000 14.695300102 0.0445999987  -999.250000 2.2599000931 69.164146423 138.82366943 138.58479309 1.0156068802 114.33470154  -999.250000 1.0360102654
 2118.2077637 5.0000000000 14.226599693 0.0472999997  -999.250000 2.2167999744 68.255699158 138.81393433 138.58479309 1.0198999643 114.33470154  -999.250000 0.9800000191
 2118.3601074 5.0000000000 13.320300102 0.0249000005  -999.250000 2.1556999683 67.757102966 138.71490479 138.58479309 1.0166000128 113.83470154  -999.250000 0.9193999767
 2118.5126953 5.0000000000 13.093799591 0.0116999997  -999.250000 2.0984001160 72.528488159 138.78753662 138.58479309 1.0025665760 114.45929718  -999.250000 0.9727640748
 2118.6650391 5.0000000000 13.304699898 0.0127999997  -999.250000 2.1201000214 71.403305054 138.82366943 138.58479309 0.9817707539 114.21050262  -999.250000 1.0127780437
 2118.8173828 5.0000000000 13.257800102 0.0164999999  -999.250000 2.1421999931 71.092903137 138.81393433 138.58479309 0.9635000229 114.70970154  -999.250000 1.0614999533
 2118.9697266 5.0000000000 13.171899796 0.0309999995  -999.250000 2.1909000874 72.269699097 138.71490479 138.58479309 0.9539999962 115.58470154  -999.250000 0.9487000108
 2119.1223145 5.0000000000 13.171899796 0.0225000009  -999.250000 2.1689000130 76.376663208 138.78753662 138.58479309 0.9472914934 115.08390045  -999.250000 0.9277477264
 2119.2746582 6.0000000000 13.890599251 0.0068999999  -999.250000 2.1561000347 79.400909424 138.82366943 138.58479309 0.9419925809 114.58530426  -999.250000 0.9574687481
 2119.4270020 6.0000000000 14.867199898 0.0081000002  -999.250000 2.1638000011 76.176597595 138.81393433 138.58479309 0.9373913407 114.96269989  -999.250000 0.9379249811
 2119.5793457 6.0000000000 14.671900749 0.0035000001  -999.250000 2.1798000336 80.296699524 138.81080627 138.58479309 0.9319999814 116.83470154  -999.250000 0.8910999894
 2119.7319336 6.0000000000 13.953100204 -0.004400000  -999.250000 2.1796998978 83.024757385 138.71472168 138.58479309 0.9245926142 115.95909882  -999.250000 0.8971086740
 2119.8842773 6.0000000000 13.070300102 -0.001700000  -999.250000 2.1863999367 83.492294312 138.78753662 138.58479309 0.9199958444 115.58590698  -999.250000 0.9649033546
 2120.0366211 6.0000000000 12.968799591 0.0011000000  -999.250000 2.2053000927 80.247680664 138.82366943 138.58479309 0.9173955321 116.33530426  -999.250000 1.0292859077
 2120.1889648 6.0000000000 13.109399796 0.0034000000  -999.250000 2.2193999290 78.051101685 138.81393433 138.58479309 0.9146000147 116.70970154  -999.250000 1.0204999447
 2120.3413086 6.0000000000 13.687500000 0.0087000001  -999.250000 2.2012999058 77.808898926 138.71490479 138.58479309 0.9125999808 116.33470154  -999.250000 1.0204999447
 2120.4938965 6.0000000000 12.453100204 0.0044999998  -999.250000 2.1530001163 77.635635376 138.78753662 138.58479309 0.9110971093 116.45909882  -999.250000 1.0283236504
 2120.6462402 6.0000000000 12.624999046 -0.001200000  -999.250000 2.1394000053 80.398109436 138.82366943 138.58479309 0.9093005061 116.08470154  -999.250000 1.0430124998
 2120.7985840 6.0000000000 13.671899796 0.0006000000  -999.250000 2.1782999039 82.342002869 138.81393433 138.58479309 0.9096000195 116.08470154  -999.250000 1.0507999659
 2120.9509277 6.0000000000 14.742199898 0.0035999999  -999.250000 2.2327001095 82.231697083 138.81080627 138.58479309 0.9150999784 114.95970154  -999.250000 0.9624000192
 2121.1035156 6.0000000000 15.101599693 -0.003400000  -999.250000 2.2574000359 81.605506897 138.71487427 138.58479309 0.9289259911 114.83470154  -999.250000 0.9244088531
 2121.2558594 6.0000000000 14.695300102 -0.001500000  -999.250000 2.2602999210 80.369911194 138.80004883 138.58479309 0.9451118708 114.83309937  -999.250000 0.9922500253
 2121.4082031 6.0000000000 13.585900307 -0.004500000  -999.250000 2.2646000385 82.616828918 138.81385803 138.58479309 0.9525041580 113.83229828  -999.250000 1.0235015154
 2121.5605469 6.0000000000 12.843800545 -0.004800000  -999.250000 2.2685000896 81.452102661 138.81080627 138.58479309 0.9550999999 112.33470154  -999.250000 1.0868999958
 2121.7131348 6.0000000000 12.710900307 -0.006100000  -999.250000 2.3052000999 81.187377930 138.71472168 138.58479309 0.9558995366 111.58409882  -999.250000 1.1807358265
 2121.8654785 6.0000000000 12.656200409 -0.005000000  -999.250000 2.3218998909 78.185867310 138.78753662 138.58479309 0.9555988908 111.21090698  -999.250000 1.2030467987
 2122.0178223 6.0000000000 12.679699898 -0.009100000  -999.250000 2.3262000084 81.161033630 138.82366943 138.58479309 0.9548951983 111.95930481  -999.250000 1.1698186398
 2122.1701660 6.0000000000 12.703100204 -0.008100000  -999.250000 2.3083000183 84.364402771 138.81393433 138.58479309 0.9519000053 111.70970154  -999.250000 1.1190999746
 2122.3225098 6.0000000000 12.679699898 -0.007300000  -999.250000 2.2923998833 86.800201416 138.81080627 138.58479309 0.9467999935 112.45970154  -999.250000 1.0702999830
 2122.4750977 6.0000000000 12.882800102 -0.006000000  -999.250000 2.2741000652 83.058570862 138.71487427 138.58479309 0.9416900277 112.46010590  -999.250000 0.9920662045
 2122.6274414 6.0000000000 12.765601158 -0.006900000  -999.250000 2.2664000988 81.917800903 138.80004883 138.58479309 0.9354851246 112.71089935  -999.250000 0.9087100625
 2122.7797852 6.0000000000 12.781200409 -0.006600000  -999.250000 2.2711000443 81.795501709 138.81385803 138.58479309 0.9261999726 113.45970154  -999.250000 0.9150000215
 2122.9321289 6.0000000000 12.703100204 -0.003400000  -999.250000 2.2929000854 80.153999329 138.81080627 138.58479309 0.9162999988 113.45970154  -999.250000 0.9110999703
