# LAS format log file from PETREL
# Project units are specified as depth units
#==================================================================
~Version information
VERS.   2.0:
WRAP.   NO:
#==================================================================
~Well
STRT .m      2773.3432617 :
STOP .m      3341.0317383 :
STEP .m     0.00000000 :
NULL .        -999.250000 :
COMP.           : COMPANY
WELL.  30/6-22   : WELL
FLD.            : FIELD
LOC.            : LOCATION
SRVC.           : SERVICE COMPANY
DATE.  2018-09-11 14:48:30   : Log Export Date {yyyy-MM-dd HH:mm:ss}
PROV.           : PROVINCE
UWI.   30/6-22   : UNIQUE WELL ID
API.            : API NUMBER
#==================================================================
~Curve
DEPT .m                   : DEPTH
Lithology_geolink ._      : Lithology_geolink
CALI .in                  : CALI
DRHO .g/cm3               : DRHO
NPHI .m3/m3               : NPHI
RHOB .g/cm3               : RHOB
GR .gAPI                  : GR
DTC .us/ft                : DTC
DTE .us/ft                : DTE
RDEP .ohm.m               : RDEP
SP .mV                    : SP
RSHA .ohm.m               : RSHA
RMED .ohm.m               : RMED
~Parameter
#==================================================================
~Ascii
# ...
 2883.0708008 2.0000000000 8.3570003510 -0.011000000 0.3513399959 2.4760000706 71.316627502 86.692558289 86.820106506 6.5742559433  -999.250000 7.3198719025 7.3198719025
 2883.2231445 2.0000000000 8.3500003815 -0.012000000 0.3177599907 2.4749999046 73.265365601 87.646560669 87.383270264 6.8556666374  -999.250000 9.5463333130 9.5463333130
 2883.3757324 2.0000000000 8.3500003815 -0.008000000 0.3060500026 2.4749999046 75.007698059 86.938697815 86.918678284 7.1171250343  -999.250000 11.146372795 11.146372795
 2883.5280762 2.0000000000 8.3570003510 -0.010000000 0.3097499907 2.4700000286 72.593475342 86.400550842 86.411018372 7.5064358711  -999.250000 10.937747955 10.937747955
 2883.6804199 2.0000000000 8.3590002060 -0.015000000 0.3128599823 2.4639999866 69.551185608 86.339401245 86.262931824 7.8074402809  -999.250000 10.037136078 10.037136078
 2883.8327637 2.0000000000 8.3540000916 -0.015000000 0.3301699758 2.4509999752 68.703323364 86.875701904 86.901374817 7.7357883453  -999.250000 9.6830902100 9.6830902100
 2883.9853516 2.0000000000 8.3520002365 -0.015000000 0.3456400037 2.4349999428 68.292366028 87.665954590 87.841094971 7.3896746635  -999.250000 9.8517599106 9.8517599106
 2884.1376953 2.0000000000 8.3310003281 -0.015000000 0.3336000144 2.4219999313 68.842185974 88.478378296 88.223052979 6.9745545387  -999.250000 9.8161659241 9.8161659241
 2884.2900391 2.0000000000 8.2939996719 -0.012000000 0.3045800030 2.4140000343 69.991523743 88.290824890 88.273445129 6.5451231003  -999.250000 9.0836229324 9.0836229324
 2884.4423828 2.0000000000 8.2810001373 -0.007000000 0.2752999961 2.4210000038 71.536605835 87.417236328 87.443572998 6.1866960526  -999.250000 7.7898478508 7.7898478508
 2884.5949707 2.0000000000 8.2810001373 -0.006000000 0.2640900016 2.4309999943 70.861625671 86.165992737 86.425216675 5.8984279633  -999.250000 6.6508975029 6.6508975029
 2884.7473145 2.0000000000 8.2810001373 -0.004000000 0.2578700185 2.4430000782 70.072494507 86.175430298 86.240699768 5.5772433281  -999.250000 6.1434168816 6.1434168816
 2884.8996582 2.0000000000 8.2810001373 -0.003000000 0.2415900081 2.4330000877 70.007362366 85.906303406 85.898658752 5.2338929176  -999.250000 6.1951684952 6.1951684952
 2885.0520020 2.0000000000 8.2810001373 -0.007000000 0.2417200059 2.4030001163 69.661163330 85.447319031 85.176055908 4.9714722633  -999.250000 6.2136640549 6.2136640549
 2885.2045898 2.0000000000 8.2810001373 -0.006000000 0.2327599972 2.3900001049 67.176795959 85.385398865 85.398963928 4.7809343338  -999.250000 5.9206662178 5.9206662178
 2885.3569336 2.0000000000 8.2810001373 -0.004000000 0.2334399968 2.3819999695 64.167915344 86.096611023 86.270172119 4.6479344368  -999.250000 5.5064291954 5.5064291954
 2885.5092773 2.0000000000 8.2810001373 -0.009000000 0.2269499898 2.3789999485 62.536422729 86.858970642 86.579872131 4.5144934654  -999.250000 5.3116874695 5.3116874695
 2885.6616211 2.0000000000 8.2810001373 -0.011000000 0.2395099998 2.3719999790 61.106712341 86.419273376 86.622489929 4.3272719383  -999.250000 5.2712879181 5.2712879181
 2885.8139648 2.0000000000 8.2810001373 -0.013000000 0.2364800125 2.3640000820 61.566772461 87.584648132 87.420494080 4.2373590469  -999.250000 5.0559744835 5.0559744835
 2885.9665527 2.0000000000 8.2810001373 -0.015000000 0.2284699976 2.3650000095 61.526317596 87.354560852 87.268676758 4.2935290337  -999.250000 4.5834822655 4.5834822655
 2886.1188965 2.0000000000 8.3199996948 -0.017000001 0.2291699946 2.4249999523 60.953472137 85.926078796 85.992263794 4.3596010208  -999.250000 4.1472706795 4.1472706795
 2886.2712402 2.0000000000 8.3870000839 -0.004000000 0.2592900097 2.5309998989 61.831611633 85.014228821 85.037574768 4.4347691536  -999.250000 4.0599489212 4.0599489212
 2886.4235840 2.0000000000 8.4180002213 0.0010000000 0.3016600013 2.6189999580 71.465354919 83.247985840 83.473022461 4.5309362411  -999.250000 4.4328322411 4.4328322411
 2886.5761719 2.0000000000 8.4219999313 0.0010000000 0.3116799891 2.6280000210 90.058364868 82.699882507 82.740959167 4.6488747597  -999.250000 5.4118204117 5.4118204117
 2886.7285156 2.0000000000 8.4219999313 -0.005000000 0.2870299816 2.6140000820 99.091987610 82.425193787 82.418029785 4.8830671310  -999.250000 6.3823719025 6.3823719025
 2886.8808594 6.0000000000 8.4219999313 0.0000000000 0.2653200030 2.6150000095 92.972839355 81.260574341 81.295265198 5.1395769119  -999.250000 6.6760964394 6.6760964394
 2887.0332031 6.0000000000 8.4219999313 -0.002000000 0.2543600202 2.5989999771 86.632049561 80.262039185 80.127899170 5.2104401588  -999.250000 6.6893362999 6.6893362999
 2887.1857910 6.0000000000 8.4219999313 0.0000000000 0.2601700127 2.5710000992 85.739471436 80.554039001 80.778289795 5.1392130852  -999.250000 6.8571553230 6.8571553230
 2887.3381348 6.0000000000 8.4219999313 -0.002000000 0.2492100000 2.5280001163 81.937774658 82.993980408 82.862510681 4.9156684875  -999.250000 7.1194968224 7.1194968224
 2887.4904785 6.0000000000 8.4219999313 -0.004000000 0.2492100000 2.4860000610 79.184783936 83.876037598 84.026115417 4.6257977486  -999.250000 6.5497484207 6.5497484207
 2887.6428223 6.0000000000 8.4219999313 -0.005000000 0.2455400079 2.4600000381 79.027770996 84.784751892 84.723770142 4.4769043922  -999.250000 5.0248398781 5.0248398781
 2887.7951660 6.0000000000 8.4270000458 -0.001000000 0.2441000044 2.4709999561 78.137306213 84.908401489 84.629158020 4.4650516510  -999.250000 4.0117883682 4.0117883682
 2887.9477539 6.0000000000 8.4449996948 -0.002000000 0.2494599968 2.5160000324 79.132987976 82.829078674 83.013122559 4.4728159904  -999.250000 3.8246488571 3.8246488571
 2888.1000977 6.0000000000 8.4580001831 -0.001000000 0.2601599991 2.5680000782 81.382690430 81.577835083 81.581817627 4.4501600266  -999.250000 3.9105207920 3.9105207920
 2888.2524414 6.0000000000 8.4610004425 0.0000000000 0.2842800021 2.5989999771 84.227485657 80.721931458 80.701721191 4.4709291458  -999.250000 4.6048011780 4.6048011780
 2888.4047852 6.0000000000 8.4610004425 -0.001000000 0.3050000072 2.5950000286 88.633201599 80.200119019 80.227676392 4.5864000320  -999.250000 5.9476161003 5.9476161003
 2888.5573730 6.0000000000 8.4560003281 -0.008000000 0.3253499866 2.5850000381 90.316230774 81.083396912 81.141250610 4.6362085342  -999.250000 6.6418685913 6.6418685913
 2888.7097168 6.0000000000 8.4580001831 -0.004000000 0.3357799947 2.5959999561 96.108543396 81.826202393 81.620910645 4.6623048782  -999.250000 6.3757963181 6.3757963181
 2888.8620605 6.0000000000 8.4709997177 -0.003000000 0.3440400064 2.5999999046 104.61370850 80.783653259 80.790786743 4.6989340782  -999.250000 6.1014375687 6.1014375687
 2889.0144043 6.0000000000 8.4870004654 0.0130000003 0.3743700087 2.5599999428 107.05630493 81.445449829 81.405815125 4.5645198822  -999.250000 5.9058160782 5.9058160782
 2889.1669922 18.000000000 8.5000000000 0.0109999999 0.4105199873 2.4969999790 107.47004700 85.311996460 85.441574097 4.2552051544  -999.250000 5.6300802231 5.6300802231
 2889.3193359 18.000000000 8.5139999390 0.0099999998 0.4041299820 2.3780000210 107.99863434 90.724922180 90.796043396 4.0320944786  -999.250000 5.0143413544 5.0143413544
 2889.4716797 18.000000000 8.5329999924 0.0109999999 0.3815799952 2.3050000668 111.45057678 94.894577026 94.792152405 3.9181489944  -999.250000 4.1864104271 4.1864104271
 2889.6240234 18.000000000 8.5229997635 0.0350000001 0.3353200257 2.2950000763 115.23337555 96.783485413 96.815101624 3.6882798672  -999.250000 3.7427680492 3.7427680492
 2889.7763672 18.000000000 8.4919996262 0.0109999999 0.3443299830 2.3350000381 114.92959595 96.023712158 95.946105957 3.5990769863  -999.250000 3.8391602039 3.8391602039
 2889.9289551 18.000000000 8.4779996872 0.0149999997 0.3104099929 2.4660000801 118.31787109 91.305221558 91.475372314 3.6104552746  -999.250000 4.0201778412 4.0201778412
 2890.0812988 18.000000000 8.4790000916 0.0260000005 0.3006800115 2.6159999371 123.23974609 87.184547424 87.158493042 3.5435369015  -999.250000 4.1667532921 4.1667532921
 2890.2336426 18.000000000 8.4960002899 0.0289999992 0.2799600065 2.6619999409 121.45610046 86.087974548 85.824913025 3.6110320091  -999.250000 4.2605600357 4.2605600357
