# LAS format log file from PETREL
# Project units are specified as depth units
#==================================================================
~Version information
VERS.   2.0:
WRAP.   NO:
#==================================================================
~Well
STRT .m      581.07043457 :
STOP .m      2909.8947754 :
STEP .m     0.00000000 :
NULL .        -999.250000 :
COMP.           : COMPANY
WELL.  30/6-14   : WELL
FLD.            : FIELD
LOC.            : LOCATION
SRVC.           : SERVICE COMPANY
DATE.  2018-09-11 14:48:30   : Log Export Date {yyyy-MM-dd HH:mm:ss}
PROV.           : PROVINCE
UWI.   30/6-14   : UNIQUE WELL ID
API.            : API NUMBER
#==================================================================
~Curve
DEPT .m                   : DEPTH
Lithology_geolink ._      : Lithology_geolink
CALI .in                  : CALI
DRHO .g/cm3               : DRHO
NPHI .m3/m3               : NPHI
RHOB .g/cm3               : RHOB
GR .gAPI                  : GR
DTC .us/ft                : DTC
RDEP .ohm.m               : RDEP
SP .mV                    : SP
RSHA .ohm.m               : RSHA
RMED .ohm.m               : RMED
~Parameter
#==================================================================
~Ascii
# ...
 1669.2064209  -999.250000 16.516000748 -0.011000000 0.4130899906 1.9910000563 87.241096497 164.74920654 0.4159855843 39.915199280  -999.250000 0.5309920311
 1669.3588867  -999.250000 16.047000885 -0.011000000 0.4428699911 1.9939999580 90.060752869 163.75082397 0.4269911647 40.172794342  -999.250000 0.5319992304
 1669.5112305  -999.250000 16.656000137 -0.007000000 0.4668000042 2.0060000420 87.626953125 163.25039673 0.4379911721 40.469764709  -999.250000 0.5359967947
 1669.6636963  -999.250000 17.500000000 -0.013000000 0.4228500128 2.0099999905 85.439758301 163.00019836 0.4489911795 40.197216034  -999.250000 0.5479903817
 1669.8160400  -999.250000 17.531000137 -0.015000000 0.4550800025 2.0139999390 83.626449585 164.74859619 0.4519975781 40.704593658  -999.250000 0.5599904060
 1669.9685059  -999.250000 17.593999863 -0.017999999 0.4672900140 2.0160000324 83.000503540 165.49940491 0.4519999921 40.711997986  -999.250000 0.5590007901
 1670.1208496  -999.250000 18.343999863 -0.018999999 0.4770500064 2.0179998875 82.250602722 161.00358582 0.4549975991 41.008762360  -999.250000 0.5510064363
 1670.2733154  -999.250000 19.608999252 -0.023000000 0.4365200102 2.0179998875 79.565155029 157.75260925 0.4589968026 40.994010925  -999.250000 0.5240216255
 1670.4256592  -999.250000 20.562999725 -0.026000001 0.4130899906 2.0290000439 79.937705994 155.25199890 0.4480088353 41.469619751  -999.250000 0.5369895697
 1670.5780029  -999.250000 21.625000000 -0.024000000 0.4125999808 2.0309998989 76.942810059 157.74600220 0.4380159974 41.485973358  -999.250000 0.5379983783
 1670.7304688  -999.250000 19.547000885 -0.013000000 0.4248000085 1.9819999933 73.565704346 161.24720764 0.4370008111 42.251384735  -999.250000 0.5759695172
 1670.8828125  -999.250000 20.391000748 -0.013000000 0.4135699868 1.9379999638 71.128906250 160.75079346 0.4399951994 41.518177032  -999.250000 0.5580288768
 1671.0352783  -999.250000 20.702999115 -0.011000000 0.4506800175 1.9349999428 73.997695923 157.75241089 0.4449959993 41.540981293  -999.250000 0.5599983931
 1671.1876221  -999.250000 21.922000885 -0.015000000 0.4746099710 1.9830000401 79.429298401 155.25399780 0.4579792023 41.525028229  -999.250000 0.5430272222
 1671.3400879  -999.250000 21.422000885 -0.012000000 0.4921900034 2.0179998875 81.561302185 154.25080872 0.4589991868 41.797782898  -999.250000 0.5629839897
 1671.4924316  -999.250000 21.937997818 -0.004000000 0.4560500085 2.0429999828 79.626556396 151.75199890 0.4659943879 41.283412933  -999.250000 0.5649983883
 1671.6448975  -999.250000 20.358999252 -0.006000000 0.4506800175 2.0569999218 78.938552856 150.00140381 0.4859839976 40.556583405  -999.250000 0.5699959993
 1671.7972412  -999.250000 20.781000137 -0.001000000 0.4472700059 2.0720000267 81.560897827 149.00080872 0.5199727416 41.790012360  -999.250000 0.6239567399
 1671.9497070  -999.250000 21.812999725 -0.002000000 0.4541000128 2.0569999218 80.938507080 147.00160217 0.5279936194 41.533206940  -999.250000 0.6180047989
 1672.1020508  -999.250000 22.625000000 -0.001000000 0.4086900055 2.0429999828 78.564903259 146.25059509 0.5409895778 40.806583405  -999.250000 0.6429799795
 1672.2545166  -999.250000 21.547000885 -0.007000000 0.4316400290 2.0490000248 76.876350403 145.25079346 0.5669791698 39.791812897  -999.250000 0.6240152121
 1672.4068604  -999.250000 21.047000885 -0.013000000 0.4335900247 2.0429999828 75.501098633 141.50300598 0.5660007596 40.282608032  -999.250000 0.6249992251
 1672.5592041  -999.250000 20.827999115 -0.012000000 0.4394499958 2.0390000343 80.430099487 142.24879456 0.5210720897 41.795574188  -999.250000 0.6459664106
 1672.7116699  -999.250000 21.875000000 -0.011000000 0.4096699953 1.9869999886 81.437202454 144.24839783 0.5100088120 41.072578430  -999.250000 0.6340095997
 1672.8640137  -999.250000 21.797000885 -0.008000000 0.3857400119 1.9409999847 85.992698669 148.99240112 0.4940256178 41.563209534  -999.250000 0.6459808350
 1673.0164795  -999.250000 21.625000000 -0.010000000 0.3940399885 1.9349999428 85.500404358 155.49479675 0.4670216441 41.805805206  -999.250000 0.6040336490
 1673.1688232  -999.250000 21.405998230 -0.013000000 0.3955099881 1.9579999447 80.570907593 156.49839783 0.4600112140 42.796413422  -999.250000 0.5770432353
 1673.3212891  -999.250000 21.233999252 -0.015000000 0.4057599902 1.9960000515 73.443710327 156.00038147 0.4520063996 42.002635956  -999.250000 0.5390304327
 1673.4736328  -999.250000 21.358997345 -0.015000000 0.4335900247 1.9980000257 68.442008972 155.99998474 0.4230232537 41.236614227  -999.250000 0.5230128169
 1673.6260986  -999.250000 20.843999863 -0.014000000 0.4697299898 2.0079998970 71.122848511 155.75019836 0.4130080044 41.243991852  -999.250000 0.5379880071
 1673.7784424  -999.250000 21.233999252 -0.010000000 0.4809600115 2.0179998875 78.119392395 156.24961853 0.4080039859 41.477813721  -999.250000 0.5499904156
 1673.9309082  -999.250000 20.250000000 -0.012000000 0.4575199783 2.0079998970 79.936553955 156.74960327 0.4020048082 41.493988037  -999.250000 0.5699839592
 1674.0832520  -999.250000 21.312999725 -0.011000000 0.4555699825 1.9950000048 81.187004089 156.50019836 0.4099935889 42.008586884  -999.250000 0.5650039911
 1674.2357178  -999.250000 20.937999725 -0.004000000 0.4584999979 2.0060000420 76.753555298 156.99960327 0.4289847910 41.814155579  -999.250000 0.5560072064
 1674.3880615  -999.250000 22.500000000 -0.003000000 0.4853500128 2.0209999084 77.437454224 155.25140381 0.4449871778 42.047813416  -999.250000 0.5410120487
 1674.5405273  -999.250000 20.781000137 -0.001000000 0.4858399928 2.0350000858 77.874649048 153.75122070 0.4599879980 42.829376221  -999.250000 0.5469951630
 1674.6928711  -999.250000 20.016000748 -0.009000000 0.4653300047 2.0139999390 78.562454224 150.25280762 0.4789847732 43.071804047  -999.250000 0.5639863610
 1674.8452148  -999.250000 20.906000137 -0.006000000 0.4081999958 1.9859999418 78.937400818 146.25640869 0.5049583912 42.556827545  -999.250000 0.5899583697
 1674.9976807  -999.250000 22.266000748 0.0070000002 0.3701200187 1.9859999418 76.689804077 140.25480652 0.5369743705 42.836776733  -999.250000 0.6409590840
 1675.1500244  -999.250000 22.343999863 0.0120000001 0.3779299855 1.9900000095 76.625099182 138.00360107 0.5529743433 43.789474487  -999.250000 0.6879247427
 1675.3024902  -999.250000 20.702999115 0.0160000008 0.3989300132 2.0209999084 70.380004883 139.99839783 0.5699863434 43.533206940  -999.250000 0.7329639196
 1675.4548340  -999.250000 20.687999725 0.0070000002 0.4116199911 2.0230000019 68.441108704 140.24960327 0.5869727731 42.299976349  -999.250000 0.7110352516
 1675.6072998  -999.250000 21.218999863 0.0109999999 0.3881800175 2.0309998989 69.187400818 143.49739075 0.5710127950 42.321979523  -999.250000 0.7329823375
 1675.7596436  -999.250000 21.687999725 0.0049999999 0.4081999958 2.0139999390 74.433799744 149.24539185 0.5620071888 42.314006805  -999.250000 0.6950304508
 1675.9121094  -999.250000 21.375000000 -0.001000000 0.4140599966 1.9980000257 77.435600281 152.24760437 0.5629992485 43.555004120  -999.250000 0.6560312510
 1676.0644531  -999.250000 21.812999725 -0.010000000 0.4570299983 1.9880000353 78.374252319 155.24758911 0.5440152287 42.798606873  -999.250000 0.6190296412
 1676.2169189  -999.250000 21.891000748 -0.012000000 0.4550800025 1.9859999418 79.062454224 157.49819946 0.5230168104 43.751235962  -999.250000 0.5890240073
 1676.3692627  -999.250000 21.797000885 -0.005000000 0.4555699825 2.0079998970 78.875152588 156.00119019 0.5030160546 44.235610962  -999.250000 0.5850031972
 1676.5217285  -999.250000 22.718999863 0.0010000000 0.4687500000 2.0250000954 76.626800537 155.75019836 0.4800184071 44.743591309  -999.250000 0.5640168190
 1676.6740723  -999.250000 22.906000137 0.0000000000 0.4560500085 2.0250000954 76.937751770 155.99978638 0.4560192227 43.978614807  -999.250000 0.5630007982
 1676.8264160  -999.250000 21.875000000 -0.003000000 0.4394499958 2.0179998875 75.066009521 156.24961853 0.4500095844 43.494773865  -999.250000 0.5470256209
