# LAS format log file from PETREL
# Project units are specified as depth units
#==================================================================
~Version information
VERS.   2.0:
WRAP.   NO:
#==================================================================
~Well
STRT .m      360.12121582 :
STOP .m      3233.9282227 :
STEP .m     0.00000000 :
NULL .        -999.250000 :
COMP.           : COMPANY
WELL.  30/6-23   : WELL
FLD.            : FIELD
LOC.            : LOCATION
SRVC.           : SERVICE COMPANY
DATE.  2018-09-11 14:48:31   : Log Export Date {yyyy-MM-dd HH:mm:ss}
PROV.           : PROVINCE
UWI.   30/6-23   : UNIQUE WELL ID
API.            : API NUMBER
#==================================================================
~Curve
DEPT .m                   : DEPTH
Lithology_geolink ._      : Lithology_geolink
CALI .in                  : CALI
DRHO .g/cm3               : DRHO
NPHI .m3/m3               : NPHI
RHOB .g/cm3               : RHOB
GR .gAPI                  : GR
DTC .us/ft                : DTC
DTE .us/ft                : DTE
RDEP .ohm.m               : RDEP
SP .mV                    : SP
RSHA .ohm.m               : RSHA
RMED .ohm.m               : RMED
~Parameter
#==================================================================
~Ascii
# ...
 1376.9340820  -999.250000 12.062500954 -0.054599997  -999.250000 2.1231000423 45.925998688 138.81082153 138.58479309 0.8162000179 68.209701538  -999.250000 0.5351999998
 1377.0864258  -999.250000 12.062500954 -0.055900000  -999.250000 2.1315999031 48.285400391 138.71516418 138.58479309 0.7968000174 68.334701538  -999.250000 0.5425000191
 1377.2388916  -999.250000 12.062500954 -0.055799998  -999.250000 2.1331999302 46.357601166 138.78086853 138.58479309 0.7766000032 68.584701538  -999.250000 0.5449000001
 1377.3912354  -999.250000 12.117199898 -0.056499999  -999.250000 2.1235001087 45.982601166 138.81562805 138.58479309 0.7597000003 68.709701538  -999.250000 0.5404999852
 1377.5437012  -999.250000 12.218799591 -0.056200001  -999.250000 2.1119999886 45.857101440 138.80593872 138.58479309 0.7480999827 68.209701538  -999.250000 0.5503000021
 1377.6960449  -999.250000 12.265600204 -0.049100004  -999.250000 2.1045000553 48.986999512 138.81565857 138.58479309 0.7418000102 68.459701538  -999.250000 0.5898000002
 1377.8485107  -999.250000 13.476599693 -0.030500000  -999.250000 2.1008000374 52.687900543 138.71020508 138.58479309 0.7390000224 68.084701538  -999.250000 0.6532999873
 1378.0008545  -999.250000 14.304698944 -0.030999999  -999.250000 2.0906000137 52.841201782 138.79203796 138.58479309 0.7383000255 67.209701538  -999.250000 0.6894999743
 1378.1533203  -999.250000 14.578100204 -0.031800002  -999.250000 2.0875000954 53.525001526 138.80587769 138.58479309 0.7416999936 66.334701538  -999.250000 0.6640999913
 1378.3056641  -999.250000 14.804699898 -0.036400001  -999.250000 2.1094999313 52.171901703 138.81565857 138.58479309 0.7497000098 65.334701538  -999.250000 0.6387000084
 1378.4581299  -999.250000 14.875000000 -0.034200002  -999.250000 2.1182000637 54.597099304 138.71672058 138.58479309 0.7621999979 64.834701538  -999.250000 0.6104000211
 1378.6104736  -999.250000 14.890600204 -0.030400001  -999.250000 2.0843999386 57.501998901 138.78720093 138.58479309 0.7754999995 62.834701538  -999.250000 0.6269999743
 1378.7629395  -999.250000 14.765600204 -0.023499999  -999.250000 2.0069000721 65.482299805 138.81074524 138.58479309 0.7904000282 60.834701538  -999.250000 0.6708999872
 1378.9152832  -999.250000 14.304698944 -0.015200000  -999.250000 1.9357000589 70.352302551 138.80436707 138.58479309 0.8120999932 60.084701538  -999.250000 0.7958999872
 1379.0676270  -999.250000 14.117198944 0.0009000000  -999.250000 1.9155000448 75.389701843 138.81565857 138.58479309 0.8393999934 57.584701538  -999.250000 0.9458000064
 1379.2200928  -999.250000 14.078099251 0.0027999999  -999.250000 1.9180999994 79.940803528 138.71020508 138.58479309 0.8720999956 55.084701538  -999.250000 1.0321999788
 1379.3724365  -999.250000 14.273400307 0.0052999998  -999.250000 1.9234000444 80.439002991 138.79203796 138.58479309 0.9050999880 53.584701538  -999.250000 1.1024999619
 1379.5249023  -999.250000 13.585900307 0.0052000000  -999.250000 1.9234000444 81.245903015 138.80587769 138.58479309 0.9312000275 52.334701538  -999.250000 1.1152000427
 1379.6772461  -999.250000 13.664099693 0.0014000000  -999.250000 1.9139000177 79.018501282 138.81565857 138.58479309 0.9485999942 51.584701538  -999.250000 1.1143000126
 1379.8297119  -999.250000 12.921899796 -0.001800000  -999.250000 1.9171999693 78.777099609 138.71020508 138.58479309 0.9567000270 51.584701538  -999.250000 1.0429999828
 1379.9820557  -999.250000 13.031200409 -0.001700000  -999.250000 1.9268000126 76.199096680 138.79203796 138.58479309 0.9596999884 50.584701538  -999.250000 0.9818999767
 1380.1345215  -999.250000 13.351599693 -0.003500000  -999.250000 1.9249000549 72.067497253 138.81239319 138.58479309 0.9592999816 49.834701538  -999.250000 0.9110999703
 1380.2868652  -999.250000 13.531200409 -0.009200000  -999.250000 1.9018000364 71.983497620 138.81082153 138.58479309 0.9539999962 49.334701538  -999.250000 0.8877000213
 1380.4393311  -999.250000 13.507800102 -0.014900000  -999.250000 1.8667999506 71.267997742 138.81080627 138.58479309 0.9473000169 49.334701538  -999.250000 0.8881999850
 1380.5916748  -999.250000 12.882800102 -0.021199999  -999.250000 1.8269000053 73.116996765 138.72175598 138.58479309 0.9437000155 48.584701538  -999.250000 0.9154999852
 1380.7441406  -999.250000 13.406200409 -0.026200000  -999.250000 1.7990000248 73.805603027 138.78247070 138.58479309 0.9426000118 48.584701538  -999.250000 0.9101999998
 1380.8964844  -999.250000 13.078100204 -0.029400000  -999.250000 1.8016999960 71.583297729 138.80918884 138.58479309 0.9459999800 48.584701538  -999.250000 0.9154999852
 1381.0488281  -999.250000 12.875000000 -0.020800000  -999.250000 1.8363000154 70.977096558 138.81723022 138.58479309 0.9570000172 48.834701538  -999.250000 0.9146000147
 1381.2012939  -999.250000 13.234399796 -0.012200000  -999.250000 1.8497999907 70.465499878 138.71022034 138.58479309 0.9728999734 48.584701538  -999.250000 0.9193999767
 1381.3536377  -999.250000 13.023400307 -0.010200000  -999.250000 1.8394000530 72.311096191 138.79203796 138.58479309 0.9850000143 48.584701538  -999.250000 0.9291999936
 1381.5061035  -999.250000 13.382800102 -0.004700000  -999.250000 1.8332999945 72.093200684 138.80587769 138.58479309 0.9896000028 47.834701538  -999.250000 0.9496999979
 1381.6584473  -999.250000 13.703099251 -0.009200000  -999.250000 1.8227000237 72.548202515 138.81565857 138.58479309 0.9886000156 47.584701538  -999.250000 0.9286999702
 1381.8109131  -999.250000 14.187500000 -0.006200000  -999.250000 1.8342000246 74.092498779 138.80593872 138.58479309 0.9858000278 46.834701538  -999.250000 0.9413999915
 1381.9632568  -999.250000 13.921900749 -0.006500000  -999.250000 1.8324999809 73.016403198 138.72018433 138.58479309 0.9818000197 47.084701538  -999.250000 0.9496999979
 1382.1157227  -999.250000 13.875000000 -0.005400000  -999.250000 1.8624000549 72.806297302 138.78889465 138.58479309 0.9769999981 46.334701538  -999.250000 0.9442999959
 1382.2680664  -999.250000 13.742198944 -0.010300000  -999.250000 1.8636000156 72.572601318 138.81076050 138.58479309 0.9707000256 46.584701538  -999.250000 0.9101999998
 1382.4205322  -999.250000 14.171899796 -0.001800000  -999.250000 1.8848999739 72.562103271 138.81080627 138.58479309 0.9635999799 46.084701538  -999.250000 0.9023000002
 1382.5728760  -999.250000 14.757800102 -0.006900000  -999.250000 1.8754999638 73.369499207 138.71524048 138.58479309 0.9537000060 45.834701538  -999.250000 0.8949999809
 1382.7253418  -999.250000 14.031201363 -0.007800000  -999.250000 1.8696000576 76.014602661 138.78730774 138.58479309 0.9466000199 46.584701538  -999.250000 0.9061999917
 1382.8776855  -999.250000 14.320300102 -0.010600000  -999.250000 1.8409999609 77.636596680 138.80432129 138.58479309 0.9419000149 46.834701538  -999.250000 0.8931000233
 1383.0300293  -999.250000 14.390600204 -0.012100000  -999.250000 1.8299000263 75.726600647 138.81564331 138.58479309 0.9380999804 46.834701538  -999.250000 0.8895999789
 1383.1824951  -999.250000 13.984399796 -0.018900000  -999.250000 1.8173999786 72.223197937 138.71022034 138.58479309 0.9351000190 46.334701538  -999.250000 0.9160000086
 1383.3348389  -999.250000 13.898400307 -0.016500000  -999.250000 1.8184000254 72.364700317 138.79203796 138.58479309 0.9333000183 47.084701538  -999.250000 0.9276999831
 1383.4873047  -999.250000 13.007800102 -0.021400001  -999.250000 1.8257000446 72.832901001 138.80587769 138.58479309 0.9337999821 46.834701538  -999.250000 0.9448000193
 1383.6396484  -999.250000 13.625000000 -0.019300001  -999.250000 1.8417999744 74.464302063 138.81565857 138.58479309 0.9372000098 47.584701538  -999.250000 0.9467999935
 1383.7921143  -999.250000 14.031201363 -0.019700000  -999.250000 1.8789999485 74.762199402 138.81245422 138.58479309 0.9438999891 46.834701538  -999.250000 0.9434000254
 1383.9444580  -999.250000 13.445300102 -0.014300000  -999.250000 1.8911000490 72.199096680 138.71525574 138.58479309 0.9516000152 47.334701538  -999.250000 0.9491999745
 1384.0969238  -999.250000 13.296899796 -0.014300000  -999.250000 1.8945000172 70.067298889 138.78730774 138.58479309 0.9580000043 46.834701538  -999.250000 0.9243000150
