# LAS format log file from PETREL
# Project units are specified as depth units
#==================================================================
~Version information
VERS.   2.0:
WRAP.   NO:
#==================================================================
~Well
STRT .m      360.12121582 :
STOP .m      3233.9282227 :
STEP .m     0.00000000 :
NULL .        -999.250000 :
COMP.           : COMPANY
WELL.  30/6-23   : WELL
FLD.            : FIELD
LOC.            : LOCATION
SRVC.           : SERVICE COMPANY
DATE.  2018-09-11 14:48:31   : Log Export Date {yyyy-MM-dd HH:mm:ss}
PROV.           : PROVINCE
UWI.   30/6-23   : UNIQUE WELL ID
API.            : API NUMBER
#==================================================================
~Curve
DEPT .m                   : DEPTH
Lithology_geolink ._      : Lithology_geolink
CALI .in                  : CALI
DRHO .g/cm3               : DRHO
NPHI .m3/m3               : NPHI
RHOB .g/cm3               : RHOB
GR .gAPI                  : GR
DTC .us/ft                : DTC
DTE .us/ft                : DTE
RDEP .ohm.m               : RDEP
SP .mV                    : SP
RSHA .ohm.m               : RSHA
RMED .ohm.m               : RMED
~Parameter
#==================================================================
~Ascii
# ...
 2854.6047363 6.0000000000 8.9097003937 0.0193000007 0.2294397205 2.4398999214 106.69557190 91.017005920 83.617446899 3.1240620613 174.73043823 1.9763997793 3.5353677273
 2854.7570801 6.0000000000 9.1007995605 0.0190999992 0.2179682255 2.3852999210 93.890838623 91.566390991 84.151054382 2.9133677483 176.06692505 1.8511538506 2.6425094604
 2854.9096680 5.0000000000 9.2613000870 0.0195000004 0.2115764767 2.3652000427 84.431747437 92.374389648 85.129776001 2.7683436871 176.82774353 1.5742751360 2.2749130726
 2855.0620117 5.0000000000 9.3410997391 0.0233999994 0.2067220062 2.3838999271 79.459014893 93.889038086 86.460044861 2.6572873592 177.00010681 1.9095770121 2.3726234436
 2855.2143555 5.0000000000 9.2901000977 0.0272000004 0.2054096460 2.4300999641 77.346801758 94.594764709 87.322052002 2.5871865749 177.31811523 2.1440587044 2.5118870735
 2855.3666992 5.0000000000 9.0860004425 0.0283000004 0.2080142498 2.4932000637 76.163658142 93.918090820 86.538078308 2.5789968967 178.07655334 1.8693223000 2.5662121773
 2855.5190430 5.0000000000 8.8842000961 0.0340999998 0.2116039842 2.5568997860 77.202987671 92.273269653 85.127426147 2.6395483017 177.85211182 2.0088486671 2.6363608837
 2855.6716309 5.0000000000 8.8205995560 0.0370000005 0.2116259187 2.5899000168 81.264305115 90.687866211 83.414833069 2.7950422764 176.92138672 2.6665065289 2.7999894619
 2855.8239746 5.0000000000 8.7853002548 0.0271000005 0.2138200700 2.5915999413 88.598762512 89.240036011 81.850830078 3.0579488277 176.66992188 4.0373444557 3.1402397156
 2855.9763184 6.0000000000 8.7213001251 0.0209999997 0.2242697030 2.5938000679 96.870727539 87.809402466 80.699058533 3.4005033970 176.18107605 2.9544205666 3.6643779278
 2856.1286621 6.0000000000 8.6780004501 0.0186999999 0.2401114553 2.6087999344 104.36828613 86.654067993 79.404640198 3.7770876884 175.10517883 9.8190727234 4.2750334740
 2856.2812500 6.0000000000 8.6718997955 0.0170000009 0.2532795370 2.6412999630 107.85274506 85.974029541 78.770797729 4.1442570686 174.09269714 9.0553998947 5.1721806526
 2856.4335938 6.0000000000 8.6718997955 0.0194000024 0.2619854212 2.6812000275 109.10924530 86.054725647 78.622528076 4.4427118301 173.59088135 9.2712030411 6.5070033073
 2856.5859375 6.0000000000 8.6738996506 0.0251000002 0.2658668458 2.7002999783 107.51704407 85.908645630 78.680107117 4.6370787621 172.77360535 7.8994455338 7.3808517456
 2856.7382813 6.0000000000 8.6941995621 0.0220999997 0.2660753727 2.6705000401 107.55258179 86.325981140 78.921813965 4.7485218048 171.59445190 6.1212625504 7.1002812386
 2856.8908691 6.0000000000 8.7489004135 0.0137000000 0.2632880807 2.6222000122 111.98045349 86.358268738 78.932586670 4.8245763779 171.25009155 6.2213501930 6.2755002975
 2857.0432129 6.0000000000 8.7962999344 0.0099999998 0.2590517998 2.6010000706 117.79384613 86.339401245 79.111381531 4.8795566559 171.09054565 5.7940578461 5.2771348953
 2857.1955566 6.0000000000 8.7788000107 0.0114000002 0.2595161200 2.6182999611 118.80655670 86.147071838 78.865127563 4.9149537086 170.43113708 1.6094499826 4.1763706207
 2857.3479004 6.0000000000 8.7074003220 0.0137999998 0.2635220289 2.6693000793 110.84819031 84.370552063 77.125465393 4.9484848976 169.83090210 11.360877037 3.5353357792
 2857.5002441 6.0000000000 8.6745996475 0.0178999994 0.2662709951 2.7235999107 97.054718018 81.550376892 74.284332275 5.0015339851 170.07861328 12.279998779 3.8099696636
 2857.6528320 5.0000000000 8.6703996658 0.0208999999 0.2608008087 2.7502000332 84.088417053 79.528015137 72.255203247 5.0855145454 170.09051514 11.532575607 5.7319664955
 2857.8051758 5.0000000000 8.6562004089 0.0195000004 0.2516442537 2.7423999310 77.525390625 80.145828247 72.822067261 5.2462491989 169.75102234 11.959510803 8.7141761780
 2857.9575195 5.0000000000 8.6107997894 0.0160000008 0.2488220036 2.7098000050 79.583801270 83.452819824 76.153312683 5.5265831947 169.82937622 11.092247009 10.193810463
 2858.1098633 5.0000000000 8.5555000305 0.0124000004 0.2583132386 2.6802999973 86.135017395 86.571975708 79.485458374 5.8905644417 169.99940491 10.124448776 9.4515705109
 2858.2624512 5.0000000000 8.5339002609 0.0107000005 0.2751788497 2.6626000404 93.574958801 87.649993896 80.276435852 6.2430548668 170.00025940 9.7803506851 8.5594968796
 2858.4147949 5.0000000000 8.5312995911 0.0097000012 0.2870336473 2.6461999416 98.800514221 86.808769226 79.556610107 6.4783310890 170.08000183 9.5173406601 8.0909881592
 2858.5671387 6.0000000000 8.5312995911 0.0077000000 0.2930084169 2.6373999119 101.11778259 86.962409973 79.563369751 6.5599293709 170.32957458 10.601675034 7.9589490891
 2858.7194824 6.0000000000 8.5312995911 0.0052000000 0.2927868962 2.6335999966 101.47828674 87.134300232 79.824775696 6.5157599449 170.49981689 10.648350716 7.8650197983
 2858.8720703 6.0000000000 8.5312995911 0.0041999999 0.2911801934 2.6254999638 102.46952057 87.073844910 79.835830688 6.4282507896 170.57978821 10.618575096 7.8777542114
 2859.0244141 6.0000000000 8.5312995911 0.0062000002 0.2883659005 2.6143000126 102.91088104 88.788696289 81.347953796 6.3816995621 170.82899475 11.046674728 7.9569754601
 2859.1767578 6.0000000000 8.5312995911 0.0078999996 0.2887465358 2.6024999619 102.46382141 89.778488159 82.495819092 6.3813867569 171.07919312 10.904147148 8.0039138794
 2859.3291016 6.0000000000 8.5312004089 0.0104999999 0.2969148159 2.5950000286 102.98418427 87.225387573 79.869453430 6.3729677200 171.32923889 9.6261262894 7.9500074387
 2859.4814453 6.0000000000 8.5312004089 0.0138999997 0.3062252402 2.5947999954 106.65515900 86.083930969 78.879219055 6.2902355194 171.65876770 10.327775002 7.7671427727
 2859.6340332 6.0000000000 8.5312004089 0.0170000009 0.3109711409 2.5992000103 111.50047302 86.074783325 78.797035217 6.0620183945 172.07914734 10.130100250 7.4812722206
 2859.7863770 6.0000000000 8.5312004089 0.0177999996 0.3058139980 2.6052999496 114.70200348 85.331588745 77.913276672 5.6619005203 172.25019836 11.717597961 7.1606841087
 2859.9387207 6.0000000000 8.5312004089 0.0164000001 0.2893832326 2.6164999008 114.26016998 83.993301392 76.817863464 5.1628355980 172.56900024 10.963960648 6.8386349678
 2860.0910645 6.0000000000 8.5312004089 0.0115000000 0.2586055696 2.6422998905 109.86902618 82.460151672 75.088966370 4.6860032082 173.56532288 7.9422640800 6.3606705666
 2860.2436523 6.0000000000 8.5312004089 0.0066000000 0.2220880091 2.6756999493 101.49809265 80.911911011 73.744628906 4.3133654594 174.32850647 3.6145687103 5.4037671089
 2860.3959961 6.0000000000 8.5312004089 0.0074000000 0.1947233677 2.6974000931 90.139732361 80.422874451 73.143280029 4.0530605316 174.73918152 1.5822316408 4.1151204109
 2860.5483398 6.0000000000 8.5305995941 0.0046999999 0.1752316952 2.6737999916 79.867683411 79.415428162 72.246475220 3.8412795067 175.72625732 2.9173614979 3.3179371357
 2860.7006836 6.0000000000 8.5205001831 -0.002500000 0.1576880813 2.6080999374 71.750694275 79.465042114 72.152275085 3.6413276196 177.06536865 7.3723053932 3.1547033787
 2860.8532715 6.0000000000 8.4722003937 -0.003800000 0.1427972317 2.5367000103 66.130638123 81.755538940 74.354667664 3.4713807106 178.22738647 3.2762935162 3.5315816402
 2861.0056152 5.0000000000 8.3847999573 0.0013000000 0.1448781192 2.4739000797 63.025039673 86.715476990 79.469390869 3.3718938828 179.24906921 7.1925458908 3.8059206009
 2861.1579590 5.0000000000 8.3163995743 0.0016000000 0.1632477194 2.4217998981 61.304790497 92.194068909 84.798591614 3.3682932854 179.72985840 3.0455384254 3.6313607693
 2861.3103027 5.0000000000 8.2765998840 0.0018000000 0.1856915653 2.3785998821 61.236045837 94.601867676 87.385002136 3.4890878201 181.06692505 2.1975157261 3.3577792645
 2861.4626465 5.0000000000 8.2736997604 0.0011000000 0.2035097331 2.3419001102 60.830055237 95.760223389 88.460754395 3.7311828136 181.82772827 2.3324100971 3.3450715542
 2861.6152344 5.0000000000 8.2982997894 -0.000500000 0.2109041214 2.3052000999 60.610767365 91.657211304 84.495651245 4.0328960419 182.15934753 2.5880875587 3.5149912834
 2861.7675781 5.0000000000 8.3224000931 -0.002200000 0.2095589936 2.2778999805 59.101909637 84.862548828 77.611495972 4.3437228203 182.73774719 2.6459336281 3.7304680347
