# LAS format log file from PETREL
# Project units are specified as depth units
#==================================================================
~Version information
VERS.   2.0:
WRAP.   NO:
#==================================================================
~Well
STRT .m      176.60998535 :
STOP .m      3556.0803223 :
STEP .m     0.00000000 :
NULL .        -999.250000 :
COMP.           : COMPANY
WELL.  30/6-5   : WELL
FLD.            : FIELD
LOC.            : LOCATION
SRVC.           : SERVICE COMPANY
DATE.  2018-09-11 14:48:31   : Log Export Date {yyyy-MM-dd HH:mm:ss}
PROV.           : PROVINCE
UWI.   30/6-5   : UNIQUE WELL ID
API.            : API NUMBER
#==================================================================
~Curve
DEPT .m                   : DEPTH
Lithology_geolink ._      : Lithology_geolink
CALI .in                  : CALI
DRHO .g/cm3               : DRHO
NPHI .m3/m3               : NPHI
RHOB .g/cm3               : RHOB
PEF .b/e                  : PEF
GR .gAPI                  : GR
DTC .us/ft                : DTC
DTE .us/ft                : DTE
RDEP .ohm.m               : RDEP
SP .mV                    : SP
RSHA .ohm.m               : RSHA
RMED .ohm.m               : RMED
~Parameter
#==================================================================
~Ascii
# ...
 2650.9765625 6.0000000000 13.078001022 0.0020000001 0.3990713358 2.4381668568  -999.250000 89.500000000 107.18810272 103.48860168 2.2420001030 55.701000214 4.5469999313 3.0120000839
 2651.1289063 6.0000000000 13.078001022 0.0010000000 0.4061378539 2.4434683323  -999.250000 88.688003540 105.80363464 102.07541656 2.2679998875 55.201000214 5.1519999504 2.8729999065
 2651.2812500 6.0000000000 13.078001022 -0.001000000 0.3985240757 2.4431824684  -999.250000 91.625000000 104.85678864 100.97071075 2.3320000172 54.013999939 5.1209998131 2.9749999046
 2651.4335938 6.0000000000 13.093999863 0.0000000000 0.3761631846 2.4332480431  -999.250000 88.063003540 104.00784302 100.15191650 2.3810000420 52.951000214 6.9730000496 3.4430000782
 2651.5861816 5.0000000000 13.101999283 -0.007000000 0.3781497180 2.4186127186  -999.250000 84.625000000 103.46527863 99.502426147 2.4630000591 53.826000214 6.7459998131 3.9340000153
 2651.7385254 5.0000000000 13.101999283 -0.012000000 0.3842014074 2.4098811150  -999.250000 82.125000000 102.94162750 99.223503113 2.5629999638 53.763999939 7.4180002213 3.9530000687
 2651.8908691 5.0000000000 13.093999863 -0.010000000 0.3788099587 2.4152083397  -999.250000 81.250000000 101.87096405 97.983009338 2.5999999046 53.701000214 6.4920001030 3.9040000439
 2652.0432129 5.0000000000 13.125000000 -0.004000000 0.3663056791 2.4337151051  -999.250000 78.063003540 99.848968506 96.068122864 2.6289999485 51.919998169 7.0739998817 4.0120000839
 2652.1958008 5.0000000000 13.125000000 -0.003000000 0.3511852920 2.4514482021  -999.250000 81.875000000 99.098823547 95.274070740 2.6429998875 52.794998169 9.1330003738 3.9800000191
 2652.3481445 5.0000000000 13.125000000 -0.005000000 0.3590720296 2.4603660107  -999.250000 87.938003540 99.643730164 95.904563904 2.6480000019 53.201000214 4.9019999504 3.5529999733
 2652.5004883 6.0000000000 13.125000000 -0.004000000 0.3665961325 2.4624962807  -999.250000 93.188003540 101.57514954 97.757774353 2.6719999313 53.951000214 4.9299998283 3.2990000248
 2652.6528320 6.0000000000 13.147999763 0.0000000000 0.3766340911 2.4693565369  -999.250000 92.875000000 103.51898193 99.667152405 2.6840000153 54.076000214 5.1640000343 3.2339999676
 2652.8054199 6.0000000000 13.133000374 0.0010000000 0.3729170561 2.4827504158  -999.250000 87.125000000 103.39077759 99.519744873 2.6410000324 53.576000214 6.1449999809 3.5639998913
 2652.9577637 6.0000000000 13.133000374 -0.001000000 0.3657940328 2.4899744987  -999.250000 80.875000000 101.44059753 97.381744385 2.6410000324 54.263999939 7.2890000343 4.1329998970
 2653.1101074 5.0000000000 13.116999626 0.0020000001 0.3745889366 2.4825577736  -999.250000 82.688003540 100.02756500 96.098518372 2.6879999638 54.263999939 10.461000443 4.5079998970
 2653.2624512 5.0000000000 13.116999626 0.0010000000 0.4051340818 2.4664630890  -999.250000 86.313003540 101.01198578 97.122787476 2.7809998989 54.638999939 7.5659999847 4.0900001526
 2653.4150391 5.0000000000 13.116999626 0.0060000001 0.4325721860 2.4584548473  -999.250000 85.438003540 102.10166168 98.338546753 2.8949999809 52.263999939 6.0739998817 3.6459999084
 2653.5673828 5.0000000000 13.125000000 0.0160000008 0.4175926745 2.4664647579  -999.250000 74.938003540 101.41728210 97.671203613 2.9549999237 53.263999939 5.3159999847 3.7070000172
 2653.7197266 5.0000000000 13.116999626 0.0320000015 0.3693726659 2.4867017269  -999.250000 69.125000000 99.625846863 95.909439087 2.9449999332 57.513999939 8.6020002365 4.2969999313
 2653.8720703 5.0000000000 13.116999626 0.0390000008 0.3336428404 2.5070188046  -999.250000 76.813003540 99.073471069 95.207870483 2.9340000153 51.858001709 8.2270002365 4.8550000191
 2654.0244141 5.0000000000 13.125000000 0.0289999992 0.3291938603 2.5144655704  -999.250000 84.875000000 100.12786102 96.383872986 2.9730000496 54.575099945 7.3829998970 4.8319997787
 2654.1770020 5.0000000000 13.125000000 0.0099999998 0.3441079557 2.5024266243  -999.250000 92.125000000 101.98009491 98.192329407 3.0899999142 54.016597748 5.8239998817 4.2659997940
 2654.3293457 6.0000000000 13.125000000 -0.004000000 0.3590721488 2.4771265984  -999.250000 88.500000000 102.39459229 98.311233521 3.2360000610 54.825397491 6.4650001526 3.9649999142
 2654.4816895 6.0000000000 13.125000000 -0.009000000 0.3729157746 2.4528431892  -999.250000 84.188003540 100.74065399 96.820533752 3.3129999638 54.450099945 7.1640000343 4.2659997940
 2654.6340332 6.0000000000 13.125000000 -0.008000000 0.3952269256 2.4385313988  -999.250000 81.938003540 99.370208740 95.585922241 3.3420000076 53.889400482 9.1330003738 5.0079998970
 2654.7866211 6.0000000000 13.101999283 -0.008000000 0.4057462811 2.4297668934  -999.250000 82.438003540 99.406921387 95.574081421 3.3629999161 54.137001038 9.4449996948 5.4959998131
 2654.9389648 6.0000000000 13.101999283 -0.005000000 0.3983296454 2.4228632450  -999.250000 84.938003540 100.57450104 96.649711609 3.3459999561 53.512996674 7.5269999504 5.1599998474
 2655.0913086 6.0000000000 13.101999283 -0.001000000 0.3793978393 2.4225580692  -999.250000 84.750000000 102.15074158 98.243911743 3.3159999847 52.890602112 9.0629997253 4.8090000153
 2655.2436523 6.0000000000 13.101999283 0.0049999999 0.3655858934 2.4328737259  -999.250000 81.313003540 102.80349731 99.061347961 3.2109999657 53.890701294 7.6449999809 4.7729997635
 2655.3962402 6.0000000000 13.101999283 0.0049999999 0.3692855835 2.4472234249  -999.250000 81.000000000 102.86280060 98.961097717 3.0840001106 54.944400787 7.6020002365 4.7699999809
 2655.5485840 6.0000000000 13.101999283 -0.001000000 0.3772655725 2.4533624649  -999.250000 78.438003540 102.84293365 98.969802856 3.0099999905 52.887096405 8.1479997635 4.3590002060
 2655.7009277 6.0000000000 13.101999283 -0.008000000 0.3807111084 2.4476277828  -999.250000 82.688003540 103.27330017 99.307182312 2.9879999161 51.701602936 6.9959998131 3.6889998913
 2655.8532715 6.0000000000 13.093999863 -0.008000000 0.3814049065 2.4407541752  -999.250000 85.313003540 103.18003845 99.459747314 2.9449999332 52.075500488 4.5199999809 3.3499999046
 2656.0056152 6.0000000000 13.116999626 -0.004000000 0.3844544291 2.4440078735  -999.250000 87.188003540 102.23359680 98.451065063 2.8959999084 51.763298035 5.9800000191 3.5899999142
 2656.1582031 6.0000000000 13.116999626 -0.003000000 0.3747453392 2.4526541233  -999.250000 83.563003540 101.43378448 97.514053345 2.8459999561 51.328601837 7.4959998131 3.9800000191
 2656.3105469 6.0000000000 13.116999626 -0.005000000 0.3701455593 2.4541788101  -999.250000 77.938003540 101.34198761 97.465339661 2.8010001183 52.140003204 6.6840000153 4.1409997940
 2656.4628906 6.0000000000 13.125000000 -0.006000000 0.3549387753 2.4457201958  -999.250000 78.313003540 101.22006226 97.422554016 2.8280000687 52.765804291 6.6989998817 4.1409997940
 2656.6152344 6.0000000000 13.125000000 -0.004000000 0.3666421175 2.4375901222  -999.250000 82.625000000 102.20429993 98.348815918 2.8629999161 53.888397217 7.8670001030 4.1719999313
 2656.7678223 6.0000000000 13.093999863 -0.004000000 0.3742302358 2.4379594326  -999.250000 86.688003540 103.38571167 99.538124084 2.9140000343 53.510997772 6.6250000000 4.0349998474
 2656.9201660 6.0000000000 13.101999283 -0.005000000 0.3836428523 2.4426789284  -999.250000 87.438003540 103.79702759 99.971420288 2.9449999332 52.577404022 5.7769999504 3.8239998817
 2657.0725098 6.0000000000 13.108999252 -0.005000000 0.3791659772 2.4482338428  -999.250000 85.125000000 104.01755524 99.921691895 3.0160000324 53.452503204 6.4800000191 3.6970000267
 2657.2248535 5.0000000000 13.093999863 -0.007000000 0.3641732335 2.4602811337  -999.250000 75.875000000 101.73947906 97.937751770 3.0409998894 54.387798309 6.6250000000 3.8139998913
 2657.3774414 5.0000000000 13.093999863 -0.007000000 0.3412277997 2.4754669666  -999.250000 73.375000000 98.389305115 94.671684265 2.9649999142 53.636501312 7.1479997635 4.3280000687
 2657.5297852 5.0000000000 13.078001022 -0.008000000 0.3280952871 2.4792728424  -999.250000 72.000000000 96.641830444 92.798141479 2.9240000248 52.857299805 9.0860004425 5.1090002060
