# LAS format log file from PETREL
# Project units are specified as depth units
#==================================================================
~Version information
VERS.   2.0:
WRAP.   NO:
#==================================================================
~Well
STRT .m      176.60998535 :
STOP .m      3556.0803223 :
STEP .m     0.00000000 :
NULL .        -999.250000 :
COMP.           : COMPANY
WELL.  30/6-5   : WELL
FLD.            : FIELD
LOC.            : LOCATION
SRVC.           : SERVICE COMPANY
DATE.  2018-09-11 14:48:31   : Log Export Date {yyyy-MM-dd HH:mm:ss}
PROV.           : PROVINCE
UWI.   30/6-5   : UNIQUE WELL ID
API.            : API NUMBER
#==================================================================
~Curve
DEPT .m                   : DEPTH
Lithology_geolink ._      : Lithology_geolink
CALI .in                  : CALI
DRHO .g/cm3               : DRHO
NPHI .m3/m3               : NPHI
RHOB .g/cm3               : RHOB
PEF .b/e                  : PEF
GR .gAPI                  : GR
DTC .us/ft                : DTC
DTE .us/ft                : DTE
RDEP .ohm.m               : RDEP
SP .mV                    : SP
RSHA .ohm.m               : RSHA
RMED .ohm.m               : RMED
~Parameter
#==================================================================
~Ascii
# ...
 404.60040283  -999.250000 13.680000305  -999.250000  -999.250000 1.9018075466  -999.250000 60.575340271 150.48318481 149.34408569 2.8411362171 49.274211884 1.8689999580 2.3389999866
 404.75280762  -999.250000 14.156000137  -999.250000  -999.250000 1.8961251974  -999.250000 64.189277649 152.07478333 150.98060608 2.8811225891 48.506179810 2.0610001087 2.2990000248
 404.90521240  -999.250000 15.241999626  -999.250000  -999.250000 1.8944222927  -999.250000 64.562149048 152.63027954 151.48933411 2.9171192646 49.387382507 1.3450000286 2.2890000343
 405.05761719  -999.250000 15.687999725  -999.250000  -999.250000 1.8936126232  -999.250000 64.306617737 152.81784058 151.71476746 2.9519760609 49.765876770 1.6200000048 2.3269999027
 405.21002197  -999.250000 14.968999863  -999.250000  -999.250000 1.8935493231  -999.250000 62.439277649 152.84321594 151.72341919 2.9448740482 48.902507782 1.6529999971 2.3750000000
 405.36242676  -999.250000 14.906000137  -999.250000  -999.250000 1.9010061026  -999.250000 62.805789948 150.68269348 149.56852722 2.9079639912 49.027446747 1.8329999447 2.4240000248
 405.51480103  -999.250000 15.093999863  -999.250000  -999.250000 1.9061758518  -999.250000 60.829380035 149.22850037 148.10707092 2.8979659081 47.059379578 2.0739998817 2.4779999256
 405.66720581  -999.250000 14.930000305  -999.250000  -999.250000 1.9111146927  -999.250000 65.632446289 147.82208252 146.71170044 2.8879115582 49.649662018 2.6989998817 2.5329999924
 405.81961060  -999.250000 14.968999863  -999.250000  -999.250000 1.9159971476  -999.250000 67.811088562 146.47755432 145.33268738 2.8620612621 49.003028870 2.5209999084 2.5280001163
 405.97201538  -999.250000 15.383000374  -999.250000  -999.250000 1.9162590504  -999.250000 67.235855103 146.41194153 145.27597046 2.8801670074 49.011032104 2.6909999847 2.4590001106
 406.12442017  -999.250000 16.452999115  -999.250000  -999.250000 1.9088526964  -999.250000 63.086448669 148.47021484 147.35171509 2.9290406704 49.013206482 2.2750000954 2.3619999886
 406.27682495  -999.250000 16.641000748  -999.250000  -999.250000 1.8947285414  -999.250000 60.871170044 152.53964233 151.40972900 2.9409897327 47.497928619 1.6269999743 2.2920000553
 406.42919922  -999.250000 16.687999725  -999.250000  -999.250000 1.8882863522  -999.250000 59.756702423 154.40794373 153.28967285 2.9379081726 48.004718781 1.5039999485 2.2890000343
 406.58160400  -999.250000 15.266000748  -999.250000  -999.250000 1.8874264956  -999.250000 61.730384827 154.69107056 153.54882813 2.9108672142 48.474620819 1.8159999847 2.3670001030
 406.73400879  -999.250000 14.281001091  -999.250000  -999.250000 1.8988517523  -999.250000 65.070663452 151.30075073 150.19914246 2.8719966412 46.994335175 1.6089999676 2.4619998932
 406.88641357  -999.250000 14.063000679  -999.250000  -999.250000 1.9086128473  -999.250000 67.308959961 148.54071045 147.40943909 2.8710918427 48.741519928 2.1889998913 2.5169999599
 407.03881836  -999.250000 13.875000000  -999.250000  -999.250000 1.9171679020  -999.250000 66.111488342 146.13146973 145.01367188 2.8981907368 47.503337860 2.0680000782 2.5250000954
 407.19122314  -999.250000 13.500000000  -999.250000  -999.250000 1.9179165363  -999.250000 62.168022156 145.96171570 144.82304382 2.9542007446 47.602260590 2.0060000420 2.5339999199
 407.34362793  -999.250000 13.227000237  -999.250000  -999.250000 1.9188443422  -999.250000 65.683105469 145.68290710 144.56381226 3.0132384300 48.980030060 2.0209999084 2.5820000172
 407.49600220  -999.250000 13.227000237  -999.250000  -999.250000 1.9170114994  -999.250000 64.264892578 146.19636536 145.05758667 3.0831019878 48.992195129 2.5250000954 2.5850000381
 407.64840698  -999.250000 13.156000137  -999.250000  -999.250000 1.9133903980  -999.250000 68.617980957 147.21589661 146.07826233 3.1130032539 50.160472870 2.5230000019 2.5659999847
 407.80081177  -999.250000 13.156000137  -999.250000  -999.250000 1.9130669832  -999.250000 66.556831360 147.25846863 146.15284729 3.1139457226 52.485454559 2.0590000153 2.5260000229
 407.95321655  -999.250000 13.156000137  -999.250000  -999.250000 1.9110456705  -999.250000 64.742126465 147.85795593 146.72126770 3.0979115963 47.641887665 3.1719999313 2.5429999828
 408.10562134  -999.250000 13.156000137  -999.250000  -999.250000 1.9123126268  -999.250000 62.441188812 147.45617676 146.35777283 3.0719490051 49.266777039 2.6879999638 2.5739998817
 408.25802612  -999.250000 13.156000137  -999.250000  -999.250000 1.9115097523  -999.250000 63.401870728 147.71969604 146.59857178 3.0570542812 48.651554108 2.7639999390 2.5959999561
 408.41043091  -999.250000 13.171999931  -999.250000  -999.250000 1.9116194248  -999.250000 70.436576843 147.66297913 146.55274963 3.0730102062 48.535385132 2.8090000153 2.5769999027
 408.56280518  -999.250000 13.171999931  -999.250000  -999.250000 1.9121010303  -999.250000 70.058273315 147.54917908 146.41694641 3.0759625435 48.634677887 3.3259999752 2.5720000267
 408.71520996  -999.250000 13.180001259  -999.250000  -999.250000 1.9149971008  -999.250000 68.756080627 146.71885681 145.61613464 3.0649659634 48.269481659 2.9360001087 2.5950000286
 408.86761475  -999.250000 13.180001259  -999.250000  -999.250000 1.9159971476  -999.250000 70.446784973 146.47465515 145.34867859 3.0549182892 48.402481079 3.1410000324 2.6470000744
 409.02001953  -999.250000 13.203000069  -999.250000  -999.250000 1.9167349339  -999.250000 72.878150940 146.25476074 145.13595581 3.0309250355 48.530097961 2.9939999580 2.6640000343
 409.17242432  -999.250000 13.242000580  -999.250000  -999.250000 1.9151320457  -999.250000 73.730621338 146.72921753 145.58955383 3.0089490414 47.184520721 2.9449999332 2.6389999390
 409.32482910  -999.250000 13.272999763  -999.250000  -999.250000 1.9141690731  -999.250000 68.358596802 146.98091125 145.84179688 2.9940032959 49.809757233 2.7730000019 2.5729999542
 409.47723389  -999.250000 13.187999725  -999.250000  -999.250000 1.9106426239  -999.250000 64.058486938 147.94830322 146.83415222 2.9950287342 48.177288055 1.5740000010 2.5099999905
 409.62960815  -999.250000 13.187999725  -999.250000  -999.250000 1.9059240818  -999.250000 62.875560760 149.31602478 148.18043518 3.0030288696 48.777957916 2.1760001183 2.4860000610
 409.78201294  -999.250000 13.210999489  -999.250000  -999.250000 1.9018107653  -999.250000 63.037643433 150.43995667 149.33309937 3.0110034943 49.042152405 2.5269999504 2.4790000916
 409.93441772  -999.250000 13.305000305  -999.250000  -999.250000 1.9048651457  -999.250000 64.872299194 149.58360291 148.46221924 3.0119605064 48.806255341 2.7269999981 2.4879999161
 410.08682251  -999.250000 13.476999283  -999.250000  -999.250000 1.9069049358  -999.250000 64.136039734 148.98727417 147.89002991 3.0008809566 48.322593689 2.3159999847 2.5120000839
 410.23922729  -999.250000 12.984000206  -999.250000  -999.250000 1.9122896194  -999.250000 67.203094482 147.50166321 146.37895203 2.9678015709 47.935760498 1.7159999609 2.5399999619
 410.39163208  -999.250000 13.210999489  -999.250000  -999.250000 1.9186319113  -999.250000 71.378089905 145.72219849 144.62100220 2.9128136635 48.700843811 1.7740000486 2.5510001183
 410.54403687  -999.250000 13.242000580  -999.250000  -999.250000 1.9168710709  -999.250000 72.163749695 146.25061035 145.11201477 2.8640115261 49.186389923 2.9449999332 2.5329999924
 410.69641113  -999.250000 13.265998840  -999.250000  -999.250000 1.9053704739  -999.250000 65.785629272 149.45401001 148.34513855 2.8670361042 50.068988800 2.7599999905 2.4349999428
 410.84881592  -999.250000 13.772999763  -999.250000  -999.250000 1.8948870897  -999.250000 58.201541901 152.49176025 151.35905457 2.8770253658 48.684295654 1.6189999580 2.3389999866
 411.00122070  -999.250000 15.694999695  -999.250000  -999.250000 1.8857882023  -999.250000 53.377029419 155.14968872 154.02732849 2.8839712143 49.041561127 2.4860000610 2.2890000343
 411.15362549  -999.250000 16.437999725  -999.250000  -999.250000 1.8804981709  -999.250000 53.941265106 156.72749329 155.61560059 2.8759205341 48.647071838 1.9529999495 2.2950000763
