# LAS format log file from PETREL
# Project units are specified as depth units
#==================================================================
~Version information
VERS.   2.0:
WRAP.   NO:
#==================================================================
~Well
STRT .m      922.25012207 :
STOP .m      4009.0009766 :
STEP .m     0.00000000 :
NULL .        -999.250000 :
COMP.           : COMPANY
WELL.  30/6-11   : WELL
FLD.            : FIELD
LOC.            : LOCATION
SRVC.           : SERVICE COMPANY
DATE.  2018-09-11 14:48:30   : Log Export Date {yyyy-MM-dd HH:mm:ss}
PROV.           : PROVINCE
UWI.   30/6-11   : UNIQUE WELL ID
API.            : API NUMBER
#==================================================================
~Curve
DEPT .m                   : DEPTH
Lithology_geolink ._      : Lithology_geolink
CALI .in                  : CALI
DRHO .g/cm3               : DRHO
NPHI .m3/m3               : NPHI
RHOB .g/cm3               : RHOB
GR .gAPI                  : GR
DTC .us/ft                : DTC
RDEP .ohm.m               : RDEP
SP .mV                    : SP
RSHA .ohm.m               : RSHA
RMED .ohm.m               : RMED
~Parameter
#==================================================================
~Ascii
# ...
 2975.0000000 13.000000000 12.788998604 -0.252000004 0.1987899989 2.4948647022 58.462001801 96.642135620 2.0840001106 38.776000977 2.3629999161 2.3629999161
 2975.1250000 13.000000000 12.795999527 -0.270999998 0.1930299997 2.4677221775 58.405998230 96.808013916 2.0729999542 37.444000244 2.3519999981 2.3519999981
 2975.2502441 13.000000000 12.802000999 -0.291000009 0.1884399951 2.4443230629 57.861999512 96.976493835 2.0629999638 36.423999786 2.3420000076 2.3420000076
 2975.3752441 13.000000000 12.805998802 -0.310000002 0.1841900051 2.4257917404 55.727001190 97.129364014 2.0490000248 36.220001221 2.3299999237 2.3299999237
 2975.4997559 13.000000000 12.807999611 -0.321000010 0.1802099943 2.4148361683 53.676998138 97.253997803 2.0390000343 36.918998718 2.3210000992 2.3210000992
 2975.6250000 13.000000000 12.810000420 -0.316000015 0.1794199944 2.4151904583 52.712001801 97.344787598 2.0350000858 38.103000641 2.3159999847 2.3159999847
 2975.7500000 13.000000000 12.817000389 -0.303000003 0.1803099960 2.4282157421 52.512001038 97.394340515 2.0320000648 39.345001221 2.3120000362 2.3120000362
 2975.8745117 13.000000000 12.828000069 -0.256999999 0.1857299954 2.4485461712 53.145000458 97.400856018 2.0290000439 40.294998169 2.3039999008 2.3039999008
 2975.9995117 13.000000000 12.838000298 -0.171000004 0.1958000064 2.4743411541 53.431999207 97.334289551 2.0250000954 40.314998627 2.2999999523 2.2999999523
 2976.1247559 13.000000000 12.840000153 -0.104999997 0.2012299895 2.5005452633 52.747001648 97.122848511 2.0199999809 39.728000641 2.3059999943 2.3059999943
 2976.2500000 13.000000000 12.835999489 -0.045000002 0.2030600011 2.5217616558 51.351001740 96.686294556 2.0130000114 39.236999512 2.3229999542 2.3229999542
 2976.3750000 13.000000000 12.824999809 0.0020000001 0.1998600066 2.5346233845 49.249000549 95.947547913 1.9960000515 39.564998627 2.3729999065 2.3729999065
 2976.5000000 13.000000000 12.814000130 0.0289999992 0.1929199994 2.5334069729 48.289001465 94.872566223 1.9800000191 40.433998108 2.4110000134 2.4110000134
 2976.6250000 13.000000000 12.805998802 0.0230000000 0.1897899956 2.5228197575 48.763000488 93.737388611 1.9670000076 41.323001862 2.4149999619 2.4149999619
 2976.7500000 13.000000000 12.800999641 0.0120000001 0.1889699996 2.5054311752 49.859001160 92.716491699 1.9559999704 42.047000885 2.3910000324 2.3910000324
 2976.8750000 13.000000000 12.803999901 -0.005000000 0.1912400126 2.4832015038 52.189998627 91.962326050 1.9429999590 42.428001404 2.3180000782 2.3180000782
 2977.0002441 13.000000000 12.821999550 -0.025000000 0.1964199990 2.4584319592 54.289001465 91.595214844 1.9340000153 42.238998413 2.2550001144 2.2550001144
 2977.1254883 13.000000000 12.852000237 -0.033000000 0.2002499998 2.4402923584 55.680000305 91.746246338 1.9290000200 41.548999786 2.2260000706 2.2260000706
 2977.2504883 13.000000000 12.894001007 -0.037000000 0.2034600079 2.4366576672 56.861999512 92.356132507 1.9270000458 40.518001556 2.2100000381 2.2100000381
 2977.3750000 13.000000000 12.946000099 -0.032000002 0.2044599950 2.4451999664 58.147998810 93.261802673 1.9259999990 38.485000610 2.2060000896 2.2060000896
 2977.5000000 13.000000000 12.984000206 -0.014000000 0.2022500038 2.4639847279 58.726001740 94.329956055 1.9259999990 36.764999390 2.2109999657 2.2109999657
 2977.6252441 13.000000000 12.999999046 0.0020000001 0.1993699968 2.4884634018 58.446998596 95.416114807 1.9240000248 35.819000244 2.2230000496 2.2230000496
 2977.7497559 13.000000000 12.998999596 0.0160000008 0.1967900097 2.5104138851 57.804000854 96.385597229 1.9199999571 35.213001251 2.2390000820 2.2390000820
 2977.8747559 13.000000000 12.982000351 0.0280000009 0.1949799955 2.5283172131 56.707000732 97.043083191 1.9110000134 35.396999359 2.2579998970 2.2579998970
 2978.0000000 13.000000000 12.958000183 0.0350000001 0.1934700012 2.5404844284 56.090999603 97.575279236 1.9049999714 36.347000122 2.2630000114 2.2630000114
 2978.1250000 13.000000000 12.937999725 0.0350000001 0.1912700087 2.5455138683 56.037998199 98.154548645 1.9029999971 37.770999908 2.2530000210 2.2530000210
 2978.2495117 13.000000000 12.925999641 0.0329999998 0.1877499968 2.5445606709 55.938999176 98.944282532 1.9040000439 39.429000854 2.2390000820 2.2390000820
 2978.3747559 13.000000000 12.930000305 0.0320000015 0.1824500114 2.5401256084 54.941001892 100.07156372 1.9049999714 41.701000214 2.2190001011 2.2190001011
 2978.4997559 13.000000000 12.947999954 0.0320000015 0.1769499928 2.5344636440 53.443000793 101.52502441 1.9060000181 43.186000824 2.2070000172 2.2070000172
 2978.6250000 13.000000000 12.970000267 0.0299999993 0.1769300103 2.5291614532 51.909000397 102.98916626 1.9040000439 43.679000854 2.2049999237 2.2049999237
 2978.7500000 13.000000000 12.989998817 0.0250000004 0.1799599975 2.5225079060 50.487998962 104.08689880 1.8999999762 43.893001556 2.2060000896 2.2060000896
 2978.8750000 13.000000000 13.001000404 0.0130000003 0.1883600056 2.5128407478 49.518001556 104.57418060 1.8910000324 43.908000946 2.2149999142 2.2149999142
 2979.0000000 13.000000000 12.996999741 -0.004000000 0.2009699941 2.5010201931 49.855998993 104.29145813 1.8819999695 43.789001465 2.2260000706 2.2260000706
 2979.1250000 13.000000000 12.982000351 -0.007000000 0.2061499953 2.4912083149 51.361000061 103.19108582 1.8769999743 43.537998199 2.2330000401 2.2330000401
 2979.2500000 13.000000000 12.963999748 -0.003000000 0.2076300085 2.4915366173 53.229999542 101.44191742 1.8719999790 43.090999603 2.2369999886 2.2369999886
 2979.3752441 13.000000000 12.947999954 0.0040000002 0.2058799863 2.4939222336 55.030998230 99.625511169 1.8689999580 41.726001740 2.2309999466 2.2309999466
 2979.5004883 13.000000000 12.939999580 0.0070000002 0.2040999979 2.4939832687 55.486999512 98.048667908 1.8669999838 40.198001862 2.2219998837 2.2219998837
 2979.6254883 13.000000000 12.937999725 -0.001000000 0.2063100040 2.4893772602 55.141998291 96.884536743 1.8660000563 38.967998505 2.2149999142 2.2149999142
 2979.7500000 13.000000000 12.935999870 -0.012000000 0.2096400112 2.4801506996 55.310001373 96.192008972 1.8650000095 37.972000122 2.2079999447 2.2079999447
 2979.8752441 13.000000000 12.932000160 -0.021000000 0.2112000138 2.4703676701 57.328998566 95.934196472 1.8630000353 37.640998840 2.1970000267 2.1970000267
 2980.0002441 13.000000000 12.930000305 -0.026000001 0.2090699971 2.4651899338 59.339000702 95.954742432 1.8609999418 38.057998657 2.1849999428 2.1849999428
 2980.1247559 13.000000000 12.930999756 -0.025000000 0.2056800127 2.4649052620 60.125000000 96.060333252 1.8619999886 38.791999817 2.1749999523 2.1749999523
 2980.2497559 13.000000000 12.934999466 -0.021000000 0.2030500025 2.4697561264 60.050998688 96.198883057 1.8639999628 39.445999146 2.1659998894 2.1659998894
 2980.3750000 13.000000000 12.939000130 -0.009000000 0.2028700113 2.4800992012 59.205001831 96.343986511 1.8739999533 39.715000153 2.1630001068 2.1630001068
 2980.5000000 13.000000000 12.940999985 0.0099999998 0.2049799860 2.4958226681 58.727001190 96.487792969 1.8849999905 39.450000763 2.1700000763 2.1700000763
 2980.6245117 13.000000000 12.942000389 0.0189999994 0.2057799846 2.5094716549 58.859001160 96.621833801 1.8960000277 38.840999603 2.1840000153 2.1840000153
 2980.7497559 13.000000000 12.942999840 0.0219999999 0.2047400028 2.5127558708 59.099998474 96.735023499 1.9090000391 38.085998535 2.2009999752 2.2009999752
 2980.8747559 13.000000000 12.946999550 0.0149999997 0.2000299990 2.5070106983 59.167999268 96.817001343 1.9309999943 36.839000702 2.2309999466 2.2309999466
 2981.0000000 13.000000000 12.951000214 -0.001000000 0.1931599975 2.4961578846 59.095001221 96.859939575 1.9490000010 35.915000916 2.2569999695 2.2569999695
 2981.1250000 13.000000000 12.953000069 -0.007000000 0.1916600019 2.4860548973 59.096000671 96.858238220 1.9600000381 35.645000458 2.2720000744 2.2720000744
 2981.2500000 13.000000000 12.951000214 -0.009000000 0.1931399852 2.4846599102 59.297000885 96.807777405 1.9680000544 35.856998444 2.2850000858 2.2850000858
