# LAS format log file from PETREL
# Project units are specified as depth units
#==================================================================
~Version information
VERS.   2.0:
WRAP.   NO:
#==================================================================
~Well
STRT .m      922.25012207 :
STOP .m      4009.0009766 :
STEP .m     0.00000000 :
NULL .        -999.250000 :
COMP.           : COMPANY
WELL.  30/6-11   : WELL
FLD.            : FIELD
LOC.            : LOCATION
SRVC.           : SERVICE COMPANY
DATE.  2018-09-11 14:48:30   : Log Export Date {yyyy-MM-dd HH:mm:ss}
PROV.           : PROVINCE
UWI.   30/6-11   : UNIQUE WELL ID
API.            : API NUMBER
#==================================================================
~Curve
DEPT .m                   : DEPTH
Lithology_geolink ._      : Lithology_geolink
CALI .in                  : CALI
DRHO .g/cm3               : DRHO
NPHI .m3/m3               : NPHI
RHOB .g/cm3               : RHOB
GR .gAPI                  : GR
DTC .us/ft                : DTC
RDEP .ohm.m               : RDEP
SP .mV                    : SP
RSHA .ohm.m               : RSHA
RMED .ohm.m               : RMED
~Parameter
#==================================================================
~Ascii
# ...
 3382.9995117 5.0000000000 12.387000084 0.0080000004 0.2019400001 2.5124206543 57.152999878 83.304985046 8.1450004578 39.590000153 9.8330001831 9.8330001831
 3383.1245117 5.0000000000 12.355998993 0.0000000000 0.2158799917 2.4795999527 58.396999359 82.562179565 8.6269998550 39.334999084 9.9270000458 9.9270000458
 3383.2495117 18.000000000 12.336999893 -0.012000000 0.2331299931 2.4128963947 59.721000671 81.656555176 9.1899995804 39.242000580 10.131999969 10.131999969
 3383.3745117 18.000000000 12.329000473 -0.021000000 0.2577199936 2.3174276352 60.972000122 80.882644653 10.163999557 39.139999390 10.961000443 10.961000443
 3383.4995117 18.000000000 12.336000443 -0.023000000 0.2814300060 2.2160205841 61.472999573 80.390022278 11.008000374 39.019001007 12.043999672 12.043999672
 3383.6245117 18.000000000 12.358999252 -0.026000001 0.2773700058 2.1391012669 61.310001373 80.255035400 11.572999954 38.908000946 13.137000084 13.137000084
 3383.7495117 18.000000000 12.400000572 -0.039000001 0.2648400068 2.1182537079 61.034999847 80.476531982 12.097999573 38.818000793 14.232999802 14.232999802
 3383.8742676 18.000000000 12.465000153 -0.057999998 0.2474600077 2.1555962563 60.915000916 81.041587830 12.876999855 38.867000580 15.149999619 15.149999619
 3383.9992676 18.000000000 12.526000977 -0.068000004 0.2293400019 2.2368187904 61.222999573 82.093544006 13.572999954 39.143001556 15.381999969 15.381999969
 3384.1242676 18.000000000 12.564999580 -0.050999999 0.2202300131 2.3298301697 62.022998810 83.728988647 14.074000359 39.678001404 15.180999756 15.180999756
 3384.2492676 5.0000000000 12.586000443 -0.029999999 0.2108699977 2.4156963825 63.134998322 85.959770203 14.444999695 40.424999237 15.024999619 15.024999619
 3384.3745117 5.0000000000 12.591000557 -0.015000000 0.2004500031 2.4836006165 64.070999146 88.642189026 14.029000282 41.506999969 14.993000031 14.993000031
 3384.4990234 5.0000000000 12.579000473 -0.009000000 0.1911000013 2.5310862064 63.695999146 91.307014465 12.904999733 42.032001495 14.904999733 14.904999733
 3384.6240234 5.0000000000 12.555000305 -0.014000000 0.1893300116 2.5550518036 62.397998810 93.322731018 11.449000359 41.785999298 14.583000183 14.583000183
 3384.7492676 5.0000000000 12.519001007 -0.023000000 0.1896699965 2.5586266518 61.501998901 94.517639160 9.8570003510 41.176998138 13.996000290 13.996000290
 3384.8742676 5.0000000000 12.467000008 -0.039999999 0.1929400116 2.5412566662 63.307998657 94.888771057 7.7480001450 40.077999115 12.604999542 12.604999542
 3384.9987793 5.0000000000 12.423000336 -0.052999999 0.2002499998 2.5039989948 66.566001892 94.478439331 6.3249998093 39.380001068 11.234999657 11.234999657
 3385.1240234 6.0000000000 12.409000397 -0.041000001 0.2093800008 2.4482595921 69.516998291 93.338401794 5.7600002289 39.290000916 10.163999557 10.163999557
 3385.2490234 6.0000000000 12.442999840 -0.021000000 0.2216200083 2.3708853722 71.501998901 91.553535461 5.4660000801 39.423999786 9.0830001831 9.0830001831
 3385.3740234 6.0000000000 12.557000160 0.0020000001 0.2345400006 2.2467377186 70.574996948 89.547325134 5.5019998550 39.785999298 7.6170001030 7.6170001030
 3385.4990234 18.000000000 12.708999634 0.0179999992 0.2398399860 2.0966000557 67.240997314 87.793273926 5.7270002365 40.023998260 6.6519999504 6.6519999504
 3385.6240234 18.000000000 12.852000237 0.0120000001 0.2289100140 1.9569904804 62.669998169 86.775268555 5.9660000801 40.036998749 6.4109997749 6.4109997749
 3385.7487793 18.000000000 12.972998619 -0.010000000 0.2136500031 1.8567054272 57.450000763 86.896171570 6.1449999809 39.976001740 6.5729999542 6.5729999542
 3385.8737793 18.000000000 13.055999756 -0.066000000 0.1984000057 1.7950849533 50.348999023 88.415847778 6.2430000305 40.008998871 8.1330003738 8.1330003738
 3385.9987793 18.000000000 13.074998856 -0.150000006 0.1885399967 1.7921251059 46.032001495 91.669143677 6.3379998207 40.203998566 10.406000137 10.406000137
 3386.1237793 18.000000000 13.036000252 -0.180000007 0.1900099963 1.8530051708 45.276000977 95.658096313 6.5590000153 40.476001740 12.814999580 12.814999580
 3386.2487793 18.000000000 12.960000038 -0.171000004 0.1939200014 1.9771875143 45.793998718 99.994834900 7.0190000534 40.708000183 15.013999939 15.013999939
 3386.3737793 3.0000000000 12.845999718 -0.108000003 0.1987199932 2.1505939960 47.861999512 104.24376678 8.5439996719 40.755001068 15.888999939 15.888999939
 3386.4987793 3.0000000000 12.733999252 -0.025000000 0.2023200095 2.3418998718 49.790000916 107.94759369 10.277999878 40.647998810 15.482999802 15.482999802
 3386.6235352 3.0000000000 12.649000168 -0.011000000 0.2028400004 2.4597408772 51.324001312 110.49007416 11.651000023 40.543998718 14.765999794 14.765999794
 3386.7485352 3.0000000000 12.574999809 -0.014000000 0.2054599971 2.4924917221 53.217998505 111.24868774 12.680999756 40.580001831 14.187999725 14.187999725
 3386.8735352 3.0000000000 12.503999710 -0.018999999 0.2171699852 2.5089414120 56.214000702 110.12490845 12.826000214 41.334999084 13.515000343 13.515000343
 3387.0017090 5.0000000000 12.456000328 -0.016000001 0.2397599965 2.5264172554 57.939998627 107.07825470 12.229000092 42.387001038 12.994999886 12.994999886
 3387.1264648 5.0000000000 12.437001228 -0.003000000 0.2563500106 2.5451524258 57.563999176 102.58776855 11.418000221 43.296001434 12.668000221 12.668000221
 3387.2514648 5.0000000000 12.432999611 0.0109999999 0.2706199884 2.5583541393 55.807998657 97.082405090 10.649000168 43.916999817 12.373000145 12.373000145
 3387.3735352 5.0000000000 12.439000130 0.0219999999 0.2816199958 2.5562741756 50.863998413 91.623603821 9.7620000839 43.469001770 12.001999855 12.001999855
 3387.4985352 5.0000000000 12.450999260 0.0230000000 0.2905600071 2.5402371883 46.671001434 86.910018921 9.1999998093 42.296001434 11.750000000 11.750000000
 3387.6232910 3.0000000000 12.463999748 0.0140000004 0.2951999903 2.5130851269 45.185001373 83.493370056 9.0039997101 41.022998810 11.656000137 11.656000137
 3387.7512207 3.0000000000 12.479999542 -0.002000000 0.2993000150 2.4717030525 45.508998871 81.412368774 8.9219999313 39.923999786 11.631999969 11.631999969
 3387.8762207 3.0000000000 12.500000000 -0.024000000 0.3006300032 2.4135665894 49.298000336 80.521118164 9.0120000839 39.162998199 11.739000320 11.739000320
 3388.0014648 3.0000000000 12.520999908 -0.041999999 0.2975099981 2.3318150043 53.276000977 80.261909485 9.1870002747 38.955001831 11.885000229 11.885000229
 3388.1264648 3.0000000000 12.539999008 -0.035999998 0.2919999957 2.2630639076 55.887001038 79.941345215 9.3789997101 39.029998779 11.989000320 11.989000320
 3388.2509766 3.0000000000 12.557999611 -0.024000000 0.2856100202 2.2164626122 58.023998260 79.478996277 9.5909996033 39.076000214 12.043999672 12.043999672
 3388.3762207 18.000000000 12.571000099 -0.021000000 0.2791500092 2.1854333878 60.772998810 79.031303406 9.9200000763 39.055999756 12.104999542 12.104999542
 3388.5012207 18.000000000 12.567999840 -0.041999999 0.2742799819 2.1673500538 62.844001770 78.815284729 10.177000046 39.153999329 12.282999992 12.282999992
 3388.6262207 18.000000000 12.546999931 -0.074000001 0.2735899985 2.1657707691 63.851001740 79.046867371 10.312999725 39.555999756 12.659999847 12.659999847
 3388.7512207 18.000000000 12.510000229 -0.108000003 0.2723699808 2.1971461773 64.560997009 79.946517944 10.423000336 40.294998169 13.229000092 13.229000092
 3388.8762207 6.0000000000 12.453000069 -0.123999998 0.2649399936 2.2684226036 65.593002319 81.264450073 10.701000214 41.693000793 14.102999687 14.102999687
 3389.0009766 6.0000000000 12.395999908 -0.105999999 0.2485199869 2.3676118851 66.489997864 83.160873413 11.154999733 42.576999664 14.496000290 14.496000290
 3389.1259766 6.0000000000 12.354000092 -0.071999997 0.2358700037 2.4673373699 66.708000183 85.887374878 11.845999718 42.558998108 14.229999542 14.229999542
 3389.2509766 6.0000000000 12.319000244 -0.043000001 0.2253099978 2.5403532982 65.999000549 89.655731201 12.899999619 42.089000702 13.713000298 13.713000298
