# LAS format log file from PETREL
# Project units are specified as depth units
#==================================================================
~Version information
VERS.   2.0:
WRAP.   NO:
#==================================================================
~Well
STRT .m      360.12121582 :
STOP .m      3233.9282227 :
STEP .m     0.00000000 :
NULL .        -999.250000 :
COMP.           : COMPANY
WELL.  30/6-23   : WELL
FLD.            : FIELD
LOC.            : LOCATION
SRVC.           : SERVICE COMPANY
DATE.  2018-09-11 14:48:31   : Log Export Date {yyyy-MM-dd HH:mm:ss}
PROV.           : PROVINCE
UWI.   30/6-23   : UNIQUE WELL ID
API.            : API NUMBER
#==================================================================
~Curve
DEPT .m                   : DEPTH
Lithology_geolink ._      : Lithology_geolink
CALI .in                  : CALI
DRHO .g/cm3               : DRHO
NPHI .m3/m3               : NPHI
RHOB .g/cm3               : RHOB
GR .gAPI                  : GR
DTC .us/ft                : DTC
DTE .us/ft                : DTE
RDEP .ohm.m               : RDEP
SP .mV                    : SP
RSHA .ohm.m               : RSHA
RMED .ohm.m               : RMED
~Parameter
#==================================================================
~Ascii
# ...
 733.19647217  -999.250000 18.453100204 0.0147000002 0.4998954535 1.9168000221 45.227207184 138.80303955 138.58479309 1.0673999786 45.739124298  -999.250000 0.7133960724
 733.34887695  -999.250000 18.453100204 0.0229000002 0.5397553444 1.9320000410 47.107234955 138.76705933 138.58479309 1.0673999786 45.395797729  -999.250000 0.7084956765
 733.50128174  -999.250000 18.578100204 0.0142999999 0.5355834365 1.9500000477 47.896221161 138.80303955 138.58479309 1.0674016476 45.520599365  -999.250000 0.7030965090
 733.65362549  -999.250000 18.718799591 0.0252999999 0.5303745866 1.9379999638 47.549919128 138.76708984 138.58479309 1.0695014000 45.395523071  -999.250000 0.6986982226
 733.80603027  -999.250000 18.562500000 0.0255999994 0.5054454803 1.8926000595 45.355987549 138.80300903 138.58479309 1.0731006861 44.957672119  -999.250000 0.6942976713
 733.95843506  -999.250000 18.453100204 0.0232999995 0.4910648465 1.8546999693 47.322319031 138.76708984 138.58479309 1.0750001669 43.645973206  -999.250000 0.6885040998
 734.11083984  -999.250000 18.515600204 0.0196000002 0.5034967065 1.8744000196 47.869560242 138.80300903 138.58479309 1.0751999617 44.333324432  -999.250000 0.6987039447
 734.26324463  -999.250000 18.687500000 0.0346999988 0.4979102612 1.9328000546 47.771217346 138.81156921 138.58479309 1.0751999617 44.645736694  -999.250000 0.7085060477
 734.41564941  -999.250000 18.671899796 0.0266999993 0.4932441115 1.9151999950 45.063796997 138.76622009 138.58479309 1.0751999617 44.739536285  -999.250000 0.7236003876
 734.56805420  -999.250000 18.453100204 0.0201999992 0.4663089216 1.8860000372 43.316616058 138.79980469 138.58479309 1.0752003193 45.083198547  -999.250000 0.7246011496
 734.72045898  -999.250000 18.468799591 0.0195000004 0.4592621326 1.8804999590 44.597576141 138.76618958 138.58479309 1.0759996176 45.083248138  -999.250000 0.7275025845
 734.87286377  -999.250000 18.515600204 0.0344000012 0.4781554639 1.9052000046 45.282173157 138.80300903 138.58479309 1.0751992464 45.208198547  -999.250000 0.7339031100
 735.02526855  -999.250000 18.562500000 0.0430000015 0.4812675118 1.9190000296 45.212867737 138.76705933 138.58479309 1.0734000206 45.208484650  -999.250000 0.7416998148
 735.17767334  -999.250000 18.468799591 0.0318000019 0.4747231007 1.8960000277 44.629348755 138.80303955 138.58479309 1.0734007359 45.926822662  -999.250000 0.7412009835
 735.33007813  -999.250000 18.578100204 0.0253999997 0.4366628528 1.9165999889 43.506378174 138.76705933 138.58479309 1.0752015114 45.739723206  -999.250000 0.7437007427
 735.48248291  -999.250000 18.734399796 0.0346000008 0.4276587367 1.9522999525 45.224082947 138.79981995 138.58479309 1.0771008730 46.145648956  -999.250000 0.7445909977
 735.63488770  -999.250000 18.718799591 0.0317000002 0.4124276936 1.9555000067 46.073825836 138.81399536 138.58479309 1.0782014132 46.083499908  -999.250000 0.7334007621
 735.78723145  -999.250000 18.718799591 0.0228000004 0.3832446933 1.8997000456 45.607067108 138.76710510 138.58479309 1.0800004005 46.458084106  -999.250000 0.7344019413
 735.93963623  -999.250000 18.109399796 0.0267999992 0.3539026082 1.8380999565 48.021526337 138.80300903 138.58479309 1.0809996128 46.177085876  -999.250000 0.7393082380
 736.09204102  -999.250000 17.500000000 0.0318000019 0.3510434330 1.8317999840 47.580894470 138.76708984 138.58479309 1.0801998377 46.645698547  -999.250000 0.7598068714
 736.24444580  -999.250000 17.500000000 0.0423000008 0.3841921091 1.8526999950 50.560878754 138.79980469 138.58479309 1.0799996853 46.645862579  -999.250000 0.7769064307
 736.39685059  -999.250000 17.265600204 0.0458000004 0.3993267119 1.9127000570 49.511375427 138.76618958 138.58479309 1.0790995359 47.051734924  -999.250000 0.7929999828
 736.54925537  -999.250000 17.328100204 0.0452999994 0.4009246826 1.9183000326 49.456176758 138.79980469 138.58479309 1.0777981281 46.645637512  -999.250000 0.7930015326
 736.70166016  -999.250000 17.218799591 0.0221999995 0.3820083737 1.8903000355 46.398883820 138.76618958 138.58479309 1.0730968714 46.488937378  -999.250000 0.7968952656
 736.85406494  -999.250000 17.218799591 0.0155999996 0.3776193559 1.8840999603 46.858318329 138.80300903 138.58479309 1.0654972792 45.333148956  -999.250000 0.7851929665
 737.00646973  -999.250000 17.234399796 0.0109999999 0.3817711174 1.9082000256 45.656833649 138.76705933 138.58479309 1.0585980415 45.208061218  -999.250000 0.7676023245
 737.15887451  -999.250000 17.328100204 0.0110999998 0.4065057933 1.9498000145 48.487422943 138.80303955 138.58479309 1.0537984371 44.864662170  -999.250000 0.7733943462
 737.31127930  -999.250000 17.187500000 0.0111999996 0.4198131561 1.9796999693 47.790576935 138.81478882 138.58479309 1.0497969389 45.520248413  -999.250000 0.7593058348
 737.46368408  -999.250000 16.984399796 0.0115000000 0.4014988840 1.9937000275 49.884403229 138.76708984 138.58479309 1.0458967686 44.957847595  -999.250000 0.7666027546
 737.61608887  -999.250000 16.984399796 0.0119000003 0.3599130511 2.0183999538 50.259868622 138.79981995 138.58479309 1.0418962240 44.521099091  -999.250000 0.7700160146
 737.76843262  -999.250000 16.984399796 0.0100999996 0.3268770278 2.0232000351 49.845508575 138.76620483 138.58479309 1.0371984243 45.020759583  -999.250000 0.7899940014
 737.92083740  -999.250000 16.984399796 0.0126999998 0.3244366348 2.0344998837 51.618194580 138.80299377 138.58479309 1.0332988501 45.176712036  -999.250000 0.7748943567
 738.07324219  -999.250000 17.109399796 0.0121999998 0.3304195106 2.0399000645 49.852077484 138.76708984 138.58479309 1.0304000378 44.708412170  -999.250000 0.7606945634
 738.22564697  -999.250000 17.312500000 0.0126000000 0.3468689024 2.0499000549 48.297245026 138.79980469 138.58479309 1.0303000212 45.239200592  -999.250000 0.7471058369
 738.37805176  -999.250000 17.562500000 0.0120000001 0.3596660793 2.0711998940 44.663547516 138.76620483 138.58479309 1.0302996635 44.739585876  -999.250000 0.7617068291
 738.53045654  -999.250000 17.515600204 0.0098999999 0.3727320135 2.0913000107 41.281902313 138.79980469 138.58479309 1.0293999910 45.208335876  -999.250000 0.7787947059
 738.68286133  -999.250000 17.578100204 0.0076000001 0.3651054204 2.1068000793 41.539211273 138.81399536 138.58479309 1.0294010639 45.552249908  -999.250000 0.7655963302
 738.83526611  -999.250000 17.562500000 0.0041000000 0.3512735963 2.0966000557 40.566875458 138.76708984 138.58479309 1.0322011709 46.426975250  -999.250000 0.7562912107
 738.98767090  -999.250000 17.593799591 0.0024000001 0.3285354674 2.0789000988 42.254791260 138.80303955 138.58479309 1.0353020430 46.614597321  -999.250000 0.7343989611
 739.14007568  -999.250000 17.593799591 0.0026000000 0.3079417944 2.0613999367 42.975105286 138.76705933 138.58479309 1.0403034687 47.114349365  -999.250000 0.7318939567
 739.29248047  -999.250000 17.625000000 0.0027999999 0.3040032983 2.0387001038 43.494110107 138.80303955 138.58479309 1.0490043163 46.989585876  -999.250000 0.7167995572
 739.44488525  -999.250000 17.484399796 0.0035000001 0.3130073547 2.0181999207 46.265651703 138.76705933 138.58479309 1.0596082211 47.457897186  -999.250000 0.7157999873
 739.59729004  -999.250000 17.531200409 0.0093999999 0.3369714022 2.0265998840 44.458080292 138.79981995 138.58479309 1.0699057579 47.083225250  -999.250000 0.7158070207
 739.74969482  -999.250000 17.828100204 0.0096000005 0.3394073248 2.0610001087 44.309749603 138.76618958 138.58479309 1.0771037340 47.114223480  -999.250000 0.7246004343
 739.90203857  -999.250000 18.031200409 0.0113000004 0.3454021513 2.0959999561 41.124542236 138.80299377 138.58479309 1.0817008018 46.895847321  -999.250000 0.7251024842
 740.05444336  -999.250000 18.218799591 0.0077000000 0.3566468358 2.1092000008 42.977119446 138.81478882 138.58479309 1.0837996006 47.270637512  -999.250000 0.7313941717
 740.20684814  -999.250000 18.218799591 0.0014000000 0.3766974509 2.1026999950 42.270877838 138.76380920 138.58479309 1.0829994678 47.114112854  -999.250000 0.7167995572
 740.35925293  -999.250000 18.218799591 -0.012000000 0.3763777912 2.0975999832 42.719093323 138.80220032 138.58479309 1.0816980600 46.395473480  -999.250000 0.7157974839
