# LAS format log file from PETREL
# Project units are specified as depth units
#==================================================================
~Version information
VERS.   2.0:
WRAP.   NO:
#==================================================================
~Well
STRT .m      176.60998535 :
STOP .m      3556.0803223 :
STEP .m     0.00000000 :
NULL .        -999.250000 :
COMP.           : COMPANY
WELL.  30/6-5   : WELL
FLD.            : FIELD
LOC.            : LOCATION
SRVC.           : SERVICE COMPANY
DATE.  2018-09-11 14:48:31   : Log Export Date {yyyy-MM-dd HH:mm:ss}
PROV.           : PROVINCE
UWI.   30/6-5   : UNIQUE WELL ID
API.            : API NUMBER
#==================================================================
~Curve
DEPT .m                   : DEPTH
Lithology_geolink ._      : Lithology_geolink
CALI .in                  : CALI
DRHO .g/cm3               : DRHO
NPHI .m3/m3               : NPHI
RHOB .g/cm3               : RHOB
PEF .b/e                  : PEF
GR .gAPI                  : GR
DTC .us/ft                : DTC
DTE .us/ft                : DTE
RDEP .ohm.m               : RDEP
SP .mV                    : SP
RSHA .ohm.m               : RSHA
RMED .ohm.m               : RMED
~Parameter
#==================================================================
~Ascii
# ...
 3321.5366211 6.0000000000 14.413999557 -0.015000000 0.2233121544 2.4672005177  -999.250000 114.50000000 81.531471252 81.449851990 5.4380002022 110.45600128 0.7189999819 4.2420001030
 3321.6889648 6.0000000000 13.383000374 -0.010000000 0.1554752588 2.5181376934  -999.250000 111.43800354 77.433013916 77.530868530 5.7420001030 108.45600128 5.4140000343 5.3280000687
 3321.8415527 6.0000000000 12.624999046 -0.010000000 0.1290898025 2.5448992252  -999.250000 103.87500000 71.941085815 71.981101990 5.3200001717 106.95600128 14.109000206 7.9800000191
 3321.9938965 6.0000000000 12.546999931 -0.001000000 0.1228209957 2.5411510468  -999.250000 93.000000000 68.964179993 68.961326599 5.5040001869 112.45600128 14.765999794 9.9689998627
 3322.1462402 6.0000000000 12.453000069 0.0099999998 0.1188823059 2.5405435562  -999.250000 84.125000000 69.398521423 69.326942444 6.5159997940 103.20600128 14.390999794 9.4689998627
 3322.2985840 3.0000000000 12.382999420 0.0250000004 0.1195895821 2.5378506184  -999.250000 75.000000000 70.429328918 70.469039917 7.3200001717 108.20600128 11.640999794 8.3750000000
 3322.4511719 3.0000000000 12.288999557 0.0219999999 0.1163095683 2.5239930153  -999.250000 66.000000000 71.098312378 71.070213318 7.4299998283 107.95600128 11.977000237 7.2620000839
 3322.6035156 3.0000000000 12.171998978 0.0109999999 0.1078639179 2.5003049374  -999.250000 59.562999725 71.360130310 71.463264465 7.3319997787 106.95600128 9.3750000000 6.5199999809
 3322.7558594 3.0000000000 12.086001396 0.0030000000 0.0920895785 2.4767141342  -999.250000 56.030998230 71.802543640 71.872360229 6.8629999161 104.95600128 7.5590000153 6.0630002022
 3322.9082031 3.0000000000 12.015999794 0.0080000004 0.0919783935 2.4625413418  -999.250000 57.719001770 71.878395081 71.794708252 5.8550000191 104.20600128 7.6020002365 6.0120000839
 3323.0605469 3.0000000000 11.913999557 0.0160000008 0.0977204219 2.4583961964  -999.250000 59.655998230 71.529067993 71.551506042 5.3439998627 102.95600128 8.8669996262 6.2500000000
 3323.2131348 3.0000000000 11.843999863 0.0199999996 0.1040646136 2.4588699341  -999.250000 56.312999725 71.266868591 71.213531494 5.1599998474 106.45600128 8.8280000687 6.2890000343
 3323.3654785 3.0000000000 11.741999626 0.0099999998 0.1029280424 2.4538738728  -999.250000 51.687999725 70.859817505 70.938713074 5.3319997787 106.20600128 8.1800003052 6.1560001373
 3323.5178223 3.0000000000 11.671999931 0.0080000004 0.0960585549 2.4433150291  -999.250000 49.844001770 71.098312378 71.198379517 5.1479997635 102.70600128 6.8949999809 6.7969999313
 3323.6701660 3.0000000000 11.569999695 -0.005000000 0.0831348747 2.4326069355  -999.250000 50.780998230 71.290222168 71.373397827 5.2699999809 103.70600128 7.8159999847 6.6090002060
 3323.8227539 3.0000000000 11.569999695 -0.007000000 0.0721923560 2.4267277718  -999.250000 56.375000000 71.074996948 71.149787903 5.3520002365 104.20600128 7.3049998283 6.9340000153
 3323.9750977 3.0000000000 11.569999695 -0.005000000 0.0685700923 2.4333791733  -999.250000 62.530998230 71.063873291 71.045783997 5.4060001373 106.70600128 7.6170001030 6.9340000153
 3324.1274414 3.0000000000 11.602000237 0.0049999999 0.0748364404 2.4521560669  -999.250000 67.563003540 70.925682068 70.832191467 5.4959998131 104.95600128 7.7729997635 6.9569997787
 3324.2797852 3.0000000000 11.602000237 0.0130000003 0.0830933601 2.4753932953  -999.250000 65.125000000 70.621185303 70.579978943 5.5510001183 107.70319366 8.0229997635 7.1880002022
 3324.4323730 3.0000000000 11.602000237 0.0109999999 0.0934685096 2.4890534878  -999.250000 62.280998230 70.929763794 70.883857727 5.5780000687 105.95520020 8.1879997253 7.6290001869
 3324.5847168 3.0000000000 11.609001160 -0.002000000 0.0931606293 2.4872796535  -999.250000 61.155998230 71.860443115 71.815483093 5.7729997635 105.70720673 9.4219999313 7.1640000343
 3324.7370605 3.0000000000 11.602000237 -0.017000001 0.0932897776 2.4847197533  -999.250000 68.375000000 72.517929077 72.549545288 6.0199999809 106.45600128 8.9770002365 6.8090000153
 3324.8894043 6.0000000000 11.616999626 -0.025000000 0.0932575911 2.4998769760  -999.250000 78.938003540 72.546348572 72.493980408 6.3480000496 106.44838715 7.9450001717 7.2270002365
 3325.0419922 6.0000000000 11.609001160 -0.027000001 0.1050517261 2.5307140350  -999.250000 99.125000000 71.650604248 71.561347961 6.7300000191 101.78040314 8.5780000687 8.2340002060
 3325.1943359 6.0000000000 11.602000237 -0.017000001 0.1261442304 2.5642914772  -999.250000 108.18800354 70.149650574 70.060546875 7.1449999809 124.91834259 14.055000305 9.8280000687
 3325.3466797 6.0000000000 11.602000237 -0.012000000 0.1331989765 2.5952141285  -999.250000 106.06300354 67.969444275 68.038223267 7.6050000191 101.46961975 19.483999252 11.383000374
 3325.4990234 6.0000000000 11.609001160 -0.002000000 0.1203474030 2.6292507648  -999.250000 91.875000000 65.499649048 65.396644592 8.3050003052 109.95960999 17.687999725 12.602000237
 3325.6513672 6.0000000000 11.640999794 0.0049999999 0.0914934948 2.6625833511  -999.250000 82.250000000 63.326400757 63.271442413 9.0629997253 112.20680237 21.922000885 14.156000137
 3325.8039551 6.0000000000 11.656000137 0.0099999998 0.0739222169 2.6748924255  -999.250000 77.000000000 62.226882935 62.140304565 9.7889995575 112.70600128 45.187999725 17.016000748
 3325.9562988 6.0000000000 11.734000206 0.0120000001 0.0744407251 2.6588940620  -999.250000 78.375000000 62.118560791 62.120311737 10.328000069 112.70559692 43.969001770 21.141000748
 3326.1086426 6.0000000000 11.788999557 0.0070000002 0.0870801285 2.6284778118  -999.250000 86.375000000 63.231636047 63.156528473 10.671999931 112.45680237 28.968999863 18.983999252
 3326.2609863 6.0000000000 11.828000069 0.0020000001 0.1027503163 2.6026275158  -999.250000 93.688003540 64.538978577 64.505912781 10.647999763 112.95439911 18.812999725 14.609000206
 3326.4135742 6.0000000000 11.859000206 -0.005000000 0.1278998554 2.5923428535  -999.250000 98.188003540 65.982925415 66.012695313 10.406000137 111.96080017 20.922000885 12.836000443
 3326.5659180 6.0000000000 11.883000374 -0.008000000 0.1632020324 2.5961155891  -999.250000 107.06300354 67.498260498 67.472442627 10.093999863 113.46041107 20.562999725 12.366999626
 3326.7182617 6.0000000000 11.930000305 -0.010000000 0.1926877201 2.6022026539  -999.250000 120.75000000 68.844604492 68.889274597 10.093999863 116.20399475 21.047000885 12.147999763
 3326.8706055 7.0000000000 11.968999863 -0.006000000 0.2043653876 2.5970201492  -999.250000 133.12500000 70.376579285 70.320686340 9.9610004425 114.95600128 21.077999115 12.147999763
 3327.0231934 7.0000000000 12.015999794 -0.007000000 0.1872632802 2.5809864998  -999.250000 130.62500000 71.503921509 71.447006226 10.102000237 114.96160126 21.187999725 12.008000374
 3327.1755371 7.0000000000 12.055000305 -0.002000000 0.1629607826 2.5647759438  -999.250000 120.31300354 70.885414124 70.927833557 9.9840002060 116.70680237 19.672000885 12.227000237
 3327.3278809 7.0000000000 12.062998772 0.0049999999 0.1340546906 2.5563404560  -999.250000 101.62500000 69.132247925 69.075782776 8.7340002060 117.20520020 20.983999252 13.336000443
 3327.4802246 7.0000000000 12.062998772 0.0199999996 0.1199685261 2.5559887886  -999.250000 92.688003540 69.160827637 69.121833801 7.5199999809 116.70680237 14.812999725 12.046999931
 3327.6325684 7.0000000000 12.069999695 0.0230000000 0.1226971820 2.5570938587  -999.250000 92.313003540 72.694061279 72.619201660 6.6760001183 117.20880890 15.828000069 11.477000237
 3327.7851563 6.0000000000 12.062998772 0.0089999996 0.1469248086 2.5496344566  -999.250000 92.000000000 76.728897095 76.716156006 5.9730000496 118.96080017 15.319999695 9.7889995575
 3327.9375000 6.0000000000 12.055000305 -0.010000000 0.1936140358 2.5298941135  -999.250000 87.063003540 78.265075684 78.323905945 5.8829998970 120.45880890 11.991999626 5.4450001717
 3328.0898438 6.0000000000 12.055000305 -0.009000000 0.2255404145 2.5090951920  -999.250000 81.125000000 78.570022583 78.482612610 5.8439998627 122.20559692 10.484000206 3.2890000343
