# LAS format log file from PETREL
# Project units are specified as depth units
#==================================================================
~Version information
VERS.   2.0:
WRAP.   NO:
#==================================================================
~Well
STRT .m      176.60998535 :
STOP .m      3556.0803223 :
STEP .m     0.00000000 :
NULL .        -999.250000 :
COMP.           : COMPANY
WELL.  30/6-5   : WELL
FLD.            : FIELD
LOC.            : LOCATION
SRVC.           : SERVICE COMPANY
DATE.  2018-09-11 14:48:31   : Log Export Date {yyyy-MM-dd HH:mm:ss}
PROV.           : PROVINCE
UWI.   30/6-5   : UNIQUE WELL ID
API.            : API NUMBER
#==================================================================
~Curve
DEPT .m                   : DEPTH
Lithology_geolink ._      : Lithology_geolink
CALI .in                  : CALI
DRHO .g/cm3               : DRHO
NPHI .m3/m3               : NPHI
RHOB .g/cm3               : RHOB
PEF .b/e                  : PEF
GR .gAPI                  : GR
DTC .us/ft                : DTC
DTE .us/ft                : DTE
RDEP .ohm.m               : RDEP
SP .mV                    : SP
RSHA .ohm.m               : RSHA
RMED .ohm.m               : RMED
~Parameter
#==================================================================
~Ascii
# ...
 625.88519287  -999.250000 15.507999420  -999.250000  -999.250000 1.9700590372  -999.250000 78.227508545 132.40054321 131.29071045 2.7989718914 51.620040894 2.9730000496 2.4300000668
 626.03759766  -999.250000 14.984000206  -999.250000  -999.250000 1.9760545492  -999.250000 74.146423340 130.98196411 129.82579041 2.7889299393 49.141624451 2.7969999313 2.4289999008
 626.19000244  -999.250000 15.578000069  -999.250000  -999.250000 1.9736976624  -999.250000 76.071685791 131.54270935 130.39045715 2.7640028000 48.407661438 2.8159999847 2.4170000553
 626.34240723  -999.250000 16.156000137  -999.250000  -999.250000 1.9636118412  -999.250000 74.536880493 133.95109558 132.86364746 2.7650644779 50.163547516 2.1070001125 2.3829998970
 626.49481201  -999.250000 16.297000885  -999.250000  -999.250000 1.9558426142  -999.250000 74.129234314 135.94601440 134.81745911 2.7880308628 48.935619354 1.8049999475 2.3529999256
 626.64721680  -999.250000 16.156000137  -999.250000  -999.250000 1.9519891739  -999.250000 70.984878540 136.92817688 135.78605652 2.7989888191 49.660503387 1.6970000267 2.3429999352
 626.79962158  -999.250000 15.741999626  -999.250000  -999.250000 1.9568651915  -999.250000 62.064086914 135.70028687 134.56396484 2.7949807644 49.793750763 2.3949999809 2.3359999657
 626.95202637  -999.250000 16.437999725  -999.250000  -999.250000 1.9689503908  -999.250000 65.531349182 132.70219421 131.55293274 2.7889583111 48.069099426 2.4000000954 2.3870000839
 627.10443115  -999.250000 16.108999252  -999.250000  -999.250000 1.9714118242  -999.250000 71.261970520 132.03851318 130.95622253 2.7759969234 48.926719666 2.2790000439 2.4000000954
 627.25683594  -999.250000 15.437999725  -999.250000  -999.250000 1.9636718035  -999.250000 78.416358948 133.97801208 132.86273193 2.7750608921 49.403408051 2.1740000248 2.4119999409
 627.40917969  -999.250000 15.444999695  -999.250000  -999.250000 1.9600101709  -999.250000 80.375854492 134.91943359 133.76666260 2.7940194607 49.790245056 2.6289999485 2.3680000305
 627.56158447  -999.250000 15.109001160  -999.250000  -999.250000 1.9632004499  -999.250000 73.913719177 134.08493042 132.96804810 2.8011291027 48.932125092 2.4839999676 2.3610000610
 627.71398926  -999.250000 14.961000443  -999.250000  -999.250000 1.9663972855  -999.250000 70.954872131 133.23898315 132.17837524 2.8470671177 48.664451599 2.7730000019 2.3440001011
 627.86639404  -999.250000 14.843999863  -999.250000  -999.250000 1.9705071449  -999.250000 65.927650452 132.27951050 131.16729736 2.8710281849 50.049125671 2.9570000172 2.3670001030
 628.01879883  -999.250000 15.383000374  -999.250000  -999.250000 1.9739414454  -999.250000 65.079704285 131.45114136 130.32739258 2.8810057640 49.774520874 2.7620000839 2.3580000401
 628.17120361  -999.250000 15.227000237  -999.250000  -999.250000 1.9709975719  -999.250000 60.704113007 132.16026306 131.05374146 2.8829717636 49.012210846 2.8139998913 2.3659999371
 628.32360840  -999.250000 15.132999420  -999.250000  -999.250000 1.9752449989  -999.250000 60.741714478 131.11695862 130.02513123 2.8728792667 51.877948761 3.0020000935 2.3919999599
 628.47601318  -999.250000 15.405999184  -999.250000  -999.250000 1.9801540375  -999.250000 59.571903229 129.96203613 128.83638000 2.8299887180 51.854469299 2.8220000267 2.4079999924
 628.62841797  -999.250000 15.405999184  -999.250000  -999.250000 1.9788292646  -999.250000 59.177722931 130.28590393 129.16447449 2.8259859085 49.497825623 3.1189999580 2.3940000534
 628.78082275  -999.250000 16.312999725  -999.250000  -999.250000 1.9785161018  -999.250000 58.030151367 130.37130737 129.22601318 2.8209354877 49.999874115 3.0179998875 2.3380000591
 628.93322754  -999.250000 15.961001396  -999.250000  -999.250000 1.9727690220  -999.250000 64.490997314 131.73789978 130.61257935 2.7979199886 49.139183044 2.5699999332 2.2709999084
 629.08563232  -999.250000 15.992000580  -999.250000  -999.250000 1.9689700603  -999.250000 66.678520203 132.62290955 131.55513000 2.7729487419 50.017227173 1.9739999771 2.2300000191
 629.23803711  -999.250000 15.522999763  -999.250000  -999.250000 1.9625211954  -999.250000 69.944030762 134.26339722 133.13940430 2.7568492889 49.525676727 2.7699999809 2.2000000477
 629.39044189  -999.250000 15.913998604  -999.250000  -999.250000 1.9658017159  -999.250000 67.154388428 133.43479919 132.32875061 2.7099103928 49.163658142 1.9750000238 2.2030000687
 629.54278564  -999.250000 16.250000000  -999.250000  -999.250000 1.9680476189  -999.250000 67.583580017 132.86825562 131.75978088 2.6820111275 50.166515350 2.5959999561 2.2230000496
 629.69519043  -999.250000 16.547000885  -999.250000  -999.250000 1.9624639750  -999.250000 66.711334229 134.22174072 133.14039612 2.6860420704 47.534633636 2.1389999390 2.2439999580
 629.84759521  -999.250000 16.156000137  -999.250000  -999.250000 1.9580219984  -999.250000 62.563800812 135.39071655 134.25692749 2.7009999752 49.908721924 2.2599999905 2.2550001144
 630.00000000  -999.250000 15.555000305  -999.250000  -999.250000 1.9553818703  -999.250000 63.213020325 136.03817749 134.91867065 2.7009830475 49.509326935 1.6419999599 2.2190001011
 630.15240479  -999.250000 14.953000069  -999.250000  -999.250000 1.9641139507  -999.250000 66.433357239 133.91307068 132.75856018 2.6949410439 48.990428925 2.3399999142 2.2290000916
 630.30480957  -999.250000 15.328000069  -999.250000  -999.250000 1.9684425592  -999.250000 70.481918335 132.78013611 131.67457581 2.6740112305 49.742816925 2.5610001087 2.2430000305
 630.45721436  -999.250000 15.366999626  -999.250000  -999.250000 1.9642680883  -999.250000 73.659240723 133.79660034 132.69871521 2.6780393124 48.755729675 2.9790000916 2.2890000343
 630.60961914  -999.250000 15.250000000  -999.250000  -999.250000 1.9646664858  -999.250000 75.528961182 133.74699402 132.60391235 2.6920840740 49.507877350 2.6050000191 2.2820000648
 630.76202393  -999.250000 15.319999695  -999.250000  -999.250000 1.9619258642  -999.250000 77.284141541 134.43000793 133.28526306 2.7220644951 48.641777039 2.4839999676 2.2479999065
 630.91442871  -999.250000 15.484001160  -999.250000  -999.250000 1.9569016695  -999.250000 74.458229065 135.69389343 134.53953552 2.7449967861 48.030181885 2.6480000019 2.2660000324
 631.06683350  -999.250000 15.694999695  -999.250000  -999.250000 1.9601670504  -999.250000 64.556930542 134.82469177 133.73080444 2.7439517975 48.907211304 2.4240000248 2.2709999084
 631.21923828  -999.250000 15.397999763  -999.250000  -999.250000 1.9644123316  -999.250000 58.935413361 133.77178955 132.66531372 2.7289743423 48.137832642 2.6719999313 2.3150000572
 631.37164307  -999.250000 16.468999863  -999.250000  -999.250000 1.9639990330  -999.250000 58.764476776 133.88839722 132.75866699 2.7209742069 48.647182465 3.2660000324 2.2909998894
 631.52404785  -999.250000 15.937998772  -999.250000  -999.250000 1.9677584171  -999.250000 62.338413239 132.95640564 131.83609009 2.7130000591 49.524806976 2.8129999638 2.2929999828
 631.67639160  -999.250000 15.852001190  -999.250000  -999.250000 1.9677572250  -999.250000 63.091667175 132.93362427 131.83082581 2.7130224705 48.927532196 2.6659998894 2.2639999390
 631.82879639  -999.250000 15.171999931  -999.250000  -999.250000 1.9630682468  -999.250000 63.688018799 134.13298035 132.99690247 2.7209916115 51.900009155 2.6329998970 2.2939999104
 631.98120117  -999.250000 15.250000000  -999.250000  -999.250000 1.9667326212  -999.250000 64.770393372 133.21403503 132.09904480 2.7179691792 53.755462646 2.6640000343 2.3229999542
 632.13360596  -999.250000 14.906000137  -999.250000  -999.250000 1.9686188698  -999.250000 67.763809204 132.74450684 131.63238525 2.7070224285 49.547027588 2.7149999142 2.3550000191
 632.28601074  -999.250000 15.109001160  -999.250000  -999.250000 1.9658350945  -999.250000 70.897430420 133.42007446 132.30599976 2.7150056362 50.797271729 2.5720000267 2.3499999046
 632.43841553  -999.250000 15.241999626  -999.250000  -999.250000 1.9640567303  -999.250000 70.702148438 133.81819153 132.74966431 2.7170140743 49.949752808 2.8399999142 2.3280000687
