# LAS format log file from PETREL
# Project units are specified as depth units
#==================================================================
~Version information
VERS.   2.0:
WRAP.   NO:
#==================================================================
~Well
STRT .m      922.25012207 :
STOP .m      4009.0009766 :
STEP .m     0.00000000 :
NULL .        -999.250000 :
COMP.           : COMPANY
WELL.  30/6-11   : WELL
FLD.            : FIELD
LOC.            : LOCATION
SRVC.           : SERVICE COMPANY
DATE.  2018-09-11 14:48:30   : Log Export Date {yyyy-MM-dd HH:mm:ss}
PROV.           : PROVINCE
UWI.   30/6-11   : UNIQUE WELL ID
API.            : API NUMBER
#==================================================================
~Curve
DEPT .m                   : DEPTH
Lithology_geolink ._      : Lithology_geolink
CALI .in                  : CALI
DRHO .g/cm3               : DRHO
NPHI .m3/m3               : NPHI
RHOB .g/cm3               : RHOB
GR .gAPI                  : GR
DTC .us/ft                : DTC
RDEP .ohm.m               : RDEP
SP .mV                    : SP
RSHA .ohm.m               : RSHA
RMED .ohm.m               : RMED
~Parameter
#==================================================================
~Ascii
# ...
 1948.6248779  -999.250000 17.135999680 -0.012000000  -999.250000 2.0932245255 124.81900024 138.82688904 0.6079999804 25.506999969 0.3389999866 0.3389999866
 1948.7501221  -999.250000 17.177000046 0.0649999976  -999.250000 2.1594603062 125.61100006 141.69364929 0.6039999723 25.587999344 0.3389999866 0.3389999866
 1948.8750000  -999.250000 17.215999603 0.0780000016  -999.250000 2.2019212246 125.08799744 143.83810425 0.6050000191 25.863000870 0.3370000124 0.3370000124
 1949.0000000  -999.250000 17.246999741 0.0329999998  -999.250000 2.1827976704 123.36599731 145.18426514 0.6100000143 25.739000320 0.3339999914 0.3339999914
 1949.1250000  -999.250000 17.280000687 -0.033000000  -999.250000 2.1211409569 121.82199860 146.03565979 0.6140000224 24.868999481 0.3310000002 0.3310000002
 1949.2500000  -999.250000 17.322999954 -0.071999997  -999.250000 2.0482683182 121.42700195 146.74076843 0.6159999967 23.632999420 0.3300000131 0.3300000131
 1949.3748779  -999.250000 17.370000839 -0.046999998  -999.250000 1.9996850491 121.55400085 147.59231567 0.6150000095 22.971000671 0.3310000002 0.3310000002
 1949.5002441  -999.250000 17.399999619 0.0140000004  -999.250000 2.0089838505 120.59200287 148.65510559 0.6110000014 23.271999359 0.3330000043 0.3330000043
 1949.6251221  -999.250000 17.395999908 0.0769999996  -999.250000 2.0514967442 117.98500061 149.75582886 0.6079999804 23.853000641 0.3339999914 0.3339999914
 1949.7498779  -999.250000 17.361000061 0.1209999993  -999.250000 2.0963680744 115.14499664 150.68891907 0.6050000191 23.736000061 0.3350000083 0.3350000083
 1949.8751221  -999.250000 17.312000275 0.1400000006  -999.250000 2.1339082718 114.15000153 151.37307739 0.6029999852 22.683000565 0.3350000083 0.3350000083
 1950.0001221  -999.250000 17.274000168 0.1449999958  -999.250000 2.1587393284 115.86399841 151.78933716 0.6019999981 21.514999390 0.3359999955 0.3359999955
 1950.1250000  -999.250000 17.254999161 0.1330000013  -999.250000 2.1693456173 119.46299744 151.99734497 0.6010000110 21.416000366 0.3359999955 0.3359999955
 1950.2500000  -999.250000 17.249000549 0.1040000021  -999.250000 2.1593432426 123.50900269 152.17689514 0.6029999852 22.858999252 0.3370000124 0.3370000124
 1950.3750000  -999.250000 17.247999191 0.0640000030  -999.250000 2.1333048344 126.34999847 152.61343384 0.6069999933 24.843999863 0.3370000124 0.3370000124
 1950.4998779  -999.250000 17.246999741 0.0320000015  -999.250000 2.1026742458 127.11900330 153.39570618 0.6150000095 26.173999786 0.3379999995 0.3379999995
 1950.6248779  -999.250000 17.245000839 0.0250000004  -999.250000 2.0771892071 126.20300293 154.57754517 0.6240000129 26.444000244 0.3370000124 0.3370000124
 1950.7501221  -999.250000 17.243999481 0.0390000008  -999.250000 2.0639865398 124.53199768 156.15141296 0.6340000033 25.778999329 0.3379999995 0.3379999995
 1950.8747559  -999.250000 17.243999481 0.0630000010  -999.250000 2.0649683475 123.20899963 158.00982666 0.6409999728 24.724000931 0.3400000036 0.3400000036
 1950.9998779  -999.250000 17.245000839 0.0860000029  -999.250000 2.0729424953 122.80100250 159.86177063 0.6449999809 23.576000214 0.3449999988 0.3449999988
 1951.1251221  -999.250000 17.246999741 0.1070000008  -999.250000 2.0850439072 122.79100037 161.26943970 0.6460000277 22.458000183 0.3510000110 0.3510000110
 1951.2500000  -999.250000 17.250000000 0.1270000041  -999.250000 2.1027114391 122.37100220 162.05761719 0.6470000148 21.636999130 0.3560000062 0.3560000062
 1951.3750000  -999.250000 17.260999680 0.1430000067  -999.250000 2.1255006790 121.52899933 162.18333435 0.6489999890 21.618999481 0.3589999974 0.3589999974
 1951.5000000  -999.250000 17.281999588 0.1500000060  -999.250000 2.1503820419 120.93000031 161.70060730 0.6499999762 22.715999603 0.3580000103 0.3580000103
 1951.6250000  -999.250000 17.309000015 0.1430000067  -999.250000 2.1674351692 121.35299683 160.70898438 0.6499999762 24.481000900 0.3549999893 0.3549999893
 1951.7498779  -999.250000 17.334999084 0.1280000061  -999.250000 2.1727483273 123.41200256 159.40711975 0.6439999938 26.128000259 0.3510000110 0.3510000110
 1951.8752441  -999.250000 17.350000381 0.1150000021  -999.250000 2.1707718372 126.42900085 157.93553162 0.6340000033 27.007999420 0.3479999900 0.3479999900
 1952.0001221  -999.250000 17.354000092 0.1070000008  -999.250000 2.1636400223 129.19900513 156.46304321 0.6190000176 26.850999832 0.3449999988 0.3449999988
 1952.1248779  -999.250000 17.350999832 0.0960000008  -999.250000 2.1517136097 130.68400574 155.17495728 0.6019999981 25.927999496 0.3420000076 0.3420000076
 1952.2501221  -999.250000 17.347000122 0.0780000016  -999.250000 2.1326558590 130.54200745 154.28639221 0.5849999785 24.597000122 0.3400000036 0.3400000036
 1952.3751221  -999.250000 17.346000671 0.0599999987  -999.250000 2.1078932285 129.47500610 154.21189880 0.5709999800 23.332000732 0.3370000124 0.3370000124
 1952.5000000  -999.250000 17.343000412 0.0560000017  -999.250000 2.0906002522 128.33299255 154.84118652 0.5630000234 22.475000381 0.3330000043 0.3330000043
 1952.6250000  -999.250000 17.332000732 0.0689999983  -999.250000 2.0862355232 127.30000305 156.01742554 0.5600000024 22.089000702 0.3289999962 0.3289999962
 1952.7500000  -999.250000 17.311000824 0.0930000022  -999.250000 2.0936989784 125.74199677 157.56446838 0.5640000105 22.222999573 0.3249999881 0.3249999881
 1952.8748779  -999.250000 17.277000427 0.1099999994  -999.250000 2.1063981056 123.06999969 159.30091858 0.5720000267 22.850999832 0.3240000010 0.3240000010
 1952.9998779  -999.250000 17.232000351 0.1120000035  -999.250000 2.1105794907 119.60500336 161.04879761 0.5820000172 23.947999954 0.3260000050 0.3260000050
 1953.1251221  -999.250000 17.173999786 0.1080000028  -999.250000 2.1059708595 116.47899628 162.75782776 0.5920000076 25.455999374 0.3300000131 0.3300000131
 1953.2498779  -999.250000 17.108999252 0.1059999987  -999.250000 2.1016886234 114.87799835 164.31753540 0.6039999723 27.351999283 0.3350000083 0.3350000083
 1953.3746338  -999.250000 17.044000626 0.1110000014  -999.250000 2.1023361683 114.71800232 165.59281921 0.6169999838 29.122999191 0.3379999995 0.3379999995
 1953.5001221  -999.250000 16.992000580 0.1190000027  -999.250000 2.1096022129 115.21199799 166.42321777 0.6320000291 29.879999161 0.3389999866 0.3389999866
 1953.6250000  -999.250000 16.959999084 0.1270000041  -999.250000 2.1214520931 115.67099762 166.63282776 0.6480000019 29.291999817 0.3379999995 0.3379999995
 1953.7500000  -999.250000 16.947000504 0.1309999973  -999.250000 2.1322007179 115.94200134 165.97364807 0.6620000005 27.693000793 0.3370000124 0.3370000124
 1953.8750000  -999.250000 16.948999405 0.1289999932  -999.250000 2.1384563446 116.01200104 164.71617126 0.6729999781 26.059999466 0.3370000124 0.3370000124
 1954.0001221  -999.250000 16.961000443 0.1209999993  -999.250000 2.1385326385 116.27200317 163.04188538 0.6779999733 25.208000183 0.3389999866 0.3389999866
 1954.1248779  -999.250000 16.986000061 0.1059999987  -999.250000 2.1315989494 117.21399689 161.09436035 0.6759999990 25.190000534 0.3429999948 0.3429999948
 1954.2502441  -999.250000 17.034999847 0.0879999995  -999.250000 2.1185660362 118.84200287 158.99183655 0.6679999828 25.468999863 0.3479999900 0.3479999900
 1954.3751221  -999.250000 17.111999512 0.0780000016  -999.250000 2.1048767567 120.29100037 156.93460083 0.6560000181 25.347000122 0.3519999981 0.3519999981
 1954.4998779  -999.250000 17.208999634 0.0799999982  -999.250000 2.1013166904 120.81900024 155.13095093 0.6430000067 24.839000702 0.3529999852 0.3529999852
 1954.6251221  -999.250000 17.312999725 0.0890000015  -999.250000 2.1052701473 120.61199951 153.68032837 0.6309999824 24.461999893 0.3519999981 0.3519999981
 1954.7501221  -999.250000 17.406000137 0.0989999995  -999.250000 2.1124005318 120.30200195 152.60324097 0.6179999709 24.656000137 0.3510000110 0.3510000110
 1954.8750000  -999.250000 17.479000092 0.1010000035  -999.250000 2.1183879375 120.41100311 151.88691711 0.6060000062 25.361000061 0.3499999940 0.3499999940
