# LAS format log file from PETREL
# Project units are specified as depth units
#==================================================================
~Version information
VERS.   2.0:
WRAP.   NO:
#==================================================================
~Well
STRT .m      581.07043457 :
STOP .m      2909.8947754 :
STEP .m     0.00000000 :
NULL .        -999.250000 :
COMP.           : COMPANY
WELL.  30/6-14   : WELL
FLD.            : FIELD
LOC.            : LOCATION
SRVC.           : SERVICE COMPANY
DATE.  2018-09-11 14:48:30   : Log Export Date {yyyy-MM-dd HH:mm:ss}
PROV.           : PROVINCE
UWI.   30/6-14   : UNIQUE WELL ID
API.            : API NUMBER
#==================================================================
~Curve
DEPT .m                   : DEPTH
Lithology_geolink ._      : Lithology_geolink
CALI .in                  : CALI
DRHO .g/cm3               : DRHO
NPHI .m3/m3               : NPHI
RHOB .g/cm3               : RHOB
GR .gAPI                  : GR
DTC .us/ft                : DTC
RDEP .ohm.m               : RDEP
SP .mV                    : SP
RSHA .ohm.m               : RSHA
RMED .ohm.m               : RMED
~Parameter
#==================================================================
~Ascii
 581.07043457  -999.250000 18.983999252 -0.748000026  -999.250000 2.1370000839 71.432746887 134.24819946 2.8730142117 50.950000763  -999.250000 2.2700312138
 581.22283936  -999.250000 19.000000000 -0.736999989  -999.250000 2.1579999924 73.994865417 134.74899292 2.8670120239 49.453006744  -999.250000 2.2520360947
 581.37524414  -999.250000 18.983999252 -0.716000021  -999.250000 2.1819999218 72.316383362 135.74800110 2.8709919453 50.073749542  -999.250000 2.2340359688
 581.52764893  -999.250000 19.000000000 -0.713999987  -999.250000 2.1879999638 66.449768066 135.50050354 2.8710000515 50.199748993  -999.250000 2.2230219841
 581.68005371  -999.250000 18.983999252 -0.734000027  -999.250000 2.1640000343 65.564758301 134.75149536 2.8670082092 50.075252533  -999.250000 2.2130200863
 581.83245850  -999.250000 19.000000000 -0.730000019  -999.250000 2.1800000668 65.375373840 133.75199890 2.8769800663 50.574001312  -999.250000 2.2149958611
 581.98486328  -999.250000 18.983999252 -0.721000016  -999.250000 2.2009999752 68.119491577 134.74800110 2.8789958954 50.699748993  -999.250000 2.2359580994
 582.13726807  -999.250000 18.983999252 -0.704999983  -999.250000 2.2439999580 68.998245239 136.99549866 2.8789999485 51.323749542  -999.250000 2.2709298134
 582.28961182  -999.250000 18.983999252 -0.695999980  -999.250000 2.2660000324 69.935752869 135.75300598 2.8750095367 50.826202393  -999.250000 2.2989327908
 582.44201660  -999.250000 18.983999252 -0.694000006  -999.250000 2.2709999084 67.007057190 135.99940491 2.8750000000 50.575599670  -999.250000 2.2970046997
 582.59442139  -999.250000 18.983999252 -0.700999975  -999.250000 2.2479999065 65.254203796 134.25421143 2.8769953251 51.073799133  -999.250000 2.2790431976
 582.74682617  -999.250000 18.968999863 -0.717999995  -999.250000 2.2090001106 63.816452026 132.25480652 2.8770000935 51.075000763  -999.250000 2.2710192204
 582.89923096  -999.250000 18.983999252 -0.723999977  -999.250000 2.1889998913 64.997146606 131.00300598 2.8710143566 51.199699402  -999.250000 2.2729952335
 583.05163574  -999.250000 18.983999252 -0.731000006  -999.250000 2.1700000763 65.997596741 131.00000000 2.8630192280 51.200000763  -999.250000 2.2769904137
 583.20404053  -999.250000 18.983999252 -0.709999979  -999.250000 2.1930000782 66.872894287 131.24940491 2.8480360508 50.825901031  -999.250000 2.2710142136
 583.35644531  -999.250000 19.000000000 -0.707000017  -999.250000 2.1949999332 65.316131592 131.25000000 2.8400158882 51.448749542  -999.250000 2.2660100460
 583.50885010  -999.250000 18.968999863 -0.694999993  -999.250000 2.2170000076 67.745117188 132.24800110 2.8380041122 51.200500488  -999.250000 2.2729859352
 583.66125488  -999.250000 19.000000000 -0.707000017  -999.250000 2.2130000591 65.629257202 133.24800110 2.8280200958 52.073249817  -999.250000 2.2929599285
 583.81365967  -999.250000 18.968999863 -0.699999988  -999.250000 2.2339999676 67.371498108 133.25000000 2.8160240650 50.952255249  -999.250000 2.3069717884
 583.96606445  -999.250000 18.983999252 -0.714999974  -999.250000 2.2339999676 61.417949677 133.99850464 2.8050220013 50.950000763  -999.250000 2.3109920025
 584.11846924  -999.250000 18.983999252 -0.712000012  -999.250000 2.2339999676 67.051673889 133.75050354 2.7970159054 51.074748993  -999.250000 2.3050119877
 584.27087402  -999.250000 18.983999252 -0.721000016  -999.250000 2.2209999561 67.124877930 134.24899292 2.7930080891 51.574001312  -999.250000 2.2830440998
 584.42321777  -999.250000 18.983999252 -0.685000002  -999.250000 2.2479999065 70.679443359 134.25000000 2.7890095711 51.076202393  -999.250000 2.2500793934
 584.57562256  -999.250000 18.968999863 -0.697000027  -999.250000 2.2420001030 63.766670227 134.00059509 2.7810192108 50.825599670  -999.250000 2.2300481796
 584.72802734  -999.250000 18.983999252 -0.677999973  -999.250000 2.2620000839 64.685752869 133.25180054 2.7770094872 50.450901031  -999.250000 2.2399759293
 584.88043213  -999.250000 19.016000748 -0.680999994  -999.250000 2.2660000324 67.617942810 133.25000000 2.7700169086 50.574699402  -999.250000 2.2579567432
 585.03283691  -999.250000 19.000000000 -0.666999996  -999.250000 2.2750000954 72.052337646 133.49940491 2.7620193958 50.450302124  -999.250000 2.2789494991
 585.18524170  -999.250000 18.968999863 -0.685000002  -999.250000 2.2599999905 69.194908142 133.74940491 2.7520241737 50.200599670  -999.250000 2.2829904556
 585.33764648  -999.250000 18.983999252 -0.702000022  -999.250000 2.2539999485 68.251876831 133.50050354 2.7400240898 50.324748993  -999.250000 2.2580499649
 585.49005127  -999.250000 19.000000000 -0.722000003  -999.250000 2.2400000095 65.630256653 133.50000000 2.7170460224 50.824001312  -999.250000 2.2300560474
 585.64245605  -999.250000 18.968999863 -0.732999980  -999.250000 2.2170000076 68.432373047 134.24850464 2.6820700169 51.324001312  -999.250000 2.2250099182
 585.79486084  -999.250000 18.983999252 -0.740999997  -999.250000 2.1970000267 66.941009521 134.99850464 2.6480681896 51.325000763  -999.250000 2.2050399780
 585.94726563  -999.250000 18.983999252 -0.732999980  -999.250000 2.2030000687 69.682495117 135.99800110 2.6150660515 51.075500488  -999.250000 2.1680741310
 586.09967041  -999.250000 18.983999252 -0.730000019  -999.250000 2.2170000076 66.694007874 137.24749756 2.5760781765 50.700752258  -999.250000 2.1171021461
 586.25207520  -999.250000 18.968999863 -0.722000003  -999.250000 2.2290000916 65.191009521 138.24800110 2.5410699844 51.199001312  -999.250000 2.0840661526
 586.40441895  -999.250000 18.983999252 -0.714999974  -999.250000 2.2320001125 65.312751770 138.99850464 2.5120582581 51.200000763  -999.250000 2.0859959126
 586.55682373  -999.250000 18.968999863 -0.717999995  -999.250000 2.2130000591 66.497619629 139.00000000 2.4900441170 50.950500488  -999.250000 2.1039640903
 586.70922852  -999.250000 19.000000000 -0.714999974  -999.250000 2.2009999752 66.562873840 139.99800110 2.4670460224 50.575752258  -999.250000 2.0940201283
 586.86163330  -999.250000 18.983999252 -0.726999998  -999.250000 2.1760001183 67.062004089 140.24949646 2.4530282021 51.323497772  -999.250000 2.0470941067
 587.01403809  -999.250000 18.968999863 -0.736999989  -999.250000 2.1679999828 69.370368958 139.50149536 2.4320418835 50.826000214  -999.250000 2.0270400047
 587.16644287  -999.250000 19.000000000 -0.746999979  -999.250000 2.1540000439 68.065628052 138.75149536 2.4120399952 51.573497772  -999.250000 2.0549440384
 587.31884766  -999.250000 18.983999252 -0.745999992  -999.250000 2.1619999409 65.629882813 139.49850464 2.3960318565 50.826503754  -999.250000 2.0799498558
 587.47125244  -999.250000 18.983999252 -0.726999998  -999.250000 2.1989998817 64.252754211 141.99499512 2.3910100460 50.949748993  -999.250000 2.0640318394
 587.62365723  -999.250000 18.983999252 -0.707000017  -999.250000 2.2400000095 65.809875488 142.99800110 2.3949918747 50.950000763  -999.250000 2.0310659409
 587.77606201  -999.250000 18.968999863 -0.707000017  -999.250000 2.2579998970 69.680244446 143.24949646 2.3910081387 50.950000763  -999.250000 2.0349919796
 587.92846680  -999.250000 18.968999863 -0.716000021  -999.250000 2.2439999580 69.688003540 142.50149536 2.3810200691 51.074748993  -999.250000 2.0310080051
 588.08087158  -999.250000 18.983999252 -0.725000024  -999.250000 2.2320001125 68.252876282 141.75149536 2.3750119209 50.451251984  -999.250000 2.0140340328
 588.23327637  -999.250000 18.983999252 -0.726999998  -999.250000 2.2300000191 67.314506531 141.25080872 2.3769969940 50.824398041  -999.250000 1.9920352697
 588.38568115  -999.250000 18.983999252 -0.709999979  -999.250000 2.2730000019 68.810600281 141.00039673 2.3869841099 50.076202393  -999.250000 1.9939967394
 588.53802490  -999.250000 18.983999252 -0.745999992  -999.250000 2.2679998875 73.802993774 140.50100708 2.4019699097 50.324501038  -999.250000 2.0289299488
 588.69042969  -999.250000 18.983999252 -0.717000008  -999.250000 2.4509999752 72.253128052 139.75149536 2.4179680347 49.826000214  -999.250000 2.0509560108
