# LAS format log file from PETREL
# Project units are specified as depth units
#==================================================================
~Version information
VERS.   2.0:
WRAP.   NO:
#==================================================================
~Well
STRT .m      176.60998535 :
STOP .m      3556.0803223 :
STEP .m     0.00000000 :
NULL .        -999.250000 :
COMP.           : COMPANY
WELL.  30/6-5   : WELL
FLD.            : FIELD
LOC.            : LOCATION
SRVC.           : SERVICE COMPANY
DATE.  2018-09-11 14:48:31   : Log Export Date {yyyy-MM-dd HH:mm:ss}
PROV.           : PROVINCE
UWI.   30/6-5   : UNIQUE WELL ID
API.            : API NUMBER
#==================================================================
~Curve
DEPT .m                   : DEPTH
Lithology_geolink ._      : Lithology_geolink
CALI .in                  : CALI
DRHO .g/cm3               : DRHO
NPHI .m3/m3               : NPHI
RHOB .g/cm3               : RHOB
PEF .b/e                  : PEF
GR .gAPI                  : GR
DTC .us/ft                : DTC
DTE .us/ft                : DTE
RDEP .ohm.m               : RDEP
SP .mV                    : SP
RSHA .ohm.m               : RSHA
RMED .ohm.m               : RMED
~Parameter
#==================================================================
~Ascii
# ...
 3100.2519531 2.0000000000 12.057999611 -0.006003205 0.2316660136 2.4489307404 3.1727259159 61.937698364 78.516090393 78.438453674 4.2188491821 85.352600098 6.7340002060 4.8200001717
 3100.4042969 2.0000000000 12.062998772 -0.007998400 0.2245745212 2.4324607849 3.6257472038 61.752101898 78.993019104 79.053382874 4.1250128746 83.230804443 5.9569997787 4.7769999504
 3100.5568848 2.0000000000 12.066000938 -0.006996795 0.2130538523 2.4206576347 4.0922451019 63.063800812 79.351608276 79.294044495 4.1330432892 83.106201172 6.0510001183 4.8439998627
 3100.7092285 2.0000000000 12.076999664 -0.004998398 0.2074999809 2.4255790710 4.2448139191 63.559894562 78.636108398 78.710746765 4.1600127220 83.234008789 5.5000000000 5.2030000687
 3100.8615723 2.0000000000 12.082999229 -0.003991988 0.2153515220 2.4424891472 4.1286573410 61.622097015 77.920600891 77.828132629 4.1680884361 85.105003357 11.352000237 5.6449999809
 3101.0139160 2.0000000000 12.085000038 0.0010144231 0.2344174981 2.4590418339 3.9149870872 59.815753937 77.228706360 77.233261108 4.2231187820 84.478797913 7.0390000343 5.9879999161
 3101.1665039 2.0000000000 12.104000092 0.0100352000 0.2588209808 2.4717111588 3.9069681168 61.535099030 76.810722351 76.914054871 4.2972111702 83.107200623 7.5269999504 5.8280000687
 3101.3188477 2.0000000000 12.116999626 0.0209855773 0.2713595331 2.4854524136 3.8966844082 62.814804077 76.974037170 76.945869446 4.3631072044 83.481605530 6.3909997940 5.4840002060
 3101.4711914 2.0000000000 12.123000145 0.0119935898 0.2696180940 2.4954230785 3.6994824409 63.938701630 77.562004089 77.492614746 4.4300303459 83.855102539 6.7579998970 5.2540001869
 3101.6235352 2.0000000000 12.130000114 0.0079871798 0.2506090105 2.4895997047 3.3767421246 64.374595642 78.039093018 78.081825256 4.4489936829 83.294601440 6.5469999313 5.1479997635
 3101.7761230 2.0000000000 12.125000000 -0.000003200 0.2338428944 2.4751937389 3.2163329124 64.130004883 78.504043579 78.434783936 4.4449648857 84.296401978 6.0980000496 5.0390000343
 3101.9284668 2.0000000000 12.121999741 -0.000993590 0.2343829572 2.4681987762 3.3201217651 65.686897278 78.855644226 78.857002258 4.4339246750 85.352798462 6.3049998283 4.9689998627
 3102.0808105 5.0000000000 12.123000145 0.0030064103 0.2488543838 2.4707453251 3.3960318565 65.004905701 79.207885742 79.246482849 4.3869872093 83.359207153 6.0469999313 4.9730000496
 3102.2331543 5.0000000000 12.130000114 0.0069919876 0.2588195801 2.4772713184 3.4158539772 68.064506531 79.422698975 79.372367859 4.3790693283 85.354400635 6.7340002060 5.1170001030
 3102.3857422 5.0000000000 12.128000259 0.0019840002 0.2524724305 2.4736275673 3.3247280121 69.004600525 79.385887146 79.330413818 4.4221982956 84.354400635 8.4449996948 5.1560001373
 3102.5380859 5.0000000000 12.133000374 -0.002995192 0.2451052666 2.4585766792 3.2400305271 70.438407898 79.022689819 79.133186340 4.4841012955 83.855804443 6.1290001869 5.1290001869
 3102.6904297 5.0000000000 12.130000114 0.0000144231 0.2459594756 2.4504625797 3.2588605881 70.685600281 78.683502197 78.757392883 4.5471186638 83.731605530 6.7930002213 5.1479997635
 3102.8427734 5.0000000000 12.128000259 0.0089855762 0.2521003485 2.4628281593 3.1719791889 69.187500000 78.373901367 78.288162231 4.6210560799 84.107208252 7.3520002365 5.3359999657
 3102.9951172 5.0000000000 12.128000259 -0.000009615 0.2542057633 2.4794595242 3.1590270996 68.870796204 77.419815063 77.472183228 4.6559872627 84.855201721 7.7150001526 5.6760001183
 3103.1477051 5.0000000000 12.119999886 -0.006016000 0.2470553070 2.4787802696 3.1764256954 66.250396729 76.548255920 76.570686340 4.6480255127 84.355201721 7.9879999161 6.1599998474
 3103.3000488 5.0000000000 12.125000000 -0.010991987 0.2370059490 2.4669163227 3.3087611198 66.371154785 76.473968506 76.393791199 4.6559810638 84.106407166 8.8129997253 6.1599998474
 3103.4523926 5.0000000000 12.125000000 -0.005993590 0.2332772315 2.4571354389 3.1597692966 63.978145599 76.846496582 76.787864685 4.6439695358 84.356002808 7.6350002289 5.9640002251
 3103.6047363 5.0000000000 12.121000290 -0.001993590 0.2328670621 2.4489920139 3.0155642033 65.936302185 77.347198486 77.441314697 4.6250128746 84.356803894 7.1129999161 5.5659999847
 3103.7573242 5.0000000000 12.112000465 0.0020224000 0.2363723069 2.4471070766 2.7441952229 64.886596680 78.027122498 78.124435425 4.6331501007 84.854400635 7.2769999504 5.2969999313
 3103.9096680 5.0000000000 12.116999626 0.0090080127 0.2320616692 2.4575648308 2.8050720692 68.497497559 78.308189392 78.377449036 4.6801314354 84.356201172 7.0390000343 5.1719999313
 3104.0620117 5.0000000000 12.114999771 0.0140032051 0.2292109728 2.4814443588 2.8504261971 66.940811157 77.920600891 77.994773865 4.7623062134 84.481605530 6.9609999657 5.2300000191
 3104.2143555 5.0000000000 12.104000092 0.0159871802 0.2278118730 2.5055971146 3.1159503460 68.685501099 77.157615662 77.182319641 4.9535255432 84.855598450 7.1989998817 5.4800000191
 3104.3669434 5.0000000000 12.086001396 0.0080000004 0.2281447500 2.5256555080 3.0847151279 67.127403259 75.879310608 75.962219238 5.2816495895 84.606803894 9.3439998627 6.0980000496
 3104.5192871 5.0000000000 12.079998970 0.0080016032 0.2194305658 2.5451269150 2.9961059093 67.870193481 73.736923218 73.635360718 5.4842071533 84.857208252 9.7030000687 7.2890000343
 3104.6716309 5.0000000000 12.057000160 0.0089935893 0.1961133331 2.5642054081 3.0625481606 64.871147156 70.670608521 70.636589050 5.6132259369 85.605598450 9.9379997253 9.3360004425
 3104.8239746 5.0000000000 12.039000511 0.0049855770 0.1717584133 2.5685234070 3.4039375782 62.464294434 69.190597534 69.099250793 5.7543945313 85.357406616 25.016000748 12.163999557
 3104.9763184 16.000000000 12.036999702 -0.004006410 0.1652792245 2.5462224483 3.3646409512 59.531951904 69.523887634 69.439117432 6.0003061295 86.230400085 38.155998230 11.741999626
 3105.1289063 16.000000000 12.031000137 -0.007977600 0.1776532680 2.5124621391 3.1407728195 60.126697540 70.850555420 70.908226013 6.1912016869 85.852806091 12.241999626 8.2030000687
 3105.2810059 16.000000000 12.031000137 -0.001000000 0.1952573955 2.4922459126 3.0699999332 60.655998230 73.349006653 73.446777344 6.2540001869 84.856002808 8.7635841370 6.7483348846
 3105.4333496 2.0000000000 12.034000397 0.0060000001 0.2050931454 2.4902324677 3.3090000153 62.155998230 75.699859619 75.729637146 6.1989998817 85.231002808 8.6641502380 6.6411681175
 3105.5856934 2.0000000000 12.043999672 0.0070000002 0.2099017054 2.4932706356 3.4389998913 63.250000000 76.583915710 76.574539185 5.9450001717 85.917999268 8.1727886200 6.5551376343
 3105.7380371 2.0000000000 12.026000023 -0.001000000 0.2135383040 2.4928829670 3.1879999638 63.750000000 76.787109375 76.767341614 5.6799998283 85.042999268 8.1410989761 6.2938385010
 3105.8906250 2.0000000000 11.994999886 -0.003000000 0.2130052596 2.4919955730 3.2829999924 64.563003540 76.664901733 76.715240479 5.4569997787 85.231002808 9.0215864182 6.3708748817
 3106.0429688 2.0000000000 11.963998795 0.0000000000 0.2120304108 2.4932327271 3.6129999161 65.313003540 76.583915710 76.601325989 5.3239998817 86.356002808 10.918956757 6.6046252251
 3106.1953125 2.0000000000 11.934000015 -0.004000000 0.2142133713 2.4862012863 3.8050000668 66.000000000 76.822418213 76.743125916 5.2109999657 85.917999268 12.092122078 6.6050000191
 3106.3476563 2.0000000000 11.911000252 -0.005000000 0.2214831859 2.4678821564 3.0629999638 67.125000000 77.072052002 77.058746338 5.1519999504 86.792999268 8.7916021347 6.3637742996
 3106.5002441 2.0000000000 11.888998985 -0.006000000 0.2224429399 2.4511885643 2.4549999237 69.625000000 77.449363708 77.542350769 5.1250000000 86.292999268 8.0401887894 5.9386811256
 3106.6525879 2.0000000000 11.871000290 -0.007000000 0.2168187797 2.4436318874 2.4690001011 70.438003540 78.015014648 77.952049255 5.0780000687 85.292999268 7.5867257118 5.8012194633
 3106.8049316 5.0000000000 11.843000412 -0.005000000 0.2124430090 2.4437038898 2.8610000610 69.938003540 78.230201721 78.158432007 5.0549998283 86.292999268 8.0542488098 5.9297928810
