# LAS format log file from PETREL
# Project units are specified as depth units
#==================================================================
~Version information
VERS.   2.0:
WRAP.   NO:
#==================================================================
~Well
STRT .m      933.99749756 :
STOP .m      3610.7521973 :
STEP .m     0.00000000 :
NULL .        -999.250000 :
COMP.           : COMPANY
WELL.  30/6-8   : WELL
FLD.            : FIELD
LOC.            : LOCATION
SRVC.           : SERVICE COMPANY
DATE.  2018-09-11 14:48:31   : Log Export Date {yyyy-MM-dd HH:mm:ss}
PROV.           : PROVINCE
UWI.   30/6-8   : UNIQUE WELL ID
API.            : API NUMBER
#==================================================================
~Curve
DEPT .m                   : DEPTH
Lithology_geolink ._      : Lithology_geolink
CALI .in                  : CALI
DRHO .g/cm3               : DRHO
NPHI .m3/m3               : NPHI
RHOB .g/cm3               : RHOB
GR .gAPI                  : GR
DTC .us/ft                : DTC
DTE .us/ft                : DTE
RDEP .ohm.m               : RDEP
SP .mV                    : SP
RSHA .ohm.m               : RSHA
RMED .ohm.m               : RMED
~Parameter
#==================================================================
~Ascii
# ...
 2002.0172119 6.0000000000 18.218999863 -0.003000000 0.3935234249 2.2685194016 61.605388641 129.68873596 126.83489990 0.7698438764 70.061996460 0.8671881557 0.8671881557
 2002.1695557 6.0000000000 18.187999725 -0.002000000 0.3769640923 2.2599067688 64.456031799 130.34933472 127.59234619 0.7309262753 70.311195374 0.9139743447 0.9139743447
 2002.3220215 6.0000000000 18.172000885 -0.002000000 0.3945777118 2.2474458218 70.060501099 132.68698120 129.87181091 0.7080480456 70.377502441 0.9055236578 0.9055236578
 2002.4743652 6.0000000000 18.172000885 0.0000000000 0.4243395329 2.2322700024 69.422782898 135.52136230 132.79679871 0.7200064659 71.248397827 0.7867211699 0.7867211699
 2002.6268311 6.0000000000 18.202999115 -0.003000000 0.4487026632 2.2235789299 64.652816772 137.96652222 135.24897766 0.7219839692 71.057746887 0.7001041770 0.7001041770
 2002.7791748 5.0000000000 18.141000748 -0.003000000 0.4316177368 2.2313315868 55.910377502 138.54147339 135.70640564 0.7179960012 70.253005981 0.7263482809 0.7263482809
 2002.9315186 5.0000000000 18.266000748 -0.005000000 0.4038060904 2.2519423962 57.007209778 134.83296204 131.96635437 0.7170032263 71.251007080 0.8131955266 0.8131955266
 2003.0839844 5.0000000000 18.077999115 -0.001000000 0.3989276588 2.2673156261 59.265899658 130.56372070 127.79835510 0.7180801034 71.878005981 0.8739839792 0.8739839792
 2003.2363281 5.0000000000 18.047000885 0.0040000002 0.3959937394 2.2713336945 63.195358276 129.19146729 126.32611084 0.7380760312 72.873497009 0.8700160384 0.8700160384
 2003.3887939 5.0000000000 18.125000000 0.0109999999 0.3881800175 2.2673161030 57.306488037 128.96591187 126.12028503 0.7570000291 72.756011963 0.8739519119 0.8739519119
 2003.5411377 5.0000000000 18.156000137 0.0199999996 0.3881546259 2.2705767155 55.688373566 128.44992065 125.69456482 0.7569479942 74.488739014 0.8619839549 0.8619839549
 2003.6936035 5.0000000000 18.172000885 0.0199999996 0.3564601541 2.2797503471 55.793750763 128.54118347 125.68029022 0.7439759970 71.903747559 0.8580359817 0.8580359817
 2003.8459473 5.0000000000 18.172000885 0.0199999996 0.3691286743 2.2790629864 58.974189758 128.91279602 126.08234406 0.7380360365 63.894298553 0.8669590950 0.8669590950
 2003.9984131 5.0000000000 18.358999252 0.0199999996 0.3550433517 2.2573125362 61.128753662 130.83166504 128.08319092 0.7531121373 72.309745789 0.8499239683 0.8499239683
 2004.1506348 5.0000000000 18.125000000 0.0140000004 0.3945299983 2.2192559242 62.050903320 134.09388733 131.27182007 0.7811177969 71.995841980 0.8308581710 0.8308581710
 2004.3029785 5.0000000000 18.156000137 0.0189999994 0.4145500064 2.1946802139 57.006076813 133.29165649 130.39678955 0.8301921487 70.685394287 0.7719543576 0.7719543576
 2004.4554443 5.0000000000 18.031000137 0.0189999994 0.4589799941 2.2223460674 46.638420105 126.32577515 123.52051544 0.9100841880 70.439750671 0.7530697584 0.7530697584
 2004.6077881 5.0000000000 18.312999725 0.0099999998 0.4829100072 2.3061940670 39.335212708 113.93737793 111.18731689 0.9448557496 71.998550415 0.7825697064 0.7825697064
 2004.7602539 16.000000000 18.077999115 0.0000000000 0.4169900119 2.4160823822 35.709514618 88.794700623 85.990531921 0.8848174214 71.810600281 1.0209536552 1.0209536552
 2004.9125977 16.000000000 17.952999115 -0.004000000 0.3105500042 2.4440665245 42.412460327 68.599372864 65.762916565 0.8279591203 71.686897278 1.6291129589 1.6291129589
 2005.0650635 5.0000000000 18.077999115 0.0370000005 0.2353499979 2.3708713055 45.110614777 77.389869690 74.685112000 0.8110160232 72.060798645 1.6740976572 1.6740976572
 2005.2174072 5.0000000000 17.952999115 0.0509999990 0.2758799791 2.2600700855 50.288963318 101.68971252 98.974105835 0.8160793185 71.999153137 1.0812139511 1.0812139511
 2005.3698730 5.0000000000 18.952999115 0.0590000004 0.3579100072 2.1712398529 53.610126495 122.65827942 119.89342499 0.8489102125 72.059196472 0.7547596097 0.7547596097
 2005.5222168 5.0000000000 18.016000748 0.0170000009 0.4350599945 2.1258251667 58.636108398 141.34455872 138.57910156 0.8207053542 71.495597839 0.6799967885 0.6799967885
 2005.6746826 6.0000000000 18.093999863 0.0120000001 0.4580099881 2.1447548866 62.103900909 146.45237732 143.55642700 0.7287823558 70.433197021 0.6791984439 0.6791984439
 2005.8270264 6.0000000000 17.922000885 0.0060000001 0.4384799898 2.2132248878 65.190109253 138.36466980 135.51045227 0.6609294415 69.559997559 0.7410753965 0.7410753965
 2005.9793701 6.0000000000 18.125000000 0.0040000002 0.4174800217 2.2594926357 66.497001648 133.03837585 130.21253967 0.6170023680 68.939147949 0.7879951596 0.7879951596
 2006.1318359 6.0000000000 18.093999863 0.0089999996 0.4091799855 2.2692785263 65.243385315 132.00811768 129.27348328 0.6180272102 70.249099731 0.7859775424 0.7859775424
 2006.2841797 6.0000000000 18.077999115 0.0049999999 0.4399400055 2.2642314434 61.114868164 132.61900330 129.82794189 0.6350480318 70.313247681 0.7720023990 0.7720023990
 2006.4366455 6.0000000000 18.202999115 0.0030000000 0.4394499958 2.2665014267 56.915313721 133.14129639 130.41067505 0.6550120115 71.251403809 0.7729663253 0.7729663253
 2006.5889893 6.0000000000 18.077999115 0.0000000000 0.4458000064 2.2715554237 60.777919769 133.75207520 130.92913818 0.6600048542 72.248550415 0.7589855790 0.7589855790
 2006.7414551 6.0000000000 18.062999725 0.0040000002 0.4287099838 2.2723197937 59.508106232 134.14054871 131.24423218 0.6619808078 72.063201904 0.7530160546 0.7530160546
 2006.8937988 6.0000000000 18.093999863 0.0020000001 0.4057599902 2.2659235001 62.015071869 133.77803040 131.09519958 0.6560024023 72.747047424 0.7580312490 0.7580312490
 2007.0462646 5.0000000000 18.077999115 0.0070000002 0.3964799941 2.2666714191 55.412803650 133.43699646 130.71340942 0.6570128202 71.934196472 0.7710448503 0.7710448503
 2007.1986084 5.0000000000 18.125000000 0.0080000004 0.3745099902 2.2760634422 57.524612427 133.25914001 130.49702454 0.6610264778 71.372200012 0.7850240469 0.7850240469
 2007.3510742 5.0000000000 18.077999115 0.0120000001 0.4174800217 2.2813284397 54.887722015 133.27200317 130.49203491 0.6720640659 70.618789673 0.7950481176 0.7950481176
 2007.5034180 5.0000000000 18.062999725 0.0089999996 0.4404299855 2.2772631645 58.833694458 133.33206177 130.48703003 0.6920608282 69.003807068 0.8100512624 0.8100512624
 2007.6558838 5.0000000000 18.062999725 0.0040000002 0.4980500042 2.2643785477 55.628604889 133.33073425 130.48208618 0.7110577226 70.501403809 0.8260256052 0.8260256052
 2007.8082275 5.0000000000 18.047000885 0.0040000002 0.4814499915 2.2554960251 56.742996216 133.25914001 130.47712708 0.7290608287 71.251403809 0.8340415955 0.8340415955
 2007.9606934 5.0000000000 18.125000000 0.0049999999 0.4843800068 2.2528581619 54.553001404 133.27200317 130.47212219 0.7480448484 71.996200562 0.8470255733 0.8470255733
 2008.1130371 5.0000000000 18.093999863 0.0130000003 0.4399400055 2.2542593479 51.430782318 133.20011902 130.46713257 0.7619919777 71.125205994 0.8550192714 0.8550192714
 2008.2653809 5.0000000000 18.093999863 0.0189999994 0.4165000021 2.2578809261 46.938224792 133.28341675 130.46214294 0.7569952011 71.872802734 0.8669591546 0.8669591546
 2008.4178467 5.0000000000 18.062999725 0.0149999997 0.3798799813 2.2541399002 47.034679413 133.24783325 130.45718384 0.7549855709 71.373397827 0.8499038815 0.8499038815
 2008.5701904 5.0000000000 18.125000000 0.0130000003 0.3930699825 2.2487382889 48.568859100 133.15827942 130.45223999 0.7489543557 71.124748230 0.8099519014 0.8099519014
 2008.7226563 5.0000000000 18.077999115 0.0049999999 0.3857400119 2.2445333004 50.996597290 133.33114624 130.44723511 0.7299551964 71.432792664 0.7901281118 0.7901281118
 2008.8750000 5.0000000000 18.062999725 0.0000000000 0.4028300047 2.2378027439 49.933341980 133.24783325 130.44223022 0.7160048485 70.437347412 0.8299855590 0.8299855590
 2009.0274658 5.0000000000 18.562999725 0.0109999999 0.3940399885 2.2352755070 48.004302979 133.22445679 130.43728638 0.7179871798 70.998603821 0.8239551783 0.8239551783
 2009.1798096 5.0000000000 18.062999725 0.0099999998 0.4189499915 2.2309720516 49.352714539 133.33206177 130.43232727 0.7139951587 70.874450684 0.8099519014 0.8099519014
