# LAS format log file from PETREL
# Project units are specified as depth units
#==================================================================
~Version information
VERS.   2.0:
WRAP.   NO:
#==================================================================
~Well
STRT .m      922.25012207 :
STOP .m      4009.0009766 :
STEP .m     0.00000000 :
NULL .        -999.250000 :
COMP.           : COMPANY
WELL.  30/6-11   : WELL
FLD.            : FIELD
LOC.            : LOCATION
SRVC.           : SERVICE COMPANY
DATE.  2018-09-11 14:48:30   : Log Export Date {yyyy-MM-dd HH:mm:ss}
PROV.           : PROVINCE
UWI.   30/6-11   : UNIQUE WELL ID
API.            : API NUMBER
#==================================================================
~Curve
DEPT .m                   : DEPTH
Lithology_geolink ._      : Lithology_geolink
CALI .in                  : CALI
DRHO .g/cm3               : DRHO
NPHI .m3/m3               : NPHI
RHOB .g/cm3               : RHOB
GR .gAPI                  : GR
DTC .us/ft                : DTC
RDEP .ohm.m               : RDEP
SP .mV                    : SP
RSHA .ohm.m               : RSHA
RMED .ohm.m               : RMED
~Parameter
#==================================================================
~Ascii
# ...
 1330.2498779  -999.250000 17.694999695 0.0309999995  -999.250000 2.1458778381 117.48000336 140.97570801 2.0889999866 37.138000488 0.8510000110 0.8510000110
 1330.3752441  -999.250000 17.674999237 0.0260000005  -999.250000 2.1387836933 118.26899719 143.84236145 2.1359999180 37.611000061 0.8569999933 0.8569999933
 1330.5000000  -999.250000 17.652999878 0.0209999997  -999.250000 2.1329715252 118.98200226 146.89685059 2.1700000763 38.074001312 0.8590000272 0.8590000272
 1330.6248779  -999.250000 17.632999420 0.0170000009  -999.250000 2.1294419765 120.26999664 149.31008911 2.1879999638 38.728000641 0.8600000143 0.8600000143
 1330.7501221  -999.250000 17.618000031 0.0149999997  -999.250000 2.1271400452 121.44799805 150.52508545 2.1830000877 39.344001770 0.8590000272 0.8590000272
 1330.8751221  -999.250000 17.607999802 0.0080000004  -999.250000 2.1209480762 121.53800201 150.84834290 2.1610000134 39.464000702 0.8560000062 0.8560000062
 1331.0000000  -999.250000 17.601999283 0.0010000000  -999.250000 2.1121513844 120.52600098 151.09442139 2.1270000935 38.777999878 0.8510000110 0.8510000110
 1331.1250000  -999.250000 17.597999573 -0.001000000  -999.250000 2.1053407192 119.42299652 151.59526062 2.0910000801 37.414001465 0.8450000286 0.8450000286
 1331.2500000  -999.250000 17.594999313 0.0089999996  -999.250000 2.1059155464 119.44400024 152.52490234 2.0650000572 35.997001648 0.8399999738 0.8399999738
 1331.3748779  -999.250000 17.594999313 0.0320000015  -999.250000 2.1187801361 121.37400055 153.91690063 2.0529999733 35.416999817 0.8370000124 0.8370000124
 1331.4998779  -999.250000 17.596000671 0.0570000000  -999.250000 2.1416723728 125.08699799 156.01889038 2.0599999428 36.199001312 0.8360000253 0.8360000253
 1331.6252441  -999.250000 17.597999573 0.0750000030  -999.250000 2.1614000797 128.75799561 158.68957520 2.0789999962 38.054000854 0.8379999995 0.8379999995
 1331.7498779  -999.250000 17.601999283 0.0820000023  -999.250000 2.1738538742 130.12800598 161.63172913 2.1059999466 40.141998291 0.8450000286 0.8450000286
 1331.8747559  -999.250000 17.606000900 0.0790000036  -999.250000 2.1780185699 128.42500305 164.45831299 2.1319999695 41.455001831 0.8569999933 0.8569999933
 1332.0001221  -999.250000 17.607999802 0.0729999989  -999.250000 2.1746916771 124.17299652 166.67196655 2.1540000439 41.550998688 0.8750000000 0.8750000000
 1332.1250000  -999.250000 17.608999252 0.0619999990  -999.250000 2.1661665440 119.22599792 167.56700134 2.1740000248 40.914001465 0.8970000148 0.8970000148
 1332.2500000  -999.250000 17.607999802 0.0489999987  -999.250000 2.1546919346 115.29399872 166.36271667 2.1940000057 40.590999603 0.9160000086 0.9160000086
 1332.3750000  -999.250000 17.604000092 0.0379999988  -999.250000 2.1438832283 112.90000153 163.32273865 2.2149999142 41.389999390 0.9259999990 0.9259999990
 1332.5000000  -999.250000 17.599000931 0.0329999998  -999.250000 2.1367561817 111.67299652 158.79554749 2.2390000820 43.123001099 0.9219999909 0.9219999909
 1332.6248779  -999.250000 17.591999054 0.0359999985  -999.250000 2.1347682476 111.23899841 153.40025330 2.2630000114 44.709999084 0.9060000181 0.9060000181
 1332.7502441  -999.250000 17.580999374 0.0390000008  -999.250000 2.1372463703 111.50399780 147.92829895 2.2820000648 44.924999237 0.8830000162 0.8830000162
 1332.8750000  -999.250000 17.559000015 0.0379999988  -999.250000 2.1382288933 112.05000305 143.38014221 2.2880001068 43.542999268 0.8600000143 0.8600000143
 1332.9998779  -999.250000 17.524000168 0.0320000015  -999.250000 2.1351525784 112.57099915 139.89523315 2.2760000229 41.050998688 0.8410000205 0.8410000205
 1333.1251221  -999.250000 17.482999802 0.0250000004  -999.250000 2.1308586597 112.90499878 137.18960571 2.2449998856 38.412998199 0.8259999752 0.8259999752
 1333.2501221  -999.250000 17.448999405 0.0230000000  -999.250000 2.1288011074 112.75599670 135.05731201 2.1989998817 36.554000854 0.8149999976 0.8149999976
 1333.3750000  -999.250000 17.437999725 0.0270000007  -999.250000 2.1322708130 112.06199646 133.28880310 2.1540000439 35.844001770 0.8080000281 0.8080000281
 1333.5000000  -999.250000 17.448999405 0.0340000018  -999.250000 2.1440041065 110.96499634 131.73443604 2.1219999790 36.247001648 0.8029999733 0.8029999733
 1333.6250000  -999.250000 17.471000671 0.0410000011  -999.250000 2.1610984802 110.22799683 130.41470337 2.1099998951 37.272998810 0.8019999862 0.8019999862
 1333.7498779  -999.250000 17.493000031 0.0450000018  -999.250000 2.1771574020 111.12500000 129.39411926 2.1219999790 38.268001556 0.8069999814 0.8069999814
 1333.8748779  -999.250000 17.513000488 0.0410000011  -999.250000 2.1868476868 113.33799744 128.81460571 2.1449999809 38.705001831 0.8169999719 0.8169999719
 1334.0000000  -999.250000 17.541000366 0.0320000015  -999.250000 2.1863331795 114.70800018 128.79710388 2.1689999104 38.629001617 0.8299999833 0.8299999833
 1334.1248779  -999.250000 17.587999344 0.0209999997  -999.250000 2.1741271019 113.73400116 129.41674805 2.1879999638 38.562999725 0.8439999819 0.8439999819
 1334.2497559  -999.250000 17.653999329 0.0130000003  -999.250000 2.1534869671 111.43599701 130.75148010 2.2019999027 39.040000916 0.8550000191 0.8550000191
 1334.3751221  -999.250000 17.726999283 0.0099999998  -999.250000 2.1344325542 110.94200134 132.33711243 2.2170000076 39.925998688 0.8629999757 0.8629999757
 1334.5000000  -999.250000 17.790000916 0.0109999999  -999.250000 2.1196498871 114.05899811 133.94360352 2.2349998951 40.791999817 0.8669999838 0.8669999838
 1334.6250000  -999.250000 17.832000732 0.0109999999  -999.250000 2.1096160412 119.28800201 135.59513855 2.2560000420 41.561000824 0.8679999709 0.8679999709
 1334.7500000  -999.250000 17.853000641 0.0099999998  -999.250000 2.1045601368 123.03099823 137.41792297 2.2769999504 42.245998383 0.8690000176 0.8690000176
 1334.8750000  -999.250000 17.858999252 0.0099999998  -999.250000 2.1053807735 123.50499725 139.63961792 2.2980000973 42.590999603 0.8719999790 0.8719999790
 1334.9998779  -999.250000 17.858999252 0.0120000001  -999.250000 2.1133985519 122.27100372 142.27142334 2.3199999332 42.132999420 0.8769999743 0.8769999743
 1335.1252441  -999.250000 17.858999252 0.0160000008  -999.250000 2.1246767044 121.49600220 144.69787598 2.3489999771 40.811000824 0.8830000162 0.8830000162
 1335.2501221  -999.250000 17.858999252 0.0189999994  -999.250000 2.1359570026 121.32199860 146.40934753 2.4049999714 39.036998749 0.8899999857 0.8899999857
 1335.3748779  -999.250000 17.858999252 0.0179999992  -999.250000 2.1438813210 120.57299805 146.91618347 2.4969999790 37.541999817 0.8970000148 0.8970000148
 1335.5001221  -999.250000 17.857999802 0.0140000004  -999.250000 2.1453001499 118.75800323 145.76199341 2.6310000420 36.729999542 0.9020000100 0.9020000100
 1335.6251221  -999.250000 17.854999542 0.0060000001  -999.250000 2.1373474598 115.93900299 142.50700378 2.7929999828 36.479999542 0.9100000262 0.9100000262
 1335.7500000  -999.250000 17.850000381 -0.003000000  -999.250000 2.1274478436 112.79900360 137.62033081 2.9449999332 36.487998962 0.9240000248 0.9240000248
 1335.8750000  -999.250000 17.841999054 0.0020000001  -999.250000 2.1269812584 110.67700195 131.98873901 3.0420000553 36.654998779 0.9509999752 0.9509999752
 1336.0000000  -999.250000 17.829999924 0.0270000007  -999.250000 2.1432266235 110.53199768 125.95910645 3.0590000153 37.014999390 0.9879999757 0.9879999757
 1336.1248779  -999.250000 17.816999435 0.0649999976  -999.250000 2.1774141788 112.53399658 119.78462219 3.0150001049 37.397998810 1.0210000277 1.0210000277
 1336.2498779  -999.250000 17.805000305 0.0970000029  -999.250000 2.2225472927 116.31800079 113.66337585 2.9370000362 37.437999725 1.0269999504 1.0269999504
 1336.3750000  -999.250000 17.805000305 0.1010000035  -999.250000 2.2466936111 119.52899933 108.27129364 2.8450000286 36.818000793 0.9959999919 0.9959999919
 1336.4998779  -999.250000 17.825000763 0.0829999968  -999.250000 2.2407271862 119.77999878 105.18383789 2.7390000820 35.585998535 0.9419999719 0.9419999719
