# LAS format log file from PETREL
# Project units are specified as depth units
#==================================================================
~Version information
VERS.   2.0:
WRAP.   NO:
#==================================================================
~Well
STRT .m      2773.3432617 :
STOP .m      3341.0317383 :
STEP .m     0.00000000 :
NULL .        -999.250000 :
COMP.           : COMPANY
WELL.  30/6-22   : WELL
FLD.            : FIELD
LOC.            : LOCATION
SRVC.           : SERVICE COMPANY
DATE.  2018-09-11 14:48:30   : Log Export Date {yyyy-MM-dd HH:mm:ss}
PROV.           : PROVINCE
UWI.   30/6-22   : UNIQUE WELL ID
API.            : API NUMBER
#==================================================================
~Curve
DEPT .m                   : DEPTH
Lithology_geolink ._      : Lithology_geolink
CALI .in                  : CALI
DRHO .g/cm3               : DRHO
NPHI .m3/m3               : NPHI
RHOB .g/cm3               : RHOB
GR .gAPI                  : GR
DTC .us/ft                : DTC
DTE .us/ft                : DTE
RDEP .ohm.m               : RDEP
SP .mV                    : SP
RSHA .ohm.m               : RSHA
RMED .ohm.m               : RMED
~Parameter
#==================================================================
~Ascii
# ...
 3146.4174805 2.0000000000 8.9300003052 -0.032000002 0.2033799887 2.4519999027 69.017929077 78.119979858 77.875656128 4.9120483398  -999.250000 5.9452886581 5.9452886581
 3146.5698242 2.0000000000 8.9300003052 -0.032000002 0.1999399960 2.4670000076 67.748428345 77.816558838 77.913612366 4.9220333099  -999.250000 5.7971887589 5.7971887589
 3146.7221680 2.0000000000 8.9300003052 -0.015000000 0.2009299994 2.4830000401 65.140701294 77.645248413 77.715042114 4.9289712906  -999.250000 5.6288142204 5.6288142204
 3146.8745117 2.0000000000 8.9300003052 -0.007000000 0.1962800026 2.5039999485 65.046401978 77.430595398 77.464485168 4.9199614525  -999.250000 5.5714168549 5.5714168549
 3147.0270996 2.0000000000 8.9300003052 -0.006000000 0.2118600011 2.5169999599 64.877250671 77.292579651 77.396881104 4.9080190659  -999.250000 5.7017455101 5.7017455101
 3147.1794434 2.0000000000 8.9300003052 -0.003000000 0.2213699967 2.5369999409 68.255889893 77.689651489 77.764595032 4.9121875763  -999.250000 5.8560671806 5.8560671806
 3147.3317871 2.0000000000 8.9300003052 0.0080000004 0.2317200154 2.5480000973 71.356987000 78.471054077 78.277580261 4.9512119293  -999.250000 5.8700413704 5.8700413704
 3147.4841309 2.0000000000 8.9300003052 -0.002000000 0.2257999927 2.5139999390 75.703224182 78.385688782 78.472091675 5.0172019005  -999.250000 5.8830895424 5.8830895424
 3147.6367188 2.0000000000 8.9300003052 -0.010000000 0.2192900032 2.4939999580 74.814842224 78.661010742 78.462890625 5.0801587105  -999.250000 5.9109711647 5.9109711647
 3147.7890625 2.0000000000 8.9300003052 -0.009000000 0.2155500054 2.5139999390 69.611267090 78.293548584 78.268249512 5.1131248474  -999.250000 5.9052162170 5.9052162170
 3147.9414063 2.0000000000 8.9300003052 -0.022000000 0.2102400064 2.5109999180 70.290702820 77.708709717 77.903404236 5.1391634941  -999.250000 5.9504451752 5.9504451752
 3148.0937500 2.0000000000 8.9300003052 -0.025000000 0.2102899998 2.5009999275 70.815422058 77.322998047 77.396911621 5.1902246475  -999.250000 6.0893750191 6.0893750191
 3148.2460938 2.0000000000 8.9300003052 -0.017999999 0.2091799974 2.4890000820 69.388832092 77.383689880 77.091529846 5.2602567673  -999.250000 6.2060222626 6.2060222626
 3148.3986816 2.0000000000 8.9300003052 -0.014000000 0.2096900046 2.4709999561 68.411781311 76.878929138 77.061553955 5.3402838707  -999.250000 6.2130913734 6.2130913734
 3148.5510254 2.0000000000 8.9300003052 -0.006000000 0.2064699978 2.4930000305 70.015403748 76.799102783 76.861618042 5.3990912437  -999.250000 6.2325663567 6.2325663567
 3148.7033691 2.0000000000 8.9300003052 -0.002000000 0.2006600052 2.5109999180 68.432891846 76.692550659 76.617439270 5.4180226326  -999.250000 6.3505735397 6.3505735397
 3148.8557129 2.0000000000 8.9300003052 -0.014000000 0.1986899972 2.5420000553 66.229965210 76.475410461 76.400382996 5.4250321388  -999.250000 6.5293745995 6.5293745995
 3149.0083008 2.0000000000 8.9300003052 -0.025000000 0.1952800006 2.5280001163 68.716117859 76.338371277 76.421005249 5.4350862503  -999.250000 6.6458077431 6.6458077431
 3149.1606445 2.0000000000 8.9300003052 -0.034000002 0.2035600096 2.4949998856 70.399726868 76.735656738 76.529670715 5.4530625343  -999.250000 6.6055679321 6.6055679321
 3149.3129883 2.0000000000 8.9300003052 -0.046999998 0.2008200139 2.4670000076 70.959121704 76.279685974 76.402236938 5.4660258293  -999.250000 6.5159454346 6.5159454346
 3149.4653320 2.0000000000 8.9300003052 -0.044000000 0.2179000080 2.4679999352 69.128189087 76.719413757 76.558639526 5.4740285873  -999.250000 6.4989905357 6.4989905357
 3149.6179199 2.0000000000 8.9300003052 -0.024000000 0.2189399898 2.5090000629 67.944389343 76.906196594 76.961494446 5.4830961227  -999.250000 6.4957642555 6.4957642555
 3149.7702637 2.0000000000 8.9300003052 -0.022000000 0.2296100110 2.5039999485 68.243652344 76.815475464 77.078048706 5.5031199455  -999.250000 6.4467887878 6.4467887878
 3149.9226074 2.0000000000 8.9300003052 -0.023000000 0.2091099918 2.4869999886 70.665977478 77.105491638 77.105491638 5.5280704498  -999.250000 6.4037079811 6.4037079811
 3150.0749512 2.0000000000 8.9300003052 -0.013000000 0.2058099955 2.4830000401 72.834480286 76.846107483 76.878112793 5.5500674248  -999.250000 6.6249389648 6.6249389648
 3150.2272949 2.0000000000 8.9300003052 -0.014000000 0.1996299922 2.4649999142 72.044464111 76.799102783 76.862998962 5.5710415840  -999.250000 6.9169549942 6.9169549942
 3150.3798828 2.0000000000 8.9300003052 -0.015000000 0.2031800151 2.4930000305 69.695816040 77.320373535 77.132240295 5.5840530396  -999.250000 6.9024085999 6.9024085999
 3150.5322266 2.0000000000 8.9300003052 -0.009000000 0.2066099942 2.5009999275 68.833633423 77.292610168 77.196403503 5.5951104164  -999.250000 6.7793188095 6.7793188095
 3150.6845703 2.0000000000 8.9300003052 -0.013000000 0.2033900023 2.5050001144 69.596252441 77.168937683 77.343399048 5.6181282997  -999.250000 6.6378459930 6.6378459930
 3150.8369141 2.0000000000 8.9300003052 -0.025000000 0.2077499926 2.4979999065 72.801361084 77.781494141 77.553192139 5.6580352783  -999.250000 6.5902595520 6.5902595520
 3150.9895020 2.0000000000 8.9300003052 -0.023000000 0.2067499906 2.5099999905 77.566177368 77.356033325 77.597610474 5.6689038277  -999.250000 6.6708989143 6.6708989143
 3151.1418457 2.0000000000 8.9300003052 -0.015000000 0.2113999873 2.5199999809 75.109718323 77.689651489 77.743400574 5.6490435600  -999.250000 6.6493663788 6.6493663788
 3151.2941895 2.0000000000 8.9300003052 -0.020000000 0.2145899981 2.5079998970 73.184120178 78.166740417 77.917648315 5.6580739021  -999.250000 6.5177373886 6.5177373886
 3151.4465332 2.0000000000 8.9300003052 -0.011000000 0.2082300037 2.5199999809 73.225479126 77.816558838 77.801498413 5.6811189651  -999.250000 6.4358811378 6.4358811378
 3151.5991211 2.0000000000 8.9300003052 0.0020000001 0.2035100013 2.5309998989 74.315322876 77.338783264 77.527603149 5.7183413506  -999.250000 6.3993654251 6.3993654251
 3151.7514648 2.0000000000 8.9300003052 0.0000000000 0.2002400011 2.5409998894 76.027786255 76.969375610 77.085807800 5.7894368172  -999.250000 6.4771552086 6.4771552086
 3151.9038086 2.0000000000 8.9300003052 0.0020000001 0.2023999989 2.5529999733 73.898757935 76.708946228 76.647209167 5.8803496361  -999.250000 6.9262371063 6.9262371063
 3152.0561523 2.0000000000 8.9300003052 0.0020000001 0.2040299922 2.5699999332 70.716384888 76.782752991 76.551681519 5.9892978668  -999.250000 7.6228752136 7.6228752136
 3152.2084961 2.0000000000 8.9300003052 -0.008000000 0.2027100027 2.5629999638 71.472618103 76.799102783 76.804084778 6.0821151733  -999.250000 7.8946571350 7.8946571350
 3152.3610840 2.0000000000 8.9300003052 -0.013000000 0.2004500031 2.5320000648 75.724487305 76.799102783 77.057556152 6.1182398796  -999.250000 7.7875585556 7.7875585556
 3152.5134277 2.0000000000 8.9300003052 -0.016000001 0.2011799961 2.5150001049 78.928176880 77.320243835 77.234924316 6.1682372093  -999.250000 7.6956348419 7.6956348419
 3152.6657715 2.0000000000 8.9300003052 -0.022000000 0.2076999992 2.4779999256 76.797180176 77.598304749 77.639007568 6.2420768738  -999.250000 7.5815796852 7.5815796852
 3152.8181152 2.0000000000 8.9300003052 -0.017999999 0.2165699899 2.4900000095 74.048461914 78.150192261 78.112365723 6.2659583092  -999.250000 7.4506797791 7.4506797791
 3152.9707031 2.0000000000 8.9300003052 -0.016000001 0.2181600034 2.5190000534 72.337982178 78.230201721 78.301223755 6.2528986931  -999.250000 7.3513650894 7.3513650894
 3153.1230469 2.0000000000 8.9300003052 -0.028999999 0.2176399976 2.5339999199 74.834884644 78.230201721 78.316932678 6.2318272591  -999.250000 7.4278354645 7.4278354645
 3153.2753906 2.0000000000 8.9300003052 -0.026000001 0.2162600011 2.5360000134 78.133079529 78.230201721 78.371284485 6.1959104538  -999.250000 7.6016955376 7.6016955376
 3153.4277344 2.0000000000 8.9300003052 -0.030999999 0.2142499983 2.5069999695 79.400032043 78.230201721 78.149085999 6.1679940224  -999.250000 7.8186855316 7.8186855316
 3153.5803223 2.0000000000 8.9300003052 -0.033000000 0.2254800051 2.4809999466 78.784439087 78.644515991 78.432304382 6.1661491394  -999.250000 8.0318317413 8.0318317413
