# LAS format log file from PETREL
# Project units are specified as depth units
#==================================================================
~Version information
VERS.   2.0:
WRAP.   NO:
#==================================================================
~Well
STRT .m      176.60998535 :
STOP .m      3556.0803223 :
STEP .m     0.00000000 :
NULL .        -999.250000 :
COMP.           : COMPANY
WELL.  30/6-5   : WELL
FLD.            : FIELD
LOC.            : LOCATION
SRVC.           : SERVICE COMPANY
DATE.  2018-09-11 14:48:31   : Log Export Date {yyyy-MM-dd HH:mm:ss}
PROV.           : PROVINCE
UWI.   30/6-5   : UNIQUE WELL ID
API.            : API NUMBER
#==================================================================
~Curve
DEPT .m                   : DEPTH
Lithology_geolink ._      : Lithology_geolink
CALI .in                  : CALI
DRHO .g/cm3               : DRHO
NPHI .m3/m3               : NPHI
RHOB .g/cm3               : RHOB
PEF .b/e                  : PEF
GR .gAPI                  : GR
DTC .us/ft                : DTC
DTE .us/ft                : DTE
RDEP .ohm.m               : RDEP
SP .mV                    : SP
RSHA .ohm.m               : RSHA
RMED .ohm.m               : RMED
~Parameter
#==================================================================
~Ascii
# ...
 1075.1605225  -999.250000 18.187999725 -0.036992796 0.4714716673 1.9154286385  -999.250000 28.816749573 144.07307434 142.94770813 1.1730191708 51.651996613 1.3179999590 1.0460000038
 1075.3128662  -999.250000 18.187999725 -0.028000001 0.4974713624 1.9252893925  -999.250000 29.981595993 144.18920898 143.05458069 1.1790047884 50.413810730 1.2319999933 1.0369999409
 1075.4653320  -999.250000 18.031000137 -0.018998398 0.5241228938 1.9377082586  -999.250000 28.998874664 144.41632080 143.24400330 1.1810096502 53.654396057 1.1720000505 1.0360000134
 1075.6176758  -999.250000 18.187999725 -0.017004805 0.5321367979 1.9417552948  -999.250000 33.625000000 145.60565186 144.48924255 1.1839935780 53.149593353 1.1349999905 1.0329999924
 1075.7701416  -999.250000 18.266000748 -0.023003206 0.5031887889 1.9347344637  -999.250000 33.622596741 146.69479370 145.52772522 1.1819840670 51.157600403 1.1529999971 1.0349999666
 1075.9224854  -999.250000 18.500000000 -0.026991995 0.4837681353 1.9252223969  -999.250000 32.865444183 146.74275208 145.68379211 1.1769776344 51.660800934 1.1460000277 1.0390000343
 1076.0748291  -999.250000 18.562999725 -0.017000001 0.4814773500 1.9289466143  -999.250000 29.892051697 146.17172241 145.11778259 1.1699639559 53.151790619 1.2469999790 1.0399999619
 1076.2272949  -999.250000 18.733999252 -0.005997598 0.4906651378 1.9357924461  -999.250000 30.332054138 145.91691589 144.70492554 1.1549615860 51.414806366 1.0959999561 1.0410000086
 1076.3796387  -999.250000 18.843999863 -0.003000000 0.5095558763 1.9327878952  -999.250000 31.606319427 146.63369751 145.52458191 1.1429831982 54.152992249 1.1419999599 1.0240000486
 1076.5321045  -999.250000 18.983999252 -0.012011210 0.5168277621 1.9117267132  -999.250000 36.722003937 147.25340271 146.02584839 1.1359840631 52.898792267 1.2280000448 1.0030000210
 1076.6844482  -999.250000 19.281000137 -0.026000001 0.5140980482 1.8870246410  -999.250000 37.657951355 146.98124695 145.95625305 1.1309880018 50.661407471 1.1970000267 0.9829999804
 1076.8369141  -999.250000 19.547000885 -0.033997599 0.4992034733 1.8693187237  -999.250000 38.457695007 146.36311340 145.23162842 1.1259744167 52.901996613 1.1540000439 0.9679999948
 1076.9892578  -999.250000 19.827999115 -0.030999999 0.4785836339 1.8660930395  -999.250000 34.935817719 145.53872681 144.31198120 1.1179952621 51.655395508 1.1039999723 0.9720000029
 1077.1417236  -999.250000 19.922000885 -0.025992794 0.4706480503 1.8702664375  -999.250000 34.020141602 144.96554565 143.91265869 1.1159904003 51.405197144 1.0789999962 0.9829999804
 1077.2940674  -999.250000 20.000000000 -0.017000001 0.4806931317 1.8853628635  -999.250000 30.642202377 145.79478455 144.69766235 1.1130192280 51.158401489 1.0829999447 1.0049999952
 1077.4465332  -999.250000 20.172000885 -0.011996797 0.4970738590 1.9008556604  -999.250000 31.149061203 147.64552307 146.43075562 1.1210641861 52.151992798 1.0690000057 1.0080000162
 1077.5988770  -999.250000 20.280998230 -0.008000000 0.5181927085 1.9102287292  -999.250000 33.672115326 149.07250977 148.01925659 1.1410640478 50.909202576 1.0779999495 1.0099999905
 1077.7513428  -999.250000 20.250000000 -0.010002404 0.5091087818 1.9061744213  -999.250000 38.688198090 151.33059692 150.14709473 1.1610673666 51.901191711 1.0620000362 0.9969999790
 1077.9036865  -999.250000 20.218999863 -0.013001601 0.5207961202 1.9011912346  -999.250000 38.747798920 151.14598083 150.04966736 1.1820353270 50.416404724 1.0930000544 0.9990000129
 1078.0561523  -999.250000 20.108999252 -0.015001602 0.5034853220 1.9105235338  -999.250000 38.066303253 149.20245361 148.06759644 1.1930096149 53.647983551 1.1590000391 1.0149999857
 1078.2084961  -999.250000 19.983999252 -0.016993595 0.5005801916 1.9323354959  -999.250000 39.084491730 146.93759155 145.73834229 1.1960064173 51.154396057 1.3300000429 1.0310000181
 1078.3608398  -999.250000 19.672000885 -0.009000000 0.4758102596 1.9631421566  -999.250000 36.121768951 144.80310059 143.74613953 1.1979951859 50.654193878 1.2139999866 1.0659999847
 1078.5133057  -999.250000 18.812999725 -0.005997598 0.4761160016 1.9801239967  -999.250000 34.781700134 144.12522888 142.92669678 1.1959967613 49.909999847 1.3350000381 1.0930000544
 1078.6656494  -999.250000 18.422000885 -0.003000000 0.4711461067 1.9759896994  -999.250000 35.017578125 146.18457031 145.16146851 1.1949952841 51.152992249 1.3179999590 1.1059999466
 1078.8181152  -999.250000 18.187999725 -0.007003203 0.4913058579 1.9497598410  -999.250000 42.310295105 149.53790283 148.48838806 1.1929775476 49.905998230 1.2250000238 1.0789999962
 1078.9704590  -999.250000 18.218999863 -0.011000000 0.5235888958 1.9197952747  -999.250000 41.463893890 151.72489929 150.57710266 1.1859711409 49.903594971 1.2539999485 1.0509999990
 1079.1229248  -999.250000 18.843999863 -0.011000801 0.5471613407 1.9015450478  -999.250000 39.336593628 151.94071960 150.86868286 1.1739616394 48.913204193 1.1929999590 1.0219999552
 1079.2752686  -999.250000 18.562999725 -0.012000000 0.5488617420 1.8955488205  -999.250000 37.029045105 150.91632080 149.78196716 1.1619590521 51.152393341 1.2410000563 1.0089999437
 1079.4277344  -999.250000 18.468999863 -0.012000000 0.5510097742 1.8959804773  -999.250000 36.212493896 150.42411804 149.28300476 1.1449390650 49.663208008 1.2170000076 0.9980000257
 1079.5800781  -999.250000 18.516000748 -0.012000000 0.5571148992 1.8957121372  -999.250000 34.179042816 151.14775085 150.07725525 1.1259776354 51.905197144 1.2799999714 0.9950000048
 1079.7325439  -999.250000 18.562999725 -0.009998397 0.5506734848 1.8948903084  -999.250000 31.405673981 153.96133423 152.74478149 1.1189743280 51.657600403 1.1809999943 0.9990000129
 1079.8848877  -999.250000 18.625000000 -0.008004804 0.5216729045 1.8942724466  -999.250000 35.970302582 155.05490112 154.01271057 1.1109839678 52.156799316 1.1130000353 1.0000000000
 1080.0373535  -999.250000 18.375000000 -0.014007212 0.5003362894 1.8885984421  -999.250000 36.373298645 154.14399719 153.04759216 1.1060159206 52.399589539 1.2359999418 1.0000000000
 1080.1896973  -999.250000 18.766000748 -0.023012010 0.4855351746 1.8801059723  -999.250000 35.844303131 153.50761414 152.28927612 1.1110031605 50.406799316 1.2450000048 0.9919999838
 1080.3420410  -999.250000 18.781000137 -0.037999999 0.4670326412 1.8706011772  -999.250000 35.944232941 151.36088562 150.32624817 1.1120120287 50.660205841 1.2389999628 0.9980000257
 1080.4945068  -999.250000 18.906000137 -0.037993595 0.4579023719 1.8785949945  -999.250000 38.538806915 149.44770813 148.31381226 1.1170288324 52.395591736 1.1740000248 1.0089999437
 1080.6468506  -999.250000 19.062999725 -0.029999999 0.4733378589 1.9034643173  -999.250000 40.964721680 149.75595093 148.64065552 1.1260192394 49.157199860 1.3120000362 1.0210000277
 1080.7993164  -999.250000 19.625000000 -0.014993595 0.5080753565 1.9305739403  -999.250000 39.190200806 150.55734253 149.43931580 1.1340255737 49.658401489 1.2530000210 1.0379999876
 1080.9516602  -999.250000 19.608999252 -0.007000000 0.5147691965 1.9454418421  -999.250000 39.874473572 150.02050781 148.79579163 1.1420191526 50.403594971 1.2970000505 1.0310000181
 1081.1041260  -999.250000 19.406000137 -0.006003202 0.5136745572 1.9486098289  -999.250000 39.651996613 150.01979065 148.97981262 1.1500191689 49.412403107 1.3109999895 1.0440000296
 1081.2564697  -999.250000 19.156000137 -0.010000000 0.4694928825 1.9481139183  -999.250000 38.397884369 149.88084412 148.69883728 1.1560120583 51.408401489 1.3750000000 1.0460000038
 1081.4089355  -999.250000 19.093999863 -0.014005605 0.4606036246 1.9411945343  -999.250000 35.034801483 148.50817871 147.41717529 1.1610352993 52.397991180 1.2940000296 1.0529999733
 1081.5612793  -999.250000 18.937999725 -0.021000000 0.4566576779 1.9256980419  -999.250000 36.221252441 147.67341614 146.56959534 1.1720120907 49.904796600 1.2400000095 1.0499999523
 1081.7137451  -999.250000 19.672000885 -0.025002405 0.5037100315 1.9101277590  -999.250000 37.163311005 146.95642090 145.77867126 1.1770256758 49.417217255 1.2230000496 1.0440000296
