# LAS format log file from PETREL
# Project units are specified as depth units
#==================================================================
~Version information
VERS.   2.0:
WRAP.   NO:
#==================================================================
~Well
STRT .m      176.60998535 :
STOP .m      3556.0803223 :
STEP .m     0.00000000 :
NULL .        -999.250000 :
COMP.           : COMPANY
WELL.  30/6-5   : WELL
FLD.            : FIELD
LOC.            : LOCATION
SRVC.           : SERVICE COMPANY
DATE.  2018-09-11 14:48:31   : Log Export Date {yyyy-MM-dd HH:mm:ss}
PROV.           : PROVINCE
UWI.   30/6-5   : UNIQUE WELL ID
API.            : API NUMBER
#==================================================================
~Curve
DEPT .m                   : DEPTH
Lithology_geolink ._      : Lithology_geolink
CALI .in                  : CALI
DRHO .g/cm3               : DRHO
NPHI .m3/m3               : NPHI
RHOB .g/cm3               : RHOB
PEF .b/e                  : PEF
GR .gAPI                  : GR
DTC .us/ft                : DTC
DTE .us/ft                : DTE
RDEP .ohm.m               : RDEP
SP .mV                    : SP
RSHA .ohm.m               : RSHA
RMED .ohm.m               : RMED
~Parameter
#==================================================================
~Ascii
# ...
 1524.4356689  -999.250000 22.343999863 -0.046000000 0.5861181617 1.9793000221  -999.250000 36.025341034 148.70890808 149.78883362 0.8629743457 61.122943878 0.7810000181 0.8840000033
 1524.5881348  -999.250000 22.327999115 -0.041000001 0.6087718010 1.9792902470  -999.250000 32.499172211 148.72064209 149.80244446 0.8470072150 47.362728119 0.5659999847 0.8790000081
 1524.7404785  -999.250000 22.343999863 -0.041999999 0.6160909534 1.9792000055  -999.250000 32.149864197 148.81646729 149.81611633 0.8499695659 34.018890381 0.3849999905 0.7770000100
 1524.8929443  -999.250000 22.327999115 -0.037000000 0.5979409218 1.9791902304  -999.250000 28.335992813 148.72064209 149.82962036 0.8309999704 69.078277588 0.4259999990 0.8130000234
 1525.0452881  -999.250000 22.202999115 -0.023000000 0.5733768940 1.9790999889  -999.250000 31.656652451 148.83973694 149.84323120 0.8309487104 44.998073578 0.5970000029 0.8190000057
 1525.1977539  -999.250000 21.016002655 -0.011000000 0.5464836359 1.9790902138  -999.250000 32.081615448 148.93563843 149.85682678 0.7990144491 73.595100403 0.8420000076 0.8529999852
 1525.3500977  -999.250000 19.952999115 -0.012000000 0.5271927714 1.9789999723  -999.250000 39.818008423 148.82809448 149.87043762 0.8050256371 54.643188477 0.4819999933 0.8450000286
 1525.5024414  -999.250000 19.577999115 -0.021000000 0.5102170110 1.9789903164  -999.250000 42.941303253 148.82809448 149.88410950 0.8210095763 50.666213989 0.4790000021 0.8199999928
 1525.6549072  -999.250000 20.858999252 -0.022000000 0.5146406889 1.9788999557  -999.250000 44.991893768 148.83975220 149.89772034 0.8270264268 54.911602020 0.7020000219 0.8240000010
 1525.8072510  -999.250000 18.843999863 -0.014000000 0.5274529457 1.9788901806  -999.250000 41.625701904 148.93574524 149.91123962 0.8380144238 56.620540619 0.9079999924 0.8190000057
 1525.9597168  -999.250000 18.202999115 -0.009000000 0.5605103970 1.9788000584  -999.250000 42.070579529 148.82809448 149.92492676 0.8470168114 41.951633453 0.7870000005 0.8450000286
 1526.1120605  -999.250000 18.812999725 -0.014000000 0.5897582173 1.9787902832  -999.250000 45.220455170 148.82809448 149.93850708 0.8539967537 56.114532471 1.0219999552 0.8489999771
 1526.2645264  -999.250000 20.266000748 -0.021000000 0.6011503339 1.9787000418  -999.250000 46.115768433 148.85140991 149.95204163 0.8520336151 39.020488739 0.9589999914 0.8500000238
 1526.4168701  -999.250000 22.312999725 -0.021000000 0.6137599945 1.9786902666  -999.250000 42.273334503 149.05494690 149.96572876 0.8659839630 74.593498230 0.8339999914 0.8379999995
 1526.5693359  -999.250000 20.406000137 -0.023000000 0.6199659705 1.9786000252  -999.250000 37.501876831 148.94731140 149.97923279 0.8559640050 48.683242798 0.8169999719 0.8550000191
 1526.7216797  -999.250000 21.625000000 -0.033000000 0.6099372506 1.9786000252  -999.250000 38.281650543 148.95903015 149.99284363 0.8409727812 57.176815033 0.5820000172 0.8379999995
 1526.8741455  -999.250000 19.141000748 -0.048999999 0.5770311356 1.9785902500  -999.250000 38.684997559 149.05477905 150.00653076 0.8239615560 63.621540070 0.5019999743 0.8090000153
 1527.0264893  -999.250000 20.733999252 -0.059000000 0.5650785565 1.9785000086  -999.250000 37.435745239 148.94738770 150.02011108 0.8079583645 52.869968414 0.5460000038 0.7770000100
 1527.1789551  -999.250000 22.327999115 -0.057000000 0.5891206861 1.9784902334  -999.250000 36.032951355 148.94731140 150.03364563 0.7819615602 41.715293884 0.5170000196 0.7770000100
 1527.3312988  -999.250000 19.266000748 -0.046999998 0.5976685286 1.9783999920  -999.250000 36.848159790 148.95903015 150.04733276 0.7659679055 60.128776550 0.6299999952 0.7580000162
 1527.4836426  -999.250000 21.766002655 -0.035000000 0.5717749596 1.9783903360  -999.250000 39.434043884 149.05487061 150.06091309 0.7459967732 51.628955841 0.5379999876 0.7710000277
 1527.6361084  -999.250000 20.687999725 -0.026000001 0.5312444568 1.9782999754  -999.250000 36.967048645 148.95906067 150.07452393 0.7439880371 40.445228577 0.6069999933 0.7459999919
 1527.7884521  -999.250000 19.796998978 -0.023000000 0.5165309310 1.9782902002  -999.250000 36.154495239 149.06658936 150.08813477 0.7390112281 52.713088989 0.4720000029 0.7630000114
 1527.9409180  -999.250000 20.172000885 -0.028000001 0.5420641899 1.9781999588  -999.250000 35.237991333 149.07809448 150.10173035 0.7460191846 76.299514771 0.7509999871 0.7549999952
 1528.0932617  -999.250000 20.655998230 -0.027000001 0.5562531352 1.9781901836  -999.250000 43.128505707 149.17422485 150.11531067 0.7540079951 43.206478119 0.6740000248 0.7839999795
 1528.2457275  -999.250000 18.218999863 -0.017999999 0.5394693017 1.9780999422  -999.250000 45.321254730 149.06642151 150.12892151 0.7589880228 64.066329956 0.5970000029 0.8040000200
 1528.3980713  -999.250000 19.077999115 -0.010000000 0.5059737563 1.9782269001  -999.250000 48.747146606 149.04330444 150.10484314 0.7540208697 36.193256378 0.7210000157 0.8249999881
 1528.5505371  -999.250000 18.233999252 -0.008000000 0.5146316290 1.9795857668  -999.250000 46.971252441 148.75814819 149.71508789 0.7670048475 51.716846466 0.7639999986 0.8220000267
 1528.7028809  -999.250000 18.406000137 -0.010000000 0.5444175005 1.9814953804  -999.250000 47.907253265 148.05445862 149.16104126 0.7690272331 70.617538452 0.8889999986 0.8299999833
 1528.8553467  -999.250000 18.641000748 -0.008000000 0.5615357161 1.9837105274  -999.250000 48.684696198 147.41236877 148.52154541 0.7860624790 54.604717255 0.8399999738 0.8349999785
 1529.0076904  -999.250000 18.875000000 -0.007000000 0.5514754057 1.9877734184  -999.250000 47.310943604 146.36180115 147.36567688 0.8120849133 38.786502838 0.7829999924 0.8360000253
 1529.1601563  -999.250000 18.483999252 -0.008000000 0.5610408783 1.9894887209  -999.250000 46.029422760 145.84370422 146.89126587 0.8651825786 79.241737366 0.8799999952 0.8159999847
 1529.3125000  -999.250000 18.437999725 -0.020000000 0.5613813400 1.9863857031  -999.250000 45.372344971 147.58599854 148.61164856 0.9410609007 28.281700134 0.6340000033 0.7979999781
 1529.4648438  -999.250000 18.733999252 -0.046000000 0.5435051918 2.0409004688  -999.250000 43.709194183 141.92691040 142.85928345 0.9789807796 67.371139526 0.6520000100 0.8429999948
 1529.6173096  -999.250000 18.468999863 -0.048999999 0.5342702866 2.1923272610  -999.250000 37.588344574 122.74639130 123.62619019 0.9669711590 52.923610687 3.0000000000 1.0579999685
 1529.7696533  -999.250000 17.452999115 0.0179999992 0.5344945788 2.3925926685  -999.250000 34.069507599 108.37805176 109.18801880 0.9490032196 58.383762360 1.9720000029 1.5249999762
 1529.9221191  -999.250000 17.343999863 0.0890000015 0.5560982227 2.4376292229  -999.250000 38.143913269 106.16112518 106.91465759 0.9510384202 49.228054047 0.8519999981 1.5149999857
 1530.0744629  -999.250000 17.922000885 0.0930000022 0.5886331797 2.3091342449  -999.250000 46.005558014 120.09120941 120.92930603 0.9670384526 71.558044434 0.8159999847 1.1030000448
 1530.2269287  -999.250000 18.172000885 0.0430000015 0.6154827476 2.1510703564  -999.250000 49.466300964 138.75976563 139.67059326 0.9909303188 30.984462738 0.8019999862 0.8709999919
 1530.3792725  -999.250000 17.218999863 0.0120000001 0.6082476974 2.0681653023  -999.250000 48.340446472 148.15921021 149.17588806 0.9619246721 55.416816711 0.7400000095 0.8230000138
 1530.5317383  -999.250000 17.202999115 0.0109999999 0.5506278276 2.0452315807  -999.250000 46.126125336 148.37994385 149.45526123 0.9148727059 59.882778168 0.7080000043 0.8349999785
 1530.6840820  -999.250000 17.031000137 0.0130000003 0.5123360753 2.0304510593  -999.250000 46.590194702 145.98934937 147.09043884 0.8619246483 52.640373230 0.7889999747 0.8579999804
 1530.8365479  -999.250000 17.108999252 0.0120000001 0.5036920905 2.0082147121  -999.250000 44.225154877 141.77394104 142.74670410 0.8149399757 46.145580292 0.9760000110 0.8629999757
 1530.9888916  -999.250000 17.281000137 0.0040000002 0.5253410339 1.9848519564  -999.250000 46.776741028 141.61238098 142.61190796 0.7899888158 43.014884949 0.8360000253 0.8759999871
