# LAS format log file from PETREL
# Project units are specified as depth units
#==================================================================
~Version information
VERS.   2.0:
WRAP.   NO:
#==================================================================
~Well
STRT .m      922.25012207 :
STOP .m      4009.0009766 :
STEP .m     0.00000000 :
NULL .        -999.250000 :
COMP.           : COMPANY
WELL.  30/6-11   : WELL
FLD.            : FIELD
LOC.            : LOCATION
SRVC.           : SERVICE COMPANY
DATE.  2018-09-11 14:48:30   : Log Export Date {yyyy-MM-dd HH:mm:ss}
PROV.           : PROVINCE
UWI.   30/6-11   : UNIQUE WELL ID
API.            : API NUMBER
#==================================================================
~Curve
DEPT .m                   : DEPTH
Lithology_geolink ._      : Lithology_geolink
CALI .in                  : CALI
DRHO .g/cm3               : DRHO
NPHI .m3/m3               : NPHI
RHOB .g/cm3               : RHOB
GR .gAPI                  : GR
DTC .us/ft                : DTC
RDEP .ohm.m               : RDEP
SP .mV                    : SP
RSHA .ohm.m               : RSHA
RMED .ohm.m               : RMED
~Parameter
#==================================================================
~Ascii
 922.25012207  -999.250000 18.573999405 -1.993999958  -999.250000 1.9419977665 57.078998566 144.19497681 1.5870000124 87.305000305 0.9929999709 0.9929999709
 922.37506104  -999.250000 18.573999405 -1.993999958  -999.250000 1.9402785301 57.044998169 144.66926575 1.5839999914 87.515998840 0.9909999967 0.9909999967
 922.50000000  -999.250000 18.573999405 -1.993999958  -999.250000 1.9376013279 57.490001678 145.40789795 1.5809999704 87.700996399 0.9829999804 0.9829999804
 922.62500000  -999.250000 18.573999405 -1.993999958  -999.250000 1.9345666170 58.066001892 146.24612427 1.5789999962 87.710998535 0.9729999900 0.9729999900
 922.75000000  -999.250000 18.573999405 -1.993999958  -999.250000 1.9320557117 58.387001038 146.94483948 1.5789999962 87.471000671 0.9660000205 0.9660000205
 922.87493896  -999.250000 18.573999405 -1.993999958  -999.250000 1.9303345680 58.616001129 147.42640686 1.5800000429 87.107002258 0.9670000076 0.9670000076
 922.99993896  -999.250000 18.573999405 -1.993999958  -999.250000 1.9295611382 59.007999420 147.65141296 1.5820000172 86.744003296 0.9760000110 0.9760000110
 923.12487793  -999.250000 18.573999405 -1.993999958  -999.250000 1.9297493696 59.465999603 147.60887146 1.5850000381 86.484001160 0.9909999967 0.9909999967
 923.24987793  -999.250000 18.573999405 -1.993999958  -999.250000 1.9307644367 59.467998505 147.31649780 1.5889999866 86.384002686 1.0030000210 1.0030000210
 923.37512207  -999.250000 18.573999405 -1.993999958  -999.250000 1.9326545000 58.567001343 146.79187012 1.5970000029 86.396003723 1.0080000162 1.0080000162
 923.50018311  -999.250000 18.573999405 -1.993999958  -999.250000 1.9348101616 56.580001831 146.18830872 1.6080000401 86.471000671 1.0049999952 1.0049999952
 923.62512207  -999.250000 18.573999405 -1.993999958  -999.250000 1.9370241165 54.018001556 145.57366943 1.6200000048 86.533996582 0.9980000257 0.9980000257
 923.75006104  -999.250000 18.575000763 -1.993999958  -999.250000 1.9391138554 51.901000977 144.99179077 1.6310000420 86.484001160 0.9909999967 0.9909999967
 923.87500000  -999.250000 18.575000763 -1.970999956  -999.250000 1.9409213066 50.484001160 144.48268127 1.6380000114 86.360000610 0.9850000143 0.9850000143
 924.00000000  -999.250000 18.575000763 -1.916000009  -999.250000 1.9423155785 49.366001129 144.11015320 1.6410000324 86.248001099 0.9819999933 0.9819999933
 924.12493896  -999.250000 18.573999405 -1.840999961  -999.250000 1.9429390430 48.180000305 143.92587280 1.6410000324 86.197998047 0.9800000191 0.9800000191
 924.24993896  -999.250000 18.569999695 -1.784000039  -999.250000 1.9431589842 47.051998138 143.86862183 1.6360000372 86.183998108 0.9800000191 0.9800000191
 924.37487793  -999.250000 18.562999725 -1.820000052  -999.250000 1.9431179762 46.476001740 143.88754272 1.6299999952 86.125999451 0.9800000191 0.9800000191
 924.49993896  -999.250000 18.554000854 -1.986999989  -999.250000 1.9429308176 46.831001282 143.94300842 1.6230000257 85.985000610 0.9800000191 0.9800000191
 924.62512207  -999.250000 18.545000076 -2.247999907  -999.250000 1.9426896572 48.111000061 144.01010132 1.6169999838 85.785003662 0.9789999723 0.9789999723
 924.75012207  -999.250000 18.535999298 -2.437000036  -999.250000 1.9425255060 49.620998383 144.05267334 1.6119999886 85.612998962 0.9760000110 0.9760000110
 924.87506104  -999.250000 18.525999069 -2.361999989  -999.250000 1.9426383972 50.335998535 144.01625061 1.6089999676 85.523002625 0.9710000157 0.9710000157
 925.00000000  -999.250000 18.514999390 -2.144999981  -999.250000 1.9431095123 49.895999908 143.88629150 1.6080000401 85.492996216 0.9660000205 0.9660000205
 925.12500000  -999.250000 18.506000519 -1.929999948  -999.250000 1.9438320398 48.810001373 143.68910217 1.6080000401 85.445999146 0.9620000124 0.9620000124
 925.24993896  -999.250000 18.500000000 -1.794000030  -999.250000 1.9445759058 48.146999359 143.48292542 1.6080000401 85.268997192 0.9610000253 0.9610000253
 925.37493896  -999.250000 18.496999741 -1.761000037  -999.250000 1.9449859858 48.001998901 143.36357117 1.6080000401 84.967002869 0.9629999995 0.9629999995
 925.49987793  -999.250000 18.496999741 -1.789999962  -999.250000 1.9449208975 47.834999084 143.38563538 1.6089999676 84.623001099 0.9670000076 0.9670000076
 925.62487793  -999.250000 18.497999191 -1.845999956  -999.250000 1.9446551800 47.290000916 143.46238708 1.6100000143 84.366996765 0.9710000157 0.9710000157
 925.75012207  -999.250000 18.499000549 -1.891999960  -999.250000 1.9444999695 46.537998199 143.50617981 1.6130000353 84.321998596 0.9729999900 0.9729999900
 925.87506104  -999.250000 18.500000000 -1.906999946  -999.250000 1.9447538853 46.212001801 143.43624878 1.6180000305 84.441001892 0.9720000029 0.9720000029
 926.00000000  -999.250000 18.500999451 -1.901999950  -999.250000 1.9456473589 46.592998505 143.19358826 1.6230000257 84.617996216 0.9700000286 0.9700000286
 926.12506104  -999.250000 18.500000000 -1.894999981  -999.250000 1.9472885132 47.470001221 142.75695801 1.6280000210 84.720001221 0.9700000286 0.9700000286
 926.25000000  -999.250000 18.495000839 -1.901999950  -999.250000 1.9492137432 48.215000153 142.22898865 1.6310000420 84.647003174 0.9710000157 0.9710000157
 926.37500000  -999.250000 18.486000061 -1.925999999  -999.250000 1.9510219097 48.543998718 141.74070740 1.6310000420 84.458000183 0.9729999900 0.9729999900
 926.49993896  -999.250000 18.475000381 -1.944000006  -999.250000 1.9525310993 48.499000549 141.33422852 1.6289999485 84.244003296 0.9739999771 0.9739999771
 926.62493896  -999.250000 18.464000702 -1.942999959  -999.250000 1.9537439346 47.868000031 141.00306702 1.6260000467 84.092002869 0.9729999900 0.9729999900
 926.74987793  -999.250000 18.457000732 -1.921000004  -999.250000 1.9548915625 46.476001740 140.69377136 1.6230000257 84.055999756 0.9710000157 0.9710000157
 926.87481689  -999.250000 18.452999115 -1.889000058  -999.250000 1.9563647509 45.048000336 140.31358337 1.6219999790 84.088996887 0.9660000205 0.9660000205
 927.00018311  -999.250000 18.447999954 -1.860999942  -999.250000 1.9579726458 44.228000641 139.89465332 1.6239999533 84.151000977 0.9610000253 0.9610000253
 927.12512207  -999.250000 18.441999435 -1.840999961  -999.250000 1.9594297409 44.159000397 139.51303101 1.6260000467 84.225997925 0.9570000172 0.9570000172
 927.25006104  -999.250000 18.434999466 -1.830000043  -999.250000 1.9605207443 44.570999146 139.22468567 1.6280000210 84.317001343 0.9559999704 0.9559999704
 927.37506104  -999.250000 18.427999496 -1.825000048  -999.250000 1.9611096382 45.040000916 139.06446838 1.6280000210 84.427001953 0.9570000172 0.9570000172
 927.50000000  -999.250000 18.423000336 -1.822999954  -999.250000 1.9611915350 45.366001129 139.03683472 1.6269999743 84.559997559 0.9589999914 0.9589999914
 927.62493896  -999.250000 18.420000076 -1.828999996  -999.250000 1.9610528946 45.580001831 139.07835388 1.6250000000 84.706001282 0.9620000124 0.9620000124
 927.74993896  -999.250000 18.416999817 -1.843000054  -999.250000 1.9608331919 45.730998993 139.13172913 1.6219999790 84.824996948 0.9649999738 0.9649999738
 927.87487793  -999.250000 18.416999817 -1.855999947  -999.250000 1.9607000351 45.570999146 139.16029358 1.6180000305 84.863998413 0.9670000076 0.9670000076
 927.99993896  -999.250000 18.417999268 -1.851999998  -999.250000 1.9607590437 44.886001587 139.14254761 1.6150000095 84.783996582 0.9660000205 0.9660000205
 928.12512207  -999.250000 18.420999527 -1.832999945  -999.250000 1.9610071182 43.970001221 139.07714844 1.6109999418 84.598999023 0.9620000124 0.9620000124
 928.25006104  -999.250000 18.423999786 -1.814000010  -999.250000 1.9613351822 43.411998749 138.99311829 1.6059999466 84.389999390 0.9549999833 0.9549999833
 928.37506104  -999.250000 18.426000595 -1.817000031  -999.250000 1.9614000320 43.215000153 138.98558044 1.6009999514 84.268997192 0.9480000138 0.9480000138
 928.50006104  -999.250000 18.424999237 -1.845000029  -999.250000 1.9610174894 42.932998657 139.08273315 1.5950000286 84.265998840 0.9409999847 0.9409999847
