# LAS format log file from PETREL
# Project units are specified as depth units
#==================================================================
~Version information
VERS.   2.0:
WRAP.   NO:
#==================================================================
~Well
STRT .m      360.12121582 :
STOP .m      3233.9282227 :
STEP .m     0.00000000 :
NULL .        -999.250000 :
COMP.           : COMPANY
WELL.  30/6-23   : WELL
FLD.            : FIELD
LOC.            : LOCATION
SRVC.           : SERVICE COMPANY
DATE.  2018-09-11 14:48:31   : Log Export Date {yyyy-MM-dd HH:mm:ss}
PROV.           : PROVINCE
UWI.   30/6-23   : UNIQUE WELL ID
API.            : API NUMBER
#==================================================================
~Curve
DEPT .m                   : DEPTH
Lithology_geolink ._      : Lithology_geolink
CALI .in                  : CALI
DRHO .g/cm3               : DRHO
NPHI .m3/m3               : NPHI
RHOB .g/cm3               : RHOB
GR .gAPI                  : GR
DTC .us/ft                : DTC
DTE .us/ft                : DTE
RDEP .ohm.m               : RDEP
SP .mV                    : SP
RSHA .ohm.m               : RSHA
RMED .ohm.m               : RMED
~Parameter
#==================================================================
~Ascii
# ...
 3044.8000488 5.0000000000 8.3828001022 0.0092000002 0.2168553919 2.4607000351 72.352668762 79.259437561 77.766036987 3.9577567577 201.07875061 3.7417964935 3.9716844559
 3044.9523926 5.0000000000 8.3828001022 0.0104000000 0.2208992988 2.4601998329 73.142402649 79.422698975 78.043174744 3.8684544563 201.16957092 4.2363405228 3.8997364044
 3045.1047363 5.0000000000 8.3828001022 0.0098999999 0.2220436931 2.4600000381 73.459320068 79.614952087 78.027488708 3.8400759697 200.84068298 3.6279077530 3.9226627350
 3045.2573242 5.0000000000 8.3828001022 0.0110999998 0.2230862081 2.4584000111 74.041870117 79.750282288 78.209487915 3.8249828815 200.58105469 3.9123971462 4.0868468285
 3045.4096680 5.0000000000 8.3828001022 0.0121999998 0.2233686000 2.4560000896 75.716957092 79.682556152 78.301567078 3.8196232319 200.90792847 4.3641529083 4.2573556900
 3045.5620117 5.0000000000 8.3828001022 0.0136000002 0.2263425142 2.4542000294 77.059837341 79.468948364 78.145820618 3.8340744972 201.16992188 3.7347099781 4.3546504974
 3045.7143555 5.0000000000 8.3828001022 0.0142000001 0.2305256575 2.4549999237 76.643981934 79.807205200 78.356872559 3.8805041313 201.00039673 4.4531879425 4.4484405518
 3045.8669434 5.0000000000 8.3828001022 0.0155999996 0.2352179438 2.4586000443 75.015243530 80.477600098 79.002792358 3.9455845356 201.00025940 4.4798049927 4.4738168716
 3046.0192871 5.0000000000 8.3828001022 0.0154999997 0.2386753708 2.4623000622 74.965148926 80.894821167 79.333457947 4.0031652451 201.07934570 4.3373808861 4.4790463448
 3046.1716309 5.0000000000 8.3828001022 0.0152000003 0.2393228710 2.4656000137 75.556396484 81.066886902 79.536811829 4.0438356400 201.17010498 4.6452260017 4.5080051422
 3046.3239746 5.0000000000 8.3828001022 0.0152000003 0.2379900366 2.4656000137 75.987731934 81.476783752 80.112930298 4.0662107468 200.92068481 4.8707866669 4.5734233856
 3046.4763184 5.0000000000 8.3828001022 0.0148999998 0.2362228036 2.4623000622 75.509757996 80.992454529 79.632514954 4.0729875565 200.90940857 4.7722482681 4.5879397392
 3046.6289063 5.0000000000 8.3828001022 0.0138999997 0.2368376553 2.4588000774 75.480705261 80.749588013 79.266098022 4.0653729439 201.16903687 4.4134249687 4.4876246452
 3046.7812500 5.0000000000 8.3800001144 0.0129000004 0.2350964099 2.4553999901 76.233779907 80.636413574 79.000343323 4.0484747887 200.76281738 4.2737755775 4.3159537315
 3046.9335938 5.0000000000 8.3587999344 0.0114000002 0.2313452512 2.4528999329 76.908035278 80.230690002 78.827545166 4.0326933861 200.33097839 4.3889665604 4.2247529030
 3047.0859375 5.0000000000 8.3329000473 0.0099999998 0.2245028019 2.4544999599 76.680168152 79.945945740 78.507781982 4.0286107063 200.49934387 3.8815693855 4.1954340935
 3047.2385254 5.0000000000 8.3572998047 0.0104999999 0.2194190025 2.4595999718 75.720932007 79.605056763 78.209472656 4.0350809097 200.34025574 4.0901947021 4.2166204453
 3047.3908691 5.0000000000 8.3793001175 0.0122999996 0.2157442123 2.4651000500 75.107604980 79.444419861 78.118087769 4.0604033470 199.92124939 4.1733622551 4.2853822708
 3047.5432129 5.0000000000 8.3828001022 0.0142000001 0.2132676840 2.4704999924 74.796386719 79.038192749 77.465538025 4.1249303818 199.82977295 4.4772262573 4.3993515968
 3047.6955566 5.0000000000 8.3828001022 0.0147000002 0.2119044214 2.4760000706 74.663009644 78.368942261 76.920959473 4.2059926987 199.99943542 4.6740403175 4.6187109947
 3047.8481445 5.0000000000 8.3828001022 0.0148000000 0.2108726948 2.4783999920 73.478469849 78.037567139 76.541038513 4.2637882233 199.84045410 5.3393306732 4.8753557205
 3048.0004883 5.0000000000 8.3828001022 0.0135000004 0.2122666389 2.4727001190 71.754081726 77.891387939 76.427093506 4.2913312912 199.58007813 5.2396306992 5.0796651840
 3048.1528320 5.0000000000 8.3828001022 0.0102000004 0.2131158412 2.4612998962 71.433250427 78.159835815 76.755142212 4.3108334541 199.74948120 4.7073502541 5.1201872826
 3048.3051758 5.0000000000 8.3828001022 0.0080000004 0.2120355368 2.4549002647 72.277320862 78.614707947 77.010253906 4.3316378593 199.67065430 4.8192543983 4.9247274399
 3048.4575195 5.0000000000 8.3830995560 0.0144999996 0.2074539065 2.4609000683 73.597061157 78.514945984 77.061508179 4.3550395966 199.57983398 5.7068748474 4.6303548813
 3048.6101074 5.0000000000 8.3942003250 0.0288999993 0.1987782866 2.4823999405 73.697723389 77.217254639 75.841194153 4.3797421455 199.67004395 5.7284688950 4.7285566330
 3048.7624512 5.0000000000 8.4914999008 0.0414999984 0.1877163202 2.5164999962 74.208068848 74.899108887 73.535308838 4.4058275223 199.57965088 18.269556046 5.5759463310
 3048.9147949 5.0000000000 8.7186002731 0.0482000001 0.1797601879 2.5418000221 73.626670837 73.452751160 71.972732544 4.4231042862 199.66983032 19.476537704 6.9152078629
 3049.0671387 5.0000000000 8.8463001251 0.0502999984 0.1836876273 2.5373001099 73.239044189 73.413749695 71.763420105 4.4257979393 199.50004578 12.160181046 8.1655569077
 3049.2197266 5.0000000000 8.7746000290 0.0362999998 0.2044306397 2.5106999874 73.523864746 74.707405090 73.300338745 4.4244918823 199.34045410 6.0847296715 7.8229713440
 3049.3720703 5.0000000000 8.6857995987 0.0160000008 0.2297080308 2.4842000008 75.883819580 76.643974304 75.196929932 4.4218997955 199.07995605 5.0340938568 6.3795390129
 3049.5244141 5.0000000000 8.6718997955 0.0092000002 0.2440969050 2.4709999561 77.888008118 77.998947144 76.527969360 4.4219017029 199.17019653 4.8054637909 5.4058961868
 3049.6767578 5.0000000000 8.6702995300 0.0088999998 0.2461063564 2.4665000439 77.517234802 78.614707947 77.234626770 4.4231104851 198.92105103 5.0425996780 4.7803554535
 3049.8293457 6.0000000000 8.6525001526 0.0092000002 0.2436126918 2.4658999443 76.978469849 78.707199097 77.315383911 4.4295415878 198.82972717 4.9189953804 4.5658416748
 3049.9816895 6.0000000000 8.5966997147 0.0087000001 0.2417065650 2.4688999653 77.003318787 79.180152893 77.474006653 4.4424171448 198.84085083 5.1279625893 4.6725878716
 3050.1340332 6.0000000000 8.5392999649 0.0086000003 0.2373576611 2.4709000587 78.887420654 79.205421448 77.653694153 4.4531002045 198.50071716 5.7405972481 4.7896986008
 3050.2863770 6.0000000000 8.5288000107 0.0099999998 0.2302551270 2.4705998898 79.398147583 79.568702698 78.160232544 4.4531059265 198.57962036 5.2416863441 4.9136118889
 3050.4389648 6.0000000000 8.5269002914 0.0110999998 0.2221723795 2.4711000919 79.054084778 79.853828430 78.409690857 4.4568490982 198.58992004 5.0842161179 5.0460352898
 3050.5913086 6.0000000000 8.5346002579 0.0132999998 0.2179172635 2.4742000103 78.957939148 79.796798706 78.350486755 4.4722452164 198.25120544 5.5406565666 5.1817030907
 3050.7436523 6.0000000000 8.5767002106 0.0155999996 0.2163833976 2.4783999920 79.236412048 80.067359924 78.380149841 4.5006785393 198.25025940 5.0576419830 5.2459144592
 3050.8959961 6.0000000000 8.6956996918 0.0154999997 0.2203547806 2.4816999435 80.300148010 80.330451965 78.817230225 4.5497264862 198.40937805 5.9741272926 5.2548789978
 3051.0483398 6.0000000000 8.8056001663 0.0137999998 0.2255912423 2.4828999043 80.769638062 80.761199951 79.363395691 4.6286602020 198.82817078 6.4184007645 5.3045315742
 3051.2009277 6.0000000000 8.8177003860 0.0118000004 0.2308019698 2.4830999374 81.605911255 80.749588013 79.389671326 4.7288651466 198.68081665 6.5411787033 5.4496793747
 3051.3532715 6.0000000000 8.7910995483 0.0096000005 0.2322577685 2.4835999012 82.294815063 80.059432983 78.639739990 4.8429107666 198.16027832 6.1663498878 5.6927800179
 3051.5056152 6.0000000000 8.7124004364 0.0088999998 0.2341451198 2.4881000519 81.924240112 78.746185303 77.028900146 4.9744849205 198.57887268 6.6425156593 5.9299659729
 3051.6579590 6.0000000000 8.5939998627 0.0100999996 0.2378008217 2.4978001118 80.513465881 77.122856140 75.643096924 5.0898079872 198.74957275 9.6641750336 6.2209415436
 3051.8105469 6.0000000000 8.4623003006 0.0131999999 0.2387460470 2.5056002140 79.184623718 76.799102783 75.459114075 5.1570558548 198.67054749 9.6765518188 6.6845970154
 3051.9628906 6.0000000000 8.3900003433 0.0153999999 0.2358093560 2.5043001175 79.694435120 76.891754150 75.520545959 5.1744856834 198.65919495 7.4021186829 7.1819396019
