# LAS format log file from PETREL
# Project units are specified as depth units
#==================================================================
~Version information
VERS.   2.0:
WRAP.   NO:
#==================================================================
~Well
STRT .m      176.60998535 :
STOP .m      3556.0803223 :
STEP .m     0.00000000 :
NULL .        -999.250000 :
COMP.           : COMPANY
WELL.  30/6-5   : WELL
FLD.            : FIELD
LOC.            : LOCATION
SRVC.           : SERVICE COMPANY
DATE.  2018-09-11 14:48:31   : Log Export Date {yyyy-MM-dd HH:mm:ss}
PROV.           : PROVINCE
UWI.   30/6-5   : UNIQUE WELL ID
API.            : API NUMBER
#==================================================================
~Curve
DEPT .m                   : DEPTH
Lithology_geolink ._      : Lithology_geolink
CALI .in                  : CALI
DRHO .g/cm3               : DRHO
NPHI .m3/m3               : NPHI
RHOB .g/cm3               : RHOB
PEF .b/e                  : PEF
GR .gAPI                  : GR
DTC .us/ft                : DTC
DTE .us/ft                : DTE
RDEP .ohm.m               : RDEP
SP .mV                    : SP
RSHA .ohm.m               : RSHA
RMED .ohm.m               : RMED
~Parameter
#==================================================================
~Ascii
 176.60998535  -999.250000 22.094001770  -999.250000  -999.250000 1.0000000000  -999.250000 9.5628814697 207.34309387 206.22460938 1999.9870605 -11.64973354 0.1250000000 0.4399999976
 176.76239014  -999.250000 21.156000137  -999.250000  -999.250000 1.0000000000  -999.250000 9.5310001373 207.34309387 206.22460938 1999.9949951 -2.402108431 0.1230000034 0.4810000062
 176.91477966  -999.250000 21.108999252  -999.250000  -999.250000 1.0000000000  -999.250000 9.5395612717 207.34367371 206.22460938 2000.0040283 6.1713414192 0.1230000034 0.4560000002
 177.06718445  -999.250000 21.125000000  -999.250000  -999.250000 1.0000000000  -999.250000 11.908459663 207.34841919 206.22460938 2000.0118408 5.1399679184 0.1260000020 0.5270000100
 177.21958923  -999.250000 20.108999252  -999.250000  -999.250000 1.0000000000  -999.250000 12.571248055 207.34309387 206.22460938 1999.8681641 -0.249971360 0.4329999983 0.8220000267
 177.37197876  -999.250000 21.937997818  -999.250000  -999.250000 1.0000000000  -999.250000 12.887841225 207.34367371 206.22460938 1963.0837402 -1.000099063 0.7210000157 1.2799999714
 177.52438354  -999.250000 22.125000000  -999.250000  -999.250000 1.0000000000  -999.250000 10.149581909 207.34986877 206.22460938 16.984420776 6.5214290619 0.1340000033 1.3380000591
 177.67678833  -999.250000 20.797000885  -999.250000  -999.250000 1.0000000000  -999.250000 8.4716444016 207.35655212 206.22460938 1951.5073242 11.366498947 0.1230000034 1.0230000019
 177.82917786  -999.250000 20.594001770  -999.250000  -999.250000 1.0000000000  -999.250000 9.1615400314 207.34367371 206.22460938 2000.0158691 16.493362427 0.1230000034 0.8690000176
 177.98158264  -999.250000 20.547000885  -999.250000  -999.250000 1.0000000000  -999.250000 8.4961652756 207.34841919 206.22460938 1999.9849854 22.214698792 0.1230000034 0.6850000024
 178.13398743  -999.250000 20.547000885  -999.250000  -999.250000 1.0000000000  -999.250000 7.4841971397 207.34309387 206.22460938 1999.9949951 16.116863251 0.1230000034 0.4729999900
 178.28639221  -999.250000 20.562999725  -999.250000  -999.250000 1.0000000000  -999.250000 5.4448351860 207.34367371 206.22460938 2000.0030518 17.133588791 0.1230000034 0.3549999893
 178.43878174  -999.250000 20.547000885  -999.250000  -999.250000 1.0000000000  -999.250000 6.4567728043 207.34841919 206.22460938 2000.0108643 18.565135956 0.1230000034 0.1930000037
 178.59118652  -999.250000 20.547000885  -999.250000  -999.250000 1.0000000000  -999.250000 8.4972305298 207.34309387 206.22460938 1999.9799805 10.179199219 0.1230000034 0.1309999973
 178.74359131  -999.250000 20.562999725  -999.250000  -999.250000 1.0000000000  -999.250000 9.8670301437 207.34367371 206.22460938 1999.9890137 -1.077459335 0.1289999932 0.1270000041
 178.89598083  -999.250000 20.702999115  -999.250000  -999.250000 1.0000000000  -999.250000 9.8698759079 207.34841919 206.22460938 1999.9980469 -14.07060528 0.3179999888 0.1379999965
 179.04838562  -999.250000 22.406000137  -999.250000  -999.250000 1.0000000000  -999.250000 8.4933080673 207.34309387 206.22460938 2000.0050049 -25.45333481 1.0670000315 0.2150000036
 179.20079041  -999.250000 23.156000137  -999.250000  -999.250000 1.0000000000  -999.250000 8.8359127045 207.34454346 206.22460938 1993.4382324 -5.913462639 1.2230000496 0.4280000031
 179.35319519  -999.250000 23.343999863  -999.250000  -999.250000 1.0000000000  -999.250000 8.8182010651 207.35713196 206.22460938 277.93835449 -8.657162666 1.1820000410 0.3409999907
 179.50558472  -999.250000 23.391000748  -999.250000  -999.250000 1.0000000000  -999.250000 10.183835030 207.34841919 206.22460938 1999.9930420 -9.732732773 1.2500000000 0.2790000141
 179.65798950  -999.250000 23.375001907  -999.250000  -999.250000 1.0000000000  -999.250000 11.181665421 207.34309387 206.22460938 2000.0019531 -6.065482616 1.1829999685 0.3120000064
 179.81039429  -999.250000 23.468999863  -999.250000  -999.250000 1.0000000000  -999.250000 9.5295095444 207.34367371 206.22460938 1992.8157959 -24.00995827 1.5820000172 0.2489999980
 179.96278381  -999.250000 23.516000748  -999.250000  -999.250000 1.0030851364  -999.250000 11.232785225 207.24290466 206.11868286 108.95447540 -27.39362335 0.4189999998 0.3160000145
 180.11518860  -999.250000 23.047000885  -999.250000  -999.250000 1.1063355207  -999.250000 10.921576500 203.69207764 202.56993103 13.129125595 -24.85725784 1.0870000124 0.3000000119
 180.26759338  -999.250000 24.078001022  -999.250000  -999.250000 1.7999999523  -999.250000 15.000061035 179.83680725 178.71861267 26.185483932 -21.02838707 0.4790000021 0.2709999979
 180.41998291  -999.250000 24.062999725  -999.250000  -999.250000 1.7999999523  -999.250000 15.014696121 179.83929443 178.71861267 8.2594261169 -29.26563835 0.3650000095 0.1589999944
 180.57238770  -999.250000 24.062999725  -999.250000  -999.250000 1.7999999523  -999.250000 14.658799171 179.83650208 178.71861267 12.117664337 -34.29369354 0.4580000043 0.1280000061
 180.72479248  -999.250000 24.078001022  -999.250000  -999.250000 1.7999999523  -999.250000 13.291528702 179.83680725 178.71861267 6.5215497017 -38.40490341 0.3899999857 0.1299999952
 180.87719727  -999.250000 24.078001022  -999.250000  -999.250000 1.7999999523  -999.250000 11.862926483 179.84072876 178.71861267 4.0434617996 -38.90680313 0.3959999979 0.1280000061
 181.02958679  -999.250000 24.078001022  -999.250000  -999.250000 1.7999999523  -999.250000 12.888365746 179.84986877 178.71861267 3.1171224117 -39.90531540 0.3709999919 0.1280000061
 181.18199158  -999.250000 24.078001022  -999.250000  -999.250000 1.7999999523  -999.250000 12.185410500 179.83680725 178.71861267 3.1766662598 -40.51729584 0.3779999912 0.1309999973
 181.33439636  -999.250000 24.062999725  -999.250000  -999.250000 1.7999999523  -999.250000 13.596825600 179.83929443 178.71861267 10.162325859 -37.71428680 0.3589999974 0.1360000074
 181.48678589  -999.250000 24.078001022  -999.250000  -999.250000 1.7999999523  -999.250000 12.244604111 179.83650208 178.71861267 11.028172493 -37.49998093 0.3529999852 0.1800000072
 181.63919067  -999.250000 24.062999725  -999.250000  -999.250000 1.7999999523  -999.250000 12.937273026 179.83680725 178.71861267 9.7330017090 -30.01184654 0.3540000021 0.2000000030
 181.79159546  -999.250000 24.062999725  -999.250000  -999.250000 1.7999999523  -999.250000 10.916525841 179.83929443 178.71861267 10.530604362 -42.29179001 0.3440000117 0.2039999962
 181.94400024  -999.250000 24.078001022  -999.250000  -999.250000 1.7999999523  -999.250000 11.574107170 179.83650208 178.71861267 13.576739311 -45.88849258 0.3560000062 0.2160000056
 182.09638977  -999.250000 24.078001022  -999.250000  -999.250000 1.7999999523  -999.250000 10.558773994 179.83650208 178.71861267 15.606819153 -42.10070419 0.3560000062 0.2259999961
 182.24879456  -999.250000 24.078001022  -999.250000  -999.250000 1.7999999523  -999.250000 11.547030449 179.83680725 178.71861267 16.606702805 -44.90490341 0.3580000103 0.2090000063
 182.40119934  -999.250000 24.078001022  -999.250000  -999.250000 1.7999999523  -999.250000 11.557704926 179.84072876 178.71861267 16.527599335 -45.38896942 0.3479999900 0.2080000043
 182.55358887  -999.250000 24.078001022  -999.250000  -999.250000 1.7999999523  -999.250000 12.267126083 179.84986877 178.71861267 16.158266068 -41.70805359 0.3370000124 0.2060000002
 182.70599365  -999.250000 24.062999725  -999.250000  -999.250000 1.7999999523  -999.250000 12.567385674 179.83680725 178.71861267 15.429384232 -39.85141373 0.3350000083 0.2020000070
 182.85839844  -999.250000 24.062999725  -999.250000  -999.250000 1.7999999523  -999.250000 11.882703781 179.83929443 178.71861267 17.107490540 -42.85617065 0.3319999874 0.2029999942
 183.01078796  -999.250000 24.078001022  -999.250000  -999.250000 1.7999999523  -999.250000 11.803840637 179.83650208 178.71861267 18.805917740 -47.07541275 0.3269999921 0.2060000002
 183.16317749  -999.250000 24.078001022  -999.250000  -999.250000 1.7999999523  -999.250000 11.497207642 179.83680725 178.71861267 18.502401352 -43.16735458 0.3230000138 0.2080000043
