# LAS format log file from PETREL
# Project units are specified as depth units
#==================================================================
~Version information
VERS.   2.0:
WRAP.   NO:
#==================================================================
~Well
STRT .m      360.12121582 :
STOP .m      3233.9282227 :
STEP .m     0.00000000 :
NULL .        -999.250000 :
COMP.           : COMPANY
WELL.  30/6-23   : WELL
FLD.            : FIELD
LOC.            : LOCATION
SRVC.           : SERVICE COMPANY
DATE.  2018-09-11 14:48:31   : Log Export Date {yyyy-MM-dd HH:mm:ss}
PROV.           : PROVINCE
UWI.   30/6-23   : UNIQUE WELL ID
API.            : API NUMBER
#==================================================================
~Curve
DEPT .m                   : DEPTH
Lithology_geolink ._      : Lithology_geolink
CALI .in                  : CALI
DRHO .g/cm3               : DRHO
NPHI .m3/m3               : NPHI
RHOB .g/cm3               : RHOB
GR .gAPI                  : GR
DTC .us/ft                : DTC
DTE .us/ft                : DTE
RDEP .ohm.m               : RDEP
SP .mV                    : SP
RSHA .ohm.m               : RSHA
RMED .ohm.m               : RMED
~Parameter
#==================================================================
~Ascii
# ...
 543.00122070  -999.250000 19.750000000 -0.018300001 0.3843574524 2.0469000340 91.469802856 138.80220032 138.58479309 1.9835000038 44.868900299  -999.250000 1.8231999874
 543.15362549  -999.250000 19.812500000 -0.017800000 0.3739845157 2.0278999805 95.110496521 138.81164551 138.58479309 1.9774999619 44.650199890  -999.250000 1.8623000383
 543.30603027  -999.250000 19.781200409 -0.015500000 0.3809980154 2.0160000324 96.622703552 138.76625061 138.58479309 1.9881000519 45.478298187  -999.250000 1.7998000383
 543.45843506  -999.250000 19.703098297 -0.012700000 0.3739557266 2.0302999020 99.825996399 138.80299377 138.58479309 2.0155000687 44.915798187  -999.250000 1.6845999956
 543.61083984  -999.250000 19.703098297 -0.008700000 0.3598748744 2.0401999950 98.242164612 138.76379395 138.58479309 2.0422072411 45.103141785  -999.250000 1.6318345070
 543.76324463  -999.250000 19.953100204 -0.010100000 0.3579912484 2.0446999073 99.399597168 138.79899597 138.58479309 2.0601038933 44.712882996  -999.250000 1.7178504467
 543.91564941  -999.250000 19.812500000 -0.015799999 0.3776842952 2.0406999588 97.158401489 138.76300049 138.58479309 2.0699026585 45.165653229  -999.250000 1.8438359499
 544.06805420  -999.250000 19.593799591 -0.016100001 0.3865921199 2.0596001148 97.913803101 138.80220032 138.58479309 2.0763053894 44.806537628  -999.250000 1.9336128235
 544.22045898  -999.250000 18.828100204 -0.012400000 0.3863004446 2.0861999989 96.177505493 138.76379395 138.58479309 2.0899121761 45.150081635  -999.250000 1.9658262730
 544.37286377  -999.250000 18.750000000 -0.007900000 0.3774996996 2.1071999073 97.433044434 138.80220032 138.58479309 2.1200239658 44.853286743  -999.250000 2.0312225819
 544.52526855  -999.250000 18.781200409 -0.003400000 0.3766508996 2.1013000011 97.292243958 138.81478882 138.58479309 2.1802260876 44.821701050  -999.250000 2.0879187584
 544.67767334  -999.250000 18.750000000 0.0130000003 0.3756410778 2.0915999413 95.658065796 138.76710510 138.58479309 2.2453217506 43.822109222  -999.250000 2.1347982883
 544.83007813  -999.250000 18.265600204 0.0281000007 0.3806916177 2.0838999748 92.827102661 138.79981995 138.58479309 2.2996156216 43.837570190  -999.250000 2.1308741570
 544.98242188  -999.250000 18.234399796 0.0392999984 0.3815976381 2.0962998867 91.347602844 138.76620483 138.58479309 2.3385999203 43.509601593  -999.250000 2.0664000511
 545.13482666  -999.250000 18.093799591 0.0377999991 0.3743346930 2.1120998859 92.549003601 138.80299377 138.58479309 2.3652000427 43.790798187  -999.250000 2.0664000511
 545.28723145  -999.250000 18.031200409 0.0498999991 0.3688021004 2.1343998909 90.877899170 138.76379395 138.58479309 2.3887000084 42.556400299  -999.250000 1.9902000427
 545.43963623  -999.250000 18.156200409 0.0509000011 0.3618256152 2.1396000385 90.279296875 138.80220032 138.58479309 2.4121000767 42.837699890  -999.250000 1.9774999619
 545.59204102  -999.250000 18.562500000 0.0542999990 0.3695787787 2.1270000935 91.984199524 138.76705933 138.58479309 2.4412000179 42.900199890  -999.250000 1.9501999617
 545.74444580  -999.250000 18.312500000 0.0584000014 0.3766166568 2.1096999645 92.647239685 138.79661560 138.58479309 2.4680042267 43.322071075  -999.250000 1.9590116739
 545.89685059  -999.250000 17.968799591 0.0599999987 0.3881897628 2.1059999466 94.237159729 138.81321716 138.58479309 2.4785966873 43.244113922  -999.250000 1.9882627726
 546.04925537  -999.250000 18.000000000 0.0627999976 0.3888755441 2.1263999939 91.401519775 138.76708984 138.58479309 2.4700932503 43.775001526  -999.250000 1.8954886198
 546.20166016  -999.250000 18.296899796 0.0551000014 0.3929140866 2.1598999500 93.435539246 138.80303955 138.58479309 2.4534957409 43.275337219  -999.250000 1.8672089577
 546.35406494  -999.250000 18.453100204 0.0353999995 0.4106276333 2.1663000584 94.531135559 138.76376343 138.58479309 2.4424996376 43.618873596  -999.250000 1.8896188736
 546.50646973  -999.250000 18.453100204 0.0243999995 0.4327949286 2.1786999702 95.620407104 138.80223083 138.58479309 2.4415006638 43.556705475  -999.250000 1.9365050793
 546.65887451  -999.250000 18.406200409 0.0260000005 0.4414374530 2.1851999760 94.385269165 138.76705933 138.58479309 2.4432001114 44.321975708  -999.250000 1.9492079020
 546.81127930  -999.250000 18.296899796 0.0100999996 0.4317437112 2.1575999260 90.306877136 138.79981995 138.58479309 2.4431967735 44.009971619  -999.250000 1.9688148499
 546.96362305  -999.250000 18.187500000 0.0041999999 0.4168061614 2.1379001141 88.993202209 138.76620483 138.58479309 2.4347999096 44.931400299  -999.250000 2.0058999062
 547.11602783  -999.250000 18.078100204 0.0046000001 0.4150507152 2.1226000786 87.636001587 138.80299377 138.58479309 2.4205000401 44.447101593  -999.250000 2.0215001106
 547.26843262  -999.250000 18.140600204 0.0040000002 0.4145621657 2.1208999157 87.835700989 138.76379395 138.58479309 2.4156000614 45.056400299  -999.250000 1.9970999956
 547.42083740  -999.250000 18.203100204 0.0034000000 0.4066592455 2.1275000572 87.757102966 138.80220032 138.58479309 2.4296000004 44.650199890  -999.250000 1.9481999874
 547.57324219  -999.250000 18.218799591 0.0055999998 0.4026806951 2.1480000019 89.526802063 138.81156921 138.58479309 2.4630999565 45.181400299  -999.250000 1.9551000595
 547.72564697  -999.250000 18.109399796 0.0063999998 0.4063241780 2.1514999866 91.139732361 138.76300049 138.58479309 2.5014135838 44.509834290  -999.250000 1.9608960152
 547.87805176  -999.250000 17.984399796 0.0051000002 0.4159885049 2.1473999023 92.728782654 138.80223083 138.58479309 2.5352132320 45.087398529  -999.250000 1.9512035847
 548.03045654  -999.250000 18.015600204 0.0048000002 0.4334768653 2.1398999691 92.690711975 138.76705933 138.58479309 2.5680117607 44.337638855  -999.250000 1.9599992037
 548.18286133  -999.250000 18.187500000 0.0073000002 0.4302312732 2.1519999504 95.716987610 138.80303955 138.58479309 2.5972068310 44.181037903  -999.250000 1.9580035210
 548.33526611  -999.250000 18.140600204 0.0014000000 0.4185692072 2.1777000427 94.200279236 138.76376343 138.58479309 2.6145040989 43.275295258  -999.250000 1.9667948484
 548.48760986  -999.250000 17.968799591 0.0060000001 0.3919012845 2.1717998981 92.405899048 138.80220032 138.58479309 2.6243999004 43.509601593  -999.250000 1.9541000128
 548.64001465  -999.250000 17.750000000 0.0081000002 0.4049730897 2.1528000832 90.092498779 138.76708984 138.58479309 2.6270000935 42.993900299  -999.250000 1.9638999701
 548.79241943  -999.250000 17.718799591 0.0055999998 0.4204707742 2.1115000248 91.381301880 138.79980469 138.58479309 2.6284999847 43.634601593  -999.250000 1.9375000000
 548.94482422  -999.250000 17.765600204 0.0063000000 0.4252572656 2.1236000061 93.156700134 138.81399536 138.58479309 2.6263000965 42.681400299  -999.250000 1.9189000130
 549.09722900  -999.250000 18.093799591 0.0138999997 0.4108100235 2.1421999931 89.798599243 138.76710510 138.58479309 2.5999000072 42.431400299  -999.250000 1.8809000254
 549.24963379  -999.250000 17.875000000 0.0074000000 0.4045645595 2.1380999088 89.628303528 138.79980469 138.58479309 2.5446999073 42.681400299  -999.250000 1.8681999445
 549.40203857  -999.250000 18.062500000 0.0098999999 0.4070848823 2.1298000813 88.219299316 138.76620483 138.58479309 2.4763000011 42.900199890  -999.250000 1.8437999487
 549.55444336  -999.250000 18.250000000 0.0121999998 0.3914985955 2.1396999359 92.449401855 138.79978943 138.58479309 2.4391999245 42.572101593  -999.250000 1.8339999914
 549.70684814  -999.250000 18.375000000 0.0119000003 0.3925535679 2.1517999172 94.300399780 138.76618958 138.58479309 2.4321000576 43.212699890  -999.250000 1.8280999660
 549.85919189  -999.250000 18.343799591 0.0156999994 0.3968835473 2.1635999680 95.484596252 138.79978943 138.58479309 2.4316000938 42.993900299  -999.250000 1.8350000381
 550.01159668  -999.250000 18.406200409 0.0141000003 0.4175032973 2.1512999535 95.228698730 138.76620483 138.58479309 2.4312000275 43.400199890  -999.250000 1.8271000385
 550.16400146  -999.250000 18.218799591 0.0043000001 0.4249154329 2.1324999332 93.922401428 138.80299377 138.58479309 2.4217000008 43.525199890  -999.250000 1.8271000385
