# LAS format log file from PETREL
# Project units are specified as depth units
#==================================================================
~Version information
VERS.   2.0:
WRAP.   NO:
#==================================================================
~Well
STRT .m      922.25012207 :
STOP .m      4009.0009766 :
STEP .m     0.00000000 :
NULL .        -999.250000 :
COMP.           : COMPANY
WELL.  30/6-11   : WELL
FLD.            : FIELD
LOC.            : LOCATION
SRVC.           : SERVICE COMPANY
DATE.  2018-09-11 14:48:30   : Log Export Date {yyyy-MM-dd HH:mm:ss}
PROV.           : PROVINCE
UWI.   30/6-11   : UNIQUE WELL ID
API.            : API NUMBER
#==================================================================
~Curve
DEPT .m                   : DEPTH
Lithology_geolink ._      : Lithology_geolink
CALI .in                  : CALI
DRHO .g/cm3               : DRHO
NPHI .m3/m3               : NPHI
RHOB .g/cm3               : RHOB
GR .gAPI                  : GR
DTC .us/ft                : DTC
RDEP .ohm.m               : RDEP
SP .mV                    : SP
RSHA .ohm.m               : RSHA
RMED .ohm.m               : RMED
~Parameter
#==================================================================
~Ascii
# ...
 3179.0000000 13.000000000 12.817000389 -0.030999999 0.1662700027 2.5241692066 54.780998230 91.139801025 2.1250000000 34.928001404 2.4479999542 2.4479999542
 3179.1252441 13.000000000 12.798000336 -0.026000001 0.1714500040 2.5225567818 55.402000427 91.160064697 2.1370000839 35.007999420 2.4609999657 2.4609999657
 3179.2502441 13.000000000 12.779999733 -0.017000001 0.1770899892 2.5320308208 55.847999573 91.212585449 2.1480000019 35.062000275 2.4760000706 2.4760000706
 3179.3747559 13.000000000 12.763999939 -0.006000000 0.1815599948 2.5511250496 55.706001282 91.282524109 2.1619999409 35.537998199 2.5030000210 2.5030000210
 3179.4997559 13.000000000 12.755999565 0.0020000001 0.1839500070 2.5702433586 55.444999695 91.356765747 2.1700000763 36.297000885 2.5260000229 2.5260000229
 3179.6250000 13.000000000 12.756999969 -0.002000000 0.1840399951 2.5758428574 55.493000031 91.429183960 2.1710000038 37.104000092 2.5360000134 2.5360000134
 3179.7495117 13.000000000 12.765000343 -0.010000000 0.1846799999 2.5680134296 55.687999725 91.498382568 2.1689999104 37.831001282 2.5399999619 2.5399999619
 3179.8745117 13.000000000 12.781000137 -0.021000000 0.1862799972 2.5505754948 55.659999847 91.560966492 2.1549999714 38.118000031 2.5299999714 2.5299999714
 3179.9997559 13.000000000 12.800000191 -0.030999999 0.1881600022 2.5303020477 55.502998352 91.603530884 2.1359999180 37.804000854 2.5120000839 2.5120000839
 3180.1247559 13.000000000 12.815999031 -0.032000002 0.1887599975 2.5185689926 55.708999634 91.571044922 2.1150000095 37.191001892 2.4920001030 2.4920001030
 3180.2497559 13.000000000 12.831999779 -0.028999999 0.1896200031 2.5204291344 56.619998932 91.407928467 2.0910000801 36.622001648 2.4679999352 2.4679999352
 3180.3747559 13.000000000 12.847999573 -0.021000000 0.1926199943 2.5287148952 59.000999451 91.122703552 2.0490000248 36.201000214 2.4230000973 2.4230000973
 3180.4995117 13.000000000 12.857999802 -0.012000000 0.1978799999 2.5392711163 60.791000366 90.791122437 2.0139999390 36.028999329 2.3849999905 2.3849999905
 3180.6245117 13.000000000 12.861000061 -0.011000000 0.2009499967 2.5472803116 61.233001709 90.512962341 1.9889999628 35.979000092 2.3619999886 2.3619999886
 3180.7495117 13.000000000 12.859000206 -0.014000000 0.2036599964 2.5469601154 61.111000061 90.400367737 1.9650000334 35.966999054 2.3459999561 2.3459999561
 3180.8745117 13.000000000 12.852000237 -0.025000000 0.2063400149 2.5358014107 60.446998596 90.589500427 1.9329999685 36.527000427 2.3329999447 2.3329999447
 3180.9995117 13.000000000 12.840999603 -0.039999999 0.2079899907 2.5193731785 59.782001495 90.954284668 1.9099999666 37.542999268 2.3229999542 2.3229999542
 3181.1245117 13.000000000 12.831999779 -0.046999998 0.2062700093 2.5045728683 59.291999817 91.364967346 1.8999999762 38.785999298 2.3150000572 2.3150000572
 3181.2495117 13.000000000 12.824999809 -0.050999999 0.2030100077 2.4946749210 58.791999817 91.739120483 1.8940000534 40.141998291 2.3069999218 2.3069999218
 3181.3742676 13.000000000 12.819999695 -0.054000001 0.1972000003 2.4907159805 57.859001160 92.026847839 1.8919999599 41.745998383 2.3029999733 2.3029999733
 3181.4992676 13.000000000 12.819999695 -0.055000000 0.1896499991 2.4929311275 57.057998657 92.201126099 1.8930000067 42.658000946 2.3099999428 2.3099999428
 3181.6242676 13.000000000 12.822999954 -0.052000001 0.1869700104 2.4987852573 56.716999054 92.274963379 1.8949999809 42.895000458 2.3280000687 2.3280000687
 3181.7492676 13.000000000 12.826999664 -0.046999998 0.1858499944 2.5053439140 56.863998413 92.241767883 1.8969999552 43.055999756 2.3499999046 2.3499999046
 3181.8742676 13.000000000 12.828000069 -0.039000001 0.1866700053 2.5114693642 58.685001373 92.096488953 1.9019999504 43.401000977 2.3710000515 2.3710000515
 3181.9992676 13.000000000 12.824000359 -0.029999999 0.1885399967 2.5161321163 60.778999329 91.851333618 1.9060000181 43.724998474 2.3729999065 2.3729999065
 3182.1242676 13.000000000 12.815999031 -0.028000001 0.1886100024 2.5184538364 62.036998749 91.537452698 1.9099999666 43.910999298 2.3610000610 2.3610000610
 3182.2492676 13.000000000 12.805998802 -0.026000001 0.1873600036 2.5196025372 62.479000092 91.237800598 1.9149999619 44.022998810 2.3459999561 2.3459999561
 3182.3740234 13.000000000 12.793999672 -0.022000000 0.1851799935 2.5251553059 61.624000549 91.022659302 1.9210000038 44.050998688 2.3320000172 2.3320000172
 3182.4990234 13.000000000 12.786000252 -0.015000000 0.1833900064 2.5350644588 60.708000183 90.935005188 1.9249999523 43.981998444 2.3280000687 2.3280000687
 3182.6240234 13.000000000 12.779999733 -0.009000000 0.1835400015 2.5471327305 60.452999115 91.005096436 1.9290000200 43.785999298 2.3310000896 2.3310000896
 3182.7490234 13.000000000 12.772999763 -0.003000000 0.1836799979 2.5587677956 60.618000031 91.244461060 1.9329999685 43.436000824 2.3340001106 2.3340001106
 3182.8740234 13.000000000 12.760000229 0.0049999999 0.1828199923 2.5686957836 61.252998352 91.643722534 1.9420000315 42.662998199 2.3359999657 2.3359999657
 3182.9990234 13.000000000 12.743999481 0.0130000003 0.1804900020 2.5747296810 61.854000092 92.084960938 1.9520000219 42.027000427 2.3359999657 2.3359999657
 3183.1242676 13.000000000 12.729999542 0.0140000004 0.1783300042 2.5768408775 62.395000458 92.431480408 1.9579999447 41.779998779 2.3350000381 2.3350000381
 3183.2492676 13.000000000 12.716999054 0.0140000004 0.1762599945 2.5752642155 63.102001190 92.632186890 1.9630000591 41.787998199 2.3380000591 2.3380000591
 3183.3737793 13.000000000 12.704000473 0.0080000004 0.1751600057 2.5696589947 64.053001404 92.678726196 1.9689999819 42.354999542 2.3570001125 2.3570001125
 3183.4987793 13.000000000 12.696998596 -0.001000000 0.1759099960 2.5592885017 64.504997253 92.596000671 1.9720000029 42.958000183 2.3789999485 2.3789999485
 3183.6240234 13.000000000 12.694999695 -0.008000000 0.1782500148 2.5462989807 64.346000671 92.437911987 1.9750000238 43.207000732 2.3949999809 2.3949999809
 3183.7485352 13.000000000 12.700000763 -0.013000000 0.1812700033 2.5374984741 63.790000916 92.272239685 1.9789999723 43.034000397 2.4019999504 2.4019999504
 3183.8735352 13.000000000 12.713000298 -0.014000000 0.1850299984 2.5340349674 61.990001678 92.110290527 1.9910000563 41.346000671 2.3949999809 2.3949999809
 3183.9987793 13.000000000 12.727999687 -0.012000000 0.1884900033 2.5355613232 60.337001801 91.950958252 2.0039999485 39.193000793 2.3819999695 2.3819999695
 3184.1237793 13.000000000 12.741999626 -0.011000000 0.1886200011 2.5396697521 59.631999969 91.789192200 2.0139999390 37.333999634 2.3750000000 2.3750000000
 3184.2482910 13.000000000 12.753000259 -0.014000000 0.1877899915 2.5410592556 59.673000336 91.619682312 2.0250000954 35.709999084 2.3729999065 2.3729999065
 3184.3732910 13.000000000 12.763999939 -0.018999999 0.1864299923 2.5365600586 61.090000153 91.444656372 2.0420000553 34.423999786 2.3849999905 2.3849999905
 3184.4985352 13.000000000 12.772000313 -0.024000000 0.1852000058 2.5299034119 62.326000214 91.264892578 2.0559999943 34.077999115 2.4019999504 2.4019999504
 3184.6267090 13.000000000 12.777000427 -0.025000000 0.1851100028 2.5233373642 62.451999664 91.072471619 2.0659999847 34.394001007 2.4200000763 2.4200000763
 3184.7514648 13.000000000 12.779000282 -0.026000001 0.1851199865 2.5172989368 61.686000824 90.876899719 2.0750000477 34.750999451 2.4400000572 2.4400000572
 3184.8764648 13.000000000 12.777000427 -0.030999999 0.1847100109 2.5102248192 59.547000885 90.675300598 2.0859999657 35.041999817 2.4609999657 2.4609999657
 3184.9985352 13.000000000 12.770000458 -0.041000001 0.1841399968 2.5014104843 58.034999847 90.473701477 2.0950000286 35.206001282 2.4690001011 2.4690001011
 3185.1235352 13.000000000 12.758000374 -0.044000000 0.1845600009 2.4979255199 57.846000671 90.260353088 2.0999999046 35.320999146 2.4630000591 2.4630000591
 3185.2482910 13.000000000 12.741999626 -0.041000001 0.1853899956 2.5025911331 58.313999176 90.048728943 2.1040000916 35.435001373 2.4549999237 2.4549999237
