# LAS format log file from PETREL
# Project units are specified as depth units
#==================================================================
~Version information
VERS.   2.0:
WRAP.   NO:
#==================================================================
~Well
STRT .m      933.99749756 :
STOP .m      3610.7521973 :
STEP .m     0.00000000 :
NULL .        -999.250000 :
COMP.           : COMPANY
WELL.  30/6-8   : WELL
FLD.            : FIELD
LOC.            : LOCATION
SRVC.           : SERVICE COMPANY
DATE.  2018-09-11 14:48:31   : Log Export Date {yyyy-MM-dd HH:mm:ss}
PROV.           : PROVINCE
UWI.   30/6-8   : UNIQUE WELL ID
API.            : API NUMBER
#==================================================================
~Curve
DEPT .m                   : DEPTH
Lithology_geolink ._      : Lithology_geolink
CALI .in                  : CALI
DRHO .g/cm3               : DRHO
NPHI .m3/m3               : NPHI
RHOB .g/cm3               : RHOB
GR .gAPI                  : GR
DTC .us/ft                : DTC
DTE .us/ft                : DTE
RDEP .ohm.m               : RDEP
SP .mV                    : SP
RSHA .ohm.m               : RSHA
RMED .ohm.m               : RMED
~Parameter
#==================================================================
~Ascii
# ...
 1468.0072021  -999.250000 17.202999115 -0.005000000 0.4423799813 1.9812573195 62.188301086 146.17515564 141.57580566 0.9720023870 72.311447144 0.8920072317 0.8920072317
 1468.1596680  -999.250000 17.577999115 -0.001000000 0.4902299941 1.9854749441 62.565250397 147.30018616 142.68562317 0.9749951959 72.871299744 0.9010264277 0.9010264277
 1468.3120117  -999.250000 17.952999115 0.0049999999 0.4433599710 1.9935454130 63.493648529 146.34629822 141.87098694 0.9729775786 71.751197815 0.9120752215 0.9120752215
 1468.4644775  -999.250000 17.577999115 0.0120000001 0.4418900013 2.0000245571 59.525836945 143.69335938 139.25080872 0.9589879513 73.124549866 0.9590360522 0.9590360522
 1468.6168213  -999.250000 17.797000885 0.0130000003 0.3671900034 1.9953126907 53.091049194 141.17761230 136.58171082 0.9440016150 73.814498901 1.0040239096 1.0040239096
 1468.7692871  -999.250000 17.891000748 0.0060000001 0.3852500021 1.9786894321 51.253307343 141.05830383 136.46925354 0.9449871778 75.990783691 1.0189503431 1.0189503431
 1468.9216309  -999.250000 17.922000885 -0.001000000 0.4067400098 1.9636651278 53.322555542 143.62429810 139.14743042 0.9369839430 70.869895935 0.9878574610 0.9878574610
 1469.0740967  -999.250000 17.906000137 -0.007000000 0.4370099902 1.9602057934 59.283153534 146.19953918 141.62332153 0.9269855618 68.315101624 0.8989262581 0.8989262581
 1469.2264404  -999.250000 18.312999725 -0.007000000 0.4550800025 1.9637538195 60.626350403 149.86384583 145.24650574 0.9179375172 70.869697571 0.8529711366 0.8529711366
 1469.3789063  -999.250000 19.733999252 -0.006000000 0.4697299898 1.9663978815 61.474960327 151.91578674 147.39808655 0.8789599538 68.185195923 0.8350015879 0.8350015879
 1469.5312500  -999.250000 18.766000748 -0.004000000 0.4462900162 1.9668552876 65.186500549 152.86544800 148.28527832 0.8539855480 67.682594299 0.8359680176 0.8359680176
 1469.6835938  -999.250000 20.125000000 -0.007000000 0.4892599881 1.9688887596 64.248619080 154.37539673 149.86834717 0.8450016379 65.565460205 0.8159727454 0.8159727454
 1469.8360596  -999.250000 19.000000000 -0.010000000 0.4706999958 1.9806730747 62.515251160 155.30648804 150.82048035 0.8470432162 71.132698059 0.7820144296 0.7820144296
 1469.9884033  -999.250000 19.093999863 -0.014000000 0.5302699804 1.9975180626 55.965267181 156.55032349 151.90264893 0.8650168777 74.748847961 0.7879983783 0.7879983783
 1470.1408691  -999.250000 19.093999863 -0.010000000 0.4682599902 2.0112452507 51.315101624 158.15223694 153.55505371 0.8860792518 74.562950134 0.7860216498 0.7860216498
 1470.2932129  -999.250000 18.077999115 -0.006000000 0.4706999958 2.0064799786 52.186050415 156.73722839 152.26504517 0.9190384150 75.372200012 0.7950240374 0.7950240374
 1470.4456787  -999.250000 19.202999115 -0.001000000 0.4506800175 2.0010750294 50.969429016 152.78756714 148.21170044 0.9430096149 74.247894287 0.8100320697 0.8100320697
 1470.5980225  -999.250000 19.327999115 -0.003000000 0.4482400119 2.0233983994 51.486587524 145.10752869 140.52078247 0.9549631476 72.874000549 0.8501954079 0.8501954079
 1470.7504883  -999.250000 18.218999863 0.0020000001 0.4731400013 2.0715014935 43.119693756 138.38542175 133.86856079 0.9319727421 72.872795105 0.9722291827 0.9722291827
 1470.9028320  -999.250000 18.687999725 0.0049999999 0.4638700187 2.0917203426 39.820354462 137.17814636 132.62199402 0.9149951935 72.121696472 1.1149743795 1.1149743795
 1471.0552979  -999.250000 19.250000000 0.0070000002 0.4926800132 2.0526447296 44.415714264 139.67407227 135.13952637 0.9119775891 70.689002991 1.0986826420 1.0986826420
 1471.2076416  -999.250000 19.093999863 0.0049999999 0.5043900013 1.9904763699 50.473606110 146.91058350 142.42391968 0.8980191946 72.561996460 0.9008142948 0.9008142948
 1471.3601074  -999.250000 18.468999863 0.0030000000 0.5341799855 1.9358017445 53.347656250 149.75001526 145.14523315 0.9099615812 73.186500549 0.7849551439 0.7849551439
 1471.5124512  -999.250000 17.593999863 0.0000000000 0.5224599838 1.9006755352 55.624900818 151.63763428 147.06834412 0.8859471083 73.503700256 0.7570320368 0.7570320368
 1471.6647949  -999.250000 17.718999863 -0.004000000 0.5439500213 1.8935461044 55.566253662 154.19404602 149.60137939 0.8529855609 76.433441162 0.7770216465 0.7770216465
 1471.8172607  -999.250000 18.781000137 -0.004000000 0.5361300111 1.9218220711 59.619140625 153.79902649 149.27067566 0.8350064158 73.242187500 0.8040256500 0.8040256500
 1471.9696045  -999.250000 18.218999863 0.0030000000 0.5497999787 1.9655578136 55.966247559 151.63598633 147.13146973 0.8390128016 68.991790771 0.8200528622 0.8200528622
 1472.1220703  -999.250000 18.312999725 0.0049999999 0.5268599987 1.9714071751 54.248050690 150.60144043 146.03045654 0.8470888734 64.511909485 0.8529711366 0.8529711366
 1472.2744141  -999.250000 18.327999115 0.0000000000 0.4995099902 1.9484699965 53.437198639 150.05233765 145.52301025 0.8841007948 69.876502991 0.8410416245 0.8410416245
 1472.4268799  -999.250000 18.312999725 -0.004000000 0.5078099966 1.9381788969 52.943111420 149.83261108 145.24528503 0.9470304847 71.436248779 0.8670015931 0.8670015931
 1472.5792236  -999.250000 17.827999115 -0.004000000 0.4946300089 1.9565068483 59.310699463 148.34774780 143.80654907 0.9850367904 71.749397278 0.8690704107 0.8690704107
 1472.7316895  -999.250000 18.125000000 -0.001000000 0.5288100243 1.9817284346 57.871616364 144.95632935 140.39199829 1.0080000162 71.999404907 0.9130095840 0.9130095840
 1472.8840332  -999.250000 17.891000748 0.0070000002 0.4931600094 1.9871824980 53.651496887 144.31835938 139.65313721 1.0080127716 72.499496460 0.9249615669 0.9249615669
 1473.0364990  -999.250000 17.702999115 0.0080000004 0.5048800111 1.9788734913 50.837890625 146.00050354 141.41059875 1.0160096884 72.811996460 0.9009839892 0.9009839892
 1473.1888428  -999.250000 17.312999725 0.0179999992 0.4711900055 1.9796901941 47.039104462 147.19624329 142.68431091 1.0219855309 73.437301636 0.8909967542 0.8909967542
 1473.3413086  -999.250000 17.656000137 0.0260000005 0.5019500256 1.9965188503 52.088092804 147.64822388 143.19567871 1.0129888058 74.253707886 0.8890192509 0.8890192509
 1473.4936523  -999.250000 17.733999252 0.0340000018 0.4848600030 2.0132005215 48.409751892 149.07444763 144.53669739 1.0059968233 77.178489685 0.9010000229 0.9010000229
 1473.6461182  -999.250000 17.968999863 0.0230000000 0.4467800260 2.0079669952 50.740734100 150.00790405 145.51171875 1.0040014982 72.495391846 0.9009951949 0.9009951949
 1473.7984619  -999.250000 17.672000885 0.0120000001 0.4365200102 1.9908961058 44.974060059 150.36337280 145.79167175 1.0049887896 70.247894287 0.8979855776 0.8979855776
 1473.9508057  -999.250000 18.358999252 0.0040000002 0.4775400162 1.9811720848 48.122795105 150.60511780 146.07946777 0.9979984164 69.559295654 0.8889951706 0.8889951706
 1474.1032715  -999.250000 17.858999252 0.0010000000 0.5390599966 1.9825596809 46.767486572 149.17901611 144.71936035 0.9969855547 68.489540100 0.8860191703 0.8860191703
 1474.2556152  -999.250000 18.000000000 -0.001000000 0.5073199868 1.9885280132 54.029697418 149.03489685 144.43667603 0.9909855723 64.570899963 0.8940063715 0.8940063715
 1474.4080811  -999.250000 17.593999863 0.0040000002 0.4653300047 1.9992486238 53.221607208 148.19967651 143.71350098 0.9819999933 70.749954224 0.8979983926 0.8979983926
 1474.5604248  -999.250000 17.858999252 0.0020000001 0.4375000000 2.0080993176 56.466850281 147.90820313 143.38015747 0.9820048213 71.936996460 0.8959888220 0.8959888220
 1474.7128906  -999.250000 18.016000748 0.0030000000 0.4565399885 2.0107951164 55.126880646 149.10417175 144.60083008 0.9850056171 72.561096191 0.8889927864 0.8889927864
 1474.8652344  -999.250000 17.641000748 0.0040000002 0.4716799855 2.0106055737 57.466648102 150.28157043 145.73150635 0.9920144081 72.684997559 0.8799823523 0.8799823523
 1475.0177002  -999.250000 17.468999863 0.0040000002 0.4799800217 2.0097999573 56.002803802 151.30392456 146.69033813 1.0010129213 72.061897278 0.8689759970 0.8689759970
 1475.1700439  -999.250000 17.577999115 0.0000000000 0.4946300089 2.0108494759 57.747848511 151.83491516 147.22813416 1.0090031624 72.623199463 0.8540031910 0.8540031910
