# LAS format log file from PETREL
# Project units are specified as depth units
#==================================================================
~Version information
VERS.   2.0:
WRAP.   NO:
#==================================================================
~Well
STRT .m      439.56304932 :
STOP .m      1665.9261475 :
STEP .m     0.00000000 :
NULL .        -999.250000 :
COMP.           : COMPANY
WELL.  31/2-7   : WELL
FLD.            : FIELD
LOC.            : LOCATION
SRVC.           : SERVICE COMPANY
DATE.  2018-09-11 14:48:34   : Log Export Date {yyyy-MM-dd HH:mm:ss}
PROV.           : PROVINCE
UWI.   31/2-7   : UNIQUE WELL ID
API.            : API NUMBER
#==================================================================
~Curve
DEPT .m                   : DEPTH
Lithology_geolink ._      : Lithology_geolink
CALI .in                  : CALI
DRHO .g/cm3               : DRHO
SGR .gAPI                 : SGR
NPHI .m3/m3               : NPHI
RHOB .g/cm3               : RHOB
PEF .b/e                  : PEF
GR .gAPI                  : GR
DTC .us/ft                : DTC
DTE .us/ft                : DTE
RDEP .ohm.m               : RDEP
SP .mV                    : SP
RSHA .ohm.m               : RSHA
RMED .ohm.m               : RMED
~Parameter
#==================================================================
~Ascii
# ...
 1089.3968506  -999.250000 18.297000885 0.0130000003  -999.250000 0.5678699613 2.0780000687  -999.250000 79.308494568 149.05773926 145.62931824 1.1300673485 58.149799347 1.2150336504 1.2150336504
 1089.5491943  -999.250000 18.218999863 0.0140000004  -999.250000 0.5766599774 2.0780000687  -999.250000 78.564804077 149.34117126 145.93395996 1.1130409241 58.399402618 1.2080167532 1.2080167532
 1089.7016602  -999.250000 18.141000748 0.0230000000  -999.250000 0.5195299983 2.0920000076  -999.250000 76.877708435 149.09422302 145.75000000 1.1010191441 59.023998260 1.2060031891 1.2060031891
 1089.8540039  -999.250000 18.108999252 0.0189999994  -999.250000 0.4897499979 2.0799999237  -999.250000 79.244293213 149.18565369 145.74638367 1.1029952765 57.778003693 1.2040047646 1.2040047646
 1090.0064697  -999.250000 18.077999115 0.0099999998  -999.250000 0.4497100115 2.0639998913  -999.250000 83.617988586 149.10275269 145.64842224 1.1039984226 58.773399353 1.2079935074 1.2079935074
 1090.1588135  -999.250000 18.093999863 0.0000000000  -999.250000 0.4443399906 2.0469999313  -999.250000 86.558296204 148.77272034 145.30760193 1.1039999723 58.026203156 1.2129920721 1.2129920721
 1090.3112793  -999.250000 18.125000000 -0.001000000  -999.250000 0.4462900162 2.0550000668  -999.250000 84.566207886 148.56195068 145.08703613 1.1109887362 58.898601532 1.2159951925 1.2159951925
 1090.4636230  -999.250000 18.141000748 0.0000000000  -999.250000 0.4360400140 2.0720000267  -999.250000 78.759315491 148.35977173 144.86393738 1.1209840775 58.400802612 1.2269823551 1.2269823551
 1090.6159668  -999.250000 18.141000748 0.0030000000  -999.250000 0.4472700059 2.0799999237  -999.250000 75.881904602 147.91047668 144.40093994 1.1200023890 59.023498535 1.2429616451 1.2429616451
 1090.7684326  -999.250000 18.156000137 0.0000000000  -999.250000 0.4350599945 2.0780000687  -999.250000 76.124595642 147.63581848 144.12500000 1.1160064936 58.525802612 1.2489902973 1.2489902973
 1090.9207764  -999.250000 18.172000885 0.0000000000  -999.250000 0.4335900247 2.0680000782  -999.250000 77.746093750 147.60867310 144.12741089 1.1219855547 58.026203156 1.2450096607 1.2450096607
 1091.0732422  -999.250000 18.172000885 -0.002000000  -999.250000 0.4379900098 2.0639998913  -999.250000 80.184097290 147.59953308 144.19104004 1.1110175848 58.773799896 1.2330192327 1.2330192327
 1091.2255859  -999.250000 18.172000885 0.0089999996  -999.250000 0.4243199825 2.0739998817  -999.250000 76.384155273 147.87463379 144.37861633 1.1040167809 57.902103424 1.2200312614 1.2200312614
 1091.3780518  -999.250000 18.172000885 0.0140000004  -999.250000 0.4301800132 2.0840001106  -999.250000 78.496597290 147.95727539 144.47404480 1.1099903584 58.149600983 1.2150080204 1.2150080204
 1091.5303955  -999.250000 18.187999725 0.0280000009  -999.250000 0.4316400290 2.0959999561  -999.250000 77.191154480 148.23217773 144.75241089 1.1090023518 58.025302887 1.2249760628 1.2249760628
 1091.6828613  -999.250000 18.202999115 0.0000000000  -999.250000 0.4531300068 2.0610001087  -999.250000 78.186401367 148.28724670 144.81604004 1.1229776144 57.151405334 1.2349840403 1.2349840403
 1091.8352051  -999.250000 18.218999863 -0.001000000  -999.250000 0.4326200187 2.0529999733  -999.250000 77.689201355 148.47053528 145.00000000 1.1070383787 57.773498535 1.2379928827 1.2379928827
 1091.9876709  -999.250000 18.187999725 -0.004000000  -999.250000 0.4272499979 2.0469999313  -999.250000 80.245895386 148.47036743 144.99754333 1.1199791431 57.400604248 1.2380000353 1.2380000353
 1092.1400146  -999.250000 18.156000137 0.0070000002  -999.250000 0.3935500085 2.0510001183  -999.250000 76.883110046 148.38769531 144.93395996 1.1259856224 57.524700165 1.2350071669 1.2350071669
 1092.2924805  -999.250000 18.108999252 0.0000000000  -999.250000 0.4204100072 2.0469999313  -999.250000 75.440307617 148.14041138 144.74258423 1.1309920549 58.148998260 1.2419887781 1.2419887781
 1092.4448242  -999.250000 18.187999725 0.0000000000  -999.250000 0.4179700017 2.0490000248  -999.250000 77.496696472 148.03837585 144.54521179 1.1409840584 57.900402069 1.2459936142 1.2459936142
 1092.5971680  -999.250000 18.202999115 -0.003000000  -999.250000 0.4931600094 2.0510001183  -999.250000 81.989189148 147.25900269 143.83128357 1.1679351330 58.274101257 1.2549784184 1.2549784184
 1092.7496338  -999.250000 18.202999115 -0.002000000  -999.250000 0.4658200145 2.0720000267  -999.250000 85.494392395 146.69050598 143.25624084 1.2099326849 58.649398804 1.2679791451 1.2679791451
 1092.9019775  -999.250000 18.218999863 -0.005000000  -999.250000 0.4765599966 2.0799999237  -999.250000 81.572456360 145.88348389 142.45353699 1.2219711542 57.153602600 1.2949351072 1.2949351072
 1093.0544434  -999.250000 18.172000885 -0.003000000  -999.250000 0.4184600115 2.0999999046  -999.250000 80.252105713 144.00152588 140.50346375 1.2130144835 58.647598267 1.3089776039 1.3089776039
 1093.2067871  -999.250000 18.266000748 0.0000000000  -999.250000 0.4262699783 2.1040000916  -999.250000 78.442352295 142.60313416 139.10284424 1.1910527945 58.774700165 1.3379304409 1.3379304409
 1093.3592529  -999.250000 18.297000885 0.0199999996  -999.250000 0.4160200059 2.1329998970  -999.250000 82.681190491 142.78553772 139.33662415 1.1580529213 59.523799896 1.3419935703 1.3419935703
 1093.5115967  -999.250000 18.281000137 0.0260000005  -999.250000 0.4443399906 2.1349999905  -999.250000 85.992042542 144.61466980 141.21905518 1.1081200838 58.652103424 1.3010984659 1.3010984659
 1093.6640625  -999.250000 18.375000000 0.0379999988  -999.250000 0.4809600115 2.1370000839  -999.250000 87.435699463 148.52116394 145.13635254 1.0850368738 58.774799347 1.2331089973 1.2331089973
 1093.8164063  -999.250000 18.343999863 0.0149999997  -999.250000 0.5004900098 2.0959999561  -999.250000 89.744445801 151.17393494 147.67222595 1.1069471836 59.024402618 1.1521945000 1.1521945000
 1093.9688721  -999.250000 18.891000748 0.0140000004  -999.250000 0.4907199740 2.0880000591  -999.250000 91.060897827 150.28660583 146.79754639 1.1179823875 60.647396088 1.1659775972 1.1659775972
 1094.1212158  -999.250000 19.297000885 -0.001000000  -999.250000 0.4941400290 2.0629999638  -999.250000 91.187705994 149.93562317 146.47515869 1.1489255428 59.403003693 1.1460480690 1.1460480690
 1094.2736816  -999.250000 18.687999725 0.0000000000  -999.250000 0.4765599966 2.0799999237  -999.250000 83.637123108 147.77816772 144.31658936 1.1819471121 58.152004242 1.1929246187 1.1929246187
 1094.4260254  -999.250000 18.781000137 0.0000000000  -999.250000 0.4536100030 2.0739998817  -999.250000 76.885818481 145.15881348 141.73873901 1.1640288830 60.021995544 1.2059791088 1.2059791088
 1094.5783691  -999.250000 18.968999863 -0.002000000  -999.250000 0.5043900013 2.0840001106  -999.250000 77.311950684 143.53330994 140.12663269 1.1630023718 58.528602600 1.2957838774 1.2957838774
 1094.7308350  -999.250000 18.812999725 -0.003000000  -999.250000 0.5009800196 2.0699999332  -999.250000 81.368492126 141.12950134 137.72595215 1.2089263201 58.525001526 1.3269503117 1.3269503117
 1094.8831787  -999.250000 18.906000137 0.0099999998  -999.250000 0.5161100030 2.0920000076  -999.250000 85.988891602 139.40563965 136.01826477 1.2179784775 58.525001526 1.3688991070 1.3688991070
 1095.0356445  -999.250000 18.625000000 0.0219999999  -999.250000 0.4077099860 2.1050000191  -999.250000 87.871994019 141.51220703 138.02947998 1.2359710932 57.901004791 1.3420432806 1.3420432806
 1095.1879883  -999.250000 18.562999725 0.0379999988  -999.250000 0.4272499979 2.1150000095  -999.250000 86.628005981 143.95339966 140.48855591 1.2549543381 57.027103424 1.2831417322 1.2831417322
 1095.3404541  -999.250000 18.531000137 0.0399999991  -999.250000 0.4199199975 2.1110000610  -999.250000 88.496994019 146.24320984 142.82038879 1.2549999952 58.023399353 1.2290865183 1.2290865183
 1095.4927979  -999.250000 18.687999725 0.0299999993  -999.250000 0.4350599945 2.0959999561  -999.250000 86.006004333 146.93865967 143.48342896 1.1821753979 57.152103424 1.2030624151 1.2030624151
