# LAS format log file from PETREL
# Project units are specified as depth units
#==================================================================
~Version information
VERS.   2.0:
WRAP.   NO:
#==================================================================
~Well
STRT .m      445.17501831 :
STOP .m      1838.8730469 :
STEP .m     0.00000000 :
NULL .        -999.250000 :
COMP.           : COMPANY
WELL.  31/2-10   : WELL
FLD.            : FIELD
LOC.            : LOCATION
SRVC.           : SERVICE COMPANY
DATE.  2018-09-11 14:48:32   : Log Export Date {yyyy-MM-dd HH:mm:ss}
PROV.           : PROVINCE
UWI.   31/2-10   : UNIQUE WELL ID
API.            : API NUMBER
#==================================================================
~Curve
DEPT .m                   : DEPTH
Lithology_geolink ._      : Lithology_geolink
CALI .in                  : CALI
DRHO .g/cm3               : DRHO
NPHI .m3/m3               : NPHI
RHOB .g/cm3               : RHOB
PEF .b/e                  : PEF
GR .gAPI                  : GR
DTC .us/ft                : DTC
RDEP .ohm.m               : RDEP
SP .mV                    : SP
RSHA .ohm.m               : RSHA
RMED .ohm.m               : RMED
~Parameter
#==================================================================
~Ascii
# ...
 1835.0631104  -999.250000 7.6250000000 0.0410000011 0.3178700209 2.2149999142 3.7209999561 59.750000000  -999.250000 0.5930048227 79.238189697  -999.250000 0.8110048175
 1835.2154541  -999.250000 7.6250000000 0.0370000005 0.3178700209 2.2109999657 3.7190001011 59.750000000  -999.250000 0.5939999819 82.577590942  -999.250000 0.8119999766
 1835.3679199  -999.250000 7.6250000000 0.0359999985 0.3178700209 2.2090001106 3.7500000000 59.750000000  -999.250000 0.5939999819 80.217887878  -999.250000 0.8119951487
 1835.5202637  -999.250000 7.6250000000 0.0419999994 0.3178700209 2.2109999657 3.8750000000 59.750000000  -999.250000 0.5939951539 81.023582458  -999.250000 0.8109999895
 1835.6727295  -999.250000 7.6250000000 0.0379999988 0.3178700209 2.2070000172 3.9360001087 59.750000000  -999.250000 0.5930095911 81.146080017  -999.250000 0.8109951615
 1835.8250732  -999.250000 7.6250000000 0.0309999995 0.3178700209 2.1989998817 3.9609999657 59.750000000  -999.250000 0.5949904323 81.574882507  -999.250000 0.8100095987
 1835.9775391  -999.250000 7.6250000000 0.0219999999 0.3178700209 2.1889998913 3.8789999485 59.750000000  -999.250000 0.5934147239 81.137733459  -999.250000 0.8119943738
 1836.1298828  -999.250000 7.6250000000 0.0179999992 0.3178700209 2.1840000153 3.8299999237 59.750000000  -999.250000 0.6669999957 81.443458557  -999.250000 0.8109999895
 1836.2822266  -999.250000 7.6250000000 0.0160000008 0.3178700209 2.1800000668 3.8670001030 59.750000000  -999.250000 0.6669999957 81.124580383  -999.250000 0.8109999895
 1836.4346924  -999.250000 7.6250000000 0.0170000009 0.3178700209 2.1800000668 3.9709999561 59.750000000  -999.250000 0.6669999957 81.244499207  -999.250000 0.8109999895
 1836.5870361  -999.250000 7.6250000000 0.0189999994 0.3178700209 2.1760001183 4.0040001869 59.750000000  -999.250000 0.6669999957 81.139511108  -999.250000 0.8109999895
 1836.7395020  -999.250000 7.6250000000 0.0189999994 0.3178700209 2.1740000248 3.9800000191 59.750000000  -999.250000 0.6669999957 81.038551331  -999.250000 0.8109999895
 1836.8918457  -999.250000 7.6250000000 0.0179999992 0.3178700209 2.1779999733 3.8199999332 59.750000000  -999.250000 0.6669999957 81.146400452  -999.250000 0.8109999895
 1837.0443115  -999.250000 7.6250000000 0.0189999994 0.3178700209 2.1819999218 3.8810000420 59.750000000  -999.250000 0.6669999957 79.992378235  -999.250000 0.8109999895
 1837.1966553  -999.250000 7.6250000000 0.0270000007 0.3178700209 2.1930000782 3.8399999142 59.750000000  -999.250000 0.6669999957 81.091156006  -999.250000 0.8109999895
 1837.3491211  -999.250000 7.6250000000 0.0379999988 0.3178700209 2.2009999752 3.7969999313 59.750000000  -999.250000 0.6669999957 78.235931396  -999.250000 0.8109999895
 1837.5014648  -999.250000 7.6250000000 0.0390000008 0.3178700209 2.2030000687 3.6310000420 59.750000000  -999.250000 0.6669999957  -999.250000  -999.250000 0.8109999895
 1837.6539307  -999.250000 7.6250000000 0.0340000018 0.3178700209 2.1989998817 3.5039999485 59.750000000  -999.250000 0.6669999957  -999.250000  -999.250000 0.8109999895
 1837.8062744  -999.250000 7.6250000000 0.0299999993 0.3178700209 2.1989998817 3.5039999485 59.750000000  -999.250000 0.6669999957  -999.250000  -999.250000 0.8109999895
 1837.9587402  -999.250000 7.6250000000 0.0359999985 0.3178700209 2.2070000172 3.5039999485  -999.250000  -999.250000  -999.250000  -999.250000  -999.250000  -999.250000
 1838.1110840  -999.250000 7.6250000000 0.0410000011 0.3178700209 2.2130000591 3.5039999485  -999.250000  -999.250000  -999.250000  -999.250000  -999.250000  -999.250000
 1838.2635498  -999.250000 7.6250000000 0.0410000011 0.3178700209 2.2130000591 3.5039999485  -999.250000  -999.250000  -999.250000  -999.250000  -999.250000  -999.250000
 1838.4158936  -999.250000 7.6250000000 0.0410000011 0.3178700209 2.2130000591 3.5039999485  -999.250000  -999.250000  -999.250000  -999.250000  -999.250000  -999.250000
 1838.5682373  -999.250000 7.6250000000 0.0410000011 0.3178700209 2.2130000591 3.5039999485  -999.250000  -999.250000  -999.250000  -999.250000  -999.250000  -999.250000
 1838.7207031  -999.250000 7.6250000000 0.0410000011 0.3178700209 2.2130000591 3.7149999142  -999.250000  -999.250000  -999.250000  -999.250000  -999.250000  -999.250000
 1838.8730469  -999.250000 8.5000000000 0.0410000011 0.3178700209 2.2130000591 3.6289999485  -999.250000  -999.250000  -999.250000  -999.250000  -999.250000  -999.250000
