# LAS format log file from PETREL
# Project units are specified as depth units
#==================================================================
~Version information
VERS.   2.0:
WRAP.   NO:
#==================================================================
~Well
STRT .m      1309.8798828 :
STOP .m      4086.9138184 :
STEP .m     0.00000000 :
NULL .        -999.250000 :
COMP.           : COMPANY
WELL.  31/2-19 S   : WELL
FLD.            : FIELD
LOC.            : LOCATION
SRVC.           : SERVICE COMPANY
DATE.  2018-09-11 14:48:33   : Log Export Date {yyyy-MM-dd HH:mm:ss}
PROV.           : PROVINCE
UWI.   31/2-19 S   : UNIQUE WELL ID
API.            : API NUMBER
#==================================================================
~Curve
DEPT .m                   : DEPTH
Lithology_geolink ._      : Lithology_geolink
CALI .in                  : CALI
BS .in                    : BS
DRHO .g/cm3               : DRHO
NPHI .m3/m3               : NPHI
RHOB .g/cm3               : RHOB
GR .gAPI                  : GR
DTC .us/ft                : DTC
DTS .us/ft                : DTS
RDEP .ohm.m               : RDEP
SP .mV                    : SP
RSHA .ohm.m               : RSHA
RMIC .ohm.m               : RMIC
RMED .ohm.m               : RMED
~Parameter
#==================================================================
~Ascii
# ...
 2228.3950195 11.000000000 12.635001183 12.250000954 -0.017849000 0.3800240457 2.4010000229 151.51586914 107.01801300 231.75183105 1.7319999933 148.87500000 1.6289999485 0.9301891327 1.6290096045
 2228.5473633 11.000000000 12.652999878 12.250000954 -0.015289000 0.3586134315 2.3980000019 150.06567383 106.76940155 229.95689392 1.7430000305 147.68800354 1.6349999905 1.2986623049 1.6349999905
 2228.6997070 11.000000000 12.651999474 12.250000954 -0.010290000 0.3689383566 2.4089999199 141.19650269 106.55534363 229.75263977 1.7359999418 147.62500000 1.6419999599 0.8818045259 1.6419999599
 2228.8522949 11.000000000 12.651000023 12.250000954 -0.006137000 0.3648450077 2.4140000343 141.36836243 106.65799713 228.69569397 1.7209999561 148.00000000 1.6250000000 0.7617692351 1.6249519587
 2229.0046387 11.000000000 12.651999474 12.250000954 -0.001215000 0.3734941483 2.4240000248 145.98616028 106.54917908 232.35711670 1.6799999475 147.81300354 1.5950000286 1.3101217747 1.5949823856
 2229.1569824 11.000000000 12.673000336 12.250000954 -0.005675000 0.3673219383 2.4219999313 145.45277405 105.25308228 236.47042847 1.6720000505 147.43800354 1.5839999914 0.7270880342 1.5839999914
 2229.3093262 11.000000000 12.687000275 12.250000954 -0.003512000 0.3627283573 2.4260001183 144.61070251 105.84105682 231.08432007 1.6890000105 147.18800354 1.6000000238 1.0661362410 1.6000000238
 2229.4619141 11.000000000 12.685000420 12.250000954 -0.001139000 0.3559609950 2.4260001183 141.17550659 106.78900146 233.09274292 1.7610000372 147.00000000 1.6699999571 1.1518493891 1.6700768471
 2229.6142578 11.000000000 12.685000420 12.250000954 -0.001461000 0.3472720087 2.4309999943 143.00112915 104.77500153 225.43730164 1.8279999495 147.31300354 1.7180000544 1.4163461924 1.7179952860
 2229.7666016 11.000000000 12.687999725 12.250000954 -0.003951000 0.3476943076 2.4319999218 145.18101501 104.99065399 227.68637085 1.8240000010 146.87500000 1.7150000334 1.5242975950 1.7151664495
 2229.9189453 11.000000000 12.687000275 12.250000954 -0.002201000 0.3383290172 2.4430000782 141.25067139 105.05688477 225.93463135 1.9459999800 147.06300354 1.8190000057 1.6167900562 1.8190000057
 2230.0715332 11.000000000 12.680000305 12.250000954 -0.002379000 0.3488140106 2.4340000153 142.89833069 105.97000122 237.19192505 1.9440000057 146.87500000 1.8200000525 1.4846153259 1.8199023008
 2230.2238770 11.000000000 12.689998627 12.250000954 -0.004551000 0.3420679867 2.4210000038 145.32521057 106.22000122 236.15367126 1.8799999952 147.37500000 1.7589999437 1.0528845787 1.7589919567
 2230.3762207 11.000000000 12.670000076 12.250000954 -0.002912000 0.3519020081 2.4240000248 143.69726563 105.68186188 226.15005493 1.8630000353 147.12500000 1.7539999485 0.7086281776 1.7540079355
 2230.5285645 11.000000000 12.604998589 12.250000954 0.0005380000 0.3489849865 2.4370000362 140.24807739 106.26306915 221.98965454 1.8769999743 147.25000000 1.7589999437 1.5254591703 1.7589999437
 2230.6809082 11.000000000 12.602999687 12.250000954 0.0011530000 0.3456110060 2.4519999027 148.94898987 107.29633331 226.83840942 1.8890000582 147.93800354 1.7619999647 1.3561906815 1.7619999647
 2230.8334961 11.000000000 12.569999695 12.250000954 -0.005681000 0.3503319919 2.4400000572 147.95428467 105.74500275 227.72760010 1.8700000048 147.81300354 1.7489999533 0.8533333540 1.7489022017
 2230.9858398 11.000000000 12.566999435 12.250000954 -0.012284000 0.3553780019 2.4260001183 144.84298706 104.16852570 229.77970886 1.8040000200 147.75000000 1.6879999638 1.2687339783 1.6879599094
 2231.1381836 11.000000000 12.552000046 12.250000954 -0.008963000 0.3675329983 2.4319999218 144.07044983 105.63065338 229.49745178 1.7779999971 147.62500000 1.6629999876 1.4958959818 1.6629999876
 2231.2905273 11.000000000 12.520999908 12.250000954 -0.009416000 0.3599089980 2.4309999943 141.19622803 106.28894806 227.63099670 1.8309999704 148.18800354 1.7079999447 1.1520352364 1.7079999447
 2231.4431152 11.000000000 12.678000450 12.250000954 -0.009223000 0.3544679880 2.4270000458 141.47454834 105.88999939 232.51814270 1.8049999475 148.12500000 1.6879999638 1.1737083197 1.6880977154
 2231.5954590 11.000000000 12.683000565 12.250000954 -0.008601000 0.3420299888 2.4130001068 139.13450623 105.63700104 226.04838562 1.8609999418 148.18800354 1.7489999533 1.0831857920 1.7489967346
 2231.7478027 11.000000000 12.680000305 12.250000954 -0.007595000 0.3384239972 2.4079999924 136.45759583 105.50521088 229.89181519 1.8530000448 147.75000000 1.7469999790 1.1410127878 1.7469999790
 2231.9001465 11.000000000 12.684000015 12.250000954 -0.011612000 0.3476899862 2.3989999294 146.42791748 104.89797974 224.57907104 1.8669999838 147.56300354 1.7569999695 1.1449310780 1.7569999695
 2232.0527344 11.000000000 12.746999741 12.250000954 -0.008527000 0.3477320075 2.3940000534 140.79109192 104.98200226 223.61352539 1.8719999790 148.18800354 1.7589999437 1.1023141146 1.7589582205
 2232.2050781 11.000000000 12.758999825 12.250000954 -0.002205000 0.3483729959 2.3910000324 148.90692139 105.83199310 222.55169678 1.8459999561 147.81300354 1.7330000401 1.2003269196 1.7330112457
 2232.3574219 11.000000000 12.750000000 12.250000954 0.0000280000 0.3501900136 2.3940000534 153.94090271 105.12413788 227.12466431 1.8509999514 147.43800354 1.7400000095 1.3011186123 1.7399359941
 2232.5097656 11.000000000 12.751999855 12.250000954 0.0007220000 0.3562319875 2.4119999409 148.96505737 106.15534210 236.09861755 1.8049999475 147.43800354 1.7000000477 1.0276207924 1.7000000477
 2232.6623535 11.000000000 12.756999969 12.250000954 0.0019030001 0.3768529892 2.4279999733 150.17802429 106.33100128 233.65994263 1.8090000153 147.62500000 1.6979999542 1.2199903727 1.6979999542
 2232.8146973 11.000000000 12.750999451 12.250000954 0.0000270000 0.3765749931 2.4340000153 150.22584534 105.21900177 238.70289612 1.8070000410 147.56300354 1.6979999542 0.9062211514 1.6979743242
 2232.9670410 11.000000000 12.685000420 12.250000954 -0.007901000 0.3849700093 2.4289999008 151.01945496 104.43425751 240.17864990 1.7869999409 147.18800354 1.6820000410 0.9759166837 1.6819888353
 2233.1193848 11.000000000 12.654000282 12.250000954 -0.011802000 0.3700599968 2.4219999313 150.19267273 105.47631836 239.40724182 1.7799999714 148.00000000 1.6749999523 1.2606447935 1.6749999523
 2233.2717285 11.000000000 12.649999619 12.250000954 -0.007266000 0.3634470105 2.4179999828 148.38081360 105.36018372 238.17098999 1.7869999409 147.68800354 1.6710000038 1.1503093243 1.6710000038
 2233.4243164 11.000000000 12.649000168 12.250000954 -0.006252000 0.3483589888 2.4070000648 145.73023987 105.25700378 234.92021179 1.7699999809 147.62500000 1.6560000181 1.3422340155 1.6559935808
 2233.5766602 11.000000000 12.651000023 12.250000954 -0.005711000 0.3605529964 2.4440000057 147.74153137 104.51419067 231.46353149 1.7599999905 147.87500000 1.6519999504 1.1041121483 1.6519984007
 2233.7290039 11.000000000 12.713998795 12.250000954 -0.000205000 0.3491159976 2.4790000916 144.81842041 102.28956604 220.55349731 1.7630000114 148.25000000 1.6510000229 1.1425776482 1.6510000229
 2233.8813477 11.000000000 12.668000221 12.250000954 0.0009230000 0.3401910067 2.4900000095 144.83493042 100.57674408 215.20112610 1.9069999456 147.68800354 1.7660000324 2.2560000420 1.7660000324
 2234.0339355 11.000000000 12.661000252 12.250000954 -0.004659000 0.3246659935 2.4549999237 127.50481415 99.973999023 215.99569702 1.9299999475 148.50000000 1.7929999828 1.6321570873 1.7929599285
 2234.1862793 11.000000000 12.668000221 12.250000954 -0.006558000 0.3315719962 2.4440000057 136.15414429 101.71399689 211.25762939 1.9110000134 148.68800354 1.7680000067 1.3683365583 1.7679840326
 2234.3386230 11.000000000 12.661999702 12.250000954 -0.004494000 0.3495090008 2.4440000057 136.50894165 101.37654114 212.37120056 1.8960000277 148.81300354 1.7580000162 0.8522948623 1.7580032349
 2234.4909668 11.000000000 12.666999817 12.250000954 -0.003781000 0.3730109930 2.4360001087 138.77073669 100.31070709 222.20742798 1.8960000277 148.93800354 1.7599999905 1.2552464008 1.7599999905
