# LAS format log file from PETREL
# Project units are specified as depth units
#==================================================================
~Version information
VERS.   2.0:
WRAP.   NO:
#==================================================================
~Well
STRT .m      1999.6403809 :
STOP .m      3191.7131348 :
STEP .m     0.00000000 :
NULL .        -999.250000 :
COMP.           : COMPANY
WELL.  31/2-21 S   : WELL
FLD.            : FIELD
LOC.            : LOCATION
SRVC.           : SERVICE COMPANY
DATE.  2018-09-11 14:48:34   : Log Export Date {yyyy-MM-dd HH:mm:ss}
PROV.           : PROVINCE
UWI.   31/2-21 S   : UNIQUE WELL ID
API.            : API NUMBER
#==================================================================
~Curve
DEPT .m                   : DEPTH
Lithology_geolink ._      : Lithology_geolink
CALI .in                  : CALI
BS .in                    : BS
ROP .m/h                  : ROP
DRHO .g/cm3               : DRHO
NPHI .m3/m3               : NPHI
RHOB .g/cm3               : RHOB
PEF .b/e                  : PEF
GR .gAPI                  : GR
DTC .us/ft                : DTC
DTS .us/ft                : DTS
RDEP .ohm.m               : RDEP
RMED .ohm.m               : RMED
~Parameter
#==================================================================
~Ascii
# ...
 3106.0644531 16.000000000 8.5945997238 8.5000000000 48.685367584 0.0619999990 0.2671999931 2.5675001144 3.7279999256 87.616897583 74.102302551 128.52799988 8.2720003128 8.3545999527
 3106.2167969 6.0000000000 8.5803003311 8.5000000000 44.237861633 0.0626000017 0.2757000029 2.5587000847 3.6008000374 91.718368530 75.172904968 131.38420105 8.5818004608 8.5181999207
 3106.3691406 6.0000000000 8.5698995590 8.5000000000 35.892715454 0.0694999993 0.2924999893 2.5671000481 3.7002999783 88.000778198 77.115097046 133.24630737 9.1590003967 8.7243995667
 3106.5214844 6.0000000000 8.5601997375 8.5000000000 35.980644226 0.0741999969 0.3082000017 2.5727000237 4.0250000954 94.780120850 76.916198730 133.30119324 9.8697996140 9.1028995514
 3106.6740723 6.0000000000 8.5694999695 8.5000000000 39.536746979 0.0698999986 0.3174999952 2.5773000717 3.8440999985 103.21140289 76.504501343 132.49729919 10.003899574 8.8812999725
 3106.8264160 6.0000000000 8.5504999161 8.5000000000 52.883533478 0.0729999989 0.3136000037 2.5894000530 3.8308999538 98.308387756 76.031303406 131.68479919 9.9533004761 8.7706003189
 3106.9787598 6.0000000000 8.5368003845 8.5000000000 69.470802307 0.0648000017 0.3113000095 2.5792000294 3.7497000694 95.858619690 75.739303589 131.25700378 9.7265996933 8.6021995544
 3107.1311035 6.0000000000 8.5591001511 8.5000000000 81.327102661 0.0608999990 0.3111000061 2.5697000027 3.4932999611 97.913597107 75.611801147 130.80749512 9.4296998978 8.4448003769
 3107.2834473 6.0000000000 8.5801000595 8.5000000000 93.252296448 0.0631999969 0.3010999858 2.5732998848 3.6085999012 100.42235565 75.398399353 130.51930237 9.0455999374 8.1226997375
 3107.4360352 6.0000000000 8.5867004395 8.5000000000 90.146987915 0.0675000027 0.2800999880 2.5841999054 4.0718002319 102.21414185 75.415802002 130.40330505 8.7334003448 7.7927999496
 3107.5883789 6.0000000000 8.5880002975 8.5000000000 84.908462524 0.0562999994 0.2829000056 2.5457003117 3.7755999565 97.883560181 76.440597534 130.51919556 8.0852003098 7.0286998749
 3107.7407227 6.0000000000 8.5930004120 8.5000000000 80.756889343 0.0685999990 0.2917999923 2.5418999195 3.4451000690 91.098876953 76.609703064 130.21009827 7.7691998482 6.5331997871
 3107.8930664 6.0000000000 8.6162004471 8.5000000000 74.664695740 0.0732999966 0.2696000040 2.5399999619 3.3306999207 86.324287415 76.185501099 129.44509888 8.4343996048 6.8647999763
 3108.0456543 6.0000000000 8.6225996017 8.5000000000 69.551177979 0.0707999989 0.2296999991 2.5387001038 3.3612999916 85.897499084 74.856300354 127.30899811 9.3297996521 7.4472999573
 3108.1979980 6.0000000000 8.6090002060 8.5000000000 71.920280457 0.0773999989 0.2276999950 2.5792000294 3.7239000797 88.839599609 73.578201294 125.47380066 10.804400444 8.8291997910
 3108.3503418 6.0000000000 8.6021995544 8.5000000000 74.336288452 0.0692000017 0.2527999878 2.5943000317 3.9893999100 91.652801514 72.865303040 124.83989716 12.175900459 10.238599777
 3108.5026855 6.0000000000 8.6134996414 8.5000000000 75.505577087 0.0746999979 0.2887000144 2.5924000740 3.6921000481 84.438499451 72.764900208 124.82740021 11.752599716 10.058899879
 3108.6552734 6.0000000000 8.6075000763 8.5000000000 72.088584900 0.0723000020 0.2417999953 2.5722999573 3.6702001095 86.643997192 72.582603455 125.02120972 11.005000114 9.5079002380
 3108.8076172 6.0000000000 8.6061000824 8.5000000000 68.773948669 0.0736000016 0.1993000060 2.5950999260 3.8636999130 94.793197632 71.936096191 124.31069946 11.521100044 10.385700226
 3108.9599609 6.0000000000 8.5834999084 8.5000000000 66.387794495 0.0675000027 0.2073999941 2.6198000908 4.1518001556 90.536003113 71.000900269 123.69889832 12.743700027 12.366200447
 3109.1123047 6.0000000000 8.5934000015 8.5000000000 61.974403381 0.0656000003 0.2275999933 2.6157000065 3.9052999020 80.411003113 70.778999329 124.44650269 13.163800240 13.067700386
 3109.2646484 6.0000000000 8.6056003571 8.5000000000 53.372375488 0.0673000067 0.2637000084 2.5963997841 3.6159000397 80.223503113 71.600601196 126.76939392 11.580400467 11.217800140
 3109.4172363 6.0000000000 8.6146001816 8.5000000000 45.467845917 0.0675000027 0.2791999876 2.5769999027 3.7379999161 87.041603088 73.267196655 129.74169922 10.707500458 10.009400368
 3109.5695801 6.0000000000 8.6142997742 8.5000000000 37.939632416 0.0723000020 0.2829000056 2.5701999664 3.5506000519 97.535896301 74.672599792 132.09150696 10.108599663 9.4235000610
 3109.7219238 6.0000000000 8.5780000687 8.5000000000 30.904855728 0.0675000027 0.2985000014 2.5697999001 3.3478000164 103.38140106 74.715499878 132.66050720 10.341799736 9.6638002396
 3109.8742676 6.0000000000 8.5539999008 8.5000000000 26.018045425 0.0658000037 0.2957000136 2.5731000900 3.3485000134 100.41239929 74.227699280 132.53700256 10.841400146 9.9906997681
 3110.0268555 6.0000000000 8.5413999557 8.5000000000 27.194227219 0.0716999993 0.3050000072 2.5790998936 3.5517001152 101.76660156 73.794403076 132.26510620 10.687999725 9.7046003342
 3110.1791992 6.0000000000 8.5846996307 8.5000000000 39.765419006 0.0776000097 0.3309000134 2.5940999985 3.9407999516 95.765701294 73.553802490 132.58450317 10.406000137 9.4319000244
 3110.3315430 6.0000000000 8.6169004440 8.5000000000 50.804462433 0.0724999979 0.3400999904 2.6015999317 4.0927000046 96.368301392 73.908096313 134.17619324 10.335900307 9.3201999664
 3110.4838867 6.0000000000 8.6119003296 8.5000000000 46.896324158 0.0702000037 0.3334999979 2.5901000500 3.8440999985 91.449501038 73.997398376 134.76040649 9.9069004059 9.0328998566
 3110.6364746 6.0000000000 8.5942001343 8.5000000000 42.455051422 0.0738999993 0.3257000148 2.5785000324 3.4609999657 105.83969879 74.099296570 134.92489624 9.3922004700 8.6325998306
 3110.7888184 6.0000000000 8.5988998413 8.5000000000 42.370407104 0.0724000037 0.3102999926 2.5669999123 3.3710999489 112.43920135 74.209800720 134.91029358 9.4841995239 8.5029001236
 3110.9411621 6.0000000000 8.6035003662 8.5000000000 48.649604797 0.0728999972 0.3138999939 2.5755999088 3.6579000950 112.99050140 74.205001831 134.71589661 9.9181995392 8.9890003204
 3111.0935059 6.0000000000 8.5878000259 8.5000000000 61.992778778 0.0722000003 0.3248000145 2.5785999298 3.7955000401 95.613601685 73.960403442 133.87300110 10.201899529 9.3074998856
 3111.2460938 6.0000000000 8.5925998688 8.5000000000 58.919944763 0.0706000030 0.3104000092 2.5762999058 3.8917999268 97.622100830 73.898597717 133.28970337 9.8938999176 9.1054000854
 3111.3984375 6.0000000000 8.6237001419 8.5000000000 30.789369583 0.0772000030 0.3043000102 2.5761001110 3.6552000046 92.110198975 73.930999756 133.79840088 9.7327995300 8.9323997498
 3111.5507813 6.0000000000 8.6253004074 8.5000000000 12.841863632 0.0790000036 0.3116999865 2.5666000843 3.7513999939 90.970100403 74.474296570 134.76029968 9.6531000137 8.8253002167
 3111.7031250 6.0000000000 8.5853996277 8.5000000000 18.414369583 0.0711999983 0.3253000081 2.5703001022 3.5750999451 98.339500427 74.399696350 134.81880188 9.5684995651 8.6105003357
 3111.8554688 6.0000000000 8.5195999146 8.5000000000 21.669948578 0.0720999986 0.3174000084 2.5803999901 3.6349000931 100.75900269 74.657897949 135.31359863 9.7978000641 8.8687000275
 3112.0080566 6.0000000000 8.5241003036 8.5000000000 35.106956482 0.0716999993 0.3104999959 2.5827000141 3.7318000793 102.58090210 75.117301941 136.01620483 9.9577999115 9.1828002930
 3112.1604004 6.0000000000 8.5382003784 8.5000000000 53.975395203 0.0716999993 0.3118000031 2.5871999264 3.7218999863 104.10759735 75.168899536 136.06239319 10.103699684 9.2159996033
 3112.3127441 6.0000000000 8.5481996536 8.5000000000 53.758529663 0.0728999972 0.3222000003 2.5864000320 3.8213999271 102.69580078 75.143600464 135.84530640 10.158800125 9.3145999908
 3112.4650879 6.0000000000 8.5839996338 8.5000000000 49.060039520 0.0719999969 0.3402999938 2.5864000320 4.1202998161 106.75990295 75.425399780 135.16310120 10.121700287 9.2379999161
 3112.6176758 7.0000000000 8.5892000198 8.5000000000 44.493766785 0.0749000013 0.3510000110 2.5866999626 4.0155000687 109.64040375 75.470199585 135.30639648 10.272700310 9.3494997025
