# LAS format log file from PETREL
# Project units are specified as depth units
#==================================================================
~Version information
VERS.   2.0:
WRAP.   NO:
#==================================================================
~Well
STRT .m      452.86209106 :
STOP .m      2603.6831055 :
STEP .m     0.00000000 :
NULL .        -999.250000 :
COMP.           : COMPANY
WELL.  31/2-3   : WELL
FLD.            : FIELD
LOC.            : LOCATION
SRVC.           : SERVICE COMPANY
DATE.  2018-09-11 14:48:34   : Log Export Date {yyyy-MM-dd HH:mm:ss}
PROV.           : PROVINCE
UWI.   31/2-3   : UNIQUE WELL ID
API.            : API NUMBER
#==================================================================
~Curve
DEPT .m                   : DEPTH
Lithology_geolink ._      : Lithology_geolink
CALI .in                  : CALI
DRHO .g/cm3               : DRHO
NPHI .m3/m3               : NPHI
RHOB .g/cm3               : RHOB
GR .gAPI                  : GR
DTC .us/ft                : DTC
DTE .us/ft                : DTE
RDEP .ohm.m               : RDEP
SP .mV                    : SP
RSHA .ohm.m               : RSHA
RMED .ohm.m               : RMED
~Parameter
#==================================================================
~Ascii
# ...
 2164.6186523 2.0000000000 8.5000000000 0.0099871997 0.2824721038 2.2389807701 54.845001221 91.459655762 88.211280823 0.5590000153 39.317001343  -999.250000 1.4871791601
 2164.7709961 2.0000000000 8.5000000000 0.0090032043 0.2808751762 2.2350192070 54.279998779 92.416755676 89.037628174 0.5550000072 39.316001892  -999.250000 1.3115640879
 2164.9233398 2.0000000000 8.5000000000 0.0089999996 0.2743609250 2.2280335426 53.487998962 93.131690979 89.851661682 0.5519999862 39.314998627  -999.250000 1.1305800676
 2165.0759277 2.0000000000 8.5000000000 0.0189839732 0.2688987255 2.2379679680 55.993000031 93.773376465 90.479110718 0.5590000153 39.312999725  -999.250000 1.0441378355
 2165.2280273 2.0000000000 8.5000000000 0.0398992002 0.2643817663 2.2668604851 59.135955811 93.855377197 90.650878906 0.5799663067 39.347942352  -999.250000 1.0668896437
 2165.3803711 2.0000000000 8.5000000000 0.0469663441 0.2563188374 2.2908844948 57.157184601 93.336174011 90.156745911 0.6049599648 39.432861328  -999.250000 1.1217355728
 2165.5329590 2.0000000000 8.5000000000 0.0250705127 0.2445277870 2.2880144119 54.554000854 91.254562378 87.903701782 0.6340000033 39.402000427  -999.250000 1.2715191841
 2165.6853027 2.0000000000 8.5000000000 0.0050641024 0.2319602817 2.2830240726 52.544998169 87.093124390 83.758872986 0.6819999814 39.317001343  -999.250000 1.5062468052
 2165.8376465 2.0000000000 8.5000000000 0.0020144002 0.2164247334 2.3088750839 52.530021667 82.557647705 79.198829651 0.7299232483 39.424827576  -999.250000 1.9219983816
 2165.9899902 2.0000000000 8.5000000000 0.0010048078 0.2066070735 2.3408463001 53.338703156 78.968582153 75.690696716 0.7609503269 39.991092682  -999.250000 2.7281155586
 2166.1425781 2.0000000000 8.5000000000 0.0029935897 0.2104973346 2.3579185009 53.731998444 78.337371826 75.071540833 0.7979999781 40.798999786  -999.250000 3.4686312675
 2166.2949219 2.0000000000 8.5000000000 0.0020032052 0.2228802294 2.3390913010 53.786998749 80.422035217 77.021766663 0.7879999876 41.152999878  -999.250000 3.2178142071
 2166.4472656 2.0000000000 8.5000000000 0.0020000001 0.2387989461 2.2952115536 55.148818970 83.563209534 80.222724915 0.7630400062 41.093093872  -999.250000 2.3178911209
 2166.5996094 2.0000000000 8.5000000000 0.0000096000 0.2531609833 2.2532019615 55.847881317 87.431777954 84.066871643 0.7270576954 40.677665710  -999.250000 1.6521968842
 2166.7521973 2.0000000000 8.5000000000 -0.001993590 0.2636465132 2.2261297703 56.345001221 90.217094421 86.940078735 0.6819999814 40.030998230  -999.250000 1.4187403917
 2166.9045410 2.0000000000 8.5010004044 0.0009903846 0.2756814063 2.2180383205 56.840999603 92.001220703 88.777763367 0.6389999986 39.502998352  -999.250000 1.3223077059
 2167.0568848 2.0000000000 8.5089998245 0.0099711539 0.2804647386 2.2239711285 57.804454803 93.295822144 90.028190613 0.6360048056 39.105636597  -999.250000 1.3299744129
 2167.2092285 2.0000000000 8.5349998474 0.0080096005 0.2772555649 2.2309663296 59.549201965 93.656898499 90.376708984 0.6310079694 38.992179871  -999.250000 1.3887168169
 2167.3615723 2.0000000000 8.5469999313 0.0040192311 0.2751600444 2.2339856625 60.666210175 93.967781067 90.670654297 0.6329967976 38.822269440  -999.250000 1.4815528393
 2167.5141602 2.0000000000 8.5469999313 0.0059935898 0.2716811299 2.2399711609 60.125999451 94.284606934 91.135749817 0.6620000005 38.793998718  -999.250000 1.4989454746
 2167.6665039 2.0000000000 8.5469999313 0.0119807692 0.2641142905 2.2569181919 58.384788513 93.978439331 90.758552551 0.7308896184 38.861888885  -999.250000 1.4860416651
 2167.8188477 2.0000000000 8.5469999313 0.0110048000 0.2518589795 2.2769038677 56.586879730 92.718139648 89.375373840 0.8168621659 39.085639954  -999.250000 1.5118751526
 2167.9711914 2.0000000000 8.5469999313 0.0139855770 0.2320553809 2.3048653603 54.866756439 89.243492126 85.950958252 0.9258252978 39.193828583  -999.250000 1.6015672684
 2168.1237793 2.0000000000 8.5469999313 0.0229711533 0.2144363374 2.3268942833 53.808998108 82.934280396 79.568145752 1.1219999790 39.047000885  -999.250000 1.7674679756
 2168.2761230 2.0000000000 8.5500001907 0.0239967946 0.1962981522 2.3508846760 51.491001129 76.308479309 73.018287659 1.5729999542 39.037998199  -999.250000 2.3989710808
 2168.4284668 2.0000000000 8.5710000992 0.0130352564 0.1649107337 2.4037451744 48.418926239 70.646209717 67.446556091 2.2519121170 39.036998749  -999.250000 4.2610192299
 2168.5808105 2.0000000000 8.6140003204 0.0040432001 0.1284155399 2.5065047741 47.035213470 64.164184570 60.858036041 3.2923316956 39.108886719  -999.250000 50.689098358
 2168.7333984 2.0000000000 8.6440000534 0.0189519227 0.1066793278 2.6025390625 47.609001160 58.741783142 55.438739777 4.1700000763 39.495998383  -999.250000 934.42614746
 2168.8857422 16.000000000 8.6450004578 0.0209935904 0.1110357642 2.6278798580 48.952999115 57.636276245 54.372142792 3.9140000343 40.219001770  -999.250000 1891.8126221
 2169.0380859 16.000000000 8.6219997406 0.0100352559 0.1366078109 2.5762500763 50.274883270 62.367355347 59.126560211 3.2171168327 40.328823090  -999.250000 1053.1196289
 2169.1904297 16.000000000 8.5749998093 0.0119904000 0.1838326305 2.4834470749 50.895008087 74.472160339 71.157730103 2.5181200504 39.599170685  -999.250000 109.72707367
 2169.3427734 2.0000000000 8.5310001373 0.0239423085 0.2420498580 2.3874616623 51.787570953 87.686363220 84.266059875 1.8191201687 39.301475525  -999.250000 4.5860095024
 2169.4953613 2.0000000000 8.5039997101 0.0120384619 0.2841754258 2.2924561501 54.867000580 95.210220337 91.860725403 1.3029999733 39.384998322  -999.250000 1.5711313486
 2169.6477051 2.0000000000 8.5000000000 0.0100064101 0.2954641283 2.2402501106 58.911518097 97.313446045 94.042449951 1.0753648281 39.510799408  -999.250000 1.2858909369
 2169.8000488 2.0000000000 8.4969997406 0.0159712005 0.2864735425 2.2320384979 62.435356140 96.410171509 93.196159363 0.8653365374 39.259403229  -999.250000 1.3009232283
 2169.9523926 2.0000000000 8.4779996872 0.0140096154 0.2788366675 2.2310047150 63.753894806 95.523757935 92.308723450 0.7092499733 39.109241486  -999.250000 1.4094759226
 2170.1049805 2.0000000000 8.4499998093 0.0110096149 0.2760688066 2.2309999466 64.222999573 95.402603149 92.141418457 0.6570000052 39.251998901  -999.250000 1.5336025953
 2170.2573242 2.0000000000 8.4449996948 0.0109999999 0.2779738605 2.2389616966 64.430000305 95.360443115 92.022132874 0.6290000081 39.272998810  -999.250000 1.6556090117
 2170.4096680 2.0000000000 8.4449996948 0.0199567992 0.2846677601 2.2539279461 64.945175171 95.049652100 91.697486877 0.6200144291 39.271003723  -999.250000 1.7565151453
 2170.5620117 2.0000000000 8.4449996948 0.0249759611 0.2875263393 2.2649471760 67.630691528 94.731094360 91.379875183 0.6289855838 39.270000458  -999.250000 1.8137259483
 2170.7145996 2.0000000000 8.4449996948 0.0240032058 0.2836923599 2.2759473324 70.527000427 94.408821106 91.163024902 0.6460000277 39.286998749  -999.250000 1.8060256243
 2170.8669434 6.0000000000 8.4449996948 0.0170224365 0.2824339867 2.2819712162 73.277000427 94.165542603 90.997650146 0.6579999924 39.348999023  -999.250000 1.7432019711
 2171.0192871 6.0000000000 8.4479999542 0.0100224353 0.2895271778 2.2829952240 75.149002075 93.901626587 90.636398315 0.6689824462 39.433860779  -999.250000 1.7330321074
 2171.1716309 6.0000000000 8.4639997482 0.0090047996 0.2916498780 2.2849905491 76.079513550 92.952819824 89.700630188 0.6749904156 39.586757660  -999.250000 1.7817647457
 2171.3239746 6.0000000000 8.4930000305 0.0050192308 0.2899482548 2.2790384293 75.695617676 92.257377625 88.971954346 0.6809903979 39.597980499  -999.250000 1.7670720816
 2171.4765625 6.0000000000 8.5000000000 0.0049999999 0.2921628356 2.2660624981 73.954002380 92.255996704 89.027969360 0.6880000234 39.504001617  -999.250000 1.6633332968
 2171.6289063 5.0000000000 8.5000000000 0.0099839745 0.2981208563 2.2640094757 70.040267944 92.697998047 89.482818604 0.6919935942 39.350246429  -999.250000 1.5603300333
 2171.7812500 5.0000000000 8.4969997406 0.0129856002 0.3002597690 2.2620096207 65.192771912 93.018882751 89.726631165 0.6939967871 39.804271698  -999.250000 1.5042687654
