# LAS format log file from PETREL
# Project units are specified as depth units
#==================================================================
~Version information
VERS.   2.0:
WRAP.   NO:
#==================================================================
~Well
STRT .m      452.86209106 :
STOP .m      2603.6831055 :
STEP .m     0.00000000 :
NULL .        -999.250000 :
COMP.           : COMPANY
WELL.  31/2-3   : WELL
FLD.            : FIELD
LOC.            : LOCATION
SRVC.           : SERVICE COMPANY
DATE.  2018-09-11 14:48:34   : Log Export Date {yyyy-MM-dd HH:mm:ss}
PROV.           : PROVINCE
UWI.   31/2-3   : UNIQUE WELL ID
API.            : API NUMBER
#==================================================================
~Curve
DEPT .m                   : DEPTH
Lithology_geolink ._      : Lithology_geolink
CALI .in                  : CALI
DRHO .g/cm3               : DRHO
NPHI .m3/m3               : NPHI
RHOB .g/cm3               : RHOB
GR .gAPI                  : GR
DTC .us/ft                : DTC
DTE .us/ft                : DTE
RDEP .ohm.m               : RDEP
SP .mV                    : SP
RSHA .ohm.m               : RSHA
RMED .ohm.m               : RMED
~Parameter
#==================================================================
~Ascii
# ...
 2449.9111328 3.0000000000 8.9049997330 0.0199807994 0.2717917264 2.2869744301 53.611862183 92.048263550 88.787460327 1.4139871597 97.118545532  -999.250000 1.9826655388
 2450.0637207 3.0000000000 8.9250001907 0.0150240380 0.2652115822 2.2899856567 56.307998657 93.957862854 90.700546265 1.4349999428 96.871002197  -999.250000 2.0068798065
 2450.2160645 3.0000000000 8.9440002441 0.0130096152 0.2593687177 2.2959711552 58.318775177 95.319480896 91.920005798 1.4489775896 96.628387451  -999.250000 2.0368556976
 2450.3684082 5.0000000000 8.9449996948 0.0209615380 0.2597878873 2.3129181862 58.517688751 95.566993713 92.207458496 1.4669711590 96.414344788  -999.250000 2.0887498856
 2450.5207520 5.0000000000 8.9329996109 0.0339375027 0.2541174293 2.3368844986 60.072505951 95.050590515 91.730766296 1.4989486933 96.267234802  -999.250000 2.1148750782
 2450.6733398 5.0000000000 8.8800001144 0.0330047980 0.2581968009 2.3489422798 60.730998993 93.981910706 90.767127991 1.5460000038 96.129997253  -999.250000 2.1737167835
 2450.8256836 5.0000000000 8.8190002441 0.0419567302 0.2618283629 2.3499951363 61.404998779 92.948364258 89.780036926 1.5930000544 95.992996216  -999.250000 2.2854616642
 2450.9780273 5.0000000000 8.7980003357 0.0459807701 0.2619295716 2.3519904613 62.034988403 92.586326599 89.228225708 1.6319376230 95.857223511  -999.250000 2.3875095844
 2451.1303711 5.0000000000 8.7959995270 0.0340576954 0.2604073584 2.3430430889 62.017028809 92.540603638 89.187469482 1.6789246798 95.720222473  -999.250000 2.4546778202
 2451.2829590 5.0000000000 8.7910003662 0.0270224363 0.2578781247 2.3340432644 59.178001404 92.775665283 89.457374573 1.7109999657 95.624000549  -999.250000 2.4579856396
 2451.4353027 5.0000000000 8.7679996490 0.0090576923 0.2581191957 2.3220577240 56.076999664 93.134941101 89.839530945 1.7300000191 95.470001221  -999.250000 2.4649662971
 2451.5876465 5.0000000000 8.7519998550 0.0050128205 0.2593859136 2.3140382767 57.012500763 93.490783691 90.223716736 1.7120000124 94.990768433  -999.250000 2.5008268356
 2451.7399902 5.0000000000 8.7489995956 0.0179375987 0.2600070238 2.3199710846 59.948287964 93.850440979 90.576782227 1.6729999781 94.485809326  -999.250000 2.5826056004
 2451.8923340 5.0000000000 8.7419996262 0.0269567315 0.2605772614 2.3190064430 62.731540680 94.323623657 91.098709106 1.6100000143 93.981811523  -999.250000 2.6833536625
 2452.0449219 5.0000000000 8.7159996033 0.0140416669 0.2645871043 2.2871537209 62.583999634 95.392303467 92.113891602 1.5379999876 93.476997375  -999.250000 2.5715434551
 2452.1972656 5.0000000000 8.6969995499 0.0110096149 0.2694045603 2.2591347694 59.773506165 96.862525940 93.544761658 1.4689999819 92.972808838  -999.250000 2.3520576954
 2452.3496094 5.0000000000 8.6949996948 0.0129904002 0.2689224184 2.2550194263 56.650005341 98.060211182 94.893028259 1.4060000181 92.468811035  -999.250000 2.1320576668
 2452.5019531 3.0000000000 8.6960000992 0.0169807710 0.2612868547 2.2550001144 53.521015167 98.933593750 95.750061035 1.3539999723 91.963806152  -999.250000 2.0255095959
 2452.6545410 3.0000000000 8.7040004730 0.0229807701 0.2535946071 2.2609710693 51.345001221 99.534614563 96.185699463 1.3049999475 91.580001831  -999.250000 1.9772304296
 2452.8068848 3.0000000000 8.7379999161 0.0190128200 0.2499018013 2.2580142021 50.798999786 99.851608276 96.481422424 1.2589999437 91.407997131  -999.250000 1.9769999981
 2452.9592285 3.0000000000 8.7790002823 0.0120336004 0.2501089573 2.2430720329 49.218532562 99.974029541 96.667129517 1.2610000372 91.255241394  -999.250000 1.9879471064
 2453.1115723 3.0000000000 8.7950000763 0.0120000001 0.2464676052 2.2420048714 46.889736176 99.699577332 96.521072388 1.2810000181 91.102241516  -999.250000 1.9889951944
 2453.2641602 3.0000000000 8.7959995270 0.0070160259 0.2372097224 2.2459807396 45.523998260 99.104598999 95.872726440 1.2990000248 90.948997498  -999.250000 1.9820336103
 2453.4165039 3.0000000000 8.7910003662 0.0129807694 0.2382764667 2.2589375973 46.308998108 98.195350647 94.836921692 1.3150000572 90.830001831  -999.250000 1.9710528851
 2453.5688477 3.0000000000 8.7749996185 0.0090128202 0.2440015972 2.2739279270 47.910430908 97.004165649 93.654045105 1.3309999704 91.244338989  -999.250000 2.0307114124
 2453.7211914 3.0000000000 8.7840003967 0.0030288000 0.2402183414 2.2720096111 49.959716797 95.769958496 92.450996399 1.3710000515 91.693283081  -999.250000 2.1782884598
 2453.8735352 3.0000000000 8.7969999313 0.0020048078 0.2314025015 2.2729935646 51.322818756 94.577407837 91.362770081 1.4370000362 92.142280579  -999.250000 2.3290336132
 2454.0261230 3.0000000000 8.8109998703 -0.001987180 0.2270937264 2.2759857178 51.859001160 93.854072571 90.621879578 1.5089999437 92.592002869  -999.250000 2.4474327564
 2454.1784668 3.0000000000 8.8640003204 -0.000006410 0.2194345891 2.2839615345 51.602413177 93.542160034 90.240745544 1.5989999771 92.982376099  -999.250000 2.5186586380
 2454.3308105 3.0000000000 8.9029998779 0.0139328009 0.2108114660 2.3118653297 51.326442719 93.301261902 89.985099792 1.6890000105 93.546096802  -999.250000 2.5259664059
 2454.4831543 3.0000000000 8.9300003052 0.0289278831 0.2062518150 2.3518075943 52.188613892 93.094680786 89.691757202 1.7799999714 94.786010742  -999.250000 2.5180382729
 2454.6357422 3.0000000000 8.9519996643 0.0309935901 0.2082136273 2.3748896122 54.675998688 92.502021790 89.247131348 1.8700000048 95.839996338  -999.250000 2.5388991833
 2454.7880859 3.0000000000 8.9709997177 0.0449551307 0.2152673304 2.3939087391 55.969001770 91.639656067 88.479125977 1.9600000381 96.598999023  -999.250000 2.6773316860
 2454.9404297 3.0000000000 8.9600000381 0.0489807986 0.2235402167 2.4079327583 57.840000153 90.569747925 87.272659302 2.0329999924 97.145126343  -999.250000 2.8531539440
 2455.0927734 3.0000000000 8.9370002747 0.0410384610 0.2249832302 2.3851106167 61.873531342 89.212921143 85.875419617 2.0899999142 97.378623962  -999.250000 3.0291538239
 2455.2453613 3.0000000000 8.9119997025 0.0250512827 0.2247607261 2.3432016373 64.222999573 88.368362427 85.030082703 2.1319999695 97.601997375  -999.250000 3.1394720078
 2455.3977051 3.0000000000 8.9090003967 0.0230064094 0.2224673778 2.3101584911 62.830001831 88.529403687 85.237945557 2.1619999409 97.824996948  -999.250000 3.0524232388
 2455.5500488 3.0000000000 8.9420003891 0.0359583311 0.2188914716 2.3169662952 60.850173950 89.431015015 86.146057129 2.1889998913 98.046638489  -999.250000 2.8151440620
 2455.7023926 3.0000000000 8.9949998856 0.0628703982 0.2192482203 2.3518316746 58.855197906 90.342330933 87.001678467 2.2039999962 98.278625488  -999.250000 2.5074808598
 2455.8549805 5.0000000000 9.0830001831 0.1128397435 0.2328761816 2.3888223171 57.573001862 90.397438049 87.130363464 2.2149999142 98.653999329  -999.250000 2.3119361401
 2456.0073242 5.0000000000 9.3400001526 0.1458942294 0.2723233104 2.4208462238 59.558998108 89.568801880 86.304870605 2.2260000706 99.081001282  -999.250000 2.5229759216
 2456.1596680 5.0000000000 9.7430000305 0.1071249992 0.3084641993 2.4040818214 63.580558777 88.190040588 84.972351074 2.2330000401 99.507316589  -999.250000 2.9290432930
 2456.3120117 5.0000000000 9.7519998550 0.0841104016 0.3190892935 2.3671779633 67.783264160 87.226097107 84.042137146 2.2320001125 99.933319092  -999.250000 3.2574231625
 2456.4643555 5.0000000000 9.5240001678 0.1078846157 0.3213194609 2.3888940811 71.574928284 87.406921387 84.110481262 2.1909999847 100.28942871  -999.250000 3.2480528355
 2456.6169434 5.0000000000 9.5790004730 0.1468749940 0.3215792179 2.4198513031 74.650001526 88.240585327 84.890655518 2.1749999523 100.47699738  -999.250000 3.1106622219
 2456.7692871 5.0000000000 9.7589998245 0.1769038439 0.3212709725 2.4289567471 76.294364929 89.240402222 85.854064941 2.1419999599 100.63375092  -999.250000 2.9428076744
 2456.9216309 5.0000000000 9.8389997482 0.1630672067 0.3235888183 2.4130771160 77.868476868 90.195915222 86.824981689 2.0920000076 100.79174805  -999.250000 2.8872644901
 2457.0739746 5.0000000000 9.7679996490 0.1162259579 0.3239184320 2.3950865269 78.810485840 90.984519958 87.795028687 2.0439999104 100.94874573  -999.250000 2.8282837868
