# LAS format log file from PETREL
# Project units are specified as depth units
#==================================================================
~Version information
VERS.   2.0:
WRAP.   NO:
#==================================================================
~Well
STRT .m      326.13598633 :
STOP .m      1938.6804199 :
STEP .m     0.00000000 :
NULL .        -999.250000 :
COMP.           : COMPANY
WELL.  31/2-17 A   : WELL
FLD.            : FIELD
LOC.            : LOCATION
SRVC.           : SERVICE COMPANY
DATE.  2018-09-11 14:48:33   : Log Export Date {yyyy-MM-dd HH:mm:ss}
PROV.           : PROVINCE
UWI.   31/2-17 A   : UNIQUE WELL ID
API.            : API NUMBER
#==================================================================
~Curve
DEPT .m                   : DEPTH
Lithology_geolink ._      : Lithology_geolink
CALI .in                  : CALI
DRHO .g/cm3               : DRHO
RHOB .g/cm3               : RHOB
GR .gAPI                  : GR
DTC .us/ft                : DTC
RDEP .ohm.m               : RDEP
RMED .ohm.m               : RMED
~Parameter
#==================================================================
~Ascii
# ...
 543.76318359  -999.250000 8.6134996414 -1.004699945 2.2200000286 64.042999268 152.25840759 1.1498999596  -999.250000
 543.91558838  -999.250000 8.6134996414 -1.004699945 2.2200000286 62.865699768 152.25840759 1.1626000404  -999.250000
 544.06799316  -999.250000 8.6134996414 -1.004699945 2.2200000286 65.009597778 152.25840759 1.1750999689  -999.250000
 544.22039795  -999.250000 8.6134996414 -1.004699945 2.2200000286 64.911399841 152.25840759 1.1858999729  -999.250000
 544.37280273  -999.250000 8.6134996414 -1.004699945 2.2200000286 63.932201385 152.25840759 1.1920000315  -999.250000
 544.52514648  -999.250000 8.6134996414 -1.004699945 2.2200000286 56.857498169 152.25840759 1.1921000481  -999.250000
 544.67755127  -999.250000 8.6134996414 -1.004699945 2.2200000286 58.130401611 152.25840759 1.1887012720  -999.250000
 544.82995605  -999.250000 8.6134996414 -1.004699945 2.2200000286 61.557701111 152.25840759 1.1845016479  -999.250000
 544.98236084  -999.250000 8.6134996414 -1.004699945 2.2200000286 63.878799438 152.25840759 1.1802016497  -999.250000
 545.13476563  -999.250000 8.6134996414 -1.004699945 2.2200000286 60.206699371 152.25840759 1.1760016680  -999.250000
 545.28717041  -999.250000 8.6134996414 -1.004699945 2.2200000286 56.045101166 152.25840759 1.1720016003  -999.250000
 545.43957520  -999.250000 8.6134996414 -1.004699945 2.2200000286 56.725299835 152.25840759 1.1679016352  -999.250000
 545.59197998  -999.250000 8.6134996414 -1.004699945 2.2200000286 51.796798706 152.25840759 1.1637016535  -999.250000
 545.74438477  -999.250000 8.6134996414 -1.004699945 2.2200000286 50.401199341 152.25840759 1.1595000029  -999.250000
 545.89678955  -999.250000 8.6134996414 -1.004699945 2.2200000286 48.762901306 152.25840759 1.1554000378  -999.250000
 546.04919434  -999.250000 8.6134996414 -1.004699945 2.2200000286 55.113498688 152.25840759 1.1512999535  -999.250000
 546.20159912  -999.250000 8.6134996414 -1.004699945 2.2200000286 58.266998291 152.25840759 1.1471999884  -999.250000
 546.35400391  -999.250000 8.6134996414 -1.004699945 2.2200000286 63.932201385 152.25840759 1.1430000067  -999.250000
 546.50634766  -999.250000 8.6134996414 -1.004699945 2.2200000286 62.754901886 152.25840759 1.1401000023  -999.250000
 546.65875244  -999.250000 8.6134996414 -1.004699945 2.2200000286 62.465900421 152.25840759 1.1418000460  -999.250000
 546.81115723  -999.250000 8.6134996414 -1.004699945 2.2200000286 60.227901459 152.25840759 1.1485999823  -999.250000
 546.96356201  -999.250000 8.6134996414 -1.004699945 2.2200000286 60.795799255 152.25840759 1.1555000544  -999.250000
 547.11596680  -999.250000 8.6134996414 -1.004699945 2.2200000286 63.292999268 152.25840759 1.1608999968  -999.250000
 547.26837158  -999.250000 8.6134996414 -1.004699945 2.2200000286 60.314098358 152.25840759 1.1668000221  -999.250000
 547.42077637  -999.250000 8.6134996414 -1.004699945 2.2200000286 58.348701477 152.25840759 1.1735999584  -999.250000
 547.57318115  -999.250000 8.6134996414 -1.004699945 2.2200000286 53.932300568 152.25840759 1.1806000471  -999.250000
 547.72558594  -999.250000 8.6134996414 -1.004699945 2.2200000286 52.015098572 152.25840759 1.1871999502  -999.250000
 547.87799072  -999.250000 8.6134996414 -1.004699945 2.2200000286 49.692699432 152.25840759 1.1934000254  -999.250000
 548.03039551  -999.250000 8.6134996414 -1.004699945 2.2200000286 51.324199677 152.25840759 1.1991000175  -999.250000
 548.18280029  -999.250000 8.6134996414 -1.004699945 2.2200000286 54.002601624 152.25840759 1.2048000097  -999.250000
 548.33520508  -999.250000 8.6134996414 -1.004699945 2.2200000286 59.680900574 152.25840759 1.2105000019  -999.250000
 548.48760986  -999.250000 8.6134996414 -1.004699945 2.2200000286 52.379699707 152.25840759 1.2161999941  -999.250000
 548.63995361  -999.250000 8.6134996414 -1.004699945 2.2200000286 49.592700958 152.25840759 1.2221000195  -999.250000
 548.79235840  -999.250000 8.6134996414 -1.004699945 2.2200000286 43.926399231 152.25840759 1.2278000116  -999.250000
 548.94476318  -999.250000 8.6134996414 -1.004699945 2.2200000286 50.291301727 152.25840759 1.2335000038  -999.250000
 549.09716797  -999.250000 8.6134996414 -1.004699945 2.2200000286 49.189399719 152.25840759 1.2394000292  -999.250000
 549.24957275  -999.250000 8.6134996414 -1.004699945 2.2200000286 48.001201630 152.25840759 1.2455999851  -999.250000
 549.40197754  -999.250000 8.6134996414 -1.004699945 2.2200000286 47.471900940 152.25840759 1.2534999847  -999.250000
 549.55438232  -999.250000 8.6134996414 -1.004699945 2.2200000286 52.647201538 152.25840759 1.2649999857  -999.250000
 549.70678711  -999.250000 8.6134996414 -1.004699945 2.2200000286 54.605598450 152.25840759 1.2802000046  -999.250000
 549.85919189  -999.250000 8.6134996414 -1.004699945 2.2200000286 54.361400604 152.25840759 1.2971999645  -999.250000
 550.01159668  -999.250000 8.6134996414 -1.004699945 2.2200000286 52.844699860 152.25840759 1.3144999743  -999.250000
 550.16400146  -999.250000 8.6134996414 -1.004699945 2.2200000286 53.134399414 152.25840759 1.3308000565  -999.250000
 550.31640625  -999.250000 8.6134996414 -1.004699945 2.2200000286 51.704700470 152.25840759 1.3440999985  -999.250000
 550.46881104  -999.250000 8.6134996414 -1.004699945 2.2200000286 52.883598328 152.25840759 1.3530999422  -999.250000
 550.62115479  -999.250000 8.6134996414 -1.004699945 2.2200000286 51.382900238 152.25840759 1.3590999842  -999.250000
 550.77355957  -999.250000 8.6134996414 -1.004699945 2.2200000286 51.382900238 152.25840759 1.3644000292  -999.250000
 550.92596436  -999.250000 8.6134996414 -1.004699945 2.2200000286 47.056800842 152.25840759 1.3696000576  -999.250000
 551.07836914  -999.250000 8.6134996414 -1.004699945 2.2200000286 50.235900879 152.25840759 1.3746000528  -999.250000
 551.23077393  -999.250000 8.6134996414 -1.004699945 2.2200000286 49.256698608 152.25840759 1.3790999651  -999.250000
 551.38317871  -999.250000 8.6134996414 -1.004699945 2.2200000286 49.814998627 152.25840759 1.3818000555  -999.250000
 551.53558350  -999.250000 8.6134996414 -1.004699945 2.2200000286 47.357299805 152.25840759 1.3806999922  -999.250000
 551.68798828  -999.250000 8.6134996414 -1.004699945 2.2200000286 51.071399689 152.25840759 1.3758000135  -999.250000
 551.84039307  -999.250000 8.6134996414 -1.004699945 2.2200000286 54.922798157 152.25840759 1.3691999912  -999.250000
 551.99279785  -999.250000 8.6134996414 -1.004699945 2.2200000286 54.642200470 152.25840759 1.3623000383  -999.250000
 552.14520264  -999.250000 8.6134996414 -1.004699945 2.2200000286 52.641700745 152.25840759 1.3552999496  -999.250000
 552.29760742  -999.250000 8.6134996414 -1.004699945 2.2200000286 52.427799225 152.25840759 1.3485000134  -999.250000
 552.45001221  -999.250000 8.6134996414 -1.004699945 2.2200000286 50.260299683 152.25840759 1.3415999413  -999.250000
 552.60241699  -999.250000 8.6134996414 -1.004699945 2.2200000286 51.688400269 152.25840759 1.3346999884  -999.250000
 552.75476074  -999.250000 8.6134996414 -1.004699945 2.2200000286 48.926200867 152.25840759 1.3278000355  -999.250000
 552.90716553  -999.250000 8.6134996414 -1.004699945 2.2200000286 52.367900848 152.25840759 1.3208999634  -999.250000
 553.05957031  -999.250000 8.6134996414 -1.004699945 2.2200000286 53.589199066 152.25840759 1.3150000572  -999.250000
 553.21197510  -999.250000 8.6134996414 -1.004699945 2.2200000286 55.057998657 152.25840759 1.3154000044  -999.250000
 553.36437988  -999.250000 8.6134996414 -1.004699945 2.2200000286 54.553901672 152.25840759 1.3312000036  -999.250000
 553.51678467  -999.250000 8.6134996414 -1.004699945 2.2200000286 51.765499115 152.25840759 1.3619999886  -999.250000
 553.66918945  -999.250000 8.6134996414 -1.004699945 2.2200000286 49.525398254 152.25840759 1.3919999599  -999.250000
 553.82159424  -999.250000 8.6134996414 -1.004699945 2.2200000286 51.973400116 152.25840759 1.4076999426  -999.250000
 553.97399902  -999.250000 8.6134996414 -1.004699945 2.2200000286 55.189201355 152.25840759 1.4110000134  -999.250000
