# LAS format log file from PETREL
# Project units are specified as depth units
#==================================================================
~Version information
VERS.   2.0:
WRAP.   NO:
#==================================================================
~Well
STRT .m      1999.6403809 :
STOP .m      3191.7131348 :
STEP .m     0.00000000 :
NULL .        -999.250000 :
COMP.           : COMPANY
WELL.  31/2-21 S   : WELL
FLD.            : FIELD
LOC.            : LOCATION
SRVC.           : SERVICE COMPANY
DATE.  2018-09-11 14:48:34   : Log Export Date {yyyy-MM-dd HH:mm:ss}
PROV.           : PROVINCE
UWI.   31/2-21 S   : UNIQUE WELL ID
API.            : API NUMBER
#==================================================================
~Curve
DEPT .m                   : DEPTH
Lithology_geolink ._      : Lithology_geolink
CALI .in                  : CALI
BS .in                    : BS
ROP .m/h                  : ROP
DRHO .g/cm3               : DRHO
NPHI .m3/m3               : NPHI
RHOB .g/cm3               : RHOB
PEF .b/e                  : PEF
GR .gAPI                  : GR
DTC .us/ft                : DTC
DTS .us/ft                : DTS
RDEP .ohm.m               : RDEP
RMED .ohm.m               : RMED
~Parameter
#==================================================================
~Ascii
# ...
 2790.9011230 6.0000000000 8.4653997421 8.5000000000 83.634841919 0.0403999984 0.2477999926 2.5676999092 3.7620999813 91.093612671 78.828498840 139.61109924 6.3624000549 6.2635998726
 2791.0534668 6.0000000000 8.4778003693 8.5000000000 74.429138184 0.0505000018 0.2466000021 2.5639998913 3.3064000607 92.093513489 79.016296387 142.46549988 6.5440001488 6.5281000137
 2791.2058105 6.0000000000 8.4786996841 8.5000000000 72.871391296 0.0498999991 0.2518999875 2.5515999794 3.2200999260 93.785873413 77.583099365 143.57859802 6.3864002228 6.3456001282
 2791.3583984 6.0000000000 8.4821996689 8.5000000000 73.718833923 0.0535000004 0.2612000108 2.5343999863 3.5573000908 96.897415161 77.905296326 145.70159912 6.1101999283 6.0173997879
 2791.5107422 6.0000000000 8.4601001740 8.5000000000 76.000000000 0.0485999994 0.2825999856 2.5090999603 3.2114000320 90.930091858 78.806602478 148.50190735 5.9650998116 5.7850999832
 2791.6630859 7.0000000000 8.4575996399 8.5000000000 99.151901245 0.0566000007 0.2872999907 2.5158998966 3.3540000916 95.599792480 78.853897095 150.90119934 5.7944002151 5.5571999550
 2791.8154297 7.0000000000 8.4774999619 8.5000000000 129.78576660 0.0520000011 0.2685000002 2.5167000294 3.4209001064 109.33094025 78.767601013 153.25570679 5.5652999878 5.2937998772
 2791.9680176 7.0000000000 8.4709997177 8.5000000000 136.13320923 0.0364999995 0.2718000114 2.5030999184 3.3150000572 115.61967468 79.658302307 156.12678528 5.4267001152 5.0458002090
 2792.1203613 7.0000000000 8.4643001556 8.5000000000 120.48687744 0.0456000008 0.2887000144 2.5253000259 3.3289000988 113.04684448 80.974205017 162.24890137 5.3284997940 4.9390001297
 2792.2727051 7.0000000000 8.4659004211 8.5000000000 105.56463623 0.0463999994 0.2858000100 2.5299000740 3.4874999523 106.99291229 83.249092102 163.68809509 5.2878999710 4.9665999413
 2792.4250488 7.0000000000 8.4762001038 8.5000000000 96.179786682 0.0410999991 0.2885000110 2.5095000267 3.2423999310 108.11775970 85.426498413 164.82980347 5.2126002312 4.8962998390
 2792.5776367 7.0000000000 8.4545001984 8.5000000000 94.593505859 0.0447999984 0.3276000023 2.5093998909 3.1624999046 113.69695282 86.248710632 165.29020691 5.1040000916 4.7982001305
 2792.7299805 7.0000000000 8.4708995819 8.5000000000 104.41928864 0.0480999984 0.3479000032 2.5004999638 3.3866000175 113.57570648 87.070999146 165.75059509 4.8987002373 4.7067999840
 2792.8823242 7.0000000000 8.4956998825 8.5000000000 117.49836731 0.0472000018 0.3298999965 2.4744000435 3.4265000820 113.02568817 88.558502197 168.07881165 4.7809000015 4.5188999176
 2793.0346680 7.0000000000 8.5005998611 8.5000000000 106.63976288 0.0513000004 0.3258999884 2.4704999924 3.1796000004 125.85790253 90.064598083 172.86601257 4.7277002335 4.4794998169
 2793.1870117 7.0000000000 8.4923000336 8.5000000000 83.165359497 0.0476000011 0.3300999999 2.4658999443 3.3229000568 124.39266968 91.297409058 173.44520569 4.8836002350 4.6107997894
 2793.3395996 7.0000000000 8.4549999237 8.5000000000 67.773300171 0.0476999991 0.3501000106 2.4621000290 3.7269999981 122.38451385 92.155799866 174.47279358 5.2279000282 5.0485000610
 2793.4919434 7.0000000000 8.4238996506 8.5000000000 64.561019897 0.0430000015 0.3650999963 2.4446001053 3.5067000389 106.72623444 93.594200134 167.93110657 5.2853999138 5.1550998688
 2793.6442871 7.0000000000 8.4439001083 8.5000000000 80.205703735 0.0509000011 0.3440000117 2.4491000175 3.4577000141 107.64897919 94.595703125 161.38940430 5.3748998642 5.3098998070
 2793.7966309 7.0000000000 8.4433002472 8.5000000000 93.716537476 0.0439000018 0.3298999965 2.4558000565 3.0492999554 116.03448486 94.047492981 161.38940430 5.2860999107 5.2171001434
 2793.9492188 7.0000000000 8.4562997818 8.5000000000 75.714241028 0.0526000001 0.3328999877 2.4872999191 3.1640999317 116.17711639 92.728408813 161.44459534 5.2270002365 5.1377000809
 2794.1015625 7.0000000000 8.4454002380 8.5000000000 60.882545471 0.0452000014 0.3339000046 2.4825997353 3.5476999283 115.07706451 91.303199768 161.84388733 5.2583999634 5.1886000633
 2794.2539063 7.0000000000 8.4219999313 8.5000000000 49.102691650 0.0469000004 0.3262000084 2.4756999016 3.3329000473 117.69419861 90.456298828 163.16279602 5.0665998459 4.8854999542
 2794.4062500 7.0000000000 8.4748001099 8.5000000000 54.963256836 0.0445000008 0.2924999893 2.4751000404 3.1171000004 111.93839264 90.547691345 167.47340393 4.9783000946 4.6905999184
 2794.5588379 7.0000000000 8.4834003448 8.5000000000 68.553810120 0.0515000001 0.3009000123 2.4853000641 3.3840000629 117.36735535 90.661499023 169.10929871 4.8229999542 4.4960999489
 2794.7111816 7.0000000000 8.4773998260 8.5000000000 67.512138367 0.0544000007 0.3258999884 2.4962000847 3.5090000629 116.80841064 90.733802795 169.10929871 4.7319998741 4.4135999680
 2794.8635254 7.0000000000 8.4895000458 8.5000000000 57.565616608 0.0518999994 0.3350999951 2.4979999065 3.5694999695 117.65344238 91.265800476 169.10929871 4.4763998985 4.2135000229
 2795.0158691 7.0000000000 8.4857997894 8.5000000000 51.692256927 0.0375999995 0.3434999883 2.4505000114 3.2681999207 118.91976929 92.528503418 169.10929871 4.2527999878 3.9073998928
 2795.1682129 7.0000000000 8.4927997589 8.5000000000 51.875984192 0.0533999987 0.3212000132 2.4303998947 3.4116001129 124.67702484 93.206100464 165.40440369 4.2185997963 3.8752000332
 2795.3208008 7.0000000000 8.4778003693 8.5000000000 50.221126556 0.0489000008 0.3125000000 2.4447999001 3.5427000523 129.58366394 93.943901062 161.69940186 4.2430000305 3.9254999161
 2795.4731445 7.0000000000 8.4638004303 8.5000000000 31.465883255 0.0511000007 0.3274999857 2.4695999622 3.5206999779 118.72414398 94.458908081 157.99440002 4.2041001320 3.8522999287
 2795.6254883 7.0000000000 8.4562997818 8.5000000000 37.730316162 0.0467999987 0.3467999995 2.4576001167 3.2553000450 133.15420532 96.130302429 154.28950500 4.1230998039 3.7897999287
 2795.7778320 7.0000000000 8.4423999786 8.5000000000 98.461944580 0.0476000011 0.3506999910 2.4416000843 2.9979999065 129.51824951 97.436294556 154.41819763 4.0514998436 3.7428998947
 2795.9304199 7.0000000000 8.4393997192 8.5000000000 127.41108704 0.0403999984 0.4034000039 2.4082000256 3.0088000298 125.55344391 101.41690826 154.70339966 4.0827999115 3.7562999725
 2796.0827637 7.0000000000 8.4638004303 8.5000000000 116.29626465 0.0442999974 0.4406999946 2.3654999733 3.0346000195 126.86578369 103.11029816 155.76429749 4.1830000877 3.8936998844
 2796.2351074 7.0000000000 8.4843997955 8.5000000000 89.489830017 0.0500999987 0.4034000039 2.3552999496 2.8489999771 125.16173553 103.28240204 157.44149780 4.2649002075 3.9863998890
 2796.3874512 7.0000000000 8.4861001968 8.5000000000 70.547569275 0.0564000010 0.3585999906 2.4170999527 3.1494998932 135.12101746 100.57850647 158.90528870 4.3779001236 4.1535000801
 2796.5400391 7.0000000000 8.4771995544 8.5000000000 60.771984100 0.0511999987 0.2921999991 2.4853999615 3.1073999405 140.23365784 95.922302246 158.98950195 4.4126000404 4.2396998405
 2796.6923828 7.0000000000 8.4947996140 8.5000000000 57.982940674 0.0505999997 0.2831999958 2.5046000481 3.2618000507 134.08119202 91.222099304 159.50090027 4.3420000076 4.1819000244
 2796.8447266 7.0000000000 8.4961996078 8.5000000000 65.152557373 0.0542999990 0.2978000045 2.4930999279 3.7525999546 129.14141846 88.326103210 159.31539917 4.2347998619 4.0451998711
 2796.9970703 7.0000000000 8.5015001297 8.5000000000 72.184387207 0.0617000014 0.3115000129 2.4790999889 3.6275999546 130.54862976 88.444999695 159.04980469 4.1203999519 3.9340000153
 2797.1496582 7.0000000000 8.5078001022 8.5000000000 71.410766602 0.0573000014 0.3158000112 2.4920001030 3.4509000778 136.03500366 88.218696594 158.37190247 4.1160001755 3.8738000393
 2797.3020020 7.0000000000 8.5024995804 8.5000000000 72.886482239 0.0636999980 0.2897999883 2.5264999866 3.7869000435 123.64290619 87.394699097 157.20939636 4.2308998108 3.9802000523
 2797.4543457 7.0000000000 8.5072002411 8.5000000000 94.255249023 0.0599000007 0.2924000025 2.5315999985 3.7177999020 116.90737915 85.564605713 156.26339722 4.3639001846 4.1199998856
