# LAS format log file from PETREL
# Project units are specified as depth units
#==================================================================
~Version information
VERS.   2.0:
WRAP.   NO:
#==================================================================
~Well
STRT .m      447.54394531 :
STOP .m      3384.4443359 :
STEP .m     0.00000000 :
NULL .        -999.250000 :
COMP.           : COMPANY
WELL.  31/2-8   : WELL
FLD.            : FIELD
LOC.            : LOCATION
SRVC.           : SERVICE COMPANY
DATE.  2018-09-11 14:48:34   : Log Export Date {yyyy-MM-dd HH:mm:ss}
PROV.           : PROVINCE
UWI.   31/2-8   : UNIQUE WELL ID
API.            : API NUMBER
#==================================================================
~Curve
DEPT .m                   : DEPTH
Lithology_geolink ._      : Lithology_geolink
CALI .in                  : CALI
DRHO .g/cm3               : DRHO
SGR .gAPI                 : SGR
NPHI .m3/m3               : NPHI
RHOB .g/cm3               : RHOB
PEF .b/e                  : PEF
GR .gAPI                  : GR
DTC .us/ft                : DTC
RDEP .ohm.m               : RDEP
SP .mV                    : SP
RSHA .ohm.m               : RSHA
RMED .ohm.m               : RMED
~Parameter
#==================================================================
~Ascii
# ...
 1426.5615234 19.000000000 17.330999374 0.0170000009  -999.250000 0.3221499920 2.5910000801  -999.250000 58.903190613 75.901878357 1.8187630177 51.109706879 2.8031415939 2.8031415939
 1426.7138672 19.000000000 17.327999115 0.0260000005  -999.250000 0.3485100269 2.5759999752  -999.250000 57.756675720 76.401977539 2.0143718719 51.400066376 2.5179197788 2.5179197788
 1426.8663330 19.000000000 17.378999710 0.0320000015  -999.250000 0.3938699961 2.5620000362  -999.250000 56.677589417 73.035293579 2.4130408764 51.650398254 2.1369156837 2.1369156837
 1427.0186768 19.000000000 17.629999161 0.0289999992  -999.250000 0.4108700156 2.5460000038  -999.250000 56.229431152 68.831214905 2.7299847603 51.739715576 1.9525892735 1.9525892735
 1427.1711426 19.000000000 17.743999481 0.0390000008  -999.250000 0.3748799860 2.5350000858  -999.250000 57.275474548 70.283493042 2.7559399605 51.478630066 2.0447764397 2.0447764397
 1427.3234863 19.000000000 17.829000473 0.0500000007  -999.250000 0.3294699788 2.5000000000  -999.250000 57.304912567 74.592864990 2.6652913094 51.760093689 2.4477059841 2.4477059841
 1427.4759521 19.000000000 18.142999649 0.0590000004  -999.250000 0.3328399956 2.4389998913  -999.250000 62.340866089 78.506408691 2.4535095692 52.363548279 2.9547812939 2.9547812939
 1427.6282959 19.000000000 18.309000015 0.0570000000  -999.250000 0.3743500113 2.3659999371  -999.250000 63.835239410 85.599571228 2.1449897289 52.575325012 2.7087941170 2.7087941170
 1427.7807617 19.000000000 18.347000122 0.0619999990  -999.250000 0.3867800236 2.3090000153  -999.250000 66.156417847 97.653022766 1.8696609735 52.448310852 2.1513414383 2.1513414383
 1427.9331055 19.000000000 18.531999588 0.0509999990  -999.250000 0.3858800232 2.2500000000  -999.250000 65.228996277 108.65090179 1.6796084642 51.610691071 1.7353322506 1.7353322506
 1428.0855713 19.000000000 18.774000168 0.0299999993  -999.250000 0.3998000026 2.2019999027  -999.250000 67.662132263 116.57282257 1.4914519787 51.471328735 1.3808509111 1.3808509111
 1428.2379150 19.000000000 18.930000305 0.0240000002  -999.250000 0.4295200109 2.1870000362  -999.250000 68.815315247 124.32635498 1.2906436920 52.774810791 1.0919255018 1.0919255018
 1428.3902588 19.000000000 19.211000443 0.0399999991  -999.250000 0.4192800224 2.1979999542  -999.250000 70.235443115 130.28317261 1.1085833311 52.618515015 0.9673974514 0.9673974514
 1428.5427246 5.0000000000 19.437000275 0.0599999987  -999.250000 0.3884299994 2.1989998817  -999.250000 75.366531372 132.49253845 0.9853939414 52.413654327 0.9600223899 0.9600223899
 1428.6950684 5.0000000000 19.985000610 0.0610000007  -999.250000 0.4081799984 2.1749999523  -999.250000 80.845436096 133.15370178 0.8713653684 52.195697784 1.0447275639 1.0447275639
 1428.8475342 5.0000000000 19.593000412 0.0450000018  -999.250000 0.4661599994 2.1300001144  -999.250000 80.237510681 135.73191833 0.7762283683 51.773017883 1.0290385485 1.0290385485
 1428.9998779 5.0000000000 19.371999741 0.0280000009  -999.250000 0.4924499989 2.0820000172  -999.250000 76.921653748 138.75834656 0.7291504741 51.654376984 0.9841441512 0.9841441512
 1429.1523438 5.0000000000 19.424999237 0.0179999992  -999.250000 0.5001699924 2.0559999943  -999.250000 72.159454346 141.43409729 0.6990721226 51.041477203 0.8712716103 0.8712716103
 1429.3046875 5.0000000000 19.524000168 0.0219999999  -999.250000 0.4784199893 2.0629999638  -999.250000 76.091323853 143.91044617 0.6591280699 50.883502960 0.7892625928 0.7892625928
 1429.4571533 5.0000000000 19.368999481 0.0170000009  -999.250000 0.4864600003 2.0799999237  -999.250000 78.575050354 144.00685120 0.6540120244 50.537830353 0.7451058030 0.7451058030
 1429.6094971 5.0000000000 19.239000320 0.0109999999  -999.250000 0.4724299908 2.0910000801  -999.250000 78.574020386 144.53823853 0.6410415769 50.187126160 0.7071217299 0.7071217299
 1429.7619629 5.0000000000 19.333000183 0.0049999999  -999.250000 0.4685699940 2.0940001011  -999.250000 76.601753235 146.34393311 0.6220456362 50.055316925 0.7568798661 0.7568798661
 1429.9143066 6.0000000000 19.082000732 0.0070000002  -999.250000 0.4631899893 2.1040000916  -999.250000 77.341606140 146.58184814 0.6309711337 50.159664154 0.7400544286 0.7400544286
 1430.0667725 6.0000000000 18.892999649 0.0099999998  -999.250000 0.4460400045 2.1210000515  -999.250000 81.879074097 145.51788330 0.6669134498 50.738609314 0.7250360847 0.7250360847
 1430.2191162 6.0000000000 18.740999222 0.0080000004  -999.250000 0.4397299886 2.1340000629  -999.250000 78.831825256 142.94868469 0.6889295578 51.004154205 0.7220095992 0.7220095992
 1430.3714600 5.0000000000 18.621999741 0.0030000000  -999.250000 0.4384000003 2.1389999390  -999.250000 76.668922424 139.57548523 0.7199006677 51.485454559 0.8027403355 0.8027403355
 1430.5239258 5.0000000000 18.527999878 -0.004000000  -999.250000 0.4369300008 2.1310000420  -999.250000 72.499374390 137.97416687 0.7558847070 52.068134308 0.9026797414 0.9026797414
 1430.6762695 5.0000000000 18.443000793 -0.002000000  -999.250000 0.4031700194 2.1300001144  -999.250000 72.718254089 137.77789307 0.7908878326 52.482673645 0.9568269253 0.9568269253
 1430.8287354 5.0000000000 18.312999725 0.0040000002  -999.250000 0.3680000007 2.1380000114  -999.250000 69.672790527 137.73129272 0.8458238840 53.312335968 0.9819199443 0.9819199443
 1430.9810791 5.0000000000 18.208999634 0.0070000002  -999.250000 0.3639400005 2.1419999599  -999.250000 67.547798157 138.35064697 0.8998268843 52.958148956 0.9909711480 0.9909711480
 1431.1335449 5.0000000000 18.128000259 0.0040000002  -999.250000 0.3822399974 2.1280000210  -999.250000 69.935234070 139.62968445 0.9339182973 53.218372345 0.9840168357 0.9840168357
 1431.2858887 5.0000000000 18.021999359 0.0020000001  -999.250000 0.3886699975 2.1140000820  -999.250000 71.998390198 139.97792053 0.9389839768 52.500308990 0.9710416198 0.9710416198
 1431.4383545 5.0000000000 17.927999496 0.0130000003  -999.250000 0.4157300293 2.1119999886  -999.250000 78.572174072 140.07841492 0.8831346035 52.087989807 0.9500504732 0.9500504732
 1431.5906982 5.0000000000 17.865999222 0.0230000000  -999.250000 0.4287300110 2.1099998951  -999.250000 76.086044312 142.65882874 0.8172113299 53.500461578 0.9310608506 0.9310608506
 1431.7431641 5.0000000000 17.833999634 0.0199999996  -999.250000 0.4564000070 2.0929999352  -999.250000 73.239837646 145.75425720 0.7920600772 53.388282776 0.8930913806 0.8930913806
 1431.8955078 5.0000000000 17.888000488 0.0109999999  -999.250000 0.4573099911 2.0769999027  -999.250000 68.148338318 147.08035278 0.7880128026 53.839550018 0.8182402253 0.8182402253
 1432.0479736 5.0000000000 18.052999496 0.0049999999  -999.250000 0.4866500199 2.0789999962  -999.250000 71.249488831 146.60186768 0.7710409164 53.799098969 0.7751033306 0.7751033306
 1432.2003174 6.0000000000 18.084999084 0.0060000001  -999.250000 0.4963499904 2.0950000286  -999.250000 80.076667786 142.64549255 0.7680096030 53.787036896 0.7510768771 0.7510768771
 1432.3526611 6.0000000000 18.093999863 0.0060000001  -999.250000 0.4954700172 2.1180000305  -999.250000 87.687614441 138.43136597 0.7630160451 53.704265594 0.7878813744 0.7878813744
 1432.5051270 6.0000000000 18.075000763 0.0070000002  -999.250000 0.4555500150 2.1380000114  -999.250000 85.818084717 137.23796082 0.7340928912 53.057079315 0.8039487600 0.8039487600
 1432.6574707 6.0000000000 18.038000107 0.0199999996  -999.250000 0.4613600075 2.1610000134  -999.250000 78.022048950 137.77359009 0.7220384479 53.476646423 0.8368942142 0.8368942142
 1432.8099365 5.0000000000 18.009000778 0.0350000001  -999.250000 0.4374000132 2.1649999619  -999.250000 69.854164124 141.12144470 0.7210032344 53.531829834 0.8320160508 0.8320160508
 1432.9622803 5.0000000000 17.972000122 0.0379999988  -999.250000 0.4293700159 2.1359999180  -999.250000 68.908950806 145.77441406 0.7050512433 53.386470795 0.8220320940 0.8220320940
 1433.1147461 5.0000000000 17.978000641 0.0270000007  -999.250000 0.3988200128 2.0989999771  -999.250000 74.418716431 146.60795593 0.6980168223 52.678703308 0.7900769711 0.7900769711
