# LAS format log file from PETREL
# Project units are specified as depth units
#==================================================================
~Version information
VERS.   2.0:
WRAP.   NO:
#==================================================================
~Well
STRT .m      443.33587646 :
STOP .m      1778.0548096 :
STEP .m     0.00000000 :
NULL .        -999.250000 :
COMP.           : COMPANY
WELL.  31/2-9   : WELL
FLD.            : FIELD
LOC.            : LOCATION
SRVC.           : SERVICE COMPANY
DATE.  2018-09-11 14:48:35   : Log Export Date {yyyy-MM-dd HH:mm:ss}
PROV.           : PROVINCE
UWI.   31/2-9   : UNIQUE WELL ID
API.            : API NUMBER
#==================================================================
~Curve
DEPT .m                   : DEPTH
Lithology_geolink ._      : Lithology_geolink
CALI .in                  : CALI
DRHO .g/cm3               : DRHO
SGR .gAPI                 : SGR
NPHI .m3/m3               : NPHI
RHOB .g/cm3               : RHOB
PEF .b/e                  : PEF
GR .gAPI                  : GR
DTC .us/ft                : DTC
RDEP .ohm.m               : RDEP
SP .mV                    : SP
RSHA .ohm.m               : RSHA
RMED .ohm.m               : RMED
~Parameter
#==================================================================
~Ascii
 443.33587646  -999.250000 22.479999542 -0.291999996  -999.250000  -999.250000 1.3710000515 -0.136000007 14.625249863 56.000038147 62.404544830 3.4790000916 0.1929998100 0.1929998100
 443.48828125  -999.250000 22.469001770 -0.486000001  -999.250000  -999.250000 1.3569999933 -0.321000010 15.875087738 56.187961578 55.154365540 4.9780001640 0.1920001954 0.1920001954
 443.64068604  -999.250000 22.469001770 -1.026000023  -999.250000  -999.250000 1.1349999905 -0.398999989 16.314176559 56.000076294 46.998374939 6.4770002365 0.1930004060 0.1930004060
 443.79306030  -999.250000 22.469001770 0.0230000000  -999.250000 0.5568400025 2.7070000172 -0.426999986 19.250385284 56.187999725 42.937171936 7.9770002365 0.1940000057 0.1940000057
 443.94546509  -999.250000 22.469001770 0.7720000148  -999.250000 0.5454999804 4.4959998131 -0.437000006 21.171916962 56.187999725 38.812461853 9.7449998856 0.1940001994 0.1940001994
 444.09786987  -999.250000 22.469001770 -0.004000000  -999.250000 0.5467900038 2.6519999504 -0.446000010 20.749734879 56.187999725 36.124591827 11.536999702 0.1949993968 0.1949993968
 444.25027466  -999.250000 22.472999573 0.0040000002  -999.250000 0.5615999699 2.6930000782 -0.463000000 19.422182083 56.187961578 34.094039917 13.328000069 0.1919987947 0.1919987947
 444.40267944  -999.250000 22.479999542 0.0080000004  -999.250000 0.5774999857 2.7109999657 -0.519999981 20.328083038 56.000076294 34.281124115 14.357999802 0.1859990060 0.1859990060
 444.55508423  -999.250000 22.469001770 0.0080000004  -999.250000 0.5858700275 2.7130000591 -0.739000022 20.751163483 56.374923706 34.906097412 14.958999634 0.1809971929 0.1809971929
 444.70748901  -999.250000 22.469001770 0.0080000004  -999.250000 0.5984199643 2.7130000591 -1.687999964 23.655530930 56.187999725 35.153156281 15.560000420 0.1739991903 0.1739991903
 444.85986328  -999.250000 22.472999573 0.0089999996  -999.250000 0.6078500152 2.7130000591 -5.534999847 22.483837128 56.188037872 28.062463760 16.400999069 0.1719998121 0.1719998121
 445.01226807  -999.250000 22.479999542 0.0089999996  -999.250000 0.6067799926 2.7130000591 -247.8750000 21.671751022 56.374961853 25.391162872 17.670000076 0.1710001975 0.1710001975
 445.16467285  -999.250000 22.472999573 0.0089999996  -999.250000 0.5984399915 2.7130000591 138.50000000 20.421503067 56.187999725 26.203374863 18.937999725 0.1720008105 0.1720008105
 445.31707764  -999.250000 22.479999542 0.0089999996  -999.250000 0.5931600332 2.7130000591 138.50000000 17.938081741 56.188037872 28.077863693 20.190999985 0.1760013998 0.1760013998
 445.46948242  -999.250000 22.469001770 0.0089999996  -999.250000 0.5867400169 2.7130000591 138.50000000 18.343765259 56.374961853 27.406213760 21.256999969 0.1829995960 0.1829995960
 445.62188721  -999.250000 22.469001770 0.0089999996  -999.250000 0.5587400198 2.7130000591 138.50000000 17.172983170 56.188076019 28.468648911 22.322999954 0.1809995919 0.1809995919
 445.77429199  -999.250000 22.469001770 0.0089999996  -999.250000 0.5413799882 2.7130000591 138.50000000 19.624837875 56.374923706 27.595802307 23.389999390 0.1799980104 0.1799980104
 445.92666626  -999.250000 22.472999573 0.0089999996  -999.250000 0.5492599607 2.7130000591 138.50000000 19.218671799 56.187999725 32.093547821 23.736999512 0.1749987900 0.1749987900
 446.07907104  -999.250000 22.483999252 0.0089999996  -999.250000 0.5661799908 2.7130000591 138.50000000 17.577672958 56.187999725 29.827428818 23.900999069 0.1689995974 0.1689995974
 446.23147583  -999.250000 22.483999252 0.0089999996  -999.250000 0.5725400448 2.7130000591 138.50000000 15.945011139 56.187999725 26.983364105 24.065999985 0.1669998020 0.1669998020
 446.38388062  -999.250000 22.479999542 0.0089999996  -999.250000 0.5666800141 2.7130000591 138.50000000 16.000331879 56.187999725 23.812808990 25.044000626 0.1659989953 0.1659989953
 446.53628540  -999.250000 22.469001770 -0.446999997  -999.250000 0.5615800023 2.2579998970 138.50000000 17.656084061 56.187999725 22.858858109 26.781000137 0.1610008031 0.1610008031
 446.68869019  -999.250000 22.469001770 0.5460000038  -999.250000 0.5656999946 3.2500000000 138.50000000 18.077812195 56.187999725 22.156438828 28.517999649 0.1649996042 0.1649996042
 446.84106445  -999.250000 22.472999573 1.2380000353  -999.250000 0.5751599669 3.9430000782 138.50000000 17.609083176 56.187999725 23.250343323 30.073999405 0.1640014052 0.1640014052
 446.99346924  -999.250000 22.479999542 1.5750000477  -999.250000 0.5965242982 4.2769999504 138.50000000 18.031400681 56.187999725 24.969264984 31.042999268 0.1710004061 0.1710004061
 447.14587402  -999.250000 22.472999573 1.5729999542  -999.250000 0.6180326343 4.2769999504 126.93800354 20.031494141 56.187999725 26.297407150 32.013000488 0.1730001867 0.1730001867
 447.29827881  -999.250000 22.479999542 1.5779999495  -999.250000 0.6310166121 4.2810001373 -51.18799973 22.499662399 56.188037872 28.328620911 32.981998444 0.1740009934 0.1740009934
 447.45068359  -999.250000 22.469001770 1.5060000420  -999.250000 0.6139152646 4.0000000000 -39.46900177 20.812507629 56.374961853 31.437906265 32.888000488 0.1790006012 0.1790006012
 447.60308838  -999.250000 22.469001770 1.3370000124  -999.250000 0.5905182958 3.1879999638 -34.15599823 18.358503342 56.187999725 30.968698502 32.744998932 0.1820008010 0.1820008010
 447.75549316  -999.250000 22.469001770 1.2970000505  -999.250000 0.5822959542 2.8729999065 -50.34400177 15.883000374 56.188076019 29.468160629 32.601001740 0.1860008091 0.1860008091
 447.90786743  -999.250000 22.469001770 1.2819999456  -999.250000 0.5722129941 2.7599999905 -178.8750000 15.882673264 56.374961853 27.375259399 32.741001129 0.1879981905 0.1879981905
 448.06027222  -999.250000 22.469001770 1.2819999456  -999.250000 0.5369629860 2.7639999390 35.469001770 14.250337601 56.187999725 28.672288895 33.018001556 0.1789986044 0.1789986044
 448.21267700  -999.250000 22.469001770 1.2810000181  -999.250000 0.5022323132 2.7730000019 15.515999794 15.938087463 56.188037872 30.108968735 33.293998718 0.1719990075 0.1719990075
 448.36508179  -999.250000 22.472999573 1.2929999828  -999.250000 0.5137465000 2.7790000439 10.546999931 16.375087738 56.375000000 29.953063965 32.929000854 0.1669999957 0.1669999957
 448.51748657  -999.250000 22.479999542 1.2519999743  -999.250000 0.5461965203 2.7230000496 9.0159997940 16.812833786 56.374961853 30.280578613 31.575002670 0.1670001894 0.1670001894
 448.66989136  -999.250000 22.469001770 1.2029999495  -999.250000 0.5786525607 2.6519999504 8.1090002060 15.983343124 56.188037872 28.171464920 30.221000671 0.1680013984 0.1680013984
 448.82229614  -999.250000 22.469001770 1.1250000000  -999.250000 0.5913752317 2.5699999332 7.3319997787 12.703813553 56.375087738 25.499099731 28.886999130 0.1750036031 0.1750036031
 448.97467041  -999.250000 22.469001770 1.1030000448  -999.250000 0.5795103908 2.5490000248 6.8359999657 14.734164238 56.594001770 23.249555588 27.702999115 0.1840012074 0.1840012074
 449.12707520  -999.250000 22.469001770 1.0959999561  -999.250000 0.5815721750 2.5429999828 6.5900001526 15.555815697 56.593959808 21.030693054 26.518999100 0.1900016069 0.1900016069
 449.27947998  -999.250000 22.469001770 1.1000000238  -999.250000 0.5923308730 2.5490000248 6.5079998970 19.624750137 56.374961853 19.500078201 25.334999084 0.1979999989 0.1979999989
 449.43188477  -999.250000 22.469001770 1.0959999561  -999.250000 0.5966196656 2.5450000763 6.3709998131 18.374912262 56.187999725 19.891006470 25.482000351 0.1980001926 0.1980001926
 449.58428955  -999.250000 22.472999573 1.0909999609  -999.250000 0.5952699184 2.5409998894 6.4450001717 17.937501907 56.188110352 19.921718597 25.898000717 0.1989994049 0.1989994049
 449.73669434  -999.250000 22.479999542 1.0789999962  -999.250000 0.5948992372 2.5309998989 6.3130002022 17.109506607 56.374889374 19.454622269 26.312999725 0.1980012059 0.1980012059
 449.88909912  -999.250000 22.469001770 1.0679999590  -999.250000 0.5929361582 2.5230000019 6.4099998474 17.954238892 56.187999725 22.159425735 27.452999115 0.2000005990 0.2000005990
