# LAS format log file from PETREL
# Project units are specified as depth units
#==================================================================
~Version information
VERS.   2.0:
WRAP.   NO:
#==================================================================
~Well
STRT .m      443.33587646 :
STOP .m      1778.0548096 :
STEP .m     0.00000000 :
NULL .        -999.250000 :
COMP.           : COMPANY
WELL.  31/2-9   : WELL
FLD.            : FIELD
LOC.            : LOCATION
SRVC.           : SERVICE COMPANY
DATE.  2018-09-11 14:48:35   : Log Export Date {yyyy-MM-dd HH:mm:ss}
PROV.           : PROVINCE
UWI.   31/2-9   : UNIQUE WELL ID
API.            : API NUMBER
#==================================================================
~Curve
DEPT .m                   : DEPTH
Lithology_geolink ._      : Lithology_geolink
CALI .in                  : CALI
DRHO .g/cm3               : DRHO
SGR .gAPI                 : SGR
NPHI .m3/m3               : NPHI
RHOB .g/cm3               : RHOB
PEF .b/e                  : PEF
GR .gAPI                  : GR
DTC .us/ft                : DTC
RDEP .ohm.m               : RDEP
SP .mV                    : SP
RSHA .ohm.m               : RSHA
RMED .ohm.m               : RMED
~Parameter
#==================================================================
~Ascii
# ...
 973.07818604  -999.250000 17.799999237 -0.006000000  -999.250000 0.5422312617 1.8129775524 2.2767806053 76.502151489 154.37515259 1.1890047789 69.952926636 1.2199784517 1.2199784517
 973.23059082  -999.250000 17.809000015 -0.004002404  -999.250000 0.5246911049 1.8409663439 2.3738834858 81.875679016 154.74945068 1.2010011673 69.771224976 1.1659903526 1.1659903526
 973.38299561  -999.250000 17.812999725 -0.002002403  -999.250000 0.5108866096 1.8789542913 2.4299328327 83.562850952 153.37475586 1.2040003538 67.958183289 1.1420140266 1.1420140266
 973.53540039  -999.250000 17.812999725 -0.000002403  -999.250000 0.5243038535 1.9139579535 2.4939229488 83.187255859 152.74870300 1.2050048113 66.144180298 1.1770497561 1.1770497561
 973.68780518  -999.250000 17.812999725 -0.002996396  -999.250000 0.5586986542 1.9319784641 2.6008715630 82.246498108 151.12420654 1.2110040188 64.330184937 1.2390327454 1.2390327454
 973.84020996  -999.250000 17.812999725 -0.004997597  -999.250000 0.5792453289 1.9429867268 2.6679193974 77.879005432 150.12519836 1.2160120010 64.631637573 1.2800031900 1.2800031900
 973.99255371  -999.250000 17.812999725 -0.005000000  -999.250000 0.5558076501 1.9509871006 2.6390464306 82.874923706 150.37500000 1.2310070992 65.330879211 1.2839984894 1.2839984894
 974.14495850  -999.250000 17.815999985 -0.002004806  -999.250000 0.5169323087 1.9639791250 2.6240241528 82.689804077 150.37484741 1.2490028143 66.031875610 1.2800015211 1.2800015211
 974.29736328  -999.250000 17.822000504 -0.004995194  -999.250000 0.4812970757 1.9669952393 2.5960447788 87.185775757 149.99989319 1.2559984922 66.338508606 1.2840048075 1.2840048075
 974.44976807  -999.250000 17.815999985 -0.006996796  -999.250000 0.4617113173 1.9640047550 2.5830206871 81.625648499 149.74960327 1.2519955635 66.337997437 1.2960020304 1.2960020304
 974.60217285  -999.250000 17.812999725 -0.007998399  -999.250000 0.4534931481 1.9500224590 2.4681842327 83.249000549 148.74984741 1.2409912348 66.336997986 1.3009884357 1.3009884357
 974.75457764  -999.250000 17.812999725 -0.004006408  -999.250000 0.4597399533 1.9350240231 2.3891265392 80.751129150 148.37515259 1.2189928293 66.514717102 1.2719839811 1.2719839811
 974.90698242  -999.250000 17.812999725 -0.003001602  -999.250000 0.4894722998 1.9190256596 2.3231055737 83.560150146 148.75039673 1.2009919882 67.154968262 1.2319803238 1.2319803238
 975.05938721  -999.250000 17.812999725 -0.001003204  -999.250000 0.5193122029 1.9050223827 2.3319857121 76.437774658 149.75030518 1.1809931993 67.794975281 1.1829851866 1.1829851866
 975.21179199  -999.250000 17.812999725 0.0009967962  -999.250000 0.5256000161 1.8890256882 2.3629503250 75.875076294 150.50059509 1.1639896631 68.434974670 1.1459884644 1.1459884644
 975.36419678  -999.250000 17.812999725 -0.000997596  -999.250000 0.5283766985 1.8760156631 2.4159362316 76.063003540 151.99989319 1.1379911900 69.467758179 1.1169943810 1.1169943810
 975.51660156  -999.250000 17.812999725 -0.001998799  -999.250000 0.5325649977 1.8730036020 2.3900313377 76.062202454 151.75019836 1.1159847975 70.501754761 1.1029959917 1.1029959917
 975.66900635  -999.250000 17.815999985 -0.002998799  -999.250000 0.5317809582 1.8749976158 2.3840072155 75.060546875 151.99949646 1.0969903469 71.534759521 1.0980000496 1.0980000496
 975.82141113  -999.250000 17.825000763 -0.003000000  -999.250000 0.5153098106 1.8809928894 2.3400528431 72.002655029 151.37469482 1.0849944353 71.956497192 1.0980024338 1.0980024338
 975.97375488  -999.250000 17.827999115 -0.003000000  -999.250000 0.4845093787 1.8869903088 2.3419969082 75.315284729 150.99998474 1.0779983997 72.138710022 1.1010003090 1.1010003090
 976.12615967  -999.250000 17.827999115 -0.004996796  -999.250000 0.4591206610 1.8919919729 2.3489887714 81.000450134 151.00013733 1.0740000010 72.319709778 1.1020011902 1.1020011902
 976.27856445  -999.250000 17.827999115 -0.003003204  -999.250000 0.4685148597 1.8939968348 2.3699662685 82.123901367 151.37524414 1.0740008354 72.224151611 1.1049996614 1.1049996614
 976.43096924  -999.250000 17.827999115 -0.003000000  -999.250000 0.4926712513 1.8870111704 2.3670048714 79.372924805 152.00030518 1.0759996176 71.771728516 1.1039959192 1.1039959192
 976.58337402  -999.250000 17.827999115 -0.005995194  -999.250000 0.5119990706 1.8780144453 2.3100912571 74.189933777 152.75010681 1.0750008821 71.318725586 1.0939940214 1.0939940214
 976.73577881  -999.250000 17.827999115 -0.010991991  -999.250000 0.5045320392 1.8710112572 2.3070046902 79.002304077 153.00019836 1.0770008564 70.877708435 1.0789947510 1.0789947510
 976.88818359  -999.250000 17.827999115 -0.012996797  -999.250000 0.4854206443 1.8729968071 2.3718957901 84.750976563 153.49978638 1.0789996386 70.496612549 1.0660011768 1.0660011768
 977.04058838  -999.250000 17.827999115 -0.010004805  -999.250000 0.4663006365 1.8839823008 2.4039487839 87.186653137 153.00004578 1.0779979229 70.115608215 1.0690011978 1.0690011978
 977.19299316  -999.250000 17.827999115 -0.006006408  -999.250000 0.4603894353 1.8869951963 2.4179775715 83.812728882 153.12500000 1.0730007887 69.734611511 1.0720000267 1.0720000267
 977.34539795  -999.250000 17.827999115 -0.006000000  -999.250000 0.4672417343 1.8810071945 2.4060142040 83.124771118 153.12475586 1.0750000477 69.739990234 1.0719976425 1.0719976425
 977.49780273  -999.250000 17.833999634 -0.008996395  -999.250000 0.4923098683 1.8710120916 2.4908978939 82.563255310 152.50000000 1.0749976635 69.801925659 1.0659984350 1.0659984350
 977.65020752  -999.250000 17.853000641 -0.011996396  -999.250000 0.5217046738 1.8660060167 2.4510481358 83.186347961 152.50000000 1.0690000057 69.863922119 1.0620008707 1.0620008707
 977.80261230  -999.250000 17.858999252 -0.012000000  -999.250000 0.5321075320 1.8650012016 2.4549951553 81.125648499 152.50000000 1.0689944029 69.882980347 1.0629951954 1.0629951954
 977.95501709  -999.250000 17.858999252 -0.012000000  -999.250000 0.5203841329 1.8620035648 2.4100542068 81.934997559 152.50039673 1.0619920492 69.874008179 1.0569912195 1.0569912195
 978.10736084  -999.250000 17.858999252 -0.011001602  -999.250000 0.5041559935 1.8560096025 2.4828832150 78.188331604 153.00030518 1.0519956350 69.864013672 1.0459944010 1.0459944010
 978.25976563  -999.250000 17.853000641 -0.011998398  -999.250000 0.5071251988 1.8500096798 2.5788462162 78.997398376 153.75012207 1.0409971476 70.290313721 1.0319947004 1.0319947004
 978.41217041  -999.250000 17.830999374 -0.013996797  -999.250000 0.5246019959 1.8470047712 2.7427372932 72.498771667 154.00019836 1.0339959860 71.666793823 1.0189932585 1.0189932585
 978.56457520  -999.250000 17.819000244 -0.011004806  -999.250000 0.5207961202 1.8499952555 2.8358509541 69.436805725 154.50010681 1.0239964724 73.043792725 1.0019955635 1.0019955635
 978.71697998  -999.250000 17.825000763 -0.007006408  -999.250000 0.4976671040 1.8509984016 2.9727807045 66.439102173 154.74984741 1.0149987936 74.354904175 0.9909976125 0.9909976125
 978.86938477  -999.250000 17.827999115 -0.007000000  -999.250000 0.4783109725 1.8490031958 3.0239181519 69.188751221 154.37489319 1.0119971037 73.743980408 0.9849988222 0.9849988222
 979.02178955  -999.250000 17.827999115 -0.007998399  -999.250000 0.4832020998 1.8499984741 2.9171714783 71.062805176 154.12484741 1.0049988031 73.129981995 0.9819999933 0.9819999933
 979.17419434  -999.250000 17.827999115 -0.007001602  -999.250000 0.4981060922 1.8549920321 2.7402834892 70.563781738 153.75001526 1.0020008087 72.515983582 0.9820032120 0.9820032120
 979.32659912  -999.250000 17.827999115 -0.005003204  -999.250000 0.5084933639 1.8639855385 2.5303363800 72.498748779 153.74990845 1.0040019751 72.569908142 0.9900000095 0.9900000095
 979.47900391  -999.250000 17.827999115 -0.005000000  -999.250000 0.5133741498 1.8679952621 2.4550900459 69.374000549 153.49983215 1.0090043545 72.843673706 0.9899992347 0.9899992347
 979.63140869  -999.250000 17.827999115 -0.005998799  -999.250000 0.5157970786 1.8729940653 2.4260349274 66.875625610 153.12495422 1.0200059414 73.117668152 0.9880043864 0.9880043864
