# LAS format log file from PETREL
# Project units are specified as depth units
#==================================================================
~Version information
VERS.   2.0:
WRAP.   NO:
#==================================================================
~Well
STRT .m      416.08499146 :
STOP .m      2599.3679199 :
STEP .m     0.00000000 :
NULL .        -999.250000 :
COMP.           : COMPANY
WELL.  31/2-2 R   : WELL
FLD.            : FIELD
LOC.            : LOCATION
SRVC.           : SERVICE COMPANY
DATE.  2018-09-11 14:48:33   : Log Export Date {yyyy-MM-dd HH:mm:ss}
PROV.           : PROVINCE
UWI.   31/2-2 R   : UNIQUE WELL ID
API.            : API NUMBER
#==================================================================
~Curve
DEPT .m                   : DEPTH
Lithology_geolink ._      : Lithology_geolink
CALI .in                  : CALI
DRHO .g/cm3               : DRHO
NPHI .m3/m3               : NPHI
RHOB .g/cm3               : RHOB
GR .gAPI                  : GR
DTC .us/ft                : DTC
RDEP .ohm.m               : RDEP
SP .mV                    : SP
RSHA .ohm.m               : RSHA
RMED .ohm.m               : RMED
~Parameter
#==================================================================
~Ascii
# ...
 2444.6818848 6.0000000000 8.7889995575 0.0379999988 0.2187500000 2.4140000343 72.746398926 91.559814453 2.4670000076 64.317001343  -999.250000 2.2869999409
 2444.8342285 6.0000000000 8.8280000687 0.0500000007 0.2758799791 2.4319999218 72.008010864 94.183799744 2.3589999676 64.067001343  -999.250000 2.2950000763
 2444.9865723 6.0000000000 8.8750000000 0.0740000010 0.3266600072 2.4549999237 74.501403809 93.376304626 2.2560000420 63.878997803  -999.250000 2.3770000935
 2445.1391602 6.0000000000 8.7110004425 0.0900000036 0.3486299813 2.4649999142 74.929885864 97.000000000 2.1879999638 63.253997803  -999.250000 2.4179999828
 2445.2915039 6.0000000000 8.7659997940 0.0799999982 0.3466799855 2.4489998817 73.256904602 98.750000000 2.1429998875 63.566997528  -999.250000 2.4279999733
 2445.4438477 6.0000000000 8.6639995575 0.0799999982 0.3447299898 2.4470000267 74.700218201 93.758003235 2.0880000591 63.692005157  -999.250000 2.3849999905
 2445.5961914 6.0000000000 8.6879997253 0.0759999976 0.3574199975 2.4409999847 78.527442932 93.001197815 2.0429999828 62.817001343  -999.250000 2.3519999981
 2445.7487793 6.0000000000 8.7889995575 0.0769999996 0.3637699783 2.4430000782 87.089141846 95.000000000 1.9930000305 64.128997803  -999.250000 2.2620000839
 2445.9011230 7.0000000000 8.8129997253 0.0740000010 0.3798799813 2.4340000153 92.502998352 91.563011169 1.9450000525 64.003997803  -999.250000 2.1540000439
 2446.0534668 7.0000000000 8.6090002060 0.0710000023 0.3701200187 2.4279999733 93.126602173 89.752899170 1.8969999552 63.692005157  -999.250000 2.0350000858
 2446.2058105 6.0000000000 8.7270002365 0.0549999997 0.3540000021 2.3959999084 93.608169556 94.180892944 1.8710000515 63.692005157  -999.250000 1.9079999924
 2446.3581543 6.0000000000 8.6560001373 0.0529999994 0.3500999808 2.3829998970 88.365188599 96.559204102 1.8270000219 63.504001617  -999.250000 1.8450000286
 2446.5107422 6.0000000000 8.9840002060 0.0489999987 0.3647499979 2.3670001030 85.300384521 101.74999237 1.7749999762 64.128997803  -999.250000 1.8519999981
 2446.6630859 6.0000000000 9.1250000000 0.0520000011 0.3984400034 2.3540000916 82.684402466 107.74040222 1.7259999514 63.566997528  -999.250000 1.9229999781
 2446.8154297 6.0000000000 9.0860004425 0.0379999988 0.4003900290 2.3199999332 81.961837769 114.55208588 1.6970000267 63.878997803  -999.250000 1.8700000048
 2446.9677734 6.0000000000 8.9379997253 0.0289999992 0.3989300132 2.2769999504 89.374397278 108.01051331 1.6909999847 63.504001617  -999.250000 1.7319999933
 2447.1203613 6.0000000000 8.5389995575 0.0370000005 0.3583999872 2.2679998875 89.175384521 102.99999237 1.6920000315 63.629001617  -999.250000 1.6319999695
 2447.2727051 6.0000000000 8.8830003738 0.0260000005 0.3549800217 2.2439999580 86.505699158 104.37500763 1.6909999847 63.754001617  -999.250000 1.6399999857
 2447.4250488 6.0000000000 8.9379997253 0.0419999994 0.3608399928 2.2660000324 74.605369568 105.37339783 1.7020000219 63.441997528  -999.250000 1.7130000591
 2447.5773926 6.0000000000 9.0550003052 0.0370000005 0.3925800025 2.2790000439 68.491790771 103.37820435 1.6859999895 64.192001343  -999.250000 1.7180000544
 2447.7299805 6.0000000000 8.7500000000 0.0309999995 0.3886699975 2.2850000858 65.954833984 110.00000000 1.6729999781 63.192001343  -999.250000 1.7489999533
 2447.8823242 6.0000000000 8.7340002060 0.0020000001 0.3828099966 2.2639999390 69.438003540 106.18800354 1.6649999619 64.003997803  -999.250000 1.7879999876
 2448.0346680 6.0000000000 8.0860004425 0.0000000000 0.3935500085 2.2660000324 69.436195374 105.00189972 1.6390000582 62.941997528  -999.250000 1.7209999561
 2448.1870117 6.0000000000 8.7810001373 0.0080000004 0.3847700059 2.2990000248 68.870994568 108.55729675 1.6069999933 62.067001343  -999.250000 1.5700000525
 2448.3393555 6.0000000000 8.8520002365 0.0109999999 0.3867200017 2.3010001183 67.621795654 109.75000000 1.5820000172 62.628997803  -999.250000 1.4589999914
 2448.4919434 6.0000000000 8.7810001373 0.0049999999 0.3803699911 2.2699999809 66.618400574 106.18800354 1.5449999571 63.129001617  -999.250000 1.4090000391
 2448.6442871 6.0000000000 8.7500000000 -0.003000000 0.3632799983 2.2290000916 65.248397827 102.99999237 1.5030000210 63.004001617  -999.250000 1.4429999590
 2448.7966309 6.0000000000 8.4770002365 -0.003000000 0.3784199953 2.2190001011 64.745994568 102.56300354 1.4880000353 63.004001617  -999.250000 1.4630000591
 2448.9489746 6.0000000000 8.6409997940 0.0040000002 0.3901399970 2.2339999676 63.506008148 101.37500000 1.4939999580 63.253997803  -999.250000 1.4630000591
 2449.1015625 6.0000000000 8.7110004425 0.0299999993 0.4194300175 2.2699999809 65.368690491 106.56301117 1.5240000486 63.754001617  -999.250000 1.4830000401
 2449.2539063 6.0000000000 8.6639995575 0.0270000007 0.4379900098 2.2679998875 64.064804077 106.00000000 1.5779999495 63.878997803  -999.250000 1.5399999619
 2449.4062500 6.0000000000 8.7270002365 0.0170000009 0.4443399906 2.2520000935 64.424179077 102.00000000 1.6109999418 64.253997803  -999.250000 1.7719999552
 2449.5585938 6.0000000000 8.8050003052 0.0160000008 0.4482400119 2.2620000839 60.130908966 100.56300354 1.6440000534 63.878997803  -999.250000 2.0590000153
 2449.7111816 6.0000000000 8.9530000687 0.0399999991 0.4306600094 2.3220000267 61.979969025 94.000000000 1.6749999523 64.128997803  -999.250000 2.2090001106
 2449.8635254 6.0000000000 8.7580003738 0.0540000014 0.4028300047 2.3829998970 64.269500732 89.188003540 1.7289999723 63.878997803  -999.250000 2.1089999676
 2450.0158691 6.0000000000 8.7810001373 0.0549999997 0.3793900013 2.4179999828 68.313407898 99.750000000 1.8289999962 63.754001617  -999.250000 1.9019999504
 2450.1682129 6.0000000000 8.5860004425 0.0410000011 0.3364300132 2.4159998894 68.440811157 104.18800354 1.9190000296 63.441997528  -999.250000 1.7029999495
 2450.3205566 6.0000000000 8.6020002365 0.0340000018 0.3286100030 2.3949999809 69.308998108 104.56300354 1.9859999418 64.067001343  -999.250000 1.6039999723
 2450.4731445 6.0000000000 8.8750000000 0.0299999993 0.3251999915 2.3440001011 68.056098938 108.75000000 2.0329999924 63.629001617  -999.250000 1.7189999819
 2450.6254883 6.0000000000 8.5229997635 0.0570000000 0.3681600094 2.3459999561 66.605667114 94.000000000 2.0469999313 61.942001343  -999.250000 1.9910000563
 2450.7778320 6.0000000000 8.6330003738 0.0469999984 0.3920899928 2.3499999046 60.576374054 81.563011169 2.0720000267 62.129001617  -999.250000 2.4960000515
 2450.9301758 6.0000000000 8.5310001373 0.0209999997 0.4067400098 2.3789999485 55.066555023 80.563003540 2.1840000153 61.879001617  -999.250000 2.8139998913
 2451.0827637 6.0000000000 9.0389995575 -0.001000000 0.3461900055 2.4100000858 46.517929077 75.750000000 2.3540000916 61.879001617  -999.250000 2.8069999218
 2451.2351074 6.0000000000 8.4379997253 -0.001000000 0.2597700059 2.4449999332 43.796348572 80.750000000 2.5060000420 61.254001617  -999.250000 2.8239998817
 2451.3874512 3.0000000000 8.4379997253 0.0179999992 0.1918899864 2.4570000172 40.336090088 80.187995911 2.5369999409 59.754001617  -999.250000 3.0980000496
 2451.5397949 3.0000000000 8.3830003738 0.0130000003 0.1811500043 2.4379999638 37.865081787 78.375000000 2.4920001030 58.129001617  -999.250000 3.6700000763
 2451.6923828 3.0000000000 8.3280000687 0.0099999998 0.1992200017 2.4059998989 34.785961151 78.750000000 2.4059998989 57.567001343  -999.250000 3.7699999809
 2451.8447266 3.0000000000 8.2110004425 -0.001000000 0.2070299983 2.3870000839 35.813446045 78.188003540 2.3420000076 57.192001343  -999.250000 3.3629999161
 2451.9970703 3.0000000000 8.1479997635 0.0000000000 0.1933600008 2.3949999809 35.919921875 82.000000000 2.2769999504 56.567001343  -999.250000 2.7850000858
 2452.1494141 3.0000000000 8.1639995575 0.0049999999 0.1752899885 2.4240000248 40.259418488 85.375000000 2.2170000076 57.317001343  -999.250000 2.3849999905
 2452.3017578 3.0000000000 8.1639995575 0.0179999992 0.1635700017 2.4430000782 43.203121185 86.749992371 2.1600000858 57.879001617  -999.250000 2.2950000763
