# LAS format log file from PETREL
# Project units are specified as depth units
#==================================================================
~Version information
VERS.   2.0:
WRAP.   NO:
#==================================================================
~Well
STRT .m      1999.6403809 :
STOP .m      3191.7131348 :
STEP .m     0.00000000 :
NULL .        -999.250000 :
COMP.           : COMPANY
WELL.  31/2-21 S   : WELL
FLD.            : FIELD
LOC.            : LOCATION
SRVC.           : SERVICE COMPANY
DATE.  2018-09-11 14:48:34   : Log Export Date {yyyy-MM-dd HH:mm:ss}
PROV.           : PROVINCE
UWI.   31/2-21 S   : UNIQUE WELL ID
API.            : API NUMBER
#==================================================================
~Curve
DEPT .m                   : DEPTH
Lithology_geolink ._      : Lithology_geolink
CALI .in                  : CALI
BS .in                    : BS
ROP .m/h                  : ROP
DRHO .g/cm3               : DRHO
NPHI .m3/m3               : NPHI
RHOB .g/cm3               : RHOB
PEF .b/e                  : PEF
GR .gAPI                  : GR
DTC .us/ft                : DTC
DTS .us/ft                : DTS
RDEP .ohm.m               : RDEP
RMED .ohm.m               : RMED
~Parameter
#==================================================================
~Ascii
# ...
 2710.4340820 2.0000000000 8.8141002655 8.5000000000 27.325460434 0.1014999971 0.2221000046 2.6619000435 4.5612998009 47.076900482 62.464099884 112.75730133 13.738100052 15.984900475
 2710.5864258 2.0000000000 8.6450004578 8.5000000000 27.178150177 0.0820999965 0.1959999949 2.6954998970 4.6493000984 44.799400330 62.147201538 110.37749481 12.782099724 14.817199707
 2710.7387695 2.0000000000 8.4835996628 8.5000000000 28.774606705 0.0447000004 0.1458999962 2.6930000782 4.5405998230 33.201900482 61.770996094 109.20680237 6.7400999069 7.1433000565
 2710.8913574 2.0000000000 9.0165996552 8.5000000000 31.191930771 0.0627000034 0.1457999945 2.5641000271 4.4981999397 37.670299530 61.902801514 115.32619476 9.1194000244 11.046099663
 2711.0437012 2.0000000000 9.2932996750 8.5000000000 27.433399200 0.1456000060 0.1966000050 2.5620999336 4.8130998611 38.045600891 61.377101898 118.86319733 62.503700256 88.280296326
 2711.1960449 2.0000000000 8.6160001755 8.5000000000 17.764764786 0.0658999979 0.2421000004 2.6666998863 4.4170999527 39.738201141 62.894905090 121.80599976 47.828498840 60.560100555
 2711.3483887 2.0000000000 8.4687995911 8.5000000000 5.1702756882 0.0491999984 0.2540000081 2.7358000278 4.8050999641 41.829299927 63.905799866 119.00700378 19.100099564 19.282400131
 2711.5009766 2.0000000000 8.4762001038 8.5000000000 4.6899604797 0.0518000014 0.1666000038 2.7428998947 4.9560999870 45.148899078 62.505100250 112.41909790 14.554100037 13.162500381
 2711.6533203 2.0000000000 8.4960002899 8.5000000000 17.032152176 0.0526000001 0.1127000004 2.6882998943 4.3392000198 54.093200684 61.674701691 110.01010132 10.185899734 8.6766996384
 2711.8056641 2.0000000000 8.5413999557 8.5000000000 49.571521759 0.0593000017 0.1212999970 2.6129999161 3.8991999626 82.017898560 63.674598694 111.66380310 8.4594001770 7.6282000542
 2711.9580078 6.0000000000 8.5684995651 8.5000000000 111.26541901 0.0610000007 0.1582999974 2.5432000160 3.2079999447 100.56759644 67.117897034 121.59449768 7.4679999352 7.1487998962
 2712.1103516 6.0000000000 8.5437002182 8.5000000000 137.51443481 0.0614000000 0.2106000036 2.5315999985 3.2960000038 104.77279663 71.983299255 133.89790344 6.9963002205 6.6687998772
 2712.2629395 6.0000000000 8.5381002426 8.5000000000 150.18963623 0.0614000000 0.2608999908 2.5309998989 3.2962999344 100.79209900 76.888496399 143.31680298 6.3913002014 5.9945998192
 2712.4152832 6.0000000000 8.5857000351 8.5000000000 151.32020569 0.0680999979 0.2845999897 2.5276000500 3.5067000389 96.593498230 79.984008789 144.56840515 6.1498999596 5.6922001839
 2712.5676270 6.0000000000 8.6049995422 8.5000000000 147.39172363 0.0684000030 0.2883000076 2.5246000290 3.3080999851 110.67489624 81.887199402 147.31539917 6.1434001923 5.7452001572
 2712.7199707 6.0000000000 8.5148000717 8.5000000000 134.15550232 0.0601999983 0.2919000089 2.5294001102 3.3329999447 98.671203613 83.377700806 149.37100220 5.6918001175 5.3130002022
 2712.8725586 6.0000000000 8.5039997101 8.5000000000 129.68667603 0.0553999990 0.2808000147 2.5353000164 3.4971001148 101.53060150 83.807701111 149.24349976 5.4008002281 5.0423998833
 2713.0249023 6.0000000000 8.5150003433 8.5000000000 136.12237549 0.0511999987 0.2861000001 2.5185999870 3.4198000431 97.731697083 83.505897522 148.95660400 5.2804999352 4.9629001617
 2713.1772461 7.0000000000 8.5146999359 8.5000000000 142.47277832 0.0502000004 0.2881999910 2.5151998997 3.2762000561 109.83869934 83.667098999 150.47560120 5.1061000824 4.8029999733
 2713.3295898 7.0000000000 8.5143003464 8.5000000000 137.01246643 0.0505000018 0.2967000008 2.5085000992 3.3468000889 96.695701599 83.486091614 151.18460083 4.8262000084 4.5051999092
 2713.4821777 7.0000000000 8.5410003662 8.5000000000 135.83497620 0.0520999990 0.2967000008 2.5079998970 3.4937999249 102.25019836 84.016700745 151.42021179 4.8099999428 4.5237998962
 2713.6345215 7.0000000000 8.5464000702 8.5000000000 138.27723694 0.0509000011 0.3068000078 2.5074999332 3.3789999485 119.67150116 84.688301086 152.34979248 4.7604999542 4.4663000107
 2713.7868652 7.0000000000 8.5450000763 8.5000000000 144.90486145 0.0496999994 0.3068999946 2.5085999966 3.4240999222 118.58959961 85.292404175 153.40499878 4.7620000839 4.4826002121
 2713.9392090 7.0000000000 8.5357999802 8.5000000000 168.91273499 0.0463999994 0.3104999959 2.5044000149 3.4047999382 110.40080261 85.534400940 153.98359680 4.8347001076 4.5805001259
 2714.0915527 7.0000000000 8.5299997330 8.5000000000 191.70997620 0.0498999991 0.3073000014 2.5007998943 3.5336999893 96.951599121 85.358795166 154.00450134 4.8327999115 4.5787000656
 2714.2441406 6.0000000000 8.5116996765 8.5000000000 196.76248169 0.0524000004 0.3142000139 2.5058000088 3.5090000629 103.27349854 85.139297485 154.39669800 4.8027000427 4.5486001968
 2714.3964844 6.0000000000 8.4851999283 8.5000000000 172.97080994 0.0526000001 0.3032000065 2.5127999783 3.2966001034 99.309997559 85.393096924 154.17720032 4.3884000778 4.0808000565
 2714.5488281 6.0000000000 8.4829998016 8.5000000000 158.17782593 0.0559000000 0.3063000143 2.5192999840 3.5696001053 99.521301270 85.347503662 155.19329834 4.3147001266 3.9565000534
 2714.7011719 6.0000000000 8.4819002151 8.5000000000 153.29527283 0.0465999991 0.3054000139 2.5041000843 3.4978001118 107.42649841 84.772201538 154.76170349 4.4707999229 4.1751999855
 2714.8537598 6.0000000000 8.4864997864 8.5000000000 146.95341492 0.0461999997 0.3160000145 2.5106000900 3.3376998901 103.51239777 85.572402954 155.44149780 4.4928002357 4.2442002296
 2715.0061035 6.0000000000 8.4972000122 8.5000000000 135.22341919 0.0469999984 0.3300999999 2.5044999123 3.2281000614 104.37100220 85.592597961 155.76119995 4.5500001907 4.3147001266
 2715.1584473 6.0000000000 8.4995002747 8.5000000000 135.06069946 0.0463000014 0.3285999894 2.5037000179 3.2369000912 95.808601379 86.437103271 157.06660461 4.5841999054 4.3768000603
 2715.3107910 6.0000000000 8.5000000000 8.5000000000 141.64303589 0.0465000011 0.3459999859 2.5004999638 3.0306999683 105.90209961 87.378501892 157.62170410 4.4892997742 4.2347002029
 2715.4633789 6.0000000000 8.4962997437 8.5000000000 121.72145844 0.0491999984 0.3332999945 2.4953000546 3.1837000847 99.135398865 87.518989563 159.10000610 4.4861001968 4.2329001427
 2715.6157227 6.0000000000 8.5076999664 8.5000000000 76.121719360 0.0584999993 0.3312999904 2.5018999577 3.6312000751 104.05549622 87.666297913 159.64619446 4.4615998268 4.2347002029
 2715.7680664 6.0000000000 8.5125999451 8.5000000000 28.770671844 0.0463000014 0.3307999969 2.4930999279 3.1305000782 111.33339691 87.280700684 160.24229431 4.4741997719 4.2136001587
 2715.9204102 6.0000000000 8.5254001617 8.5000000000 13.963910103 0.0498000011 0.3305999935 2.4893999100 3.3222999573 106.48380280 87.011604309 160.07949829 4.4088001251 4.1470999718
 2716.0727539 6.0000000000 8.5120000839 8.5000000000 29.078414917 0.0542999990 0.3323000073 2.4844000340 3.4010999203 103.66600037 86.632400513 160.60491943 4.3431000710 4.0942001343
 2716.2253418 6.0000000000 8.5255002975 8.5000000000 56.693565369 0.0595000014 0.3431999981 2.4876999855 3.3689999580 103.95610046 86.585601807 159.78808594 4.4503002167 4.2231998444
 2716.3776855 6.0000000000 8.5620002747 8.5000000000 61.841861725 0.0575000010 0.3459999859 2.4751000404 3.2060000896 105.59649658 86.474098206 159.11338806 4.4109997749 4.2151999474
 2716.5300293 6.0000000000 8.5226001740 8.5000000000 52.225063324 0.0465999991 0.3445000052 2.4690999985 3.1644001007 97.069900513 86.421897888 158.67889404 4.2638998032 4.0392999649
 2716.6823730 6.0000000000 8.5025997162 8.5000000000 47.847766876 0.0507999994 0.3310999870 2.4770998955 3.5390000343 113.16230011 86.232597351 158.65791321 4.2108998299 3.9563999176
 2716.8349609 6.0000000000 8.5255002975 8.5000000000 49.508563995 0.0562999994 0.3298999965 2.4899001122 3.5041999817 110.48320007 86.137603760 159.22558594 4.2709999084 4.0387001038
 2716.9873047 6.0000000000 8.5396995544 8.5000000000 48.483509064 0.0454000011 0.3260999918 2.4718999863 3.1180000305 104.62740326 86.206390381 159.06851196 4.3425002098 4.1191000938
