# LAS format log file from PETREL
# Project units are specified as depth units
#==================================================================
~Version information
VERS.   2.0:
WRAP.   NO:
#==================================================================
~Well
STRT .m      452.86209106 :
STOP .m      2603.6831055 :
STEP .m     0.00000000 :
NULL .        -999.250000 :
COMP.           : COMPANY
WELL.  31/2-3   : WELL
FLD.            : FIELD
LOC.            : LOCATION
SRVC.           : SERVICE COMPANY
DATE.  2018-09-11 14:48:34   : Log Export Date {yyyy-MM-dd HH:mm:ss}
PROV.           : PROVINCE
UWI.   31/2-3   : UNIQUE WELL ID
API.            : API NUMBER
#==================================================================
~Curve
DEPT .m                   : DEPTH
Lithology_geolink ._      : Lithology_geolink
CALI .in                  : CALI
DRHO .g/cm3               : DRHO
NPHI .m3/m3               : NPHI
RHOB .g/cm3               : RHOB
GR .gAPI                  : GR
DTC .us/ft                : DTC
DTE .us/ft                : DTE
RDEP .ohm.m               : RDEP
SP .mV                    : SP
RSHA .ohm.m               : RSHA
RMED .ohm.m               : RMED
~Parameter
#==================================================================
~Ascii
# ...
 2310.9223633 3.0000000000 8.5000000000 0.0059759617 0.2622289956 2.2520482540 50.592185974 97.034004211 93.614463806 0.8850192428 50.472682953  -999.250000 1.2799952030
 2311.0749512 3.0000000000 8.5000000000 0.0089903846 0.2563487887 2.2689185143 49.851001740 96.010925293 92.740707397 0.8740000129 50.742000580  -999.250000 1.3527628183
 2311.2272949 3.0000000000 8.5000000000 0.0119903851 0.2460729778 2.3068172932 49.956832886 94.386268616 91.195983887 0.8630175591 51.493793488  -999.250000 1.7576986551
 2311.3796387 3.0000000000 8.5000000000 0.0060288003 0.2386556119 2.3249135017 51.149085999 93.304885864 89.975769043 0.8809711337 52.123989105  -999.250000 2.1351857185
 2311.5319824 3.0000000000 8.5000000000 -0.000966346 0.2392171174 2.3031058311 52.393005371 93.561149597 90.199165344 0.9229326844 52.390571594  -999.250000 2.2972259521
 2311.6845703 3.0000000000 8.5000000000 -0.001996795 0.2456194162 2.2721488476 53.544998169 94.988403320 91.648338318 0.9700000286 52.272998810  -999.250000 2.1853621006
 2311.8369141 3.0000000000 8.5000000000 0.0039807693 0.2528268993 2.2540864944 52.912998199 96.466400146 93.114601135 1.0160000324 52.139999390  -999.250000 2.0045800209
 2311.9892578 3.0000000000 8.5000000000 0.0049967947 0.2520625293 2.2490241528 51.152820587 96.995796204 93.722152710 1.0209920406 52.024185181  -999.250000 1.9023268223
 2312.1416016 3.0000000000 8.5000000000 0.0049999999 0.2500994503 2.2390482426 49.882038116 96.758628845 93.533630371 0.9830608964 52.002033234  -999.250000 1.8144223690
 2312.2941895 3.0000000000 8.5000000000 0.0040032053 0.2474684417 2.2399952412 49.148998260 96.436126709 93.110603333 0.9309999943 51.479000092  -999.250000 1.7212979794
 2312.4465332 3.0000000000 8.5000000000 -0.000983974 0.2479484379 2.2429857254 49.013999939 96.313873291 92.948547363 0.8799999952 50.041000366  -999.250000 1.5964006186
 2312.5988770 3.0000000000 8.5000000000 0.0029871794 0.2591838837 2.2420048714 49.661960602 96.632308960 93.340301514 0.8290815949 49.176383972  -999.250000 1.4654198885
 2312.7512207 3.0000000000 8.5000000000 0.0099663995 0.2708439529 2.2380192280 51.198535919 97.069953918 93.934852600 0.7780817151 48.925399780  -999.250000 1.3634896278
 2312.9035645 3.0000000000 8.5000000000 0.0189567301 0.2738955319 2.2419807911 52.883300781 97.268684387 94.122871399 0.7460512519 49.129673004  -999.250000 1.3829038143
 2313.0561523 3.0000000000 8.5000000000 0.0199967939 0.2719463110 2.2439904213 52.331001282 97.075637817 93.775726318 0.7549999952 48.694999695  -999.250000 1.4238686562
 2313.2084961 3.0000000000 8.5000000000 0.0199999996 0.2719499767 2.2519617081 50.716587067 96.481636047 93.151878357 0.7530032396 48.407463074  -999.250000 1.4558974504
 2313.3608398 3.0000000000 8.5000000000 0.0170144010 0.2665162086 2.2539904118 49.608772278 95.766082764 92.475219727 0.7649807334 48.395019531  -999.250000 1.4888415337
 2313.5131836 3.0000000000 8.5000000000 0.0080432696 0.2644100487 2.2569856644 50.485588074 95.050590515 91.822784424 0.7829711437 48.395000458  -999.250000 1.5536875725
 2313.6657715 3.0000000000 8.5000000000 0.0070032054 0.2654266953 2.2719280720 52.256000519 94.569572449 91.308212280 0.8190000057 48.502998352  -999.250000 1.8221378326
 2313.8181152 3.0000000000 8.5000000000 0.0079967957 0.2644531131 2.2779712677 53.594001770 94.523178101 91.182273865 0.8330000043 48.528999329  -999.250000 1.9416185617
 2313.9704590 3.0000000000 8.5019998550 0.0089951996 0.2659229040 2.2670528889 52.780303955 94.919891357 91.632926941 0.8130320311 48.394218445  -999.250000 1.8225760460
 2314.1228027 3.0000000000 8.5159997940 0.0080048079 0.2649248540 2.2451057434 50.702335358 95.794479370 92.493896484 0.8060112000 48.394001007  -999.250000 1.5453366041
 2314.2753906 3.0000000000 8.5410003662 0.0030160258 0.2607135177 2.2211151123 48.500999451 96.709297180 93.419067383 0.7919999957 48.169998169  -999.250000 1.3815225363
 2314.4277344 3.0000000000 8.5469999313 0.0039967950 0.2601318359 2.2120430470 46.848999023 97.383926392 94.101997375 0.7570000291 48.009998322  -999.250000 1.2643750906
 2314.5800781 3.0000000000 8.5469999313 0.0089839743 0.2593624890 2.2119998932 45.647926331 97.669097900 94.379112244 0.7170640230 48.014991760  -999.250000 1.2171506882
 2314.7324219 3.0000000000 8.5469999313 0.0070096003 0.2572601438 2.2129952908 44.623641968 97.708198547 94.397941589 0.6769999862 47.377021790  -999.250000 1.2189903259
 2314.8847656 3.0000000000 8.5489997864 0.0050096153 0.2551401854 2.2199552059 43.325084686 97.787696838 94.400604248 0.6430000067 47.358032227  -999.250000 1.2478605509
 2315.0373535 3.0000000000 8.5609998703 0.0109807691 0.2587982118 2.2249758244 42.269001007 97.787696838 94.564926147 0.6190000176 47.653999329  -999.250000 1.2639487982
 2315.1896973 3.0000000000 8.5860004425 0.0179775637 0.2656081617 2.2259953022 41.266605377 98.139717102 94.937965393 0.5939999819 47.746852875  -999.250000 1.2470544577
 2315.3420410 3.0000000000 8.5939998627 0.0100384001 0.2690534890 2.2060961723 40.146797180 98.737876892 95.397720337 0.5709999800 47.346641541  -999.250000 1.1843024492
 2315.4943848 3.0000000000 8.5939998627 0.0030336538 0.2674179673 2.1860961914 38.683345795 99.097587585 95.778160095 0.5540000200 47.246158600  -999.250000 1.1133413315
 2315.6469727 3.0000000000 8.5939998627 0.0089807687 0.2656955123 2.1889855862 37.783000946 99.101219177 95.734901428 0.5410000086 47.138999939  -999.250000 1.0850898027
 2315.7993164 3.0000000000 8.5939998627 0.0149807688 0.2669360042 2.1949710846 38.446998596 98.588233948 95.261100769 0.5279999971 46.901000977  -999.250000 1.1757082939
 2315.9516602 3.0000000000 8.5939998627 0.0130096003 0.2696568668 2.1940047741 38.497920990 98.263252258 94.971076965 0.5199999809 46.902000427  -999.250000 1.2795007229
 2316.1040039 3.0000000000 8.5939998627 0.0130000003 0.2722773850 2.1940000057 37.870006561 98.305793762 94.980178833 0.5180000067 47.036781311  -999.250000 1.3208028078
 2316.2565918 3.0000000000 8.5939998627 0.0100096148 0.2774334550 2.2049472332 38.342998505 98.224685669 94.877853394 0.5289999843 47.293998718  -999.250000 1.2980736494
 2316.4089355 3.0000000000 8.5939998627 0.0050160256 0.2778287828 2.2119662762 39.504001617 97.988769531 94.562820435 0.5519999862 48.234001160  -999.250000 1.2720832825
 2316.5612793 3.0000000000 8.5939998627 0.0089871790 0.2746302783 2.2139904499 41.164337158 97.359275818 94.119094849 0.5699999928 49.986190796  -999.250000 1.2440897226
 2316.7136230 3.0000000000 8.5939998627 0.0209423993 0.2708780766 2.2289280891 42.870265961 96.834884644 93.589942932 0.6060000062 51.775131226  -999.250000 1.2151392698
 2316.8659668 3.0000000000 8.5939998627 0.0319471173 0.2658143938 2.2458913326 47.741188049 96.204536438 92.851531982 0.6940000057 53.792766571  -999.250000 1.1901202202
 2317.0185547 3.0000000000 8.5979995728 0.0379807688 0.2611648738 2.2678940296 54.527999878 94.935897827 91.586738586 0.8370000124 56.470001221  -999.250000 1.2119294405
 2317.1708984 3.0000000000 8.6359996796 0.0459743589 0.2632432580 2.3167643547 63.431732178 93.198722839 89.768653870 0.9810000062 59.283489227  -999.250000 1.4831281900
 2317.3232422 3.0000000000 8.7370004654 0.0589376017 0.2829450369 2.4055719376 72.411613464 91.053634644 87.751129150 1.1900000572 62.102481842  -999.250000 1.9198976755
 2317.4755859 3.0000000000 8.8039999008 0.0599951893 0.2977589071 2.4587452412 80.547958374 89.282829285 85.970695496 1.5850000381 66.611770630  -999.250000 2.8714134693
 2317.6281738 6.0000000000 8.8500003815 0.0859166682 0.2966338396 2.4719374180 88.478996277 88.440437317 85.002609253 1.9859999418 68.122001648  -999.250000 3.8498685360
 2317.7805176 6.0000000000 8.8739995956 0.0969647467 0.3069667816 2.4968798161 93.033996582 88.599464417 85.252372742 2.3870000839 68.514999390  -999.250000 3.9098174572
 2317.9328613 6.0000000000 8.8509998322 0.0761007965 0.3263367712 2.5019760132 96.742057800 89.713035583 86.438636780 2.6770000458 68.431137085  -999.250000 3.6791136265
 2318.0852051 6.0000000000 8.8269996643 0.0650528818 0.3419649303 2.4970240593 96.752990723 91.028198242 87.870384216 2.6559998989 68.082557678  -999.250000 3.4311923981
