# LAS format log file from PETREL
# Project units are specified as depth units
#==================================================================
~Version information
VERS.   2.0:
WRAP.   NO:
#==================================================================
~Well
STRT .m      439.56304932 :
STOP .m      1665.9261475 :
STEP .m     0.00000000 :
NULL .        -999.250000 :
COMP.           : COMPANY
WELL.  31/2-7   : WELL
FLD.            : FIELD
LOC.            : LOCATION
SRVC.           : SERVICE COMPANY
DATE.  2018-09-11 14:48:34   : Log Export Date {yyyy-MM-dd HH:mm:ss}
PROV.           : PROVINCE
UWI.   31/2-7   : UNIQUE WELL ID
API.            : API NUMBER
#==================================================================
~Curve
DEPT .m                   : DEPTH
Lithology_geolink ._      : Lithology_geolink
CALI .in                  : CALI
DRHO .g/cm3               : DRHO
SGR .gAPI                 : SGR
NPHI .m3/m3               : NPHI
RHOB .g/cm3               : RHOB
PEF .b/e                  : PEF
GR .gAPI                  : GR
DTC .us/ft                : DTC
DTE .us/ft                : DTE
RDEP .ohm.m               : RDEP
SP .mV                    : SP
RSHA .ohm.m               : RSHA
RMED .ohm.m               : RMED
~Parameter
#==================================================================
~Ascii
# ...
 1170.6259766  -999.250000 18.983999252 0.0399999991  -999.250000 0.5039100051 2.0799999237  -999.250000 73.317657471 154.37777710 150.92189026 0.7830263972 54.640392303 0.8619615436 0.8619615436
 1170.7784424  -999.250000 18.468999863 0.0579999983  -999.250000 0.4726599753 2.1110000610  -999.250000 68.632514954 153.88917542 150.43453979 0.7720176578 51.779609680 0.8540127873 0.8540127873
 1170.9307861  -999.250000 18.500000000 0.0460000001  -999.250000 0.4379900098 2.0840001106  -999.250000 65.196258545 153.23924255 149.89744568 0.7620240450 53.021999359 0.8500096202 0.8500096202
 1171.0832520  -999.250000 18.608999252 0.0439999998  -999.250000 0.4458000064 2.0759999752  -999.250000 66.186401367 154.45962524 151.03547668 0.7570080161 52.401004791 0.8430112004 0.8430112004
 1171.2355957  -999.250000 18.358999252 0.0070000002  -999.250000 0.4599599838 2.0550000668  -999.250000 67.434997559 154.63159180 151.19706726 0.7520119548 52.898799896 0.8330240250 0.8330240250
 1171.3880615  -999.250000 18.156000137 -0.037999999  -999.250000 0.4628900290 2.0699999332  -999.250000 72.679588318 155.04719543 151.55361938 0.7460095882 52.525604248 0.8349967599 0.8349967599
 1171.5404053  -999.250000 18.297000885 -0.016000001  -999.250000 0.4321300089 2.1640000343  -999.250000 68.323509216 155.80592346 152.37043762 0.7380191684 52.150901794 0.8479687572 0.8479687572
 1171.6928711  -999.250000 18.531000137 -0.008000000  -999.250000 0.4794900119 2.1600000858  -999.250000 67.813804626 157.01028442 153.57679749 0.7200288773 53.273197174 0.8749567270 0.8749567270
 1171.8452148  -999.250000 18.266000748 0.0630000010  -999.250000 0.4858399928 2.1600000858  -999.250000 62.543685913 157.73027039 154.23248291 0.7359615564 52.526802063 0.8730048537 0.8730048537
 1171.9976807  -999.250000 18.375000000 0.0250000004  -999.250000 0.5317400098 2.0720000267  -999.250000 62.937347412 158.17489624 154.70523071 0.7270144224 53.772998810 0.8500368595 0.8500368595
 1172.1500244  -999.250000 18.266000748 0.0199999996  -999.250000 0.4648400247 2.0550000668  -999.250000 65.431999207 158.11250305 154.69126892 0.7269999981 53.151504517 0.8280528784 0.8280528784
 1172.3024902  -999.250000 18.187999725 0.0030000000  -999.250000 0.4912099838 2.0450000763  -999.250000 66.311599731 156.35197449 153.00886536 0.7060336471 50.030010223 0.8280000091 0.8280000091
 1172.4548340  -999.250000 18.452999115 0.0000000000  -999.250000 0.4443399906 2.0290000439  -999.250000 67.810600281 157.03736877 153.58854675 0.6910240054 52.021797180 0.8409791589 0.8409791589
 1172.6071777  -999.250000 18.031000137 0.0000000000  -999.250000 0.4541000128 2.0250000954  -999.250000 66.067207336 156.66244507 153.22044373 0.6949903965 50.902702332 0.8489807844 0.8489807844
 1172.7596436  -999.250000 18.047000885 0.0149999997  -999.250000 0.4379900098 2.0469999313  -999.250000 68.309394836 156.82513428 153.37016296 0.6979951859 51.024799347 0.8430095911 0.8430095911
 1172.9119873  -999.250000 18.016000748 0.0189999994  -999.250000 0.4794900119 2.0720000267  -999.250000 67.190704346 155.68237305 152.22227478 0.7059807777 49.403903961 0.8499832153 0.8499832153
 1173.0644531  -999.250000 17.968999863 0.0170000009  -999.250000 0.5151399970 2.0940001011  -999.250000 62.196014404 151.32206726 147.87675476 0.7139871716 51.022396088 0.8480032086 0.8480032086
 1173.2167969  -999.250000 17.952999115 0.0270000007  -999.250000 0.4829100072 2.1170001030  -999.250000 62.748649597 145.17855835 141.74307251 0.7159951925 51.025001526 0.8928919435 0.8928919435
 1173.3692627  -999.250000 18.062999725 0.0340000018  -999.250000 0.4516600072 2.0959999561  -999.250000 65.869995117 144.67413330 141.20056152 0.7199935913 51.773799896 0.9429199100 0.9429199100
 1173.5216064  -999.250000 17.827999115 0.0419999994  -999.250000 0.4414099753 2.0629999638  -999.250000 72.546936035 145.29922485 141.91253662 0.7429447174 52.523200989 0.9330240488 0.9330240488
 1173.6740723  -999.250000 17.750000000 0.0260000005  -999.250000 0.4760699868 2.0199999809  -999.250000 71.939002991 148.08834839 144.64549255 0.7599727511 51.776203156 0.9449807405 0.9449807405
 1173.8264160  -999.250000 17.875000000 0.0240000002  -999.250000 0.4672900140 2.0199999809  -999.250000 75.491447449 155.55737305 152.08923340 0.7729687691 52.149101257 0.9469951987 0.9469951987
 1173.9788818  -999.250000 17.891000748 0.0260000005  -999.250000 0.4335900247 2.0309998989  -999.250000 73.503204346 155.54985046 152.11763000 0.7889743447 52.524398804 0.9969198704 0.9969198704
 1174.1312256  -999.250000 17.891000748 0.0260000005  -999.250000 0.4047900140 2.0269999504  -999.250000 75.245796204 155.07200623 151.59153748 0.7899976373 52.774402618 0.9890192151 0.9890192151
 1174.2836914  -999.250000 17.843999863 0.0250000004  -999.250000 0.4458000064 2.0329999924  -999.250000 67.824920654 156.04116821 152.62542725 0.7890015841 51.402206421 0.9909967780 0.9909967780
 1174.4360352  -999.250000 17.906000137 0.0289999992  -999.250000 0.4692400098 2.0350000858  -999.250000 64.318611145 157.52339172 154.09904480 0.7979855537 51.150402069 0.9580528736 0.9580528736
 1174.5883789  -999.250000 18.000000000 0.0270000007  -999.250000 0.4746099710 2.0369999409  -999.250000 59.885658264 157.83055115 154.37258911 0.8059808016 52.022899628 0.9510167837 0.9510167837
 1174.7408447  -999.250000 17.906000137 0.0189999994  -999.250000 0.4775400162 2.0199999809  -999.250000 64.617385864 157.65124512 154.31143188 0.8010079861 51.276203156 0.9569904208 0.9569904208
 1174.8931885  -999.250000 17.891000748 0.0179999992  -999.250000 0.4541000128 2.0230000019  -999.250000 70.859985352 157.70266724 154.19465637 0.7930191755 53.893695831 0.9560023546 0.9560023546
 1175.0456543  -999.250000 17.843999863 0.0250000004  -999.250000 0.4658200145 2.0369999409  -999.250000 74.618988037 157.97270203 154.48019409 0.7830160260 50.156009674 0.9340353012 0.9340353012
 1175.1979980  -999.250000 17.843999863 0.0240000002  -999.250000 0.4526399970 2.0450000763  -999.250000 74.126197815 158.38140869 154.91630554 0.7640456557 51.396999359 0.9030744433 0.9030744433
 1175.3504639  -999.250000 17.906000137 0.0260000005  -999.250000 0.4863300025 2.0529999733  -999.250000 71.629005432 158.87120056 155.40802002 0.7639999986 50.651203156 0.8740465045 0.8740465045
 1175.5028076  -999.250000 17.922000885 0.0240000002  -999.250000 0.4916999936 2.0510001183  -999.250000 72.373199463 158.96026611 155.49517822 0.7719808221 48.031307220 0.8590360284 0.8590360284
 1175.6552734  -999.250000 17.937999725 0.0230000000  -999.250000 0.4257799983 2.0429999828  -999.250000 71.065109253 158.85835266 155.36547852 0.7700031996 48.399398804 0.8719791174 0.8719791174
 1175.8076172  -999.250000 17.983999252 0.0170000009  -999.250000 0.4316400290 2.0369999409  -999.250000 69.379051208 158.39884949 154.92782593 0.7709976435 51.642196655 0.9019279480 0.9019279480
 1175.9600830  -999.250000 18.108999252 0.0170000009  -999.250000 0.4257799983 2.0329999924  -999.250000 68.065109253 157.96217346 154.58329773 0.7749935389 49.778007507 0.9279583097 0.9279583097
 1176.1124268  -999.250000 18.327999115 0.0160000008  -999.250000 0.4956099987 2.0369999409  -999.250000 66.877853394 157.43670654 154.09567261 0.7710096240 52.019596100 0.9339855909 0.9339855909
 1176.2648926  -999.250000 18.250000000 0.0250000004  -999.250000 0.5019500256 2.0469999313  -999.250000 67.312301636 157.61674500 154.10296631 0.7700015903 50.277805328 0.9150304794 0.9150304794
 1176.4172363  -999.250000 18.843999863 0.0240000002  -999.250000 0.5332000256 2.0510001183  -999.250000 65.441009521 157.97270203 154.48757935 0.7580192685 50.898998260 0.8900400400 0.8900400400
 1176.5697021  -999.250000 18.358999252 0.0260000005  -999.250000 0.5703099966 2.0529999733  -999.250000 71.490295410 158.54815674 155.12031555 0.7510111928 52.397598267 0.8680351973 0.8680351973
 1176.7220459  -999.250000 18.406000137 0.0250000004  -999.250000 0.5361300111 2.0450000763  -999.250000 72.373596191 159.69723511 156.29008484 0.7500016093 50.153606415 0.8550208807 0.8550208807
