# LAS format log file from PETREL
# Project units are specified as depth units
#==================================================================
~Version information
VERS.   2.0:
WRAP.   NO:
#==================================================================
~Well
STRT .m      452.86209106 :
STOP .m      2603.6831055 :
STEP .m     0.00000000 :
NULL .        -999.250000 :
COMP.           : COMPANY
WELL.  31/2-3   : WELL
FLD.            : FIELD
LOC.            : LOCATION
SRVC.           : SERVICE COMPANY
DATE.  2018-09-11 14:48:34   : Log Export Date {yyyy-MM-dd HH:mm:ss}
PROV.           : PROVINCE
UWI.   31/2-3   : UNIQUE WELL ID
API.            : API NUMBER
#==================================================================
~Curve
DEPT .m                   : DEPTH
Lithology_geolink ._      : Lithology_geolink
CALI .in                  : CALI
DRHO .g/cm3               : DRHO
NPHI .m3/m3               : NPHI
RHOB .g/cm3               : RHOB
GR .gAPI                  : GR
DTC .us/ft                : DTC
DTE .us/ft                : DTE
RDEP .ohm.m               : RDEP
SP .mV                    : SP
RSHA .ohm.m               : RSHA
RMED .ohm.m               : RMED
~Parameter
#==================================================================
~Ascii
# ...
 884.45880127  -999.250000 17.559000015 0.0090024024 0.5355444551 1.9269759655 52.966999054 159.79707336 157.87815857 1.5379999876 39.233001709  -999.250000 1.7669026852
 884.61120605  -999.250000 17.531000137 0.0070024030 0.5336422920 1.9379734993 51.540000916 159.61619568 157.69737244 1.5700000525 39.033000946  -999.250000 1.8379147053
 884.76361084  -999.250000 17.457000732 0.0030048059 0.5320818424 1.9479758739 53.153999329 159.61619568 157.64270020 1.5989999771 38.842998505  -999.250000 1.8599735498
 884.91601563  -999.250000 17.423999786 0.0000024038 0.5308010578 1.9470024109 56.216999054 159.55728149 157.58308411 1.6280000210 38.990001678  -999.250000 1.8400160074
 885.06842041  -999.250000 17.434999466 0.0029975972 0.5292012691 1.9450048208 56.126998901 159.20245361 157.29444885 1.6299999952 39.236000061  -999.250000 1.8230135441
 885.22082520  -999.250000 17.465000153 0.0059975972 0.5200372934 1.9529807568 55.488998413 158.60641479 156.65080261 1.6299999952 39.183998108  -999.250000 1.8190032244
 885.37322998  -999.250000 17.548000336 0.0109959953 0.5070451498 1.9709566832 56.525001526 157.53909302 155.55917358 1.6239999533 39.069999695  -999.250000 1.8190000057
 885.52563477  -999.250000 17.642000198 0.0090016015 0.4951947629 1.9899543524 58.547000885 156.60951233 154.69216919 1.6180000305 39.027000427  -999.250000 1.8180007935
 885.67803955  -999.250000 17.679000854 0.0030048059 0.4806258380 1.9999759197 57.569000244 156.90061951 154.99423218 1.6089999676 39.071998596  -999.250000 1.8120048046
 885.83044434  -999.250000 17.687999725 0.0030000000 0.4710138738 1.9990023375 55.610000610 158.23497009 156.31359863 1.5959999561 39.129001617  -999.250000 1.7990103960
 885.98278809  -999.250000 17.701000214 0.0020012015 0.4658241570 1.9960085154 54.898998260 160.78753662 158.82632446 1.5809999704 38.951999664  -999.250000 1.7900108099
 886.13519287  -999.250000 17.715999603 0.0010012015 0.4761217237 1.9890196323 55.668998718 162.88917542 160.92353821 1.5659999847 38.143001556  -999.250000 1.7750179768
 886.28759766  -999.250000 17.658000946 -0.003993993 0.5028086305 1.9830144644 55.976001740 162.78160095 160.88104248 1.5499999523 38.398998260  -999.250000 1.7410409451
 886.44000244  -999.250000 17.576000214 -0.005997597 0.5165145397 1.9730241299 55.057998657 161.64962769 159.74995422 1.5429999828 39.383998871  -999.250000 1.7100372314
 886.59240723  -999.250000 17.517000198 -0.001006007 0.5229374170 1.9620264769 53.157001495 160.92889404 159.00462341 1.5490000248 38.854000092  -999.250000 1.7050060034
 886.74481201  -999.250000 17.461000443 0.0079891877 0.5352250338 1.9530215263 51.297000885 160.92611694 158.96275330 1.5579999685 38.680999756  -999.250000 1.7119915485
 886.89721680  -999.250000 17.445999146 0.0109975962 0.5436166525 1.9440215826 49.901000977 160.75216675 158.80430603 1.5709999800 39.110000610  -999.250000 1.7289863825
 887.04962158  -999.250000 17.458999634 0.0100008007 0.5496675372 1.9380143881 49.013999939 159.97938538 158.04811096 1.5920000076 39.251998901  -999.250000 1.7649711370
 887.20202637  -999.250000 17.472999573 0.0080016023 0.5627147555 1.9350070953 49.501998901 158.90786743 156.95521545 1.6150000095 39.125999451  -999.250000 1.8039687872
 887.35443115  -999.250000 17.502000809 0.0070008012 0.5733357668 1.9310096502 48.518001556 157.95146179 156.05590820 1.6369999647 38.875999451  -999.250000 1.8419696093
 887.50683594  -999.250000 17.544000626 0.0089983977 0.5679721832 1.9270097017 47.083999634 157.65211487 155.67713928 1.6590000391 38.840999603  -999.250000 1.8789702654
 887.65924072  -999.250000 17.603000641 0.0060024029 0.5664205551 1.9230096340 48.287998199 158.06597900 156.06202698 1.6790000200 38.898998260  -999.250000 1.9029808044
 887.81164551  -999.250000 17.646999359 0.0020032038 0.5749266148 1.9180120230 47.722999573 158.89547729 156.95057678 1.6909999847 38.958000183  -999.250000 1.9249823093
 887.96405029  -999.250000 17.596000671 -0.000997597 0.5805577040 1.9120143652 47.201000214 159.73126221 157.81246948 1.6950000525 39.016998291  -999.250000 1.9309952259
 888.11639404  -999.250000 17.502000809 0.0019963959 0.5839073062 1.9100055695 48.347999573 160.38734436 158.43130493 1.6900000572 39.076000214  -999.250000 1.9230096340
 888.26879883  -999.250000 17.483999252 0.0069939932 0.5802529454 1.9119951725 47.462001801 160.74798584 158.81195068 1.6829999685 39.207000732  -999.250000 1.8950335979
 888.42120361  -999.250000 17.530000687 0.0060012015 0.5630837679 1.9139952660 45.799999237 160.92611694 159.04356384 1.6799999475 39.528999329  -999.250000 1.8670336008
 888.57360840  -999.250000 17.554000854 0.0069987988 0.5381399989 1.9120047092 47.103000641 161.45906067 159.55485535 1.6749999523 39.787998199  -999.250000 1.8180588484
 888.72601318  -999.250000 17.537000656 0.0079987990 0.5166985989 1.9139952660 48.650001526 162.17564392 160.21188354 1.6710000038 39.740001678  -999.250000 1.7920312881
 888.87841797  -999.250000 17.545000076 0.0050036041 0.5034952760 1.9169929028 49.655998230 162.24147034 160.30596924 1.6670000553 39.598999023  -999.250000 1.8019880056
 889.03082275  -999.250000 17.590000153 0.0049999999 0.5060989261 1.9219880104 49.223999023 161.76466370 159.86021423 1.6720000505 39.297000885  -999.250000 1.8549575806
 889.18322754  -999.250000 17.648000717 0.0049999999 0.5276913643 1.9259903431 49.960998535 161.17005920 159.26365662 1.6840000153 39.173000336  -999.250000 1.9299398661
 889.33563232  -999.250000 17.686000824 0.0079975976 0.5514004827 1.9250023365 50.110000610 160.48652649 158.57382202 1.6950000525 39.013000488  -999.250000 1.9699679613
 889.48803711  -999.250000 17.658000946 0.0139951948 0.5658541918 1.9279928207 49.993999481 159.65420532 157.71559143 1.7059999704 38.289001465  -999.250000 1.9660031796
 889.64044189  -999.250000 17.643999100 0.0130008012 0.5705481172 1.9369784594 52.500000000 158.90376282 156.97026062 1.7039999962 37.951000214  -999.250000 1.9230344296
 889.79284668  -999.250000 17.718999863 0.0090032034 0.5624632239 1.9399929047 55.198001862 158.19128418 156.24784851 1.6970000267 38.948001862  -999.250000 1.8630480766
 889.94525146  -999.250000 17.812999725 0.0070016021 0.5503348708 1.9479807615 57.312999725 157.29653931 155.34185791 1.6900000572 39.423999786  -999.250000 1.7970528603
 890.09765625  -999.250000 17.870000839 0.0139943939 0.5312976241 1.9649591446 59.250999451 156.63887024 154.69522095 1.6829999685 38.805000305  -999.250000 1.8019959927
 890.25000000  -999.250000 17.854000092 0.0189939924 0.5184603333 1.9879355431 60.437999725 156.33879089 154.45188904 1.6740000248 39.073001862  -999.250000 1.8229746819
 890.40240479  -999.250000 17.770000458 0.0120084099 0.5260239244 2.0049593449 59.900001526 156.10174561 154.21411133 1.6560000181 39.245998383  -999.250000 1.8449735641
 890.55480957  -999.250000 17.684999466 0.0060072085 0.5224029422 2.0089905262 60.506999969 155.86189270 153.91864014 1.6360000372 39.256000519  -999.250000 1.8679723740
 890.70721436  -999.250000 17.656999588 0.0069987988 0.5105547905 2.0090000629 60.650001526 155.97831726 154.02627563 1.6160000563 39.208999634  -999.250000 1.8859784603
 890.85961914  -999.250000 17.704000473 0.0079987990 0.5138586760 2.0109951496 61.424999237 156.57159424 154.67713928 1.6000000238 39.097999573  -999.250000 1.8760120869
 891.01202393  -999.250000 17.743999481 0.0099975970 0.5258252621 2.0080070496 61.814998627 157.28823853 155.41394043 1.5939999819 38.986000061  -999.250000 1.8430397511
 891.16442871  -999.250000 17.698999405 0.0109991990 0.5340867043 1.9990215302 61.790000916 157.94314575 156.00515747 1.5889999866 39.013000488  -999.250000 1.8060296774
 891.31683350  -999.250000 17.636999130 0.0119991992 0.5335302353 1.9880264997 62.221000671 158.68988037 156.72235107 1.5839999914 39.087001801  -999.250000 1.7700288296
 891.46923828  -999.250000 17.593999863 0.0120000001 0.5331201553 1.9720385075 60.631999969 158.96603394 157.03416443 1.5829999447 39.138000488  -999.250000 1.7410233021
 891.62164307  -999.250000 17.586999893 0.0080032041 0.5363386869 1.9590312243 58.271999359 158.69615173 156.69209290 1.5829999447 39.145999908  -999.250000 1.7350047827
