# LAS format log file from PETREL
# Project units are specified as depth units
#==================================================================
~Version information
VERS.   2.0:
WRAP.   NO:
#==================================================================
~Well
STRT .m      1999.6403809 :
STOP .m      3191.7131348 :
STEP .m     0.00000000 :
NULL .        -999.250000 :
COMP.           : COMPANY
WELL.  31/2-21 S   : WELL
FLD.            : FIELD
LOC.            : LOCATION
SRVC.           : SERVICE COMPANY
DATE.  2018-09-11 14:48:34   : Log Export Date {yyyy-MM-dd HH:mm:ss}
PROV.           : PROVINCE
UWI.   31/2-21 S   : UNIQUE WELL ID
API.            : API NUMBER
#==================================================================
~Curve
DEPT .m                   : DEPTH
Lithology_geolink ._      : Lithology_geolink
CALI .in                  : CALI
BS .in                    : BS
ROP .m/h                  : ROP
DRHO .g/cm3               : DRHO
NPHI .m3/m3               : NPHI
RHOB .g/cm3               : RHOB
PEF .b/e                  : PEF
GR .gAPI                  : GR
DTC .us/ft                : DTC
DTS .us/ft                : DTS
RDEP .ohm.m               : RDEP
RMED .ohm.m               : RMED
~Parameter
#==================================================================
~Ascii
 1999.6403809 11.000000000 11.905900002 12.250000954 59.693569183 0.1501999944 0.2661359012  -999.250000  -999.250000 81.057823181 90.943000793  -999.250000 1.4136999846 1.2690000534
 1999.7927246 11.000000000 12.541799545 12.250000954 51.349735260 0.1124999970 0.3127253652  -999.250000  -999.250000 72.185234070 103.54660034  -999.250000 1.6829999685 1.6277999878
 1999.9451904 11.000000000 12.434700012 12.250000954 40.727691650 0.0910999998 0.3368806839  -999.250000  -999.250000 51.222099304 105.79709625  -999.250000 1.8420000076 1.8152999878
 2000.0975342 11.000000000 12.111700058 12.250000954 34.383201599 0.1115999967 0.3212251663  -999.250000  -999.250000 43.457824707 103.76339722  -999.250000 1.9167000055 1.8588999510
 2000.2500000 12.000000000 12.016598701 12.250000954 31.494749069 0.1362999976 0.2494575381  -999.250000  -999.250000 32.891963959 90.022994995  -999.250000 1.9589999914 1.8674000502
 2000.4023438 12.000000000 11.976799965 12.250000954 30.719158173 0.1484999955 0.1945879161  -999.250000  -999.250000 31.497922897 79.082496643  -999.250000 2.0271000862 1.9270000458
 2000.5548096 12.000000000 11.972202301 12.250000954 32.286743164 0.1527999938 0.1957989633  -999.250000  -999.250000 33.418560028 71.718299866  -999.250000 2.1245000362 2.0557999611
 2000.7071533 12.000000000 11.960899353 12.250000954 35.586940765 0.1507000029 0.1896049678  -999.250000  -999.250000 34.922294617 73.524497986  -999.250000 2.2130000591 2.2214000225
 2000.8596191 12.000000000 11.960200310 12.250000954 38.103675842 0.1456999928 0.1826056093  -999.250000  -999.250000 41.187179565 86.270805359  -999.250000 2.2281000614 2.3498001099
 2001.0119629 12.000000000 11.947798729 12.250000954 38.026245117 0.1503999978 0.2008853406  -999.250000  -999.250000 52.799991608 103.33570099  -999.250000 1.9458999634 2.0889000893
 2001.1644287 12.000000000 11.962900162 12.250000954 44.833335876 0.1556999981 0.2169871032  -999.250000  -999.250000 70.258117676 110.44269562  -999.250000 1.5549000502 1.5490000248
 2001.3167725 12.000000000 12.136699677 12.250000954 59.037406921 0.1462000012 0.2546697855  -999.250000  -999.250000 88.939430237 112.22149658  -999.250000 1.3920999765 1.3296999931
 2001.4692383 12.000000000 12.427700043 12.250000954 65.620735168 0.1151999980 0.3201475441  -999.250000  -999.250000 104.74144745 112.85690308  -999.250000 1.3696999550 1.3121000528
 2001.6215820 12.000000000 12.460900307 12.250000954 69.297576904 0.0918999985 0.3821503222  -999.250000  -999.250000 106.94624329 113.58119965  -999.250000 1.3042999506 1.2407000065
 2001.7739258 12.000000000 12.659700394 12.250000954 71.007873535 0.0835999995 0.4192405939  -999.250000  -999.250000 106.13849640 114.28549957  -999.250000 1.2539999485 1.1821000576
 2001.9263916 12.000000000 12.286499977 12.250000954 74.595474243 0.0790000036 0.4441800714  -999.250000  -999.250000 107.36311340 114.37390137  -999.250000 1.3150000572 1.2554999590
 2002.0787354 12.000000000 12.412799835 12.250000954 84.061355591 0.0856999978 0.4625705183  -999.250000  -999.250000 104.96704865 115.34909058  -999.250000 1.2907999754 1.2779999971
 2002.2312012 12.000000000 11.870299339 12.250000954 91.493438721 0.1049999967 0.4340229034  -999.250000  -999.250000 100.69781494 115.77059937  -999.250000 1.2006000280 1.1984000206
 2002.3835449 12.000000000 11.716200829 12.250000954 77.380249023 0.1102000028 0.4276102483  -999.250000  -999.250000 105.52925110 115.17520142  -999.250000 1.1683000326 1.1707999706
 2002.5360107 12.000000000 11.967799187 12.250000954 45.968833923 0.0991000012 0.4075160921  -999.250000  -999.250000 105.26142120 115.35630035  -999.250000 1.1849000454 1.1845999956
 2002.6883545 12.000000000 11.818400383 12.250000954 20.306102753 0.0762000009 0.4169923961  -999.250000  -999.250000 104.40838623 116.21990204  -999.250000 1.2220000029 1.2372000217
 2002.8408203 12.000000000 11.836899757 12.250000954 17.550525665 0.0859000012 0.4168001413  -999.250000  -999.250000 105.39420319 117.29870605  -999.250000 1.1288000345 1.1346000433
 2002.9931641 12.000000000 11.855300903 12.250000954 32.871391296 0.0957000032 0.4167000949  -999.250000  -999.250000 104.08944702 116.67980194  -999.250000 1.1153000593 1.1552000046
 2003.1456299 12.000000000 11.678298950 12.250000954 39.691272736 0.0891999975 0.4210964739  -999.250000  -999.250000 104.41033936 114.33138275  -999.250000 1.0625000000 1.0774999857
 2003.2979736 12.000000000 11.944601059 12.250000954 48.250328064 0.0930000022 0.4017155468  -999.250000  -999.250000 102.59835052 107.10140228 141.71519470 1.0326000452 1.0169999599
 2003.4504395 12.000000000 12.370200157 12.250000954 48.740814209 0.0983000025 0.3868119121  -999.250000  -999.250000 88.047760010 92.267097473 141.85499573 1.0855000019 1.0530999899
 2003.6027832 12.000000000 12.234799385 12.250000954 42.449150085 0.0979999974 0.3734107316  -999.250000  -999.250000 79.135040283 81.872901917 141.73150635 1.2976000309 1.2544000149
 2003.7552490 12.000000000 11.794299126 12.250000954 38.541011810 0.0768999979 0.3278999925  -999.250000  -999.250000 56.390819550 76.611999512 141.51530457 1.6024999619 1.5722999573
 2003.9075928 12.000000000 11.668801308 12.250000954 38.125656128 0.0742999986 0.2513999939  -999.250000  -999.250000 41.412696838 75.111396790 141.04409790 1.9038000107 1.8842999935
 2004.0599365 12.000000000 11.417700768 12.250000954 41.889438629 0.0794999972 0.2045000046  -999.250000  -999.250000 33.432579041 74.600502014 140.23480225 2.2969999313 2.3478999138
 2004.2124023 12.000000000 11.529299736 12.250000954 41.335632324 0.0837000012 0.1790000051  -999.250000  -999.250000 34.695877075 74.095298767 139.25230408 2.6740999222 2.8355000019
 2004.3647461 12.000000000 11.502300262 12.250000954 37.072177887 0.0908000022 0.1530999988  -999.250000  -999.250000 30.880399704 73.694000244 138.44880676 2.8945000172 3.0975000858
 2004.5172119 12.000000000 11.545800209 12.250000954 32.712272644 0.0895000026 0.1424999982  -999.250000  -999.250000 28.061599731 73.204101563 138.11889648 3.2513000965 3.5436000824
 2004.6695557 11.000000000 11.654800415 12.250000954 30.355970383 0.0900000036 0.1397999972  -999.250000  -999.250000 28.697099686 72.983398438 138.05340576 3.6094000340 3.9052000046
 2004.8220215 11.000000000 11.614299774 12.250000954 32.024932861 0.1037999988 0.1322000027  -999.250000  -999.250000 30.362600327 72.581703186 138.02040100 3.8882000446 4.1003999710
 2004.9743652 11.000000000 11.798700333 12.250000954 33.775588989 0.0967999995 0.1281999946  -999.250000  -999.250000 36.189201355 72.302696228 137.48599243 4.0833001137 4.2634000778
 2005.1268311 11.000000000 11.780099869 12.250000954 32.472770691 0.1058000028 0.1269000024  -999.250000  -999.250000 27.394800186 72.369201660 137.85240173 4.3073000908 4.2904000282
 2005.2791748 11.000000000 11.801199913 12.250000954 32.757217407 0.1083000004 0.1300999969  -999.250000  -999.250000 30.445800781 74.113601685 139.37319946 4.4847002029 4.3557000160
 2005.4316406 11.000000000 11.915901184 12.250000954 35.610565186 0.1168999970 0.1326999962  -999.250000  -999.250000 25.663200378 80.271202087 141.14630127 4.7490000725 4.6266999245
 2005.5839844 11.000000000 12.037899971 12.250000954 34.084316254 0.1190000027 0.1286000013  -999.250000  -999.250000 27.240200043 80.813697815 139.53080750 4.8562998772 4.6220998764
 2005.7364502 11.000000000 12.130599976 12.250000954 29.046915054 0.1257999986 0.1182999983  -999.250000  -999.250000 28.188400269 78.299697876 136.92889404 4.9644999504 4.7775998116
 2005.8887939 11.000000000 12.148099899 12.250000954 24.393373489 0.1165999994 0.1203000024  -999.250000  -999.250000 28.938699722 74.797508240 134.26359558 5.0496001244 4.7915000916
 2006.0411377 11.000000000 12.164501190 8.5000000000 21.263122559 0.1199999973 0.1036000028  -999.250000  -999.250000 28.878700256 72.053497314 133.04539490 5.1536002159 4.7502999306
 2006.1936035 11.000000000 11.957301140 8.5000000000 22.985565186 0.1265999973 0.1846999973  -999.250000  -999.250000 26.522399902 70.370796204 131.99830627 86.461502075 145.84750366
