# LAS format log file from PETREL
# Project units are specified as depth units
#==================================================================
~Version information
VERS.   2.0:
WRAP.   NO:
#==================================================================
~Well
STRT .m      445.17501831 :
STOP .m      1838.8730469 :
STEP .m     0.00000000 :
NULL .        -999.250000 :
COMP.           : COMPANY
WELL.  31/2-10   : WELL
FLD.            : FIELD
LOC.            : LOCATION
SRVC.           : SERVICE COMPANY
DATE.  2018-09-11 14:48:32   : Log Export Date {yyyy-MM-dd HH:mm:ss}
PROV.           : PROVINCE
UWI.   31/2-10   : UNIQUE WELL ID
API.            : API NUMBER
#==================================================================
~Curve
DEPT .m                   : DEPTH
Lithology_geolink ._      : Lithology_geolink
CALI .in                  : CALI
DRHO .g/cm3               : DRHO
NPHI .m3/m3               : NPHI
RHOB .g/cm3               : RHOB
PEF .b/e                  : PEF
GR .gAPI                  : GR
DTC .us/ft                : DTC
RDEP .ohm.m               : RDEP
SP .mV                    : SP
RSHA .ohm.m               : RSHA
RMED .ohm.m               : RMED
~Parameter
#==================================================================
~Ascii
# ...
 540.27264404  -999.250000 15.430999756 0.0140000004 0.3641600013 2.2190001011 3.2219998837 68.120422363 141.38938904 3.0079879761 42.999401093  -999.250000 2.4839868546
 540.42504883  -999.250000 15.470998764 0.0179999992 0.3599399924 2.2339999676 3.4349999428 68.000152588 141.57516479 3.0000095367 43.000000000  -999.250000 2.4999806881
 540.57745361  -999.250000 16.023000717 0.0299999993 0.3772000074 2.2609999180 3.6710000038 64.753906250 141.17588806 3.0059928894 43.000000000  -999.250000 2.5099880695
 540.72979736  -999.250000 16.076999664 0.0189999994 0.3594800234 2.2639999390 3.8250000477 55.823741913 140.99736023 2.9980094433 43.499397278  -999.250000 2.4550659657
 540.88220215  -999.250000 16.107999802 0.0060000001 0.3625999689 2.2560000420 3.4660000801 53.627628326 141.02124023 2.9690349102 43.500000000  -999.250000 2.4530024529
 541.03460693  -999.250000 16.051000595 -0.004000000 0.3332000077 2.2560000420 3.4449999332 53.968589783 141.40315247 2.9240541458 43.500000000  -999.250000 2.4649856091
 541.18701172  -999.250000 16.403999329 -0.015000000 0.3359700143 2.2579998970 3.4059998989 58.962993622 141.63760376 2.8980312347 42.501201630  -999.250000 2.4590072632
 541.33941650  -999.250000 16.577999115 -0.022000000 0.3333599865 2.2650001049 3.4130001068 58.813186646 141.88789368 2.8950035572 42.000598907  -999.250000 2.3850889206
 541.49182129  -999.250000 16.662000656 -0.028000001 0.3398700058 2.2620000839 3.3519999981 56.502777100 143.29173279 2.8999941349 42.000000000  -999.250000 2.2521598339
 541.64422607  -999.250000 16.590999603 -0.023000000 0.3345099986 2.2569999695 3.4409999847 59.215736389 141.77111816 2.9119856358 41.500598907  -999.250000 2.1880769730
 541.79663086  -999.250000 16.327999115 -0.012000000 0.3347299993 2.2479999065 3.4270000458 52.851661682 138.44920349 2.9259831905 42.498798370  -999.250000 2.2539205551
 541.94903564  -999.250000 16.436000824 -0.005000000 0.3361700177 2.2379999161 3.3159999847 49.254318237 136.65803528 2.9379856586 42.500000000  -999.250000 2.3568763733
 542.10144043  -999.250000 16.468999863 -0.001000000 0.3368200064 2.2379999161 3.1159999371 41.914821625 134.13627625 2.9449915886 41.501201630  -999.250000 2.4648702145
 542.25384521  -999.250000 16.628999710 -0.003000000 0.3415399790 2.2520000935 3.1019999981 47.306503296 124.92038727 2.9859507084 41.999401093  -999.250000 2.5528943539
 542.40625000  -999.250000 16.948999405 -0.001000000 0.3273300231 2.2860000134 3.2490000725 50.152584076 119.36593628 3.0059759617 42.000000000  -999.250000 2.6558761597
 542.55865479  -999.250000 17.384000778 0.0020000001 0.3234899938 2.3169999123 3.4040000439 54.650592804 119.30276489 3.0060000420 42.499401093  -999.250000 2.7029435635
 542.71099854  -999.250000 17.305000305 -0.001000000 0.3248099983 2.3110001087 3.5160000324 55.279998779 121.61728668 3.0349535942 42.999198914  -999.250000 2.7189743519
 542.86340332  -999.250000 16.853000641 -0.001000000 0.3367500007 2.2880001068 3.5769999027 54.064464569 129.69424438 3.0509808064 42.001201630  -999.250000 2.5921525955
 543.01580811  -999.250000 16.277000427 -0.007000000 0.3471099734 2.2530000210 3.6440000534 51.815704346 138.32553101 3.0410118103 42.000000000  -999.250000 2.4791357517
 543.16821289  -999.250000 15.789999962 -0.006000000 0.3482799828 2.2360000610 3.6010000706 50.282840729 141.71499634 3.0160300732 42.000000000  -999.250000 2.4240660667
 543.32061768  -999.250000 15.954001427 -0.004000000 0.3596500158 2.2300000191 3.5869998932 50.405849457 141.61166382 2.9920289516 42.499401093  -999.250000 2.4279952049
 543.47302246  -999.250000 16.200000763 -0.002000000 0.3650899827 2.2339999676 3.4909999371 50.250186920 140.97596741 2.9550442696 43.498798370  -999.250000 2.4040288925
 543.62542725  -999.250000 16.142000198 0.0000000000 0.3635200262 2.2420001030 3.4939999580 50.843288422 140.30104065 2.9430143833 43.000598907  -999.250000 2.3770325184
 543.77783203  -999.250000 16.478000641 0.0030000000 0.3547499776 2.2509999275 3.5460000038 52.622859955 138.67669678 2.9609782696 43.499401093  -999.250000 2.3809952736
 543.93023682  -999.250000 16.503000259 0.0080000004 0.3504799902 2.2569999695 3.5840001106 52.375301361 138.88491821 2.9819748402 43.500000000  -999.250000 2.3959817886
 544.08264160  -999.250000 16.398000717 0.0080000004 0.3664899766 2.2530000210 3.6440000534 51.969490051 139.08924866 2.9790036678 43.000598907  -999.250000 2.4339544773
 544.23504639  -999.250000 16.593999863 0.0060000001 0.3874300122 2.2439999580 3.7349998951 50.626613617 137.08882141 2.9879891872 43.499401093  -999.250000 2.4769482613
 544.38745117  -999.250000 16.736000061 0.0070000002 0.3845199943 2.2390000820 3.9440000057 50.188526154 134.38951111 2.9919953346 43.500000000  -999.250000 2.4769999981
 544.53985596  -999.250000 16.968999863 0.0089999996 0.3597499728 2.2409999371 4.2769999504 51.029983521 134.39804077 2.9820120335 43.500000000  -999.250000 2.4730048180
 544.69226074  -999.250000 16.874000549 0.0109999999 0.3378599882 2.2449998856 4.4689998627 55.807254791 136.76228333 2.9530348778 43.000598907  -999.250000 2.4610142708
 544.84460449  -999.250000 16.729000092 0.0099999998 0.3449800014 2.2420001030 4.4369997978 57.653045654 138.23869324 2.9450128078 42.500801086  -999.250000 2.4450256824
 544.99700928  -999.250000 16.504999161 0.0060000001 0.3692300022 2.2360000610 4.1599998474 58.093475342 141.65463257 2.9509928226 43.498798370  -999.250000 2.4240252972
 545.14941406  -999.250000 15.807000160 0.0020000001 0.3874900043 2.2279999256 3.9670000076 49.760025024 142.55523682 2.9340205193 43.500000000  -999.250000 2.4040241241
 545.30181885  -999.250000 15.723999977 0.0010000000 0.3993500173 2.2190001011 4.1189999580 51.248199463 141.73197937 2.8930492401 43.000598907  -999.250000 2.3870205879
 545.45422363  -999.250000 16.146999359 0.0049999999 0.4082899988 2.2139999866 4.2270002365 52.935970306 138.50579834 2.9219651222 42.500598907  -999.250000 2.3909952641
 545.60662842  -999.250000 16.010999680 0.0089999996 0.4178699851 2.2139999866 4.1909999847 56.995121002 138.20628357 2.8770542145 42.000598907  -999.250000 2.3959939480
 545.75903320  -999.250000 15.875999451 0.0080000004 0.4252600074 2.2200000286 4.1510000229 51.569530487 138.05642700 2.8610193729 42.499401093  -999.250000 2.4239664078
 545.91143799  -999.250000 16.511999130 0.0049999999 0.4288200140 2.2239999771 4.2630000114 51.313301086 141.28150940 2.8500130177 42.000598907  -999.250000 2.4140119553
 546.06384277  -999.250000 16.635000229 0.0040000002 0.4143700004 2.2209999561 4.2249999046 54.496170044 139.01364136 2.8260288239 42.998798370  -999.250000 2.3930251598
 546.21624756  -999.250000 16.461999893 0.0089999996 0.4080400169 2.2239999771 3.9800000191 58.589084625 137.87384033 2.7750613689 43.000000000  -999.250000 2.3630359173
 546.36865234  -999.250000 16.358999252 0.0209999997 0.4023700058 2.2430000305 3.6180000305 57.157726288 137.42332458 2.8029663563 42.500598907  -999.250000 2.3540108204
 546.52105713  -999.250000 16.465999603 0.0260000005 0.4127299786 2.2520000935 3.6519999504 56.813411713 137.70266724 2.8259723186 42.999401093  -999.250000 2.3669843674
 546.67346191  -999.250000 16.209999084 0.0240000002 0.4060499966 2.2479999065 3.6749999523 60.245872498 130.70094299 2.9079015255 43.000000000  -999.250000 2.3949663639
 546.82580566  -999.250000 16.566999435 0.0080000004 0.3922100067 2.2279999256 3.7269999981 59.813701630 119.84810638 2.9938621521 43.499198914  -999.250000 2.4389293194
 546.97821045  -999.250000 16.787000656 0.0049999999 0.3885200024 2.2330000401 3.8499999046 57.034343719 108.75095367 3.1518099308 43.999397278  -999.250000 2.4789519310
 547.13061523  -999.250000 16.645999908 0.0040000002 0.3916400075 2.2420001030 4.3319997787 58.248535156 94.768577576 3.2069339752 43.500598907  -999.250000 2.6128389835
 547.28302002  -999.250000 16.481000900 0.0030000000 0.4012300074 2.2469999790 4.6779999733 69.799110413 90.563957214 3.1430768967 43.999401093  -999.250000 2.8157560825
 547.43542480  -999.250000 16.600000381 0.0020000001 0.4122200012 2.2420001030 4.4369997978 74.244667053 100.29104614 3.1090407372 43.001201630  -999.250000 2.9118845463
