# LAS format log file from PETREL
# Project units are specified as depth units
#==================================================================
~Version information
VERS.   2.0:
WRAP.   NO:
#==================================================================
~Well
STRT .m      447.54394531 :
STOP .m      3384.4443359 :
STEP .m     0.00000000 :
NULL .        -999.250000 :
COMP.           : COMPANY
WELL.  31/2-8   : WELL
FLD.            : FIELD
LOC.            : LOCATION
SRVC.           : SERVICE COMPANY
DATE.  2018-09-11 14:48:34   : Log Export Date {yyyy-MM-dd HH:mm:ss}
PROV.           : PROVINCE
UWI.   31/2-8   : UNIQUE WELL ID
API.            : API NUMBER
#==================================================================
~Curve
DEPT .m                   : DEPTH
Lithology_geolink ._      : Lithology_geolink
CALI .in                  : CALI
DRHO .g/cm3               : DRHO
SGR .gAPI                 : SGR
NPHI .m3/m3               : NPHI
RHOB .g/cm3               : RHOB
PEF .b/e                  : PEF
GR .gAPI                  : GR
DTC .us/ft                : DTC
RDEP .ohm.m               : RDEP
SP .mV                    : SP
RSHA .ohm.m               : RSHA
RMED .ohm.m               : RMED
~Parameter
#==================================================================
~Ascii
# ...
 836.46868896  -999.250000 22.281000137 0.0199999996  -999.250000 0.5037599802 1.8890000582  -999.250000 75.583450317 161.50489807 1.0771802664 57.788875580 0.8339747787 0.8339747787
 836.62109375  -999.250000 22.281000137 0.0080000004  -999.250000 0.4988999963 1.8600000143  -999.250000 78.740577698 158.89633179 1.0212018490 57.956401825 0.8698702455 0.8698702455
 836.77349854  -999.250000 22.281000137 -0.005000000  -999.250000 0.5149199963 1.8300000429  -999.250000 76.953506470 156.28935242 1.0190072060 57.918140411 0.9068666697 0.9068666697
 836.92590332  -999.250000 22.208999634 -0.016000001  -999.250000 0.5024399757 1.8179999590  -999.250000 74.445045471 154.99478149 1.0638377666 57.895084381 0.9598089457 0.9598089457
 837.07830811  -999.250000 22.067001343 -0.021000000  -999.250000 0.4995500147 1.8220000267  -999.250000 75.325782776 155.37634277 1.1417188644 57.802333832 1.0128090382 1.0128090382
 837.23071289  -999.250000 22.205999374 -0.021000000  -999.250000 0.4831999838 1.8259999752  -999.250000 78.289291382 156.70556641 1.2476179600 58.289237976 1.0289423466 1.0289423466
 837.38311768  -999.250000 22.271997452 -0.017999999  -999.250000 0.4866099954 1.8220000267  -999.250000 76.312187195 158.39254761 1.3805207014 58.325874329 1.0100684166 1.0100684166
 837.53552246  -999.250000 22.278001785 -0.011000000  -999.250000 0.4850999713 1.8140000105  -999.250000 71.065948486 159.25520325 1.4397873878 58.136688232 0.9811045527 0.9811045527
 837.68792725  -999.250000 22.281000137 0.0000000000  -999.250000 0.4481300116 1.8079999685  -999.250000 67.068794250 158.68791199 1.4380064011 58.200790405 0.9491025805 0.9491025805
 837.84033203  -999.250000 22.177000046 0.0060000001  -999.250000 0.4391400218 1.8059999943  -999.250000 72.741729736 157.82260132 1.4021153450 58.106304169 0.9509935379 0.9509935379
 837.99273682  -999.250000 21.870000839 0.0020000001  -999.250000 0.4500499964 1.7979999781  -999.250000 76.072357178 157.32856750 1.3511633873 58.020275116 0.9649550915 0.9649550915
 838.14514160  -999.250000 21.870000839 -0.005000000  -999.250000 0.4697700143 1.7879999876  -999.250000 78.634796143 157.27928162 1.2981697321 57.693050385 1.0098558664 1.0098558664
 838.29754639  -999.250000 22.097999573 -0.005000000  -999.250000 0.4346200228 1.7819999456  -999.250000 73.175567627 157.70320129 1.2601217031 56.683242798 1.0418975353 1.0418975353
 838.44995117  -999.250000 21.997999191 -0.002000000  -999.250000 0.4079200029 1.7829999924  -999.250000 73.076255798 158.46847534 1.2400641441 56.733829498 1.0589455366 1.0589455366
 838.60229492  -999.250000 22.055999756 0.0049999999  -999.250000 0.3981899917 1.7920000553  -999.250000 72.445281982 159.22499084 1.2380071878 56.505825043 1.0500323772 1.0500323772
 838.75469971  -999.250000 22.243000031 0.0120000001  -999.250000 0.4167200029 1.7979999781  -999.250000 76.695617676 159.60070801 1.2300288677 56.469131470 1.0380432606 1.0380432606
 838.90710449  -999.250000 22.297000885 0.0149999997  -999.250000 0.4406100214 1.7979999781  -999.250000 75.345939636 159.80194092 1.2170468569 56.401245117 1.0260432959 1.0260432959
 839.05950928  -999.250000 22.302999496 0.0160000008  -999.250000 0.4506399930 1.7949999571  -999.250000 76.407150269 159.80235291 1.2010576725 56.278442383 1.0200215578 1.0200215578
 839.21191406  -999.250000 22.315000534 0.0109999999  -999.250000 0.4658499956 1.7890000343  -999.250000 76.058273315 159.66731262 1.1900397539 56.556987762 1.0050541162 1.0050541162
 839.36431885  -999.250000 22.309000015 0.0030000000  -999.250000 0.4989400208 1.7779999971  -999.250000 75.303726196 159.77696228 1.1720649004 56.602836609 0.9920468330 0.9920468330
 839.51672363  -999.250000 22.322000504 -0.002000000  -999.250000 0.5094100237 1.7710000277  -999.250000 73.317176819 160.10578918 1.1620359421 57.095218658 0.9820360541 0.9820360541
 839.66912842  -999.250000 22.327999115 -0.004000000  -999.250000 0.5075199604 1.7669999599  -999.250000 71.036308289 160.38078308 1.1580128670 57.105968475 0.9829967618 0.9829967618
 839.82153320  -999.250000 22.327999115 -0.002000000  -999.250000 0.4516800046 1.7699999809  -999.250000 71.867309570 160.56152344 1.1520191431 57.159828186 0.9849935770 0.9849935770
 839.97393799  -999.250000 22.327999115 -0.004000000  -999.250000 0.4140200019 1.7730000019  -999.250000 70.886161804 160.60556030 1.1420320272 57.646434784 0.9850000143 0.9850000143
 840.12634277  -999.250000 22.330999374 -0.006000000  -999.250000 0.4098199904 1.7819999456  -999.250000 69.293113708 160.43632507 1.1380128860 57.561279297 0.9889872074 0.9889872074
 840.27874756  -999.250000 22.340999603 -0.006000000  -999.250000 0.4566600025 1.7910000086  -999.250000 69.306938171 160.13003540 1.1449775696 57.581932068 0.9890000224 0.9890000224
 840.43115234  -999.250000 22.343999863 -0.005000000  -999.250000 0.4907599986 1.7979999781  -999.250000 75.550933838 159.71432495 1.1639391184 57.546115875 0.9810256362 0.9810256362
 840.58349609  -999.250000 22.343999863 -0.005000000  -999.250000 0.5033900142 1.7929999828  -999.250000 76.740768433 159.38250732 1.1679855585 58.074089050 0.9700396657 0.9700396657
 840.73590088  -999.250000 22.343999863 -0.008000000  -999.250000 0.4581000209 1.7829999924  -999.250000 80.138725281 159.41674805 1.1430901289 58.378906250 0.9580432773 0.9580432773
 840.88830566  -999.250000 22.343999863 -0.012000000  -999.250000 0.4433200061 1.7740000486  -999.250000 78.418273926 159.77951050 1.1290503740 57.946567535 0.9540144205 0.9540144205
 841.04071045  -999.250000 22.343999863 -0.013000000  -999.250000 0.4504399896 1.7680000067  -999.250000 80.314117432 160.21437073 1.1110647917 58.200077057 0.9520072341 0.9520072341
 841.19311523  -999.250000 22.343999863 -0.011000000  -999.250000 0.4842399955 1.7660000324  -999.250000 77.033897400 160.34873962 1.0850937366 58.301635742 0.9460216165 0.9460216165
 841.34552002  -999.250000 22.343999863 -0.006000000  -999.250000 0.5176599622 1.7680000067  -999.250000 77.329887390 160.48045349 1.0541117191 58.034965515 0.9360360503 0.9360360503
 841.49792480  -999.250000 22.343999863 -0.004000000  -999.250000 0.5030500293 1.7669999599  -999.250000 77.480461121 160.69328308 1.0300865173 58.147586823 0.9160720706 0.9160720706
 841.65032959  -999.250000 22.340999603 -0.001000000  -999.250000 0.5366500020 1.7619999647  -999.250000 78.895881653 160.77947998 1.0180432796 57.729515076 0.8890973330 0.8890973330
 841.80273438  -999.250000 22.330999374 -0.006000000  -999.250000 0.5606000423 1.7489999533  -999.250000 76.046180725 160.89862061 1.0070352554 57.787807465 0.8590961695 0.8590961695
 841.95513916  -999.250000 22.322000504 -0.010000000  -999.250000 0.5740200281 1.7389999628  -999.250000 77.030799866 161.26147461 1.0010192394 57.852790833 0.8340801001 0.8340801001
 842.10754395  -999.250000 22.309000015 -0.016000001  -999.250000 0.5289400220 1.7300000191  -999.250000 73.270103455 161.56553650 1.0000032187 57.514091492 0.8250288367 0.8250288367
 842.25994873  -999.250000 22.322000504 -0.016000001  -999.250000 0.5255799890 1.7300000191  -999.250000 70.343368530 161.58616638 0.9930223823 57.902748108 0.8210127950 0.8210127950
 842.41235352  -999.250000 22.327999115 -0.013000000  -999.250000 0.5296300054 1.7400000095  -999.250000 66.951873779 161.26922607 0.9900096059 57.865127563 0.8209999800 0.8209999800
 842.56475830  -999.250000 22.322000504 -0.009000000  -999.250000 0.5112500191 1.7560000420  -999.250000 70.004158020 160.82835388 0.9979743958 58.428188324 0.8349550962 0.8349550962
 842.71710205  -999.250000 22.291002274 -0.005000000  -999.250000 0.4675199986 1.7760000229  -999.250000 75.223152161 160.49519348 1.0149387121 59.446323395 0.8638954759 0.8638954759
 842.86950684  -999.250000 22.260000229 -0.002000000  -999.250000 0.4127399921 1.7849999666  -999.250000 77.408164978 160.31309509 1.0319386721 62.384384155 0.8968810439 0.8968810439
 843.02191162  -999.250000 22.291002274 0.0020000001  -999.250000 0.4043500125 1.7860000134  -999.250000 74.798469543 160.26086426 1.0569099188 65.154022217 0.9368557930 0.9368557930
