# LAS format log file from PETREL
# Project units are specified as depth units
#==================================================================
~Version information
VERS.   2.0:
WRAP.   NO:
#==================================================================
~Well
STRT .m      443.33587646 :
STOP .m      1778.0548096 :
STEP .m     0.00000000 :
NULL .        -999.250000 :
COMP.           : COMPANY
WELL.  31/2-9   : WELL
FLD.            : FIELD
LOC.            : LOCATION
SRVC.           : SERVICE COMPANY
DATE.  2018-09-11 14:48:35   : Log Export Date {yyyy-MM-dd HH:mm:ss}
PROV.           : PROVINCE
UWI.   31/2-9   : UNIQUE WELL ID
API.            : API NUMBER
#==================================================================
~Curve
DEPT .m                   : DEPTH
Lithology_geolink ._      : Lithology_geolink
CALI .in                  : CALI
DRHO .g/cm3               : DRHO
SGR .gAPI                 : SGR
NPHI .m3/m3               : NPHI
RHOB .g/cm3               : RHOB
PEF .b/e                  : PEF
GR .gAPI                  : GR
DTC .us/ft                : DTC
RDEP .ohm.m               : RDEP
SP .mV                    : SP
RSHA .ohm.m               : RSHA
RMED .ohm.m               : RMED
~Parameter
#==================================================================
~Ascii
# ...
 1502.8204346 5.0000000000 21.128999710 0.0580640510 57.953998566 0.5261704922 1.6779679060 6.7203769684 41.688602448 155.99708557 0.8359623551 67.970901489 0.7999951839 0.7999951839
 1502.9729004 5.0000000000 20.643999100 0.0400432684 56.054000854 0.5100486875 1.6720144749 7.0651659966 42.431743622 152.37557983 0.7890528440 67.689682007 0.7939792275 0.7939792275
 1503.1252441 5.0000000000 20.162000656 0.0290352274 54.775001526 0.5083553195 1.6341216564 7.7478094101 38.534378052 152.75019836 0.8220416903 67.461730957 0.7809799910 0.7809799910
 1503.2775879 5.0000000000 20.381999969 0.0339839756 54.715999603 0.5145301819 1.6339999437 7.3193845749 42.754226685 153.00520325 0.8739895821 67.534767151 0.7559735775 0.7559735775
 1503.4300537 5.0000000000 21.347999573 0.0519423559 57.763000488 0.5068646669 1.6908174753 6.5743889809 48.034229279 159.49438477 0.8609967828 67.607765198 0.7230240107 0.7230240107
 1503.5823975 5.0000000000 21.892999649 0.0659551248 59.875999451 0.4896951318 1.7278814316 6.5949258804 52.060470581 152.49299622 0.8569647670 67.680763245 0.7530328631 0.7530328631
 1503.7348633 5.0000000000 21.120000839 0.0560320280 60.896999359 0.4767414331 1.6821473837 6.7744235992 48.904521942 143.75210571 0.8129816055 67.712898254 0.7940120697 0.7940120697
 1503.8872070 5.0000000000 19.959999084 0.0450352579 60.361999512 0.4826708138 1.6291698217 7.0770287514 47.062400818 146.37690735 0.7900384665 67.736923218 0.8089568019 0.8089568019
 1504.0396729 5.0000000000 20.972999573 0.0559735596 59.886001587 0.5007963777 1.6479543447 7.3413653374 46.313026428 148.75219727 0.8379999995 67.761940002 0.7549831867 0.7549831867
 1504.1920166 5.0000000000 22.263000488 0.0799231380 60.944999695 0.5103693604 1.7058142424 6.6930847168 46.346027374 151.49639893 0.8379679918 67.790908813 0.7339976430 0.7339976430
 1504.3444824 5.0000000000 21.912000656 0.1049399003 61.897998810 0.5148892403 1.7768292427 6.2750024796 48.877002716 146.99069214 0.7979903817 67.821922302 0.7310136557 0.7310136557
 1504.4968262 5.0000000000 20.583000183 0.1099839881 62.555999756 0.5155180097 1.7989295721 6.3417820930 51.373973846 135.38551331 0.7859992385 67.853897095 0.7480040193 0.7480040193
 1504.6492920 5.0000000000 20.488000870 0.1000240371 62.950000763 0.5153005123 1.7850335836 7.6927452087 50.099956512 148.50300598 0.7850144506 67.898895264 0.7530128360 0.7530128360
 1504.8016357 5.0000000000 21.221002579 0.0810608491 62.799999237 0.5140540004 1.7531025410 8.9160804749 53.809696198 150.37429810 0.7940281034 67.974754333 0.7610272169 0.7610272169
 1504.9541016 5.0000000000 21.184000015 0.0750144273 63.273998260 0.5121046901 1.6741899252 9.0257453918 49.693252563 149.51440430 0.8290496469 68.050819397 0.7950576544 0.7950576544
 1505.1064453 6.0000000000 20.898000717 0.0680224225 62.081001282 0.5104353428 1.6201729774 8.4498510361 52.966773987 158.49798584 0.8600272536 68.124763489 0.8310087919 0.8310087919
 1505.2589111 6.0000000000 21.120000839 0.0560288467 63.374000549 0.4975011647 1.5960576534 6.9456200600 50.193202972 156.00018311 0.8940592408 68.086090088 0.8419792056 0.8419792056
 1505.4112549 6.0000000000 20.610000610 0.0470288210 66.033996582 0.4803649485 1.6318846941 6.3917675018 53.440277100 156.11749268 0.9310095906 68.047119141 0.8290176392 0.8290176392
 1505.5635986 6.0000000000 18.188999176 0.0460032038 69.616996765 0.4782167375 1.6519358158 5.9673590660 56.282474518 146.75059509 0.9429992437 68.008125305 0.8510360122 0.8510360122
 1505.7160645 6.0000000000 15.670000076 0.0489903912 70.948997498 0.4868123531 1.6579807997 6.5281939507 58.126201630 147.50550842 0.9420031905 67.913307190 0.8959863782 0.8959863782
 1505.8684082 6.0000000000 14.458000183 0.0709294900 70.693000793 0.4903886020 1.7078397274 6.9984936714 59.624198914 154.37530518 0.9460063577 67.800361633 0.8789647818 0.8789647818
 1506.0208740 6.0000000000 14.187999725 0.1099062487 68.944999695 0.4796060324 1.7878077030 7.5506730080 58.626354218 154.74919128 0.9540192485 67.686271667 0.8349927664 0.8349927664
 1506.1732178 6.0000000000 14.080000877 0.1478783041 68.282997131 0.4728416502 1.8687405586 7.3785572052 60.314025879 153.74821472 0.9779999852 67.718894958 0.8260239959 0.8260239959
 1506.3256836 6.0000000000 14.105999947 0.1569783688 68.065002441 0.4847213030 1.9178822041 6.7395381927 61.594402313 151.49409485 0.9779663086 67.918518066 0.8560432792 0.8560432792
 1506.4780273 6.0000000000 14.647999763 0.1550064087 69.481002808 0.4932327569 1.9628559351 5.9754500389 62.090496063 144.12550354 0.9359815717 68.119361877 0.9100232720 0.9100232720
 1506.6304932 5.0000000000 15.204998970 0.1510096043 69.398002625 0.4885812402 1.9809566736 5.4003801346 57.720603943 144.74719238 0.9130384326 68.299568176 0.9389696121 0.9389696121
 1506.7828369 5.0000000000 15.421999931 0.1509999931 69.095001221 0.4676173329 1.9959520102 5.2434997559 58.718025208 142.99819946 0.9369911551 68.389709473 0.9199823737 0.9199823737
 1506.9353027 5.0000000000 15.895999908 0.1420216411 68.367996216 0.4608362019 1.9890167713 5.9293465614 57.501350403 140.74899292 0.9259871840 68.478782654 0.8979791999 0.8979791999
 1507.0876465 5.0000000000 15.957999229 0.1160832644 69.374000549 0.4667011201 1.9610896111 6.3187541962 58.342926025 140.12870789 0.9179903865 68.567718506 0.8849831820 0.8849831820
 1507.2401123 5.0000000000 15.932000160 0.0820817351 69.026000977 0.4834098220 1.9250864983 5.7852883339 56.994644165 144.74899292 0.9059407711 68.589942932 0.8639584184 0.8639584184
 1507.3924561 5.0000000000 16.093000412 0.0610672534 67.638999939 0.4997077882 1.9459327459 4.7403531075 53.655921936 144.12440491 0.8690112233 68.604957581 0.8380039930 0.8380039930
 1507.5447998 5.0000000000 16.652000427 0.0560160279 65.121002197 0.5039864182 1.9958398342 4.3213367462 53.564525604 143.37399292 0.8830119967 68.619956970 0.8430079818 0.8430079818
 1507.6972656 5.0000000000 17.084999084 0.0569967963 63.033000946 0.4924869835 2.0259039402 4.3499040604 55.470653534 142.11618042 0.8979791403 68.734634399 0.8530344367 0.8530344367
 1507.8496094 5.0000000000 16.621999741 0.0639775693 62.817001343 0.4745076895 2.0250031948 4.4646315575 57.526870728 131.12809753 0.8720200062 68.911437988 0.8960352540 0.8960352540
 1508.0020752 5.0000000000 16.863000870 0.0769583657 64.224998474 0.4615514576 2.0289871693 4.2795953751 52.371444702 135.00140381 0.8970312476 69.088432312 0.9400224090 0.9400224090
 1508.1544189 5.0000000000 17.291000366 0.0869679451 66.492996216 0.4593170583 2.0529229641 4.0965867043 47.938976288 136.74760437 0.9360256195 69.121894836 0.9680240154 0.9680240154
 1508.3068848 5.0000000000 17.629999161 0.0820120201 67.726997375 0.4653754234 2.0739493370 3.9942450523 49.158977509 133.75160217 0.9680312276 68.878585815 0.9980008006 0.9980008006
 1508.4592285 5.0000000000 17.143999100 0.0780128092 67.335998535 0.4683405161 2.0869581699 4.2003374100 52.875427246 135.74758911 1.0069943666 68.635780334 0.9989951849 0.9989951849
 1508.6116943 5.0000000000 16.208999634 0.0859807730 67.958000183 0.4570771754 2.0810143948 4.5152425766 53.404197693 132.74559021 0.9999823570 68.389595032 0.9930447936 0.9930447936
 1508.7640381 5.0000000000 16.187000275 0.1228815094 68.295997620 0.4495042562 2.0909681320 4.8050713539 52.283252716 130.00430298 0.9890016317 68.108901978 1.0209655762 1.0209655762
 1508.9165039 5.0000000000 15.145999908 0.1349711567 68.867996216 0.4273034334 2.0780313015 4.8528871536 55.100807190 135.37519836 0.9909295440 67.828674316 0.9780864716 0.9780864716
 1509.0688477 6.0000000000 14.550998688 0.1399839818 70.125999451 0.4195547402 2.0809905529 4.8868913651 59.348583221 135.49960327 0.9469879866 67.547897339 1.0319670439 1.0319670439
 1509.2213135 6.0000000000 14.909000397 0.1290264428 72.814002991 0.4541066587 2.0590529442 4.8241515160 65.069007874 135.00860596 0.9319663644 67.489135742 0.9909487367 0.9909487367
 1509.3736572 6.0000000000 15.286000252 0.1389679760 74.780998230 0.4714146554 2.0619904995 4.5777912140 68.812149048 140.37590027 0.9109879732 67.493988037 0.9589951634 0.9589951634
