# LAS format log file from PETREL
# Project units are specified as depth units
#==================================================================
~Version information
VERS.   2.0:
WRAP.   NO:
#==================================================================
~Well
STRT .m      439.56304932 :
STOP .m      1665.9261475 :
STEP .m     0.00000000 :
NULL .        -999.250000 :
COMP.           : COMPANY
WELL.  31/2-7   : WELL
FLD.            : FIELD
LOC.            : LOCATION
SRVC.           : SERVICE COMPANY
DATE.  2018-09-11 14:48:34   : Log Export Date {yyyy-MM-dd HH:mm:ss}
PROV.           : PROVINCE
UWI.   31/2-7   : UNIQUE WELL ID
API.            : API NUMBER
#==================================================================
~Curve
DEPT .m                   : DEPTH
Lithology_geolink ._      : Lithology_geolink
CALI .in                  : CALI
DRHO .g/cm3               : DRHO
SGR .gAPI                 : SGR
NPHI .m3/m3               : NPHI
RHOB .g/cm3               : RHOB
PEF .b/e                  : PEF
GR .gAPI                  : GR
DTC .us/ft                : DTC
DTE .us/ft                : DTE
RDEP .ohm.m               : RDEP
SP .mV                    : SP
RSHA .ohm.m               : RSHA
RMED .ohm.m               : RMED
~Parameter
#==================================================================
~Ascii
 439.56304932  -999.250000 21.780998230 -0.104000002  -999.250000 0.5917999744 2.1889998913  -999.250000 14.579722404 197.98500061 197.79359436 2.1288478374 -35.17628860 0.2630040050 0.2630040050
 439.71542358  -999.250000 21.780998230 -0.112000003  -999.250000 0.5258800387 2.1970000267  -999.250000 14.391411781 197.99578857 197.79359436 2.0920815468 -33.92375946 0.2610044181 0.2610044181
 439.86782837  -999.250000 21.780998230 -0.144999996  -999.250000 0.5151399970 2.1659998894  -999.250000 14.405966759 197.96669006 197.79359436 1.9842379093 -33.46700287 0.2639933825 0.2639933825
 440.02023315  -999.250000 21.780998230 -0.152999997  -999.250000 0.5327100158 2.1719999313  -999.250000 14.577621460 197.93914795 197.79359436 1.9590550661 -33.83818054 0.2699868083 0.2699868083
 440.17263794  -999.250000 21.780998230 -0.159999996  -999.250000 0.5595700145 2.1640000343  -999.250000 14.960156441 197.99578857 197.79359436 2.0158743858 -33.92880249 0.2709977925 0.2709977925
 440.32504272  -999.250000 21.780998230 -0.133000001  -999.250000 0.5263699889 2.1949999332  -999.250000 14.609775543 197.98500061 197.79359436 2.1147818565 -29.25032806 0.2700022161 0.2700022161
 440.47744751  -999.250000 21.780998230 -0.118000001  -999.250000 0.5454099774 2.2049999237  -999.250000 13.674063683 198.00039673 197.79359436 2.1409428120 -25.40047646 0.2650110126 0.2650110126
 440.62982178  -999.250000 21.780998230 -0.111000001  -999.250000 0.5292999744 2.2300000191  -999.250000 13.882535934 197.99578857 197.79359436 2.0551896095 -28.10301399 0.2630044222 0.2630044222
 440.78222656  -999.250000 21.780998230 -0.119000003  -999.250000 0.5415000319 2.2269999981  -999.250000 14.022691727 197.96669006 197.79359436 1.9352642298 -29.03994560 0.2659933865 0.2659933865
 440.93463135  -999.250000 21.780998230 -0.115000002  -999.250000 0.5395500064 2.2420001030  -999.250000 15.231332779 197.93914795 197.79359436 1.8641563654 -27.79574966 0.2689933777 0.2689933777
 441.08703613  -999.250000 21.780998230 -0.100000001  -999.250000 0.5497999787 2.2500000000  -999.250000 15.039428711 197.99578857 197.79359436 1.9009184837 -27.44975662 0.2670044005 0.2670044005
 441.23944092  -999.250000 21.780998230 -0.096000001  -999.250000 0.5566400290 2.2520000935  -999.250000 16.762197495 197.98500061 197.79359436 1.9518877268 -27.25941849 0.2590176165 0.2590176165
 441.39184570  -999.250000 21.780998230 -0.112999998  -999.250000 0.5361300111 2.2400000095  -999.250000 17.342727661 197.99578857 197.79359436 1.9360352755 -26.82296371 0.2520154119 0.2520154119
 441.54425049  -999.250000 21.780998230 -0.123999998  -999.250000 0.5283200145 2.2190001011  -999.250000 17.047655106 197.98039246 197.79359436 1.8212532997 -29.94011688 0.2520000041 0.2520000041
 441.69662476  -999.250000 21.780998230 -0.134000003  -999.250000 0.5278300047 2.2230000496  -999.250000 16.376480103 197.97128296 197.79359436 1.7621299028 -31.28704453 0.2549933791 0.2549933791
 441.84902954  -999.250000 21.780998230 -0.114000000  -999.250000 0.5620099902 2.2320001125  -999.250000 18.417491913 197.94990540 197.79359436 1.7360571623 -32.78769302 0.2540022135 0.2540022135
 442.00143433  -999.250000 21.780998230 -0.119999997  -999.250000 0.5805699825 2.2420001030  -999.250000 19.544523239 197.98500061 197.79359436 1.7310109138 -36.06477356 0.2490110099 0.2490110099
 442.15383911  -999.250000 21.780998230 -0.128000006  -999.250000 0.5458999872 2.2379999161  -999.250000 20.560762405 197.99578857 197.79359436 1.7609339952 -37.97380066 0.2440110147 0.2440110147
 442.30624390  -999.250000 21.780998230 -0.127000004  -999.250000 0.5634800196 2.2990000248  -999.250000 21.404142380 197.98500061 197.79359436 1.7669867277 -38.78921127 0.2390110046 0.2390110046
 442.45864868  -999.250000 21.797000885 -0.116999999  -999.250000 0.5532199740 2.3550000191  -999.250000 22.045589447 197.98207092 197.79359436 1.6662224531 -40.31862640 0.2370044142 0.2370044142
 442.61105347  -999.250000 21.780998230 -0.104999997  -999.250000 0.5576199889 2.4219999313  -999.250000 21.797552109 197.93453979 197.79359436 1.7358458042 -40.57144928 0.2419889867 0.2419889867
 442.76342773  -999.250000 21.780998230 -0.107000001  -999.250000 0.5000000000 2.4079999924  -999.250000 21.220273972 197.98039246 197.79359436 1.8248039484 -41.86614227 0.2350154221 0.2350154221
 442.91583252  -999.250000 21.780998230 -0.097000003  -999.250000 0.4980500042 2.4219999313  -999.250000 21.811691284 197.98500061 197.79359436 1.7361959219 -42.32099915 0.2240242362 0.2240242362
 443.06823730  -999.250000 21.780998230 -0.089000002  -999.250000 0.5434600115 2.4159998894  -999.250000 22.778867722 198.00039673 197.79359436 1.5743567944 -41.13661575 0.2180132121 0.2180132121
 443.22064209  -999.250000 21.780998230 -0.083999999  -999.250000 0.5380899906 2.4319999218  -999.250000 22.438755035 197.99578857 197.79359436 1.6218942404 -42.44410706 0.2140088081 0.2140088081
 443.37304688  -999.250000 21.797000885 -0.086999997  -999.250000 0.5493199825 2.4389998913  -999.250000 21.408273697 197.97126770 197.79359436 1.5880749226 -42.57172394 0.1960396469 0.1960396469
 443.52545166  -999.250000 21.797000885 -0.070000000  -999.250000 0.5048800111 2.4509999752  -999.250000 20.673618317 197.94992065 197.79359436 1.5361145735 -43.44507217 0.1880176216 0.1880176216
 443.67785645  -999.250000 21.780998230 -0.068999998  -999.250000 0.5156300068 2.4389998913  -999.250000 19.424755096 197.98039246 197.79359436 1.5280176401 -43.93791580 0.1800176352 0.1800176352
 443.83023071  -999.250000 21.780998230 -0.052999999  -999.250000 0.5073199868 2.4100000858  -999.250000 18.096925735 197.98500061 197.79359436 1.5170241594 -43.59576035 0.1730154157 0.1730154157
 443.98263550  -999.250000 21.780998230 -0.056000002  -999.250000 0.5351600051 2.3949999809  -999.250000 20.603460312 198.00039673 197.79359436 1.5838524103 -43.48624039 0.1710044146 0.1710044146
 444.13504028  -999.250000 21.780998230 -0.041999999  -999.250000 0.5249000192 2.3810000420  -999.250000 23.213251114 197.99578857 197.79359436 1.5351078510 -42.61292648 0.1759889871 0.1759889871
 444.28744507  -999.250000 21.780998230 -0.039000001  -999.250000 0.4970700145 2.3750000000  -999.250000 26.742221832 197.97126770 197.79359436 1.5100550652 -40.42781830 0.1989493370 0.1989493370
 444.43984985  -999.250000 21.780998230 -0.024000000  -999.250000 0.4970700145 2.3610000610  -999.250000 25.954753876 197.94534302 197.79359436 1.4660968781 -39.99494553 0.2129691690 0.2129691690
 444.59225464  -999.250000 21.780998230 -0.017000001  -999.250000 0.4682599902 2.3610000610  -999.250000 25.157754898 197.96969604 197.79359436 1.4510329962 -39.85330963 0.1890528649 0.1890528649
 444.74465942  -999.250000 21.780998230 -0.007000000  -999.250000 0.4790000021 2.3670001030  -999.250000 25.125068665 197.99578857 197.79359436 1.4150792360 -39.33813858 0.1680462509 0.1680462509
 444.89703369  -999.250000 21.780998230 -0.003000000  -999.250000 0.4985400140 2.3810000420  -999.250000 25.623897552 197.98500061 197.79359436 1.4479272366 -34.71520615 0.1620132178 0.1620132178
 445.04943848  -999.250000 21.780998230 -0.004000000  -999.250000 0.5395500064 2.3729999065  -999.250000 24.533409119 197.99578857 197.79359436 1.4879119396 -34.54534912 0.1590065956 0.1590065956
 445.20184326  -999.250000 21.780998230 0.0130000003  -999.250000 0.5322300196 2.3570001125  -999.250000 23.735754013 197.97126770 197.79359436 1.4919911623 -33.16903687 0.1560066044 0.1560066044
 445.35424805  -999.250000 21.780998230 0.0280000009  -999.250000 0.5068399906 2.3320000172  -999.250000 24.264829636 197.95451355 197.79359436 1.5149493217 -31.64735031 0.1540044099 0.1540044099
 445.50665283  -999.250000 21.780998230 0.0560000017  -999.250000 0.5068399906 2.3589999676  -999.250000 26.308490753 197.99121094 197.79359436 1.5469295979 -31.43645859 0.1559955925 0.1559955925
 445.65905762  -999.250000 21.780998230 0.0560000017  -999.250000 0.4995099902 2.3889999390  -999.250000 28.433319092 197.96969604 197.79359436 1.5180639029 -30.71259689 0.1769537479 0.1769537479
