# LAS format log file from PETREL
# Project units are specified as depth units
#==================================================================
~Version information
VERS.   2.0:
WRAP.   NO:
#==================================================================
~Well
STRT .m      452.86209106 :
STOP .m      2603.6831055 :
STEP .m     0.00000000 :
NULL .        -999.250000 :
COMP.           : COMPANY
WELL.  31/2-3   : WELL
FLD.            : FIELD
LOC.            : LOCATION
SRVC.           : SERVICE COMPANY
DATE.  2018-09-11 14:48:34   : Log Export Date {yyyy-MM-dd HH:mm:ss}
PROV.           : PROVINCE
UWI.   31/2-3   : UNIQUE WELL ID
API.            : API NUMBER
#==================================================================
~Curve
DEPT .m                   : DEPTH
Lithology_geolink ._      : Lithology_geolink
CALI .in                  : CALI
DRHO .g/cm3               : DRHO
NPHI .m3/m3               : NPHI
RHOB .g/cm3               : RHOB
GR .gAPI                  : GR
DTC .us/ft                : DTC
DTE .us/ft                : DTE
RDEP .ohm.m               : RDEP
SP .mV                    : SP
RSHA .ohm.m               : RSHA
RMED .ohm.m               : RMED
~Parameter
#==================================================================
~Ascii
# ...
 599.16607666  -999.250000 20.795000076 0.0190012008 0.3789199889 2.2830140591 45.965999603 132.37770081 130.41783142 3.0739998817 28.219999313  -999.250000 3.3430118561
 599.31848145  -999.250000 20.722999573 0.0130024031 0.3654199839 2.2600460052 44.875999451 132.25978088 130.30169678 3.0739998817 27.798999786  -999.250000 3.3130118847
 599.47088623  -999.250000 20.615001678 0.0080000004 0.3894599974 2.2300601006 44.161998749 131.81504822 129.87590027 3.0739998817 27.784000397  -999.250000 3.3440001011
 599.62329102  -999.250000 20.815000534 0.0030000000 0.4210300148 2.2000601292 43.625000000 133.10224915 131.15815735 3.0739998817 28.013999939  -999.250000 3.3989999294
 599.77569580  -999.250000 20.434999466 0.0010000000 0.4404000044 2.1580841541 42.594001770 136.11505127 134.17846680 3.0739998817 28.343000412  -999.250000 3.4879999161
 599.92810059  -999.250000 19.739000320 0.0000000000 0.4510800242 2.1330499649 41.651000977 137.79837036 135.88031006 3.0739986897 28.562000275  -999.250000 3.5569999218
 600.08050537  -999.250000 19.507999420 0.0040000002 0.4404200017 2.1869134903 40.807998657 138.54180908 136.60713196 3.0709917545 28.584999084  -999.250000 3.5539999008
 600.23284912  -999.250000 19.702999115 0.0169947948 0.4061399698 2.2538657188 40.278999329 135.98925781 134.04605103 3.0499999523 28.413000107  -999.250000 3.5020208359
 600.38525391  -999.250000 20.052999496 0.0179995988 0.3801699877 2.2549982071 39.244998932 132.05998230 130.13533020 3.0499999523 28.187999725  -999.250000 3.4340271950
 600.53765869  -999.250000 20.075000763 0.0090036038 0.3875299692 2.2260582447 38.110000610 130.12530518 128.21488953 3.0710000992 27.931999207  -999.250000 3.3510332108
 600.69006348  -999.250000 20.913000107 0.0020028034 0.4144200087 2.1940641403 37.495998383 128.33305359 126.41853333 3.0769999027 27.562000275  -999.250000 3.3160140514
 600.84246826  -999.250000 22.028999329 -0.002997998 0.4292500019 2.1431019306 37.481998444 131.73324585 129.80447388 3.0989999771 27.587999344  -999.250000 3.3159999847
 600.99487305  -999.250000 21.933000565 -0.008997597 0.4304000139 2.0751361847 37.508998871 136.80812073 134.88211060 3.1040000916 28.121000290  -999.250000 3.3669795990
 601.14721680  -999.250000 20.799001694 -0.016993593 0.4221132994 2.0131490231 37.655941010 137.06431580 135.13351440 3.1010000706 29.280534744  -999.250000 3.4329471588
 601.29962158  -999.250000 19.982000351 -0.013003204 0.4219900668 2.0239734650 38.327728271 135.51794434 133.58459473 3.0780000687 29.665845871  -999.250000 3.5229279995
 601.45202637  -999.250000 19.652000427 -0.004007209 0.4314562082 2.0908391476 39.100692749 133.63725281 131.70071411 3.0739998817 29.703985214  -999.250000 3.5839512348
 601.60443115  -999.250000 19.354000092 0.0019975964 0.4405663610 2.1388845444 39.620788574 133.84799194 131.91194153 3.0739998817 29.429111481  -999.250000 3.5919969082
 601.75683594  -999.250000 19.829999924 0.0069979979 0.4489866197 2.2038438320 39.489051819 135.76406860 133.83572388 3.0739998817 29.116125107  -999.250000 3.5310242176
 601.90924072  -999.250000 20.510999680 0.0079995999 0.4611751139 2.2419087887 38.660331726 132.66119385 130.73901367 3.0739998817 29.122997284  -999.250000 3.4410359859
 602.06164551  -999.250000 20.287998199 0.0030020024 0.4861799777 2.2120599747 37.809337616 130.30310059 128.37762451 3.0710000992 29.408885956  -999.250000 3.3790247440
 602.21405029  -999.250000 20.721000671 0.0000012014 0.5128793716 2.1511220932 37.307201385 133.57986450 131.63735962 3.0490000248 29.676893234  -999.250000 3.3440141678
 602.36645508  -999.250000 21.368000031 -0.000999600 0.5281900167 2.1020982265 36.955001831 135.68119812 133.75180054 3.0169999599 29.576000214  -999.250000 3.3459992409
 602.51885986  -999.250000 21.496000290 -0.004998398 0.5311300159 2.0930180550 36.875000000 136.19091797 134.27696228 2.9660000801 29.020000458  -999.250000 3.3689906597
 602.67126465  -999.250000 21.857999802 -0.004000401 0.5154399872 2.1428997517 36.866001129 136.34094238 134.39176941 2.9430000782 28.552000046  -999.250000 3.3630023003
 602.82366943  -999.250000 21.969999313 0.0039967964 0.4818100035 2.1799259186 36.238998413 133.63177490 131.70806885 2.9379999638 28.823999405  -999.250000 3.3140194416
 602.97607422  -999.250000 21.596002579 0.0079983985 0.4523300231 2.1650300026 36.139999390 130.47465515 128.53041077 2.9619998932 28.415000916  -999.250000 3.2620208263
 603.12841797  -999.250000 21.496000290 0.0010056067 0.4440833032 2.1201081276 36.684783936 133.29144287 131.35171509 2.9900000095 28.182092667  -999.250000 3.2520081997
 603.28082275  -999.250000 21.745000839 -0.008991990 0.4494178593 2.0581490993 35.211589813 139.61076355 137.67866516 2.9960000515 28.849733353  -999.250000 3.3639104366
 603.43322754  -999.250000 22.235000610 -0.012996797 0.4519889653 2.0370504856 34.067459106 142.57066345 140.61328125 3.0169999599 29.667671204  -999.250000 3.4869015217
 603.58563232  -999.250000 22.336000443 -0.005003205 0.4527896643 2.1058342457 33.199348450 141.82852173 139.87081909 3.0199999809 29.882913589  -999.250000 3.5509743690
 603.73803711  -999.250000 21.944999695 0.0039963960 0.4535297155 2.1997742653 32.670211792 139.22460938 137.27828979 3.0209999084 29.480161667  -999.250000 3.5629951954
 603.89044189  -999.250000 21.093999863 0.0030004005 0.4539798200 2.2119710445 32.826999664 133.72920227 131.79663086 3.0420000553 28.971204758  -999.250000 3.5590016842
 604.04284668  -999.250000 20.402000427 0.0010008010 0.4567688704 2.1860625744 33.444000244 131.91102600 129.98812866 3.0450000763 28.631135941  -999.250000 3.5360093117
 604.19525146  -999.250000 20.083002090 0.0039987988 0.4576596320 2.1949818134 34.084999084 134.10066223 132.16052246 3.0239999294 28.406089783  -999.250000 3.5250043869
 604.34765625  -999.250000 20.107999802 0.0099975970 0.4516324103 2.2359180450 34.880001068 134.22955322 132.28869629 3.0199999809 28.307039261  -999.250000 3.4680228233
 604.50006104  -999.250000 19.965000153 0.0109995995 0.4364799857 2.2479758263 35.279998779 133.66162109 131.74624634 3.0199999809 28.599000931  -999.250000 3.3770365715
 604.65246582  -999.250000 19.854000092 0.0020036043 0.4312099814 2.2140681744 35.661998749 131.00582886 129.06661987 3.0199999809 29.249000549  -999.250000 3.2920341492
 604.80487061  -999.250000 19.872997284 -0.003997597 0.4418600202 2.1551182270 35.493000031 129.03376770 127.07288361 3.0209999084 29.552999496  -999.250000 3.2570140362
 604.95727539  -999.250000 20.000999451 -0.012996396 0.4441899955 2.0841422081 34.915000916 131.90336609 129.96330261 3.0420000553 28.899000168  -999.250000 3.3139770031
 605.10968018  -999.250000 20.000999451 -0.026994394 0.4426400065 2.0181319714 34.800998688 136.87709045 134.95846558 3.0480000973 28.722999573  -999.250000 3.4259552956
 605.26202393  -999.250000 19.777000427 -0.029997597 0.4414604902 2.0090217590 35.548000336 143.76821899 141.83065796 3.0690000057 28.954906464  -999.250000 3.5459039211
 605.41442871  -999.250000 19.381999969 -0.022006407 0.4451285303 2.0469086170 37.445999146 148.26000977 146.31654358 3.0739998817 29.163915634  -999.250000 3.6239376068
 605.56683350  -999.250000 18.972000122 -0.011008810 0.4561755955 2.1118438244 38.709999084 145.19879150 143.27551270 3.0780000687 29.249965668  -999.250000 3.6519775391
 605.71923828  -999.250000 18.749000549 -0.002003606 0.4624474943 2.1878173351 39.923000336 137.67123413 135.75674438 3.1019999981 29.271989822  -999.250000 3.6310083866
 605.87164307  -999.250000 18.743999481 0.0029979977 0.4756247103 2.2398750782 40.459999084 131.00444031 129.06924438 3.1040000916 29.133054733  -999.250000 3.5630271435
 606.02404785  -999.250000 19.072000504 0.0099971965 0.4906539917 2.2619471550 40.043998718 128.12203979 126.17012787 3.1040000916 29.052032471  -999.250000 3.4730360508
 606.17645264  -999.250000 19.711000443 0.0109995995 0.4993765056 2.2629976273 37.500000000 129.02339172 127.07233429 3.1040000916 28.561197281  -999.250000 3.3700411320
 606.32885742  -999.250000 20.583000183 0.0090008005 0.5040881038 2.2490282059 35.986999512 131.26576233 129.32777405 3.1029999256 27.872276306  -999.250000 3.3690004349
