# LAS format log file from PETREL
# Project units are specified as depth units
#==================================================================
~Version information
VERS.   2.0:
WRAP.   NO:
#==================================================================
~Well
STRT .m      326.13598633 :
STOP .m      1938.6804199 :
STEP .m     0.00000000 :
NULL .        -999.250000 :
COMP.           : COMPANY
WELL.  31/2-17 A   : WELL
FLD.            : FIELD
LOC.            : LOCATION
SRVC.           : SERVICE COMPANY
DATE.  2018-09-11 14:48:33   : Log Export Date {yyyy-MM-dd HH:mm:ss}
PROV.           : PROVINCE
UWI.   31/2-17 A   : UNIQUE WELL ID
API.            : API NUMBER
#==================================================================
~Curve
DEPT .m                   : DEPTH
Lithology_geolink ._      : Lithology_geolink
CALI .in                  : CALI
DRHO .g/cm3               : DRHO
RHOB .g/cm3               : RHOB
GR .gAPI                  : GR
DTC .us/ft                : DTC
RDEP .ohm.m               : RDEP
RMED .ohm.m               : RMED
~Parameter
#==================================================================
~Ascii
# ...
 1186.2816162  -999.250000  -999.250000  -999.250000 2.2200000286 35.067501068 152.25840759 0.7796000242  -999.250000
 1186.4339600  -999.250000  -999.250000  -999.250000 2.2200000286 35.382099152 152.25840759 0.9336000085  -999.250000
 1186.5864258  -999.250000  -999.250000  -999.250000 2.2200000286 31.145700455 152.25840759 0.9072999954  -999.250000
 1186.7387695  -999.250000  -999.250000  -999.250000 2.2200000286 33.203601837 152.25840759 0.9106000066  -999.250000
 1186.8912354  -999.250000  -999.250000  -999.250000 2.2200000286 32.576599121 152.25840759 0.8549000025  -999.250000
 1187.0435791  -999.250000  -999.250000  -999.250000 2.2200000286 33.087299347 152.25840759 1.0586999655  -999.250000
 1187.1960449  -999.250000  -999.250000  -999.250000 2.2200000286 36.211799622 152.25840759 1.1102999449  -999.250000
 1187.3483887  -999.250000  -999.250000  -999.250000 2.2200000286 37.252101898 152.25840759 1.1605999470  -999.250000
 1187.5008545  -999.250000  -999.250000  -999.250000 2.2200000286 42.183799744 152.25840759 1.2002999783  -999.250000
 1187.6531982  -999.250000  -999.250000  -999.250000 2.2200000286 40.979900360 152.25840759 1.2455999851  -999.250000
 1187.8055420  -999.250000  -999.250000  -999.250000 2.2200000286 43.732601166 152.25840759 1.4860999584  -999.250000
 1187.9580078  -999.250000  -999.250000  -999.250000 2.2200000286 39.463401794 152.25840759 1.0111000538  -999.250000
 1188.1103516  -999.250000  -999.250000  -999.250000 2.2200000286 39.311500549 152.25840759 0.9194999933  -999.250000
 1188.2628174  -999.250000  -999.250000  -999.250000 2.2200000286 35.645401001 152.25840759 0.8377000093  -999.250000
 1188.4151611  -999.250000  -999.250000  -999.250000 2.2200000286 33.998500824 152.25840759 0.7468000054  -999.250000
 1188.5676270  -999.250000  -999.250000  -999.250000 2.2200000286 30.427999496 152.25840759 0.8033999801  -999.250000
 1188.7199707  -999.250000  -999.250000  -999.250000 2.2200000286 30.058300018 152.25840759 0.8914999962  -999.250000
 1188.8724365  -999.250000  -999.250000  -999.250000 2.2200000286 31.773300171 152.25840759 0.9179999828  -999.250000
 1189.0247803  -999.250000  -999.250000  -999.250000 2.2200000286 31.489400864 152.25840759 1.0016000271  -999.250000
 1189.1772461  -999.250000  -999.250000  -999.250000 2.2200000286 29.847799301 152.25840759 1.1095999479  -999.250000
 1189.3295898  -999.250000  -999.250000  -999.250000 2.2200000286 30.493900299 152.25840759 1.1833000183  -999.250000
 1189.4820557  -999.250000  -999.250000  -999.250000 2.2200000286 31.922500610 152.25840759 1.2533999681  -999.250000
 1189.6343994  -999.250000  -999.250000  -999.250000 2.2200000286 33.721599579 152.25840759 1.4686000347  -999.250000
 1189.7867432  -999.250000  -999.250000  -999.250000 2.2200000286 32.724700928 152.25840759 1.4171999693  -999.250000
 1189.9392090  -999.250000  -999.250000  -999.250000 2.2200000286 31.723899841 152.25840759 1.2468999624  -999.250000
 1190.0915527  -999.250000  -999.250000  -999.250000 2.2200000286 29.547800064 152.25840759 1.1395000219  -999.250000
 1190.2440186  -999.250000  -999.250000  -999.250000 2.2200000286 29.597999573 152.25840759 0.9577000141  -999.250000
 1190.3963623  -999.250000  -999.250000  -999.250000 2.2200000286 30.415899277 152.25840759 0.8495000005  -999.250000
 1190.5488281  -999.250000  -999.250000  -999.250000 2.2200000286 34.321201324 152.25840759 0.7857000232  -999.250000
 1190.7011719  -999.250000  -999.250000  -999.250000 2.2200000286 35.812301636 152.25840759 0.8616999984  -999.250000
 1190.8536377  -999.250000  -999.250000  -999.250000 2.2200000286 36.674800873 152.25840759 0.9064000249  -999.250000
 1191.0059814  -999.250000  -999.250000  -999.250000 2.2200000286 35.171798706 152.25840759 0.9531000257  -999.250000
 1191.1584473  -999.250000  -999.250000  -999.250000 2.2200000286 36.909400940 152.25840759 0.9954000115  -999.250000
 1191.3107910  -999.250000  -999.250000  -999.250000 2.2200000286 38.200099945 152.25840759 1.0542999506  -999.250000
 1191.4632568  -999.250000  -999.250000  -999.250000 2.2200000286 37.921798706 152.25840759 1.0780999660  -999.250000
 1191.6156006  -999.250000  -999.250000  -999.250000 2.2200000286 36.382400513 152.25840759 1.1526000500  -999.250000
 1191.7679443  -999.250000  -999.250000  -999.250000 2.2200000286 33.965599060 152.25840759 1.1540000439  -999.250000
 1191.9204102  -999.250000  -999.250000  -999.250000 2.2200000286 34.497600555 152.25840759 1.1605000496  -999.250000
 1192.0727539  -999.250000  -999.250000  -999.250000 2.2200000286 33.089698792 152.25840759 1.1251000166  -999.250000
 1192.2252197  -999.250000  -999.250000  -999.250000 2.2200000286 32.261299133 152.25840759 0.9854999781  -999.250000
 1192.3775635  -999.250000  -999.250000  -999.250000 2.2200000286 31.644699097 152.25840759 0.9430999756  -999.250000
 1192.5300293  -999.250000  -999.250000  -999.250000 2.2200000286 31.116899490 152.25840759 0.9854000211  -999.250000
 1192.6823730  -999.250000  -999.250000  -999.250000 2.2200000286 34.415699005 152.25840759 0.9319000244  -999.250000
 1192.8348389  -999.250000  -999.250000  -999.250000 2.2200000286 34.642898560 152.25840759 0.9060000181  -999.250000
 1192.9871826  -999.250000  -999.250000  -999.250000 2.2200000286 34.291099548 152.25840759 0.9219999909  -999.250000
 1193.1396484  -999.250000  -999.250000  -999.250000 2.2200000286 32.165798187 152.25840759 0.9803000093  -999.250000
 1193.2919922  -999.250000  -999.250000  -999.250000 2.2200000286 31.335100174 152.25840759 1.1074999571  -999.250000
 1193.4444580  -999.250000  -999.250000  -999.250000 2.2200000286 34.412399292 152.25840759 1.1742999554  -999.250000
 1193.5968018  -999.250000  -999.250000  -999.250000 2.2200000286 35.887599945 152.25840759 1.2071000338  -999.250000
 1193.7491455  -999.250000  -999.250000  -999.250000 2.2200000286 36.318500519 152.25840759 1.2189999819  -999.250000
 1193.9016113  -999.250000  -999.250000  -999.250000 2.2200000286 30.822900772 152.25840759 1.1531000137  -999.250000
 1194.0539551  -999.250000  -999.250000  -999.250000 2.2200000286 29.417299271 152.25840759 1.0609999895  -999.250000
 1194.2064209  -999.250000  -999.250000  -999.250000 2.2200000286 30.847999573 152.25840759 0.9828000069  -999.250000
 1194.3587646  -999.250000  -999.250000  -999.250000 2.2200000286 31.080600739 152.25840759 0.8815000057  -999.250000
 1194.5112305  -999.250000  -999.250000  -999.250000 2.2200000286 28.834100723 152.25840759 0.9700000286  -999.250000
 1194.6635742  -999.250000  -999.250000  -999.250000 2.2200000286 30.403900146 152.25840759 0.9276999831  -999.250000
 1194.8160400  -999.250000  -999.250000  -999.250000 2.2200000286 30.851900101 152.25840759 0.9337999821  -999.250000
 1194.9683838  -999.250000  -999.250000  -999.250000 2.2200000286 30.127599716 152.25840759 1.0473999977  -999.250000
 1195.1208496  -999.250000  -999.250000  -999.250000 2.2200000286 25.063899994 152.25840759 1.0144000053  -999.250000
 1195.2731934  -999.250000  -999.250000  -999.250000 2.2200000286 29.230699539 152.25840759 1.1279000044  -999.250000
 1195.4256592  -999.250000  -999.250000  -999.250000 2.2200000286 33.224201202 152.25840759 1.2123999596  -999.250000
 1195.5780029  -999.250000  -999.250000  -999.250000 2.2200000286 32.307498932 152.25840759 1.1836999655  -999.250000
 1195.7304688  -999.250000  -999.250000  -999.250000 2.2200000286 32.259300232 152.25840759 1.1528999805  -999.250000
 1195.8828125  -999.250000  -999.250000  -999.250000 2.2200000286 33.860500336 152.25840759 1.1102999449  -999.250000
 1196.0351563  -999.250000  -999.250000  -999.250000 2.2200000286 36.772201538 152.25840759 1.0853999853  -999.250000
 1196.1876221  -999.250000  -999.250000  -999.250000 2.2200000286 33.989799500 152.25840759 0.9534999728  -999.250000
 1196.3399658  -999.250000  -999.250000  -999.250000 2.2200000286 30.086299896 152.25840759 0.8858000040  -999.250000
 1196.4924316  -999.250000  -999.250000  -999.250000 2.2200000286 28.680700302 152.25840759 0.9095000029  -999.250000
