# LAS format log file from PETREL
# Project units are specified as depth units
#==================================================================
~Version information
VERS.   2.0:
WRAP.   NO:
#==================================================================
~Well
STRT .m      399.05941772 :
STOP .m      2436.9521484 :
STEP .m     0.00000000 :
NULL .        -999.250000 :
COMP.           : COMPANY
WELL.  31/2-1   : WELL
FLD.            : FIELD
LOC.            : LOCATION
SRVC.           : SERVICE COMPANY
DATE.  2018-09-11 14:48:32   : Log Export Date {yyyy-MM-dd HH:mm:ss}
PROV.           : PROVINCE
UWI.   31/2-1   : UNIQUE WELL ID
API.            : API NUMBER
#==================================================================
~Curve
DEPT .m                   : DEPTH
Lithology_geolink ._      : Lithology_geolink
CALI .in                  : CALI
BS .in                    : BS
DRHO .g/cm3               : DRHO
NPHI .m3/m3               : NPHI
RHOB .g/cm3               : RHOB
GR .gAPI                  : GR
DTC .us/ft                : DTC
DTE .us/ft                : DTE
RDEP .ohm.m               : RDEP
SP .mV                    : SP
RSHA .ohm.m               : RSHA
RMED .ohm.m               : RMED
~Parameter
#==================================================================
~Ascii
# ...
 1753.5905762 1.0000000000 11.946511269 12.250000954 -0.000621297 0.3075040877 2.1831700802 33.782875061 102.01932526 101.89567566 0.5310249329 25.746644974 0.5960579515 0.5960579515
 1753.7429199 1.0000000000 11.951999664 12.250000954 0.0067564105 0.3098103106 2.1658158302 34.426536560 103.14129639 102.85932159 0.5102341175 25.252838135 0.5628169179 0.5628169179
 1753.8953857 1.0000000000 11.952099800 12.250000954 0.0096907048 0.3175989985 2.1676046848 34.510951996 103.24301910 103.09927368 0.4929924905 25.022939682 0.5821605921 0.5821605921
 1754.0477295 1.0000000000 11.952299118 12.250000954 0.0091553237 0.3169983923 2.1712942123 33.444644928 102.89408875 102.77655792 0.4616677165 25.001256943 0.5905670524 0.5905670524
 1754.2001953 1.0000000000 11.952500343 12.250000954 0.0047732373 0.3157216907 2.1691715717 33.209827423 102.15789032 102.41610718 0.4470158219 25.908308029 0.5829064250 0.5829064250
 1754.3525391 1.0000000000 11.952699661 12.250000954 0.0031553244 0.3290007114 2.1510145664 33.687835693 102.44866180 102.54265594 0.4323340654 27.520599365 0.5740140676 0.5740140676
 1754.5048828 1.0000000000 11.952899933 12.250000954 0.0004663462 0.3295885921 2.1508891582 34.571075439 103.03556061 103.05449677 0.4270161092 27.901233673 0.5653169751 0.5653169751
 1754.6573486 1.0000000000 11.953100204 12.250000954 -0.004223379 0.3223035038 2.1436975002 35.733928680 103.68547821 103.58573914 0.4253063798 27.685358047 0.5565104485 0.5565104485
 1754.8096924 1.0000000000 11.953300476 12.250000954 -0.009222756 0.3254064918 2.1369018555 37.167072296 103.96645355 103.95465851 0.4268005192 27.243825912 0.5445111394 0.5445111394
 1754.9621582 1.0000000000 11.953500748 12.250000954 -0.015912730 0.3296912909 2.1309127808 37.947143555 104.24558258 104.24130249 0.4306944609 26.834667206 0.5240504146 0.5240504146
 1755.1145020 1.0000000000 11.953700066 12.250000954 -0.016155450 0.3215869963 2.1378948689 38.312168121 104.52395630 104.45325470 0.4356031418 26.400068283 0.5184335709 0.5184335709
 1755.2669678 1.0000000000 11.953900337 12.250000954 -0.011776621 0.3125942945 2.1417047977 37.596595764 104.55187988 104.47837830 0.4500676095 25.984720230 0.5279912353 0.5279912353
 1755.4193115 1.0000000000 11.954099655 12.250000954 -0.011000000 0.3070046008 2.1492030621 36.725959778 104.33957672 104.29385376 0.4575543106 25.786205292 0.5456686020 0.5456686020
 1755.5717773 1.0000000000 11.954298973 12.250000954 -0.008465973 0.3103053868 2.1561155319 35.106887817 103.99307251 103.93759918 0.4398471713 25.654890060 0.5583640933 0.5583640933
 1755.7241211 1.0000000000 11.954501152 12.250000954 -0.000399038 0.3133906126 2.1680734158 32.667415619 103.46961975 103.45178223 0.4388045371 25.599658966 0.5577670932 0.5577670932
 1755.8765869 1.0000000000 11.954899788 12.250000954 -0.004917468 0.3063051105 2.1550915241 32.051471710 102.91555023 103.09537506 0.4400987625 25.512153625 0.5321424007 0.5321424007
 1756.0289307 1.0000000000 11.954739571 12.250000954 -0.010223378 0.3093123138 2.1437931061 33.345481873 103.06568146 103.16017151 0.4414972663 25.255496979 0.5156337619 0.5156337619
 1756.1813965 1.0000000000 11.906700134 12.250000954 -0.018608173 0.3190901875 2.1311998367 35.378971100 103.53971863 103.61813354 0.4423978925 25.216737747 0.5063347220 0.5063347220
 1756.3337402 1.0000000000 11.904800415 12.250000954 -0.025912730 0.3131107092 2.1248021126 36.591815948 104.30088043 104.26690674 0.4426006377 25.295415878 0.5119975805 0.5119975805
 1756.4860840 1.0000000000 11.905099869 12.250000954 -0.031222757 0.3221178055 2.1227064133 36.476406097 104.92479706 104.84972382 0.4436044991 25.461442947 0.5231677890 0.5231677890
 1756.6385498 1.0000000000 11.905300140 12.250000954 -0.032000002 0.3334851861 2.1246056557 35.704048157 105.28901672 105.25617981 0.4487935305 25.586004257 0.5280786753 0.5280786753
 1756.7908936 1.0000000000 11.905501366 12.250000954 -0.029466346 0.3203794956 2.1309757233 34.835571289 105.56286621 105.47449493 0.4557881057 25.427289963 0.5212153196 0.5212153196
 1756.9433594 1.0000000000 11.905699730 12.250000954 -0.039980784 0.3066886067 2.1214065552 34.021091461 105.52622986 105.43013000 0.4644824266 25.201990128 0.5151561499 0.5151561499
 1757.0957031 1.0000000000 11.905900002 12.250000954 -0.047911856 0.2960062921 2.1207182407 33.411876678 105.16917419 105.07183838 0.4704916775 24.948059082 0.5533151627 0.5533151627
 1757.2481689 1.0000000000 11.905260086 12.250000954 -0.052378703 0.3004091978 2.1322987080 32.795852661 104.49085236 104.31553650 0.4796742499 24.987846375 0.5902081132 0.5902081132
 1757.4005127 1.0000000000 11.866588593 12.250000954 -0.045399040 0.3096162081 2.1408960819 32.164276123 103.20452881 103.69544220 0.4792807400 25.399333954 0.5999484658 0.5999484658
 1757.5529785 1.0000000000 11.857069969 12.250000954 -0.042310648 0.3214159906 2.1427795887 32.261898041 103.84429169 104.02444458 0.4647252560 26.108137131 0.5821905732 0.5821905732
 1757.7053223 1.0000000000 11.896310806 12.250000954 -0.037777245 0.3305940926 2.1321256161 32.989807129 105.03933716 105.30713654 0.4562121332 26.717578888 0.5496873260 0.5496873260
 1757.8577881 1.0000000000 11.906801224 12.250000954 -0.028546475 0.3261052072 2.1450965405 33.921260834 107.21505737 106.93415070 0.4477089942 27.020536423 0.5478923321 0.5478923321
 1758.0101318 1.0000000000 11.907100677 12.250000954 -0.019397918 0.3292030096 2.1493926048 34.594001770 108.26106262 108.00300598 0.4392136931 26.505468369 0.5405015945 0.5405015945
 1758.1625977 1.0000000000 11.907199860 12.250000954 -0.014618590 0.3316020966 2.1465594769 35.040012360 108.42546844 108.18991089 0.4315129817 26.021192551 0.5257152319 0.5257152319
 1758.3149414 1.0000000000 11.907400131 12.250000954 -0.019912731 0.3328962028 2.1199395657 35.741580963 107.78321075 107.71292877 0.4264079928 25.931488037 0.5102385879 0.5102385879
 1758.4672852 1.0000000000 11.907601357 12.250000954 -0.021844551 0.3296951950 2.1347951889 35.413345337 106.96002197 106.95320129 0.4213121533 25.934730530 0.5068300962 0.5068300962
 1758.6197510 1.0000000000 11.907798767 12.250000954 -0.022844676 0.3266111016 2.1467714310 34.881397247 106.15184784 106.17119598 0.4175106287 25.942737579 0.5185887814 0.5185887814
 1758.7720947 1.0000000000 11.907999992 12.250000954 -0.030600963 0.3364968896 2.1302375793 35.172649384 105.44474030 105.43923187 0.4177087843 25.780754089 0.5378566980 0.5378566980
 1758.9245605 1.0000000000 11.908201218 12.250000954 -0.032844678 0.3343934119 2.1377019882 36.038475037 104.73706818 104.80722809 0.4241047800 25.390403748 0.5550657511 0.5550657511
 1759.0769043 1.0000000000 11.908398628 12.250000954 -0.028777244 0.3281831145 2.1455783844 36.574081421 104.32236481 104.43881226 0.4457208514 24.858507156 0.5674707294 0.5674707294
 1759.2293701 1.0000000000 11.905460358 12.250000954 -0.024621297 0.3163880110 2.1394069195 36.981155396 104.34947968 104.40144348 0.4442965686 24.306135178 0.5779671669 0.5779671669
 1759.3817139 1.0000000000 11.866789818 12.250000954 -0.027378205 0.3043969870 2.1417911053 37.750942230 104.56253815 105.06517029 0.4368130863 25.047851563 0.5740935802 0.5740935802
 1759.5341797 1.0000000000 11.858400345 12.250000954 -0.030534027 0.3022140861 2.1364893913 37.872474670 106.67240906 106.37732697 0.4313220680 25.886138916 0.5617111921 0.5617111921
 1759.6865234 1.0000000000 11.854949951 12.250000954 -0.042823721 0.3173229098 2.1201221943 38.308078766 107.53021240 107.59507751 0.4388158917 26.088891983 0.5377349854 0.5377349854
 1759.8389893 1.0000000000 11.816590309 12.250000954 -0.046689350 0.3349134922 2.1267147064 38.602664948 108.73374176 108.38052368 0.4677345455 26.177108765 0.5144857764 0.5144857764
 1759.9913330 1.0000000000 11.808300018 12.250000954 -0.043621797 0.3429980874 2.1389322281 38.169788361 108.58721161 107.97821808 0.4763867855 26.153133392 0.5276336670 0.5276336670
 1760.1437988 1.0000000000 11.808509827 12.250000954 -0.031165063 0.3414821923 2.1726391315 37.837177277 106.25866699 105.92457581 0.4848981798 26.080312729 0.5871236920 0.5871236920
