# LAS format log file from PETREL
# Project units are specified as depth units
#==================================================================
~Version information
VERS.   2.0:
WRAP.   NO:
#==================================================================
~Well
STRT .m      1999.6403809 :
STOP .m      3191.7131348 :
STEP .m     0.00000000 :
NULL .        -999.250000 :
COMP.           : COMPANY
WELL.  31/2-21 S   : WELL
FLD.            : FIELD
LOC.            : LOCATION
SRVC.           : SERVICE COMPANY
DATE.  2018-09-11 14:48:34   : Log Export Date {yyyy-MM-dd HH:mm:ss}
PROV.           : PROVINCE
UWI.   31/2-21 S   : UNIQUE WELL ID
API.            : API NUMBER
#==================================================================
~Curve
DEPT .m                   : DEPTH
Lithology_geolink ._      : Lithology_geolink
CALI .in                  : CALI
BS .in                    : BS
ROP .m/h                  : ROP
DRHO .g/cm3               : DRHO
NPHI .m3/m3               : NPHI
RHOB .g/cm3               : RHOB
PEF .b/e                  : PEF
GR .gAPI                  : GR
DTC .us/ft                : DTC
DTS .us/ft                : DTS
RDEP .ohm.m               : RDEP
RMED .ohm.m               : RMED
~Parameter
#==================================================================
~Ascii
# ...
 3186.5314941 2.0000000000 8.5048999786 8.5000000000 93.353347778 0.0469000004 0.2568788528 2.2541000843 2.3203001022 50.658775330  -999.250000  -999.250000 0.5905961394 0.5840014219
 3186.6838379 2.0000000000 8.4857997894 8.5000000000 104.65912628 0.0434000008 0.2464168221 2.2516999245 2.2704999447 49.879074097  -999.250000  -999.250000 0.6002844572 0.5974783897
 3186.8361816 2.0000000000 8.4857997894 8.5000000000 111.23786163 0.0472000018 0.2478975952 2.2492001057 2.3162000179 49.441703796  -999.250000  -999.250000 0.5894174576 0.5822244883
 3186.9885254 2.0000000000 8.4926004410 8.5000000000 108.59514618 0.0439000018 0.2465044856 2.2411999702 2.2012999058 54.255844116  -999.250000  -999.250000 0.6018599868 0.5851904154
 3187.1411133 2.0000000000 8.5101995468 8.5000000000 107.68634796 0.0417000018 0.2471988797 2.2565000057 2.1582000256 60.333168030  -999.250000  -999.250000 0.6381418109 0.6292293072
 3187.2934570 2.0000000000 8.5249996185 8.5000000000 121.72965240 0.0395000018 0.2446041703 2.2476999760 2.2193999290 43.743446350  -999.250000  -999.250000 0.6270179152 0.6298990250
 3187.4458008 2.0000000000 8.5232000351 8.5000000000 154.00592041 0.0397000015 0.2335177958 2.2414000034 2.1479001045 46.878425598  -999.250000  -999.250000 0.5910577178 0.6031429768
 3187.5981445 2.0000000000 8.5017004013 8.5000000000 159.95307922 0.0471000001 0.2369887978 2.2434000969 2.2367000580 47.833747864  -999.250000  -999.250000 0.5530219078 0.5584433675
 3187.7507324 2.0000000000 8.5025997162 8.5000000000 127.71653748 0.0454000011 0.2669519186 2.2246000767 2.2702999115 45.774112701  -999.250000  -999.250000 0.5216501951 0.5253528953
 3187.9030762 2.0000000000 8.4972000122 8.5000000000 96.741470337 0.0419999994 0.2692963183 2.2114000320 2.2274000645 40.422382355  -999.250000  -999.250000 0.5033293366 0.5059311390
 3188.0554199 2.0000000000 8.4991998672 8.5000000000 89.845466614 0.0392999984 0.2680020928 2.2112998962 2.2044999599 48.362541199  -999.250000  -999.250000 0.4844302833 0.4890270829
 3188.2077637 2.0000000000 8.5065002441 8.5000000000 100.42716980 0.0408000015  -999.250000 2.2188000679 2.3043999672 53.338134766  -999.250000  -999.250000 0.4837011397 0.4781174660
 3188.3601074 2.0000000000 8.4927997589 8.5000000000 112.41437531 0.0469999984  -999.250000 2.2565999031 2.2837998867 45.101467133  -999.250000  -999.250000 0.5270608068 0.4915567935
 3188.5126953 2.0000000000 8.5134000778 8.5000000000 104.22670746 0.0553999990  -999.250000 2.3605999947 2.3787999153 61.417766571  -999.250000  -999.250000 0.7111047506 0.6441551447
 3188.6650391 2.0000000000 8.5565996170 8.5000000000 96.260169983 0.0533999987  -999.250000 2.4546999931 2.8317000866 78.347869873  -999.250000  -999.250000 1.2423477173 1.1799403429
 3188.8173828 2.0000000000 8.5339002609 8.5000000000 124.29954529 0.0494000018  -999.250000 2.4704000950 2.6977000237 80.173515320  -999.250000  -999.250000 1.4081352949 1.4558584690
 3188.9697266  -999.250000 8.5239000320 8.5000000000 154.50689697 0.0472000018  -999.250000 2.4001998901 2.4430000782 80.872161865  -999.250000  -999.250000 1.2771214247 1.3667874336
 3189.1223145  -999.250000 8.5150995255 8.5000000000 155.44848633 0.0513999984  -999.250000 2.3517999649 2.4154000282 81.325775146  -999.250000  -999.250000 1.0163179636 1.1115092039
 3189.2746582  -999.250000 8.5005998611 8.5000000000 169.83135986 0.0529999994  -999.250000 2.3187999725 2.5197000504 63.276271820  -999.250000  -999.250000 0.8038403988 0.8361413479
 3189.4270020  -999.250000 8.5034999847 8.5000000000 168.36450195 0.0478000008  -999.250000 2.2901999950 2.4305000305 53.957710266  -999.250000  -999.250000 0.7955127954 0.7223818898
 3189.5793457  -999.250000 8.5011997223 8.5000000000 117.69422150 0.0461000018  -999.250000 2.2758998871 2.2269999981 60.488288879  -999.250000  -999.250000 0.9420295954 0.8435105681
 3189.7319336  -999.250000 8.5017995834 8.5000000000 37.910106659 0.0443999991  -999.250000 2.3001000881 2.3008000851 47.245990753  -999.250000  -999.250000 1.1025431156 1.0541625023
 3189.8842773  -999.250000 8.5134000778 8.5000000000 19.593832016 0.0384000018  -999.250000 2.3373000622 2.5018000603 55.055931091  -999.250000  -999.250000 1.1119852066 1.1023231745
 3190.0366211  -999.250000 8.5038995743 8.5000000000 40.197834015 0.0469000004  -999.250000 2.3501000404 2.4855000973 56.855930328  -999.250000  -999.250000 0.9037343264 0.9073131680
 3190.1889648  -999.250000 8.5038995743 8.5000000000 49.262138367 0.0458000004  -999.250000 2.3090999126 2.4458000660 63.326915741  -999.250000  -999.250000 0.7809964418 0.7734143734
 3190.3415527  -999.250000 8.5166997910 8.5000000000 71.923561096 0.0406000018  -999.250000 2.2762999535 2.2788000107 68.870735168  -999.250000  -999.250000 0.8000691533 0.7887750268
 3190.4938965  -999.250000 8.5081996918 8.5000000000 94.112861633 0.0456999987  -999.250000 2.2971000671 2.4008998871 62.317131042  -999.250000  -999.250000 0.8819685578 0.8771582246
 3190.6462402  -999.250000 8.5003995895 8.5000000000 99.421920776 0.0454999991  -999.250000 2.3089001179 2.4031000137 60.707065582  -999.250000  -999.250000 0.9025671482 0.8889812231
 3190.7985840  -999.250000 8.4825000763 8.5000000000 87.416992188 0.0500000007  -999.250000 2.3129000664 2.4370999336 62.835578918  -999.250000  -999.250000 0.8996048570 0.8697309494
 3190.9509277  -999.250000 8.4867000580 8.5000000000 74.006889343 0.0465999991  -999.250000 2.3011000156 2.4374001026 63.166149139  -999.250000  -999.250000 0.8893329501 0.8692016006
 3191.1035156  -999.250000 8.4875001907 8.5000000000 66.884841919 0.0447000004  -999.250000 2.2922999859 2.4216001034 64.036102295  -999.250000  -999.250000 0.8072317243 0.7848353982
 3191.2558594  -999.250000 8.4884996414 8.5000000000 65.116142273 0.0456000008  -999.250000 2.2827999592 2.3519001007 59.887660980  -999.250000  -999.250000 0.7498918772 0.7325836420
 3191.4082031  -999.250000 8.4881000519 8.5000000000 70.037727356 0.0434999987  -999.250000 2.2693998814 2.2651000023 55.202713013  -999.250000  -999.250000 0.7808501720 0.7761299610
 3191.5605469  -999.250000 8.4837999344 8.5000000000 78.750656128 0.0421000011  -999.250000 2.2757999897 2.3103001118 53.915908813  -999.250000  -999.250000 0.7333526611 0.7328391671
 3191.7131348  -999.250000 8.4863996506 8.5000000000 83.979331970 0.0491000041  -999.250000 2.2850999832 2.3752999306 54.351696014  -999.250000  -999.250000 0.6637115479 0.6616140604
