# LAS format log file from PETREL
# Project units are specified as depth units
#==================================================================
~Version information
VERS.   2.0:
WRAP.   NO:
#==================================================================
~Well
STRT .m      443.33587646 :
STOP .m      1778.0548096 :
STEP .m     0.00000000 :
NULL .        -999.250000 :
COMP.           : COMPANY
WELL.  31/2-9   : WELL
FLD.            : FIELD
LOC.            : LOCATION
SRVC.           : SERVICE COMPANY
DATE.  2018-09-11 14:48:35   : Log Export Date {yyyy-MM-dd HH:mm:ss}
PROV.           : PROVINCE
UWI.   31/2-9   : UNIQUE WELL ID
API.            : API NUMBER
#==================================================================
~Curve
DEPT .m                   : DEPTH
Lithology_geolink ._      : Lithology_geolink
CALI .in                  : CALI
DRHO .g/cm3               : DRHO
SGR .gAPI                 : SGR
NPHI .m3/m3               : NPHI
RHOB .g/cm3               : RHOB
PEF .b/e                  : PEF
GR .gAPI                  : GR
DTC .us/ft                : DTC
RDEP .ohm.m               : RDEP
SP .mV                    : SP
RSHA .ohm.m               : RSHA
RMED .ohm.m               : RMED
~Parameter
#==================================================================
~Ascii
# ...
 1596.6988525 1.0000000000 12.253001213 0.0259903930 46.064155579 0.0997498184 2.3032848835 3.5199823380 35.846828461 86.197608948 1.9667181969 84.776329041 3.3986983299 3.3986983299
 1596.8513184 1.0000000000 12.225000381 0.0240048077 51.333782196 0.1445222646 2.1892738342 3.3015217781 39.375976563 98.197120667 1.6147603989 85.661872864 1.7736290693 1.7736290693
 1597.0036621 1.0000000000 12.178001404 0.0269903932 55.110973358 0.2180740386 2.1152369976 3.2760801315 40.594978333 109.56591034 1.3158453703 86.548164368 1.3109767437 1.3109767437
 1597.1561279 1.0000000000 12.163999557 0.0260024052 56.222110748 0.2810388505 2.0840747356 3.3089206219 41.818153381 113.18990326 1.1228479147 87.047805786 1.2820848227 1.2820848227
 1597.3084717 1.0000000000 12.163999557 0.0220128093 56.288948059 0.3153602183 2.0770223141 3.2990319729 45.028846741 114.37471008 1.0279752016 86.831703186 1.3349647522 1.3349647522
 1597.4609375 1.0000000000 12.163999557 0.0219999999 53.602149963 0.3282093108 2.0949568748 3.6691081524 42.343299866 113.99259186 0.9970848560 86.613525391 1.2909855843 1.2909855843
 1597.6132813 1.0000000000 12.163999557 0.0180128086 49.678142548 0.3197672069 2.1259007454 4.6737751961 41.901214600 109.36508942 1.0500664711 86.393699646 1.2820720673 1.2820720673
 1597.7657471 1.0000000000 12.163999557 0.0529158637 46.637432098 0.2836369872 2.2107956409 7.1470479965 35.941101074 96.958663940 1.1333395243 86.146598816 1.3736284971 1.3736284971
 1597.9180908 1.0000000000 12.255999565 0.0779199377 44.320854187 0.2467681915 2.3106799126 8.6491928101 37.872169495 71.181266785 1.3452732563 85.898796082 2.3932139874 2.3932139874
 1598.0704346 1.0000000000 12.786000252 0.0939487144 43.219760895 0.1974282563 2.4196507931 7.9701986313 34.344928741 62.772666931 1.6864283085 85.650794983 7.6544489861 7.6544489861
 1598.2229004 16.000000000 13.347998619 0.0630992800 41.183631897 0.1430043429 2.4748237133 6.8396253586 35.501628876 52.372772217 2.2219326496 85.910163879 15.722669601 15.722669601
 1598.3752441 16.000000000 12.635999680 0.0350897424 40.971340179 0.1164049655 2.4769935608 5.9847369194 37.533226013 49.602958679 3.3867244720 86.306724548 40.237277985 40.237277985
 1598.5277100 1.0000000000 12.279000282 0.0270192306 43.065322876 0.1256874204 2.4311106205 5.5600166321 40.313701630 60.788036346 5.5408592224 86.703048706 24.348701477 24.348701477
 1598.6800537 1.0000000000 12.244000435 0.0379647724 48.086948395 0.1592123657 2.4070768356 5.4922146797 41.187347412 69.571510315 7.8630347252 86.533546448 11.503874779 11.503874779
 1598.8325195 1.0000000000 12.215000153 0.0459807701 52.811218262 0.1827834696 2.4189710617 5.9109907150 40.375099182 80.186393738 12.903903961 85.818725586 6.3548941612 6.3548941612
 1598.9848633 1.0000000000 12.244000435 0.0420128107 52.019638062 0.1633825153 2.4628591537 6.2160234451 40.497421265 78.178535461 20.262250900 85.102294922 6.2285304070 6.2285304070
 1599.1373291 1.0000000000 12.255999565 0.0330216326 47.786392212 0.1186077446 2.4809567928 6.2189950943 37.279098511 66.363189697 15.582010269 84.520393372 13.238691330 13.238691330
 1599.2896729 16.000000000 12.248000145 0.0369871892 44.569580078 0.0988730565 2.4710319042 6.3465900421 36.095378876 59.001899719 13.093085289 84.399383545 84.133766174 84.133766174
 1599.4421387 1.0000000000 12.239000320 0.0330096148 47.987262726 0.1086762249 2.4320936203 5.8851127625 37.820156097 61.386810303 11.946125984 84.278289795 94.953742981 94.953742981
 1599.5944824 1.0000000000 12.244000435 0.0250256211 54.262969971 0.1577424407 2.3841538429 5.0496807098 42.284252167 68.758514404 7.6583852768 84.158378601 26.814321518 26.814321518
 1599.7469482 2.0000000000 12.243000984 0.0140264425 61.908878326 0.2102638185 2.3061873913 4.3377089500 46.348854065 79.385612488 5.6430416107 84.312629700 9.7492923737 9.7492923737
 1599.8992920 2.0000000000 12.201000214 0.0140000004 65.154403687 0.2516673803 2.2212722301 3.9562201500 49.375499725 86.015678406 4.4213333130 84.481460571 4.3185749054 4.3185749054
 1600.0516357 2.0000000000 12.170000076 0.0169903859 67.317535400 0.2870765626 2.1472373009 3.9719452858 50.002552032 105.57151031 3.5895555019 84.651458740 2.5404770374 2.5404770374
 1600.2041016 2.0000000000 12.163999557 0.0289615691 69.139541626 0.3093787134 2.1230766773 4.1015839577 53.190277100 116.18605042 3.0346515179 84.875282288 1.8878430128 1.8878430128
 1600.3564453 2.0000000000 12.163999557 0.0329871811 72.244026184 0.3253588676 2.1299777031 4.2146377563 56.035552979 113.74424744 2.5997068882 85.125198364 1.6920592785 1.6920592785
 1600.5089111 2.0000000000 12.163999557 0.0339967981 75.082725525 0.3407208025 2.1549198627 4.1900801659 61.720752716 106.55834961 2.2338516712 85.375198364 1.7661746740 1.7661746740
 1600.6612549 5.0000000000 12.163999557 0.0330032036 76.211189270 0.3534292877 2.1709487438 4.0793557167 63.905021667 100.75099945 2.0489528179 85.625198364 1.9841192961 1.9841192961
 1600.8137207 5.0000000000 12.163999557 0.0379879810 76.652648926 0.3641842008 2.1839687824 4.0899739265 62.690654755 102.00685883 1.9899815321 85.875396729 2.1330735683 2.1330735683
 1600.9660645 5.0000000000 12.163999557 0.0489647724 77.119628906 0.3617279828 2.1989519596 4.3073019981 65.998947144 110.56255341 1.9670064449 86.125198364 2.2250704765 2.2250704765
 1601.1185303 5.0000000000 12.163999557 0.0519927889 79.654968262 0.3535197377 2.2089760303 4.5115098953 64.687103271 110.00060272 1.9749567509 86.343475342 2.3131904602 2.3131904602
 1601.2708740 5.0000000000 12.163999557 0.0510032028 81.886215210 0.3519350588 2.2139840126 4.5070161819 64.126152039 110.37355042 1.9479879141 86.289176941 2.4318702221 2.4318702221
 1601.4233398 5.0000000000 12.163999557 0.0430192314 80.755905151 0.3618959785 2.2090120316 4.2895240784 65.562103271 108.56400299 1.9329967499 86.234130859 2.2695837021 2.2695837021
 1601.5756836 5.0000000000 12.163999557 0.0350256190 76.998016357 0.3666348755 2.2000288963 4.1962981224 65.000053406 109.18785095 1.9309991598 86.179176331 2.0098645687 2.0098645687
 1601.7281494 5.0000000000 12.163999557 0.0389903858 73.979415894 0.3591081798 2.1990022659 4.2339086533 65.059303284 109.00060272 1.9299759865 85.907653809 1.8408734798 1.8408734798
 1601.8804932 5.0000000000 12.163999557 0.0449807867 75.162048340 0.3431213200 2.2019903660 4.3426508904 62.749572754 109.37471008 1.9149751663 85.590011597 1.7620064020 1.7620064020
 1602.0328369 5.0000000000 12.163999557 0.0519775636 77.798774719 0.3291148841 2.2119679451 4.4386925697 62.217800140 108.99935150 1.8839775324 85.272026062 1.7700560093 1.7700560093
 1602.1853027 5.0000000000 12.163999557 0.0430288240 79.562591553 0.3347118795 2.2080128193 4.5556254387 60.717197418 108.18704987 1.8559846878 85.012832642 1.8400737047 1.8400737047
 1602.3376465 5.0000000000 12.163999557 0.0420032032 78.550628662 0.3549250662 2.2109904289 4.5151314735 58.471904755 107.00080109 1.8370015621 84.804664612 1.9320465326 1.9320465326
 1602.4901123 5.0000000000 12.163999557 0.0400064029 77.368942261 0.3684866428 2.2040224075 4.4332628250 62.094028473 108.00109100 1.8390215635 84.595672607 1.9899967909 1.9899967909
 1602.6424561 5.0000000000 12.163999557 0.0519615412 78.048912048 0.3750889301 2.2079870701 4.4080801010 62.125774384 109.37450409 1.8660097122 84.437500000 1.9859607220 1.9859607220
 1602.7949219 5.0000000000 12.163999557 0.0619759597 78.513626099 0.3673586845 2.2169783115 4.5067620277 63.092773438 108.75019836 1.8780064583 84.420036316 1.9369767904 1.9369767904
 1602.9472656 5.0000000000 12.163999557 0.0679807886 78.285186768 0.3564250767 2.2289617062 4.8199944496 61.565200806 108.99819946 1.8859976530 84.402061462 1.9080127478 1.9080127478
 1603.0997314 5.0000000000 12.163999557 0.0590216368 77.215850830 0.3534471095 2.2280023098 4.8918294907 64.311050415 106.75049591 1.8829935789 84.385040283 1.9240103960 1.9240103960
 1603.2520752 5.0000000000 12.163999557 0.0410576463 77.568717957 0.3563406467 2.2150416374 4.8252143860 61.873073578 107.37564850 1.8750071526 84.680053711 1.9369784594 1.9369784594
