# LAS format log file from PETREL
# Project units are specified as depth units
#==================================================================
~Version information
VERS.   2.0:
WRAP.   NO:
#==================================================================
~Well
STRT .m      1999.6403809 :
STOP .m      3191.7131348 :
STEP .m     0.00000000 :
NULL .        -999.250000 :
COMP.           : COMPANY
WELL.  31/2-21 S   : WELL
FLD.            : FIELD
LOC.            : LOCATION
SRVC.           : SERVICE COMPANY
DATE.  2018-09-11 14:48:34   : Log Export Date {yyyy-MM-dd HH:mm:ss}
PROV.           : PROVINCE
UWI.   31/2-21 S   : UNIQUE WELL ID
API.            : API NUMBER
#==================================================================
~Curve
DEPT .m                   : DEPTH
Lithology_geolink ._      : Lithology_geolink
CALI .in                  : CALI
BS .in                    : BS
ROP .m/h                  : ROP
DRHO .g/cm3               : DRHO
NPHI .m3/m3               : NPHI
RHOB .g/cm3               : RHOB
PEF .b/e                  : PEF
GR .gAPI                  : GR
DTC .us/ft                : DTC
DTS .us/ft                : DTS
RDEP .ohm.m               : RDEP
RMED .ohm.m               : RMED
~Parameter
#==================================================================
~Ascii
# ...
 2556.2053223 6.0000000000 9.2637996674 8.5000000000 47.876968384 0.1103999987 0.3375999928 2.3513000011 3.8498001099 94.051902771 85.052795410 155.25700378 3.5645999908 3.3559000492
 2556.3576660 6.0000000000 9.0963001251 8.5000000000 57.003612518 0.1141000018 0.3273999989 2.3631999493 3.9964001179 93.008201599 84.662803650 155.47790527 3.4453999996 3.1616001129
 2556.5100098 6.0000000000 9.2727003098 8.5000000000 73.125656128 0.1083000004 0.3240999877 2.3380000591 4.0444998741 100.33159637 84.499305725 155.28469849 3.1918001175 2.8524000645
 2556.6623535 6.0000000000 9.3906002045 8.5000000000 79.243110657 0.1171000004 0.3145000041 2.3285000324 4.0039000511 94.299499512 84.059600830 155.93069458 3.1919999123 2.8220000267
 2556.8149414 6.0000000000 9.5320997238 8.5000000000 72.374343872 0.1351000071 0.3215000033 2.3259999752 4.3677000999 98.681999207 84.099998474 156.04429626 3.1770999432 2.8094000816
 2556.9672852 6.0000000000 9.5825996399 8.5000000000 61.942584991 0.1474999934 0.3237999976 2.3378999233 4.6845998764 100.71250153 83.755607605 155.05790710 3.2967000008 3.0013000965
 2557.1196289 6.0000000000 9.5191001892 8.5000000000 59.469490051 0.1455000043 0.3251999915 2.3638000488 4.4913997650 102.68699646 84.651405334 153.49240112 3.4960000515 3.2040998936
 2557.2719727 6.0000000000 9.3334999084 8.5000000000 62.429462433 0.1287000030 0.3210999966 2.3624999523 4.4383001328 94.896797180 84.040901184 153.01199341 3.6486001015 3.4217000008
 2557.4245605 6.0000000000 9.0320997238 8.5000000000 70.015419006 0.1412000060 0.3222999871 2.3814001083 4.4292998314 89.711700439 83.915298462 153.42269897 3.7458000183 3.5415000916
 2557.5769043 6.0000000000 9.2504997253 8.5000000000 64.727363586 0.1427000016 0.3319000006 2.3636000156 4.5146999359 89.120498657 83.227096558 154.05960083 3.3819000721 3.1382000446
 2557.7292480 6.0000000000 9.5346002579 8.5000000000 53.310039520 0.1346000135 0.3364000022 2.3533000946 4.4872999191 94.632797241 83.168800354 153.50540161 3.3406999111 3.1043000221
 2557.8815918 6.0000000000 9.3583002090 8.5000000000 47.685695648 0.1154000014 0.3556999862 2.3570001125 4.0868000984 98.220397949 82.857200623 153.63710022 3.6559998989 3.4969000816
 2558.0339355 6.0000000000 9.2813997269 8.5000000000 54.347114563 0.1383000016 0.3630999923 2.3475000858 4.1939001083 93.603103638 82.581291199 153.76560974 3.4526000023 3.3010001183
 2558.1865234 6.0000000000 9.7480001450 8.5000000000 63.402889252 0.1601999998 0.3564000130 2.2925999165 4.6050000191 98.782203674 82.999992371 153.82670593 2.8153998852 2.4918999672
 2558.3388672 6.0000000000 9.9590997696 8.5000000000 65.562995911 0.1606999934 0.3481999934 2.2657999992 4.5023999214 93.892303467 83.740097046 153.79829407 3.1424999237 2.8745000362
 2558.4912109 6.0000000000 9.7993001938 8.5000000000 65.423889160 0.1679999977 0.3567000031 2.2934999466 4.5300002098 95.786499023 85.249008179 153.41020203 3.4286000729 3.2230999470
 2558.6435547 6.0000000000 9.5767002106 8.5000000000 65.274604797 0.1538999975 0.3463000059 2.3139998913 4.5373997688 77.750000000 84.008102417 153.60180664 3.7741999626 3.6691000462
 2558.7961426 6.0000000000 9.4245996475 8.5000000000 67.508857727 0.1403000057 0.3377999961 2.3480000496 4.3709998131 92.186401367 83.412399292 154.31539917 3.8143000603 3.7585999966
 2558.9484863 6.0000000000 9.3878002167 8.5000000000 73.149940491 0.1334999949 0.3291000128 2.3552999496 4.1340999603 98.070701599 82.288803101 154.86430359 3.7502999306 3.6642000675
 2559.1008301 6.0000000000 9.4308996201 8.5000000000 73.286094666 0.1360999942 0.3233999908 2.3519001007 4.1026000977 93.874801636 81.349800110 154.45419312 3.4217998981 3.2184000015
 2559.2531738 6.0000000000 9.4455995560 8.5000000000 64.780838013 0.1423999965 0.3289000094 2.3492000103 4.2160000801 96.579002380 80.286193848 153.22862244 3.4302999973 3.2207000256
 2559.4057617 6.0000000000 9.5927000046 8.5000000000 57.419296265 0.1614000052 0.3531000018 2.3350999355 4.6673002243 101.17960358 81.051094055 152.52961731 3.4161000252 3.1728000641
 2559.5581055 6.0000000000 9.8060998917 8.5000000000 50.495407104 0.1601999998 0.3580000103 2.3264000416 4.6229000092 99.622901917 82.215995789 152.82771301 3.4772000313 3.2328999043
 2559.7104492 6.0000000000 9.8148002625 8.5000000000 45.790351868 0.1576000005 0.3413999975 2.3152999878 4.6918997765 96.156501770 83.220291138 152.06309509 3.5104999542 3.2686998844
 2559.8627930 6.0000000000 9.7950000763 8.5000000000 43.507545471 0.1448999941 0.3519999981 2.3034999371 4.5078001022 93.954696655 83.917495728 151.77969360 3.6681001186 3.4751999378
 2560.0153809 6.0000000000 9.7163000107 8.5000000000 46.431102753 0.1404000074 0.3445000052 2.2978000641 4.4267001152 95.663803101 84.115303040 152.85110474 3.7053000927 3.5603001118
 2560.1677246 6.0000000000 9.7149000168 8.5000000000 59.298229218 0.1429000050 0.3416999876 2.2892999649 4.5851001740 93.578201294 83.780296326 153.34609985 3.5617001057 3.4147999287
 2560.3200684 6.0000000000 9.7400999069 8.5000000000 66.724411011 0.1494999975 0.3465999961 2.2934000492 4.7817001343 90.760803223 82.832298279 152.52049255 3.4900000095 3.3673999310
 2560.4724121 6.0000000000 9.7589998245 8.5000000000 58.336280823 0.1536999941 0.3503000140 2.2850000858 4.8123002052 94.377601624 82.180900574 151.14752197 3.4567000866 3.3457999229
 2560.6247559 6.0000000000 9.7582998276 8.5000000000 50.056102753 0.1475999951 0.3406000137 2.2723999023 4.6328001022 98.201301575 82.212997437 149.66889954 3.3515999317 3.2362000942
 2560.7773438 6.0000000000 9.7103996277 8.5000000000 49.273948669 0.1379999965 0.3235000074 2.2493000031 4.5061998367 95.248298645 82.477210999 150.26019287 3.1840000153 3.0513000488
 2560.9296875 6.0000000000 9.7163000107 8.5000000000 52.088584900 0.1377999932 0.3203000128 2.2425999641 4.4201002121 99.023101807 82.791000366 150.75579834 3.0608999729 2.9128000736
 2561.0820313 6.0000000000 9.8851003647 8.5000000000 55.906166077 0.1396999955 0.3235000074 2.2425000668 4.5068001747 98.167900085 83.170188904 151.71769714 3.0201001167 2.8796999454
 2561.2343750 6.0000000000 9.9862012863 8.5000000000 57.288711548 0.1372999996 0.3393000066 2.2355999947 4.4731001854 99.392997742 83.633193970 152.38829041 2.9711000919 2.7881000042
 2561.3869629 6.0000000000 9.9764003754 8.5000000000 57.937335968 0.1416999996 0.3291999996 2.2390999794 4.5377001762 89.309196472 83.776802063 152.07931519 2.9484000206 2.6932001114
 2561.5393066 6.0000000000 10.098299980 8.5000000000 59.506885529 0.1437000036 0.3174000084 2.2188999653 4.3389000893 93.072303772 83.075401306 149.89720154 2.9121999741 2.4997000694
 2561.6916504 6.0000000000 10.162798882 8.5000000000 62.884510040 0.1542000026 0.2921000123 2.2260000706 4.3527002335 90.979400635 78.958000183 144.76989746 3.2174000740 2.7032001019
 2561.8439941 6.0000000000 10.116900444 8.5000000000 73.981300354 0.1771999896 0.2574999928 2.2939000130 4.5899000168 88.412002563 73.942100525 132.58430481 5.8014001846 5.3208999634
 2561.9965820 6.0000000000 9.5509996414 8.5000000000 85.498031616 0.1747000068 0.2520999908 2.4756000042 5.0461997986 76.650703430 68.498703003 118.14720154 8.0853004456 8.6340999603
 2562.1489258 6.0000000000 9.0652999878 8.5000000000 84.186355591 0.1343999952 0.1932000071 2.5992000103 5.4510002136 77.062103271 63.198299408 108.76650238 8.2185001373 9.4069004059
 2562.3012695 5.0000000000 9.1051998138 8.5000000000 76.454399109 0.1404999942 0.1711000055 2.6226000786 5.2516999245 68.798301697 61.734802246 106.05030060 7.9189000130 9.2933998108
 2562.4536133 5.0000000000 9.1330003738 8.5000000000 69.304466248 0.1401000023 0.1615000069 2.6293001175 5.2231998444 76.427101135 62.044399261 104.41789246 8.0432996750 9.7918996811
 2562.6059570 5.0000000000 9.1688003540 8.5000000000 67.228347778 0.1396999955 0.1626999974 2.6326999664 5.1526999474 79.554801941 61.530796051 103.10689545 8.4715995789 10.712499619
 2562.7585449 5.0000000000 9.1705999374 8.5000000000 65.500984192 0.1507000029 0.1676999927 2.6364998817 5.2586998940 75.932998657 60.262504578 100.71739960 9.7748003006 11.998299599
