# LAS format log file from PETREL
# Project units are specified as depth units
#==================================================================
~Version information
VERS.   2.0:
WRAP.   NO:
#==================================================================
~Well
STRT .m      445.17501831 :
STOP .m      1838.8730469 :
STEP .m     0.00000000 :
NULL .        -999.250000 :
COMP.           : COMPANY
WELL.  31/2-10   : WELL
FLD.            : FIELD
LOC.            : LOCATION
SRVC.           : SERVICE COMPANY
DATE.  2018-09-11 14:48:32   : Log Export Date {yyyy-MM-dd HH:mm:ss}
PROV.           : PROVINCE
UWI.   31/2-10   : UNIQUE WELL ID
API.            : API NUMBER
#==================================================================
~Curve
DEPT .m                   : DEPTH
Lithology_geolink ._      : Lithology_geolink
CALI .in                  : CALI
DRHO .g/cm3               : DRHO
NPHI .m3/m3               : NPHI
RHOB .g/cm3               : RHOB
PEF .b/e                  : PEF
GR .gAPI                  : GR
DTC .us/ft                : DTC
RDEP .ohm.m               : RDEP
SP .mV                    : SP
RSHA .ohm.m               : RSHA
RMED .ohm.m               : RMED
~Parameter
#==================================================================
~Ascii
# ...
 1557.0853271 13.000000000 14.602000237 -0.003000000 0.2607399821 2.4279999733 4.1950001717 66.558494568 102.18605042 1.7778893709 76.769546509 3.9059998989 2.2812259197
 1557.2377930 13.000000000 14.656001091 0.0140000004 0.2714799941 2.4159998894 4.0900001526 64.668884277 99.957786560 1.7320096493 80.311950684 2.5639998913 2.3750865459
 1557.3901367 13.000000000 14.602000237 0.0529999994 0.3076199889 2.4059998989 3.9140000343 58.720729828 98.945808411 1.7350913286 79.053947449 2.7149999142 2.4011657238
 1557.5426025 13.000000000 15.062999725 0.0670000017 0.3383800089 2.4059998989 3.9549999237 59.438598633 102.52202606 1.7731953859 80.699882507 1.5089999437 2.0541322231
 1557.6949463 13.000000000 14.758001328 0.0540000014 0.3364300132 2.4059998989 4.0269999504 59.634315491 108.11520386 1.8341081142 83.459312439 1.4459999800 1.7840192318
 1557.8474121 13.000000000 14.772999763 0.0370000005 0.3193399906 2.4159998894 3.9590001106 63.491291046 111.32311249 1.8788686991 81.512962341 2.0139999390 1.7926149368
 1557.9997559 13.000000000 15.022999763 0.0309999995 0.3188500106 2.4340000153 3.9769999981 60.776191711 110.73297882 1.8378943205 80.877662659 1.8409999609 1.9846249819
 1558.1522217 13.000000000 15.203000069 0.0120000001 0.3110400140 2.4300000668 3.8180000782 58.770782471 106.99585724 1.7939552069 80.735252380 1.8109999895 2.2446088791
 1558.3045654 13.000000000 15.203000069 0.0070000002 0.3164100051 2.4279999733 3.6679999828 55.608913422 101.87943268 1.7800607681 80.190879822 4.1950001717 2.4340736866
 1558.4570313 13.000000000 15.164000511 0.0109999999 0.3330099881 2.4119999409 3.4790000916 60.258415222 100.65322876 1.7989903688 80.147140503 2.8259999752 2.4563174248
 1558.6093750 13.000000000 15.102000237 0.0140000004 0.3549800217 2.3980000019 3.4820001125 62.880603790 102.20263672 1.7961025238 78.640281677 1.6820000410 2.2435739040
 1558.7617188 13.000000000 15.069999695 0.0130000003 0.3774400055 2.3889999390 3.5510001183 64.612831116 103.14969635 1.8279902935 79.972434998 1.8860000372 2.1108798981
 1558.9141846 13.000000000 15.250000000 0.0109999999 0.3769499958 2.3650000095 3.5759999752 59.569503784 105.50051117 1.8240864277 80.146270752 1.9359999895 2.0603981018
 1559.0665283 13.000000000 15.140999794 0.0219999999 0.3696300089 2.3540000916 3.5290000439 61.592948914 108.78838348 1.8510215282 78.370841980 1.3919999599 1.8726443052
 1559.2189941 13.000000000 15.258000374 0.0160000008 0.3442400098 2.3420000076 3.6429998875 61.155097961 111.68412018 1.8600577116 82.037971497 1.3109999895 1.7250353098
 1559.3713379 13.000000000 15.132999420 0.0099999998 0.3232400119 2.3629999161 3.8159999847 60.866512299 112.72738647 1.8780071735 80.782905579 1.6469999552 1.7365720272
 1559.5238037 13.000000000 15.140999794 0.0020000001 0.3359400034 2.3849999905 3.9449999332 57.342098236 111.43408966 1.8810993433 80.329978943 1.6629999876 1.9749158621
 1559.6761475 13.000000000 15.203000069 0.0030000000 0.3476599753 2.3949999809 3.9530000687 56.750152588 107.86617279 1.9121056795 80.010810852 2.0490000248 2.2600600719
 1559.8286133 13.000000000 15.444999695 0.0000000000 0.3456999958 2.3949999809 4.0430002213 56.809097290 105.11932373 1.9561985731 79.932876587 1.4420000315 2.2847502232
 1559.9809570 13.000000000 15.397999763 0.0010000000 0.3183600008 2.4119999409 4.0430002213 55.604667664 103.30222321 2.0181634426 79.892402649 2.3829998970 2.2070746422
 1560.1334229 13.000000000 15.046999931 -0.004000000 0.3017600179 2.4240000248 3.9670000076 60.038711548 102.98722076 2.0860319138 79.229980469 2.7639999390 2.2380704880
 1560.2857666 13.000000000 15.062999725 0.0020000001 0.2905299962 2.4430000782 3.7599999905 62.433696747 104.01416779 2.0959615707 79.223754883 2.7520000935 2.2601120472
 1560.4382324 13.000000000 15.109001160 0.0030000000 0.2958999872 2.4409999847 3.7439999580 61.078376770 103.86126709 2.0839200020 79.769371033 2.2679998875 2.2948687077
 1560.5905762 13.000000000 15.030999184 0.0049999999 0.3090800047 2.4549999237 3.7750000954 56.217498779 103.19578552 2.0588173866 79.886352539 3.1480000019 2.2540192604
 1560.7430420 13.000000000 14.984000206 0.0010000000 0.3120099902 2.4570000172 3.7890000343 55.765625000 103.71257782 2.0017085075 79.994552612 2.0329999924 2.2599294186
 1560.8953857 13.000000000 14.890999794 -0.002000000 0.3242200017 2.4549999237 3.6389999390 60.630905151 103.53393555 1.9107438326 79.856155396 2.8629999161 2.2380192280
 1561.0477295 13.000000000 14.984000206 -0.004000000 0.3105500042 2.4219999313 3.5290000439 62.471630096 101.85533905 1.8307355642 80.213279724 2.5020000935 2.2438364029
 1561.2001953 13.000000000 14.906000137 -0.004000000 0.3369100094 2.3810000420 3.3629999161 63.566001892 102.36757660 1.7207021713 79.921051025 2.2130000591 2.1750841141
 1561.3525391 13.000000000 14.750000000 0.0020000001 0.3593800068 2.3440001011 3.3280000687 64.509765625 104.24763489 1.6278581619 81.181228638 1.7130000591 1.8894134760
 1561.5050049 13.000000000 14.734000206 0.0040000002 0.3789099753 2.3199999332 3.2339999676 68.577812195 107.46328735 1.5689103603 80.447776794 1.3150000572 1.6456189156
 1561.6573486 13.000000000 14.750000000 0.0010000000 0.3833000064 2.3029999733 3.2170000076 73.181396484 111.82572937 1.5409207344 80.379310608 1.2539999485 1.5268365145
 1561.8098145 13.000000000 14.569999695 -0.002000000 0.3637699783 2.2950000763 3.2149999142 70.421592712 115.13034821 1.5080640316 80.924667358 1.3250000477 1.4589198828
 1561.9621582 13.000000000 14.569999695 0.0020000001 0.3750000000 2.3010001183 3.3010001183 65.315559387 116.33695221 1.5281081200 80.820503235 1.2649999857 1.4340745211
 1562.1146240 13.000000000 14.727000237 0.0089999996 0.3759799898 2.3159999847 3.5450000763 66.380012512 114.52336121 1.5732083321 81.027961731 1.2879999876 1.4654006958
 1562.2669678 13.000000000 14.508000374 0.0089999996 0.3754900098 2.3280000687 3.5899999142 67.936599731 111.29598236 1.6382017136 80.393272400 1.2940000296 1.5908135176
 1562.4194336 13.000000000 14.538999557 0.0109999999 0.3481400013 2.3459999561 3.7290000916 67.489181519 105.95031738 1.7013332844 80.164550781 1.4789999723 1.8448557854
 1562.5717773 13.000000000 14.421999931 0.0140000004 0.3154299855 2.3689999580 3.6170001030 64.138015747 100.69812775 1.8053138256 79.402000427 1.5700000525 2.1115572453
 1562.7242432 13.000000000 14.304999352 0.0199999996 0.2919899821 2.4059998989 3.6840000153 68.198219299 98.544540405 1.9032723904 79.403205872 1.2389999628 2.2850320339
 1562.8765869 13.000000000 14.070000648 0.0179999992 0.2954100072 2.4340000153 3.6779999733 71.381004333 98.833328247 1.9881569147 79.775199890 1.6069999933 2.2951827049
 1563.0289307 13.000000000 14.109000206 0.0209999997 0.3120099902 2.4470000267 3.5639998913 73.250900269 99.122489929 2.0370888710 79.215179443 2.0409998894 2.3519327641
 1563.1813965 13.000000000 13.890999794 0.0170000009 0.3281300068 2.4219999313 3.5350000858 73.632408142 99.415527344 2.0739679337 79.706001282 1.6970000267 2.3237051964
 1563.3337402 13.000000000 13.593999863 0.0209999997 0.3237300217 2.3949999809 3.4119999409 75.941757202 99.878509521 2.0638892651 79.707183838 1.4299999475 2.2316057682
 1563.4862061 13.000000000 13.531000137 0.0179999992 0.3178700209 2.3710000515 3.5490000248 77.481384277 102.12285614 2.0177469254 80.197601318 1.4869999886 2.0677630901
 1563.6385498 13.000000000 13.546999931 0.0289999992 0.3242200017 2.3650000095 3.4549999237 71.693412781 105.49516296 1.9387909174 80.072830200 1.2849999666 1.9938533306
 1563.7910156 13.000000000 13.328000069 0.0340000018 0.3398400247 2.3550000191 3.3199999332 73.936004639 109.18957520 1.8516412973 80.004776001 1.1469999552 1.9328078032
 1563.9433594 13.000000000 13.444999695 0.0399999991 0.3735400140 2.3420000076 3.2030000687 73.349662781 112.82434845 1.7397091389 80.556045532 1.1950000525 1.8727571964
 1564.0958252 13.000000000 13.476999283 0.0280000009 0.3886699975 2.2809998989 2.9449999332 88.581619263 117.11625671 1.6187117100 79.745979309 1.0909999609 1.7714875937
 1564.2481689 6.0000000000 12.999999046 0.0130000003 0.4262699783 2.1989998817 2.8929998875 94.414062500 121.61257172 1.5288342237 80.048332214 1.1260000467 1.6117715836
