# LAS format log file from PETREL
# Project units are specified as depth units
#==================================================================
~Version information
VERS.   2.0:
WRAP.   NO:
#==================================================================
~Well
STRT .m      445.17501831 :
STOP .m      1838.8730469 :
STEP .m     0.00000000 :
NULL .        -999.250000 :
COMP.           : COMPANY
WELL.  31/2-10   : WELL
FLD.            : FIELD
LOC.            : LOCATION
SRVC.           : SERVICE COMPANY
DATE.  2018-09-11 14:48:32   : Log Export Date {yyyy-MM-dd HH:mm:ss}
PROV.           : PROVINCE
UWI.   31/2-10   : UNIQUE WELL ID
API.            : API NUMBER
#==================================================================
~Curve
DEPT .m                   : DEPTH
Lithology_geolink ._      : Lithology_geolink
CALI .in                  : CALI
DRHO .g/cm3               : DRHO
NPHI .m3/m3               : NPHI
RHOB .g/cm3               : RHOB
PEF .b/e                  : PEF
GR .gAPI                  : GR
DTC .us/ft                : DTC
RDEP .ohm.m               : RDEP
SP .mV                    : SP
RSHA .ohm.m               : RSHA
RMED .ohm.m               : RMED
~Parameter
#==================================================================
~Ascii
# ...
 1279.1077881 6.0000000000 17.931999207 0.0030000000 0.4861699939 2.0710000992 3.9539999962 75.435295105 151.08372498 0.7140256166 65.112777710  -999.250000 0.7560223937
 1279.2602539 6.0000000000 17.870000839 0.0000000000 0.4381400049 2.0999999046 3.6909999847 73.740547180 148.41676331 0.7300336361 65.597038269  -999.250000 0.7700888515
 1279.4125977 6.0000000000 17.794000626 -0.002000000 0.4121900201 2.1319999695 3.7539999485 69.803985596 146.50073242 0.7440769672 65.611595154  -999.250000 0.8070496321
 1279.5650635 6.0000000000 17.871999741 -0.002000000 0.3997399807 2.1329998970 3.6640000343 64.195510864 146.72152710 0.7921008468 65.363166809  -999.250000 0.8380984664
 1279.7174072 6.0000000000 17.930000305 0.0010000000 0.4129999876 2.1300001144 4.2360000610 67.316909790 146.46461487 0.8340496421 65.846221924  -999.250000 0.8790016174
 1279.8698730 6.0000000000 18.016000748 0.0020000001 0.4388099909 2.1400001049 4.1669998169 69.762008667 144.69827271 0.8651056886 65.365005493  -999.250000 0.8801921606
 1280.0222168 6.0000000000 18.239999771 -0.005000000 0.4661500156 2.1689999104 4.1840000153 74.749298096 143.07704163 0.9090464711 66.612022400  -999.250000 0.9600672722
 1280.1745605 6.0000000000 18.346000671 -0.005000000 0.4544200003 2.2000000477 4.1789999008 74.309799194 140.30235291 0.9379888177 66.627220154  -999.250000 1.0021009445
 1280.3270264 6.0000000000 18.423999786 -0.007000000 0.4617500007 2.2160000801 3.9839999676 72.315254211 136.17808533 0.9310312271 66.145156860  -999.250000 1.0650625229
 1280.4793701 6.0000000000 18.958000183 0.0000000000 0.4483999908 2.2139999866 3.9010000229 73.245895386 134.00050354 0.9440416694 66.627548218  -999.250000 1.0909134150
 1280.6318359 6.0000000000 18.607000351 0.0010000000 0.4567100108 2.1879999638 3.8180000782 70.691452026 134.71406555 0.9699856043 66.347038269  -999.250000 1.0368534327
 1280.7841797 6.0000000000 18.593999863 0.0040000002 0.4642699957 2.1770000458 4.0320000648 72.121093750 136.02514648 0.9639823437 66.362022400  -999.250000 0.9759583473
 1280.9366455 6.0000000000 18.635000229 -0.001000000 0.4718399942 2.1770000458 4.0159997940 69.703018188 137.08247375 0.9529736042 66.377433777  -999.250000 0.9501537085
 1281.0889893 6.0000000000 18.718999863 0.0020000001 0.4519900084 2.1809999943 3.7090001106 75.953430176 138.12208557 0.9419550896 66.144744873  -999.250000 1.0140177011
 1281.2414551 6.0000000000 18.812999725 0.0060000001 0.4241500199 2.1619999409 3.3220000267 85.585067749 139.02947998 0.9139471054 66.609039307  -999.250000 1.0249567032
 1281.3937988 7.0000000000 18.879999161 0.0130000003 0.4116999805 2.1349999905 3.0520000458 94.745391846 140.25134277 0.8919951916 65.378372192  -999.250000 1.0069278479
 1281.5462646 7.0000000000 18.891000748 0.0070000002 0.4427100122 2.1110000610 2.9349999428 91.856384277 141.80522156 0.8890144229 65.610839844  -999.250000 0.9619423747
 1281.6986084 6.0000000000 19.099000931 0.0020000001 0.4598000050 2.1140000820 3.0520000458 84.113380432 141.99667358 0.8950015903 65.128021240  -999.250000 0.9379807711
 1281.8510742 6.0000000000 19.114999771 -0.004000000 0.4785999954 2.1400001049 3.2149999142 76.864639282 140.13850403 0.8960120082 65.143920898  -999.250000 0.9261609316
 1282.0034180 6.0000000000 19.160999298 -0.006000000 0.4501999915 2.1740000248 3.3459999561 72.555892944 138.33071899 0.9010096192 65.112022400  -999.250000 0.9931137562
 1282.1557617 6.0000000000 19.159000397 -0.004000000 0.4169900119 2.1930000782 3.3429999352 68.118690491 136.60266113 0.9070032239 65.128372192  -999.250000 1.0640865564
 1282.3082275 6.0000000000 19.142999649 0.0000000000 0.4014500082 2.1889998913 3.3510000706 64.195205688 135.22029114 0.9090263844 65.360237122  -999.250000 1.1179136038
 1282.4605713 6.0000000000 19.089000702 0.0049999999 0.4055199921 2.1879999638 3.5309998989 67.191207886 135.31594849 0.9200224280 64.627624512  -999.250000 1.0819791555
 1282.6130371 6.0000000000 19.065000534 0.0060000001 0.4132499993 2.1960000992 3.4219999313 69.186500549 136.04014587 0.9340336323 64.395721436  -999.250000 1.0690191984
 1282.7653809 6.0000000000 19.180000305 0.0060000001 0.4231000245 2.2019999027 3.3800001144 68.563102722 136.55535889 0.9480032325 65.110771179  -999.250000 1.0769727230
 1282.9178467 6.0000000000 19.086000443 0.0089999996 0.4276599884 2.2179999352 3.6819999218 68.618095398 136.77590942 0.9499543309 64.347000122  -999.250000 1.0599447489
 1283.0701904 6.0000000000 19.010000229 0.0080000004 0.4270000160 2.2320001125 4.0159997940 65.754707336 135.76661682 0.9309775829 64.346626282  -999.250000 1.0369758606
 1283.2226563 6.0000000000 18.895999908 0.0070000002 0.3962099850 2.2430000305 3.9189999104 68.685150146 134.76725769 0.9169159532 64.113838196  -999.250000 1.0221824646
 1283.3750000 6.0000000000 18.875000000 0.0049999999 0.3763000071 2.2339999676 3.4739999771 67.503608704 134.55944824 0.8820032477 64.877548218  -999.250000 1.0979567766
 1283.5274658 6.0000000000 18.784000397 0.0060000001 0.3706800044 2.2100000381 3.2070000172 69.753601074 135.77244568 0.8840480447 64.597564697  -999.250000 1.0708799362
 1283.6798096 6.0000000000 18.701000214 -0.001000000 0.3880199790 2.1870000362 3.2400000095 71.253204346 138.34350586 0.9040127993 64.831001282  -999.250000 1.0208718777
 1283.8322754 6.0000000000 18.556999207 -0.007000000 0.4188899994 2.1689999104 3.1059999466 73.262008667 139.73443604 0.9120168090 64.831039429  -999.250000 0.9410071969
 1283.9846191 6.0000000000 18.452999115 -0.005000000 0.4243199825 2.1689999104 3.2019999027 78.253509521 139.99786377 0.9190064669 64.848228455  -999.250000 0.9440079927
 1284.1369629 6.0000000000 18.423999786 0.0040000002 0.4312399924 2.1860001087 3.3180000782 80.439903259 138.85061646 0.9230160117 65.611602783  -999.250000 0.9490480423
 1284.2894287 6.0000000000 18.305000305 0.0109999999 0.4142999947 2.2039999962 3.4370000362 81.619689941 137.20643616 0.9330288768 65.362373352  -999.250000 0.9790352583
 1284.4417725 6.0000000000 18.229000092 0.0089999996 0.4435999990 2.1830000877 3.3510000706 78.305694580 137.03709412 0.9510544538 65.597404480  -999.250000 1.0010015965
 1284.5942383 6.0000000000 18.153999329 0.0060000001 0.4550800025 2.1480000019 3.3410000801 73.735290527 136.74307251 0.9850432277 65.847038269  -999.250000 1.0019975901
 1284.7465820 6.0000000000 18.048999786 0.0089999996 0.4625700116 2.1519999504 3.6630001068 67.621696472 134.36337280 1.0030353069 65.862823486  -999.250000 1.0010945797
 1284.8990479 6.0000000000 18.004999161 0.0170000009 0.4414699972 2.2000000477 3.7720000744 65.565704346 131.54887390 1.0250456333 66.377922058  -999.250000 1.0601488352
 1285.0513916 6.0000000000 17.986999512 0.0289999992 0.4072999954 2.2300000191 3.6199998856 66.689804077 130.02943420 1.0440015793 66.347824097  -999.250000 1.1219567060
 1285.2038574 6.0000000000 18.101999283 0.0280000009 0.3932199776 2.1970000267 3.4300000668 67.814506531 129.15832520 1.0450264215 66.862037659  -999.250000 1.0949351788
 1285.3562012 6.0000000000 18.034000397 0.0199999996 0.3932300210 2.1489999294 3.3980000019 68.431289673 130.87298584 1.0560096502 66.878425598  -999.250000 1.0679646730
 1285.5086670 6.0000000000 18.224000931 0.0120000001 0.3878499866 2.1310000420 3.2699999809 64.249702454 134.50749207 1.0619159937 67.143432617  -999.250000 1.0460840464
 1285.6610107 6.0000000000 18.382999420 0.0109999999 0.4217199981 2.1240000725 3.3559999466 64.125801086 137.05792236 1.0269743204 66.907371521  -999.250000 1.0810176134
 1285.8134766 6.0000000000 18.159000397 0.0179999992 0.4393000007 2.1080000401 3.5520000458 64.635658264 139.83441162 1.0109903812 65.896324158  -999.250000 1.0919183493
 1285.9658203 6.0000000000 18.044000626 0.0170000009 0.4845399857 2.0840001106 3.6640000343 69.067413330 142.79086304 1.0069855452 66.861175537  -999.250000 1.0578942299
 1286.1182861 6.0000000000 18.004999161 0.0109999999 0.4691299796 2.0799999237 3.3389999866 71.809097290 143.58619690 0.9979543686 66.345832825  -999.250000 0.9920336008
 1286.2706299 6.0000000000 18.169000626 0.0049999999 0.4411600232 2.1040000916 3.0550000668 70.182495117 143.23843384 0.9789662957 65.861145020  -999.250000 1.0060577393
