# LAS format log file from PETREL
# Project units are specified as depth units
#==================================================================
~Version information
VERS.   2.0:
WRAP.   NO:
#==================================================================
~Well
STRT .m      416.08499146 :
STOP .m      2599.3679199 :
STEP .m     0.00000000 :
NULL .        -999.250000 :
COMP.           : COMPANY
WELL.  31/2-2 R   : WELL
FLD.            : FIELD
LOC.            : LOCATION
SRVC.           : SERVICE COMPANY
DATE.  2018-09-11 14:48:33   : Log Export Date {yyyy-MM-dd HH:mm:ss}
PROV.           : PROVINCE
UWI.   31/2-2 R   : UNIQUE WELL ID
API.            : API NUMBER
#==================================================================
~Curve
DEPT .m                   : DEPTH
Lithology_geolink ._      : Lithology_geolink
CALI .in                  : CALI
DRHO .g/cm3               : DRHO
NPHI .m3/m3               : NPHI
RHOB .g/cm3               : RHOB
GR .gAPI                  : GR
DTC .us/ft                : DTC
RDEP .ohm.m               : RDEP
SP .mV                    : SP
RSHA .ohm.m               : RSHA
RMED .ohm.m               : RMED
~Parameter
#==================================================================
~Ascii
# ...
 1286.5939941 5.0000000000 20.016000748 0.0049999999 0.4570299983 2.0959999561 38.344001770 146.17927551 0.6960144043 17.070259094  -999.250000 0.7649759650
 1286.7464600 5.0000000000 18.906000137 0.0240000002 0.4526399970 2.1189999580 36.741001129 144.76527405 0.6880064607 16.770240784  -999.250000 0.7729935646
 1286.8988037 5.0000000000 19.000000000 0.0189999994 0.4946300089 2.1170001030 35.355998993 144.02777100 0.6840032339 16.573158264  -999.250000 0.7730000019
 1287.0512695 5.0000000000 19.187999725 0.0130000003 0.4589799941 2.1070001125 34.441001892 144.10685730 0.6830008030 16.724878311  -999.250000 0.7520167828
 1287.2036133 5.0000000000 19.343999863 0.0040000002 0.4174800217 2.0820000172 35.388000488 145.92762756 0.6839992404 16.739988327  -999.250000 0.7370120287
 1287.3560791 5.0000000000 19.187999725 -0.001000000 0.4248000085 2.0629999638 36.970001221 147.37168884 0.6879968047 16.741998672  -999.250000 0.7200136185
 1287.5084229 5.0000000000 19.906002045 -0.004000000 0.4873000085 2.0639998913 38.361999512 150.48350525 0.6929960251 16.686046600  -999.250000 0.7269943953
 1287.6608887 5.0000000000 19.452999115 -0.001000000 0.5185499787 2.0780000687 38.541000366 148.75079346 0.6969968081 16.468175888  -999.250000 0.7389904261
 1287.8132324 5.0000000000 19.391000748 0.0280000009 0.4853500128 2.0980000496 37.789001465 148.48641968 0.7019960284 16.214204788  -999.250000 0.7519895434
 1287.9655762 5.0000000000 19.812999725 0.0329999998 0.4716799855 2.0920000076 36.824001312 147.97721863 0.7109856009 15.980374336  -999.250000 0.7699711323
 1288.1180420 5.0000000000 20.125000000 0.0260000005 0.4804700017 2.0880000591 36.401000977 147.51773071 0.7209920287 16.222805023  -999.250000 0.7849879861
 1288.2703857 5.0000000000 19.812999725 0.0130000003 0.4975599945 2.0899999142 36.243999481 147.70654297 0.7269904017 16.454627991  -999.250000 0.7939856052
 1288.4228516 5.0000000000 20.108999252 0.0390000008 0.4706999958 2.0880000591 35.847000122 146.85635376 0.7279992104 16.675823212  -999.250000 0.7989960313
 1288.5751953 5.0000000000 19.031000137 0.0149999997 0.4428699911 2.0199999809 35.305999756 143.53898621 0.7240063548 16.895647049  -999.250000 0.7870191932
 1288.7276611 5.0000000000 18.922000885 0.0000000000 0.4794900119 1.9850000143 34.004001617 143.85647583 0.7140079737 17.115823746  -999.250000 0.7820039988
 1288.8800049 5.0000000000 19.297000885 -0.008000000 0.5087900162 2.0060000420 32.446998596 145.43022156 0.7070056200 17.153968811  -999.250000 0.7640144229
 1289.0324707 5.0000000000 18.875000000 0.0209999997 0.5468800068 2.0569999218 30.750999451 150.06056213 0.7000055909 17.155000687  -999.250000 0.7390200496
 1289.1848145 5.0000000000 18.812999725 0.0359999985 0.5346699953 2.0490000248 29.964000702 148.70129395 0.6920064092 17.156997681  -999.250000 0.7110224366
 1289.3372803 5.0000000000 19.312999725 0.0120000001 0.5136700273 1.9919999838 30.202999115 145.78866577 0.6820079684 17.158000946  -999.250000 0.7010079622
 1289.4896240 5.0000000000 21.250000000 0.0060000001 0.4941400290 1.9969999790 30.906000137 142.77923584 0.6720079780 17.138015747  -999.250000 0.7199848294
 1289.6420898 5.0000000000 19.781000137 0.0020000001 0.4594699740 2.0309998989 31.909000397 141.63781738 0.6630071998 16.810262680  -999.250000 0.7399839759
 1289.7944336 5.0000000000 19.233999252 0.0049999999 0.4609400034 2.0859999657 33.854000092 145.24021912 0.6590031981 17.030822754  -999.250000 0.7370023727
 1289.9468994 5.0000000000 18.516000748 0.0160000008 0.4604499936 2.0959999561 35.820999146 152.85189819 0.6589999795 17.151903152  -999.250000 0.7250096202
 1290.0992432 5.0000000000 20.125000000 0.0240000002 0.4428699911 2.0699999332 36.327999115 157.22949219 0.6570016146 17.124023438  -999.250000 0.6970224380
 1290.2515869 5.0000000000 20.875000000 0.0309999995 0.4648400247 2.0179998875 35.810001373 158.49397278 0.6440207958 17.096046448  -999.250000 0.6999951601
 1290.4040527 5.0000000000 20.922000885 0.0060000001 0.4824199975 1.9700000286 35.547000885 151.56256104 0.6290120482 17.068023682  -999.250000 0.7099919915
 1290.5563965 5.0000000000 20.483999252 0.0040000002 0.5288100243 1.9739999771 35.469001770 146.33537292 0.6140240431 17.040046692  -999.250000 0.7169888020
 1290.7088623 5.0000000000 20.375003815 0.0199999996 0.5488299727 2.0039999485 35.102001190 143.40434265 0.6050072312 17.012022018  -999.250000 0.7189983726
 1290.8612061 5.0000000000 19.968999863 0.0240000002 0.5507799983 1.9930000305 33.592998505 144.88981628 0.6040007472 16.984022141  -999.250000 0.6960183978
 1291.0136719 5.0000000000 19.875000000 0.0170000009 0.5581099987 1.9490000010 32.360000610 148.75090027 0.6059983969 17.578523636  -999.250000 0.6700208187
 1291.1660156 5.0000000000 20.516002655 -0.005000000 0.5605499744 1.9229999781 32.273998260 151.53277588 0.6030023694 17.531038284  -999.250000 0.6650040150
 1291.3184814 5.0000000000 20.172000885 -0.002000000 0.5673800111 1.9459999800 32.877998352 153.55036926 0.5970048308 17.202262878  -999.250000 0.6719943881
 1291.4708252 5.0000000000 20.858999252 -0.009000000 0.5571300387 1.9759999514 34.077999115 153.65492249 0.5880072117 16.842287064  -999.250000 0.6729992032
 1291.6232910 5.0000000000 19.281000137 -0.006000000 0.5131800175 1.9850000143 35.182998657 151.23893738 0.5800063610 16.966899872  -999.250000 0.6779959798
 1291.7756348 5.0000000000 19.702999115 -0.005000000 0.5659199953 1.9780000448 36.191001892 150.65647888 0.5740048289 17.194816589  -999.250000 0.6779999733
 1291.9281006 5.0000000000 20.172000885 0.0219999999 0.5405300260 1.9960000515 37.491001129 149.21415710 0.5700032115 17.380851746  -999.250000 0.6720048189
 1292.0804443 5.0000000000 20.391000748 0.0209999997 0.5581099987 1.9930000305 38.352001190 152.84407043 0.5670023561 17.381999969  -999.250000 0.6470200419
 1292.2327881 5.0000000000 20.468999863 0.0209999997 0.5175799727 1.9969999790 38.250000000 158.44401550 0.5679984093 17.378005981  -999.250000 0.6210415959
 1292.3852539 5.0000000000 21.593999863 0.0070000002 0.4970700145 1.9559999704 37.634998322 155.14665222 0.5680000186 17.229120255  -999.250000 0.6120072007
 1292.5375977 5.0000000000 21.405998230 0.0070000002 0.5610399842 1.9329999685 36.617000580 152.09989929 0.5719936490 17.277921677  -999.250000 0.6179903746
 1292.6900635 5.0000000000 20.156000137 -0.002000000 0.5351600051 1.9170000553 35.414001465 152.47869873 0.5799935460 17.405897141  -999.250000 0.6309895515
 1292.8424072 5.0000000000 20.093999863 -0.005000000 0.5649399757 1.9459999800 34.110000610 150.28651428 0.5899839401 17.533796310  -999.250000 0.6579567790
 1292.9948730 5.0000000000 20.063001633 0.0040000002 0.5087900162 1.9930000305 33.133998871 148.49343872 0.5999920368 17.483039856  -999.250000 0.6879760027
 1293.1472168 5.0000000000 20.280998230 0.0130000003 0.5297899842 1.9889999628 33.029998779 148.42405701 0.6099920273 17.299146652  -999.250000 0.6979920268
 1293.2996826 5.0000000000 20.608997345 0.0120000001 0.5463899970 1.9709999561 33.631999969 150.10664368 0.6209911704 17.101158142  -999.250000 0.7059935927
 1293.4520264 5.0000000000 20.531000137 -0.004000000 0.5771499872 1.9279999733 33.703998566 153.50028992 0.6299927831 16.883174896  -999.250000 0.7020032406
 1293.6044922 5.0000000000 19.766000748 0.0000000000 0.5483400226 1.9060000181 33.039001465 154.49920654 0.6299999952 17.123807907  -999.250000 0.6950055957
 1293.7568359 5.0000000000 19.702999115 -0.006000000 0.5659199953 1.8439999819 32.883998871 155.07855225 0.6270023584 17.547660828  -999.250000 0.6890048385
 1293.9093018 5.0000000000 20.063001633 -0.013000000 0.4975599945 1.8159999847 33.806999207 155.84239197 0.6220039725 17.176298141  -999.250000 0.6880007982
 1294.0616455 5.0000000000 20.187999725 -0.026000001 0.5581099987 1.8229999542 35.250999451 151.54844666 0.6170039773 16.997142792  -999.250000 0.6880000234
 1294.2139893 5.0000000000 20.391000748 -0.017999999 0.5180699825 1.8980000019 36.534000397 152.82594299 0.6120079756 16.817287445  -999.250000 0.6820095778
