# LAS format log file from PETREL
# Project units are specified as depth units
#==================================================================
~Version information
VERS.   2.0:
WRAP.   NO:
#==================================================================
~Well
STRT .m      1309.8798828 :
STOP .m      4086.9138184 :
STEP .m     0.00000000 :
NULL .        -999.250000 :
COMP.           : COMPANY
WELL.  31/2-19 S   : WELL
FLD.            : FIELD
LOC.            : LOCATION
SRVC.           : SERVICE COMPANY
DATE.  2018-09-11 14:48:33   : Log Export Date {yyyy-MM-dd HH:mm:ss}
PROV.           : PROVINCE
UWI.   31/2-19 S   : UNIQUE WELL ID
API.            : API NUMBER
#==================================================================
~Curve
DEPT .m                   : DEPTH
Lithology_geolink ._      : Lithology_geolink
CALI .in                  : CALI
BS .in                    : BS
DRHO .g/cm3               : DRHO
NPHI .m3/m3               : NPHI
RHOB .g/cm3               : RHOB
GR .gAPI                  : GR
DTC .us/ft                : DTC
DTS .us/ft                : DTS
RDEP .ohm.m               : RDEP
SP .mV                    : SP
RSHA .ohm.m               : RSHA
RMIC .ohm.m               : RMIC
RMED .ohm.m               : RMED
~Parameter
#==================================================================
~Ascii
# ...
 1491.0834961  -999.250000 13.295000076 12.250000954 -0.007272000 0.4820710123 2.1259999275 126.60752869 147.03126526 396.30001831 0.8958330154 134.81300354 0.8368399739 0.7149999738 0.8370000124
 1491.2359619  -999.250000 13.327000618 12.250000954 -0.007998000 0.4917129874 2.1180000305 123.00640106 148.21110535 401.23098755 0.9010869861 135.56300354 0.8407070041 56.183998108 0.8410000205
 1491.3883057  -999.250000 13.328000069 12.250000954 -0.008690000 0.4869750142 2.1040000916 121.53585815 147.94664001 410.81701660 0.8658329844 135.12500000 0.8042610288 1.4149999619 0.8040000200
 1491.5407715  -999.250000 13.383999825 12.250000954 -0.003503000 0.4962300062 2.1150000095 122.70726776 147.79524231 423.57901001 0.8607900143 135.31300354 0.7991189957 0.2829999924 0.7990000248
 1491.6931152  -999.250000 13.383000374 12.250000954 0.0012740000 0.5045599937 2.1059999466 125.70496368 149.10383606 445.84899902 0.8690860271 135.56300354 0.8077549934 0.3249999881 0.8080000281
 1491.8455811  -999.250000 13.411000252 12.250000954 -0.000363000 0.5329710245 2.1010000706 126.36439514 152.57843018 423.78100586 0.8442230225 136.18800354 0.7923550010 0.6809999943 0.7919999957
 1491.9979248  -999.250000 13.399999619 12.250000954 -0.004147000 0.5222749710 2.1960000992 124.77938843 156.35292053 401.86401367 0.7955719829 135.81300354 0.7491530180 0.6759999990 0.7490000129
 1492.1503906  -999.250000 13.315999985 12.250000954 0.0125030000 0.4979130030 2.4059998989 116.47667694 158.54124451 410.51000977 0.8234949708 136.12500000 0.7851229906 0.4499999881 0.7850000262
 1492.3027344  -999.250000 12.881999969 12.250000954 0.0352540016 0.4477159977 2.4779999256 107.13742828 159.59016418 409.50698853 1.0379999876 136.56300354 0.9641489983 0.6060000062 0.9639999866
 1492.4552002  -999.250000 13.003001213 12.250000954 -0.006393000 0.4423089921 2.2130000591 88.981254578 159.50508118 399.94000244 1.2549999952 136.87500000 1.1480000019 0.7099999785 1.1480000019
 1492.6075439  -999.250000 13.430999756 12.250000954 -0.031481002 0.4877719879 2.0480000973 90.761604309 155.42028809 407.32501221 1.1649999619 136.56300354 1.0659999847 0.6880000234 1.0659999847
 1492.7598877  -999.250000 13.397000313 12.250000954 -0.014609000 0.5032420158 2.0510001183 105.56448364 152.12228394 414.26800537 1.1729999781 135.68800354 1.0800000429 0.6650000215 1.0800000429
 1492.9123535  -999.250000 13.142000198 12.250000954 -0.006257000 0.5291479826 2.1089999676 113.92165375 151.23469543 407.14099121 0.9381669760 136.06300354 0.8842430115 0.5699999928 0.8840000033
 1493.0646973  -999.250000 13.123000145 12.250000954 -0.012466000 0.5055220127 2.1080000401 121.69885254 148.68508911 397.61801147 0.7542089820 135.93800354 0.7059590220 0.7189999819 0.7059999704
 1493.2171631  -999.250000 13.100999832 12.250000954 -0.009985000 0.5260670185 2.1050000191 131.90908813 147.41502380 404.35998535 0.8155689836 135.18800354 0.7508630157 0.5640000105 0.7509999871
 1493.3695068  -999.250000 13.116999626 12.250000954 -0.006209000 0.5193669796 2.1189999580 132.13026428 146.65621948 414.28100586 0.8585029840 135.12500000 0.7906640172 0.6340000033 0.7910000086
 1493.5219727  -999.250000 13.157999992 12.250000954 -0.003028000 0.5258569717 2.1410000324 131.10711670 145.87162781 409.71200562 0.8679130077 135.31300354 0.7962530255 0.6460000277 0.7960000038
 1493.6743164  -999.250000 13.196999550 12.250000954 -0.004016000 0.5241240263 2.1459999084 127.88594055 144.67396545 418.21697998 0.8775219917 135.25000000 0.8128859997 0.6449999809 0.8130000234
 1493.8267822  -999.250000 13.217000008 12.250000954 -0.008039000 0.5412830114 2.1419999599 130.16876221 144.40621948 412.51300049 0.9037219882 135.87500000 0.8308330178 0.4939999878 0.8309999704
 1493.9791260  -999.250000 13.215000153 12.250000954 -0.009802000 0.5123280287 2.1319999695 134.34623718 145.60803223 409.93399048 0.9127330184 136.00000000 0.8479710221 0.3930000067 0.8479999900
 1494.1315918  -999.250000 13.218999863 12.250000954 -0.009181000 0.5108669996 2.1329998970 133.96459961 145.45312500 402.02395630 0.9273650050 136.18800354 0.8511710167 1.3439999819 0.8510000110
 1494.2839355  -999.250000 13.232000351 12.250000954 -0.010657000 0.4891090095 2.1319999695 135.21795654 144.83648682 404.87802124 0.9039989710 136.43800354 0.8365190029 0.5469999909 0.8370000124
 1494.4364014  -999.250000 13.243000031 12.250000954 -0.010775000 0.5192070007 2.1329998970 121.48218536 144.27743530 402.16799927 0.8986819983 136.37500000 0.8316910267 0.3339999914 0.8320000172
 1494.5887451  -999.250000 13.227999687 12.250000954 -0.009996000 0.5129789710 2.1340000629 133.76445007 144.80456543 388.28698730 0.9005759954 136.68800354 0.8382970095 0.3750000000 0.8379999995
 1494.7410889  -999.250000 13.281000137 12.250000954 -0.004677000 0.5015169978 2.1180000305 132.91461182 145.64566040 422.85998535 0.8925719857 137.00000000 0.8319150209 0.6399999857 0.8320000172
 1494.8935547  -999.250000 13.289999962 12.250000954 -0.010870000 0.4911580086 2.1329998970 134.21376038 148.89639282 422.56100464 0.9215559959 136.93800354 0.8577049971 0.6990000010 0.8579999804
 1495.0458984  -999.250000 13.327000618 12.250000954 -0.020917000 0.4909439981 2.2349998951 128.56874084 150.16996765 426.75500488 0.9284350276 136.62500000 0.8627390265 0.6449999809 0.8629999757
 1495.1983643  -999.250000 13.326000214 12.250000954 0.0110390000 0.5233370066 2.4219999313 126.33488464 152.22134399 423.42599487 1.0260000229 136.50000000 0.9449840188 0.6320000291 0.9449999928
 1495.3507080  -999.250000 13.380999565 12.250000954 0.0137050003 0.5155659914 2.4040000439 125.05909729 152.25395203 406.34298706 0.9990509748 137.50000000 0.9163579941 0.6600000262 0.9160000086
 1495.5031738  -999.250000 13.333000183 12.250000954 -0.013582000 0.5142560005 2.1970000267 135.64144897 149.72802734 427.63500977 0.9672819972 137.12500000 0.8916829824 0.6729999781 0.8920000196
 1495.6555176  -999.250000 13.310999870 12.250000954 -0.018368000 0.4823989868 2.0989999771 130.95503235 149.30332947 433.25500488 0.9734650254 136.56300354 0.8928589821 0.6660000086 0.8930000067
 1495.8079834  -999.250000 13.282999039 12.250000954 0.0013240000 0.5007600188 2.1119999886 130.33540344 147.15272522 436.94100952 0.9296500087 135.87500000 0.8596739769 0.6610000134 0.8600000143
 1495.9603271  -999.250000 13.284000397 12.250000954 -0.008285000 0.4909630120 2.1280000210 133.18054199 145.23854065 435.98199463 0.8993030190 135.75000000 0.8417500257 0.6269999743 0.8420000076
 1496.1127930  -999.250000 13.282999039 12.250000954 -0.013078000 0.5025680065 2.1270000935 133.41510010 145.19503784 443.62503052 0.9303179979 135.87500000 0.8638439775 0.5120000243 0.8640000224
 1496.2651367  -999.250000 13.302999496 12.250000954 -0.014493000 0.5243279934 2.1270000935 133.00366211 144.33668518 439.44699097 0.9198359847 136.18800354 0.8550199866 0.6380000114 0.8550000191
 1496.4176025  -999.250000 13.331999779 12.250000954 -0.011869000 0.5444970131 2.1329998970 133.20434570 144.94050598 427.87200928 0.9179790020 134.75000000 0.8552560210 0.3670000136 0.8550000191
 1496.5699463  -999.250000 13.402000427 12.250000954 -0.010837000 0.5373880267 2.1389999390 127.79574585 145.18780518 422.50100708 0.9091650248 135.87500000 0.8478010297 0.3350000083 0.8479999900
 1496.7224121  -999.250000 13.406999588 12.250000954 -0.011969000 0.5079389811 2.1400001049 131.62661743 145.42680359 429.24099731 0.9112480283 136.43800354 0.8499320149 0.4000000060 0.8500000238
 1496.8747559  -999.250000 13.426000595 12.250000954 -0.009353000 0.5271319747 2.1310000420 132.42883301 145.92860413 424.76998901 0.9166859984 135.43800354 0.8582850099 0.5040000081 0.8579999804
 1497.0270996  -999.250000 13.434000015 12.250000954 -0.005077000 0.5263090134 2.1180000305 132.56048584 146.76666260 437.94699097 0.9303870201 135.37500000 0.8680289984 0.4350000024 0.8679999709
 1497.1795654  -999.250000 13.446001053 12.250000954 0.0009360000 0.5218470097 2.0980000496 141.60266113 148.75141907 446.51699829 0.9138169885 136.31300354 0.8550699949 0.3149999976 0.8550000191
