# LAS format log file from PETREL
# Project units are specified as depth units
#==================================================================
~Version information
VERS.   2.0:
WRAP.   NO:
#==================================================================
~Well
STRT .m      452.86209106 :
STOP .m      2603.6831055 :
STEP .m     0.00000000 :
NULL .        -999.250000 :
COMP.           : COMPANY
WELL.  31/2-3   : WELL
FLD.            : FIELD
LOC.            : LOCATION
SRVC.           : SERVICE COMPANY
DATE.  2018-09-11 14:48:34   : Log Export Date {yyyy-MM-dd HH:mm:ss}
PROV.           : PROVINCE
UWI.   31/2-3   : UNIQUE WELL ID
API.            : API NUMBER
#==================================================================
~Curve
DEPT .m                   : DEPTH
Lithology_geolink ._      : Lithology_geolink
CALI .in                  : CALI
DRHO .g/cm3               : DRHO
NPHI .m3/m3               : NPHI
RHOB .g/cm3               : RHOB
GR .gAPI                  : GR
DTC .us/ft                : DTC
DTE .us/ft                : DTE
RDEP .ohm.m               : RDEP
SP .mV                    : SP
RSHA .ohm.m               : RSHA
RMED .ohm.m               : RMED
~Parameter
#==================================================================
~Ascii
# ...
 1740.3370361 6.0000000000 12.347999573 0.0059839874 0.4295741022 2.3299775124 71.828002930 106.43785095 103.18096161 2.1019999981 45.661998749 3.9939894676 2.8110642433
 1740.4895020 6.0000000000 12.418999672 0.0040048077 0.4439071119 2.3319952488 72.683998108 106.00070190 102.73500061 2.1119999886 45.702999115 4.0539517403 2.8558917046
 1740.6418457 6.0000000000 12.498000145 -0.003974380 0.4384631813 2.3320000172 73.765998840 105.64421082 102.39659882 2.1480000019 45.796001434 4.0899715424 2.9516923428
 1740.7943115 6.0000000000 12.548999786 -0.011980769 0.4280467033 2.3150408268 72.918998718 105.83194733 102.57466125 2.1779999733 45.907001495 4.0969944000 3.1036345959
 1740.9466553 6.0000000000 12.550999641 -0.012000000 0.4273117185 2.2920737267 72.790000916 106.13706970 102.81210327 2.2019999027 46.020999908 4.1199812889 3.2076668739
 1741.0991211 6.0000000000 12.472999573 -0.004019231 0.4362556338 2.2880096436 73.378997803 105.76362610 102.51780701 2.2379999161 46.159999847 4.1429815292 3.1810648441
 1741.2514648 6.0000000000 12.354000092 0.0009839872 0.4519448280 2.2939805984 73.696998596 105.34514618 102.11289978 2.2920000553 46.332000732 4.1939587593 3.0424451828
 1741.4038086 6.0000000000 12.185999870 0.0029935897 0.4610880315 2.3029711246 74.476997375 104.88755035 101.62083435 2.3399999142 46.508998871 4.2459163666 2.9233815670
 1741.5562744 6.0000000000 12.088999748 -0.000987190 0.4648240507 2.3069870472 74.473999023 104.64393616 101.34789276 2.3689999580 46.686000824 4.2459998131 2.9120352268
 1741.7086182 6.0000000000 12.076999664 -0.004987179 0.4683814645 2.3109872341 74.799003601 104.92221069 101.55222321 2.3900001049 46.865001678 4.3438429832 2.9638333321
 1741.8610840 6.0000000000 12.159999847 -0.004003203 0.4562894106 2.3259520531 74.394996643 105.16365814 101.85979462 2.3789999485 47.078998566 4.5528326035 3.0238077641
 1742.0134277 6.0000000000 12.322999954 -0.007987180 0.4354600906 2.3309841156 74.585998535 105.53398895 102.27787018 2.3580000401 47.325000763 4.6069135666 3.0658652782
 1742.1658936 6.0000000000 12.461999893 -0.008000000 0.4150726497 2.3369855881 75.100997925 106.29194641 103.01393890 2.3540000916 47.583000183 4.5600376129 3.0969252586
 1742.3182373 6.0000000000 12.604998589 -0.005007206 0.4046250582 2.3449745178 76.289001465 106.89087677 103.57930756 2.3529999256 47.854000092 4.5919742584 3.1358749866
 1742.4707031 6.0000000000 12.729000092 0.0009903846 0.4111395180 2.3529806137 75.410003662 107.14829254 103.78909302 2.3529999256 48.115001678 4.6919198036 3.1729111671
 1742.6230469 6.0000000000 12.800000191 0.0069855885 0.4138135910 2.3589806557 75.906997681 107.14996338 103.88455200 2.3529999256 48.319000244 4.6290507317 3.1899456978
 1742.7755127 6.0000000000 12.793999672 0.0139887827 0.4146586657 2.3689758778 75.480003357 107.08950043 103.84883118 2.3529999256 48.480998993 4.5070977211 3.1880047321
 1742.9278564 5.0000000000 12.685999870 0.0110072056 0.4169844091 2.3699967861 74.138000488 107.03066254 103.75602722 2.3529999256 48.525001526 4.6039223671 3.1720511913
 1743.0803223 5.0000000000 12.532999039 0.0060080127 0.4148534238 2.3570313454 72.035003662 107.07143402 103.76432800 2.3529999256 48.231998444 4.7029209137 3.1301009655
 1743.2326660 5.0000000000 12.420000076 0.0040032053 0.4053951502 2.3460352421 71.726997375 107.13298798 103.78498840 2.3519999981 47.945999146 4.5341353416 3.1060767174
 1743.3851318 5.0000000000 12.348999023 -0.000991994 0.4117198288 2.3410120010 72.393997192 106.97177887 103.70466614 2.3359999657 47.821998596 4.5030245781 3.1040048599
 1743.5374756 5.0000000000 12.305000305 -0.001998398 0.4220134914 2.3330254555 74.550003052 106.96862793 103.69125366 2.3310000896 47.691001892 4.6638708115 3.1040000916
 1743.6898193 6.0000000000 12.296999931 0.0009927943 0.4299209714 2.3369870186 76.447998047 107.13178253 103.85520172 2.3299999237 47.472000122 4.6949505806 3.1040000916
 1743.8422852 6.0000000000 12.295999527 -0.001995192 0.4279431999 2.3429806232 77.116996765 107.30939484 104.04734802 2.3299999237 47.268001556 4.6360473633 3.1040000916
 1743.9946289 6.0000000000 12.288999557 0.0019903923 0.4269823134 2.3469870090 77.704002380 107.44719696 104.11667633 2.3299999237 47.243000031 4.6569662094 3.1040000916
 1744.1470947 6.0000000000 12.274999619 0.0039967950 0.4248034954 2.3579735756 78.439002991 107.43083191 104.13837433 2.3310000896 47.345001221 4.7828989029 3.1040000916
 1744.2994385 6.0000000000 12.277001381 0.0099855885 0.4275134504 2.3619871140 79.033996582 107.48915100 104.17644501 2.3310000896 47.648998260 4.7390704155 3.1040000916
 1744.4519043 6.0000000000 12.288999557 0.0080032051 0.4339097440 2.3679857254 77.174003601 107.31472015 103.98873138 2.3299999237 48.140998840 4.6960344315 3.1040000916
 1744.6042480 6.0000000000 12.267999649 0.0060048038 0.4287325144 2.3580319881 75.318000793 106.67793274 103.39208221 2.3310000896 48.474998474 4.5730986595 3.1049969196
 1744.7567139 6.0000000000 12.239000320 0.0020064104 0.4232288003 2.3540096283 74.987998962 105.90167999 102.56469727 2.3450000286 48.229999542 4.3591713905 3.1179687977
 1744.9090576 6.0000000000 12.203000069 0.0020000001 0.4164562821 2.3470222950 75.814002991 105.22752380 101.90352631 2.3519999981 47.923000336 4.3100390434 3.1150095463
 1745.0615234 6.0000000000 12.135999680 0.0059935898 0.4127459228 2.3390192986 77.082000732 104.92552948 101.59285736 2.3550000191 47.749000549 4.4738688469 3.1110095978
 1745.2138672 6.0000000000 12.059000969 0.0109879905 0.4142763317 2.3250448704 77.564002991 104.82484436 101.51062775 2.3699998856 47.590000153 4.6058940887 3.1389102936
 1745.3663330 5.0000000000 11.984999657 0.0169903859 0.4023191929 2.3160216808 75.782997131 104.82262421 101.54176331 2.3750000000 47.426998138 4.4141535759 3.1509711742
 1745.5186768 5.0000000000 11.928000450 0.0199951921 0.3865153193 2.3239743710 72.861000061 104.98384857 101.62787628 2.3750000000 47.245998383 4.0363025665 3.1230895519
 1745.6710205 5.0000000000 11.927000046 0.0229927935 0.3868191838 2.3389518261 71.998001099 104.98601532 101.69884491 2.3780000210 47.000000000 3.6805701256 3.0542211533
 1745.8234863 5.0000000000 11.965000153 0.0289903842 0.3980519474 2.3479712009 71.203002930 104.68980408 101.39656830 2.3910000324 46.750000000 3.6700081825 3.0041601658
 1745.9758301 5.0000000000 12.045998573 0.0349855870 0.4081557095 2.3559741974 72.683998108 104.17205048 100.87827301 2.3789999485 46.759998322 3.8197598457 3.0329070091
 1746.1282959 5.0000000000 12.152000427 0.0409903862 0.4063030183 2.3649711609 74.447998047 103.55750275 100.30841827 2.3580000401 46.949001312 3.9638845921 3.0838367939
 1746.2806396 6.0000000000 12.217000008 0.0370096080 0.4071080387 2.3689870834 76.921997070 102.78466797 99.445846558 2.3380000591 47.130001068 4.1187515259 3.0959615707
 1746.4331055 6.0000000000 12.239000320 0.0360016003 0.4108340144 2.3600215912 79.067001343 102.47751617 99.181167603 2.3310000896 47.028999329 4.2878646851 3.0710601807
 1746.5854492 6.0000000000 12.241999626 0.0359999985 0.4144513011 2.3629903793 78.779998779 103.14629364 99.850425720 2.3299999237 46.854000092 4.4059057236 3.0381057262
 1746.7379150 6.0000000000 12.236000061 0.0469823703 0.4188329577 2.3669905663 78.363998413 103.92608643 100.61317444 2.3299999237 46.714000702 4.4079985619 3.0370023251
 1746.8902588 6.0000000000 12.216000557 0.0390192159 0.4201468229 2.3520479202 77.399002075 104.56213379 101.29341888 2.3289999962 46.694000244 4.3220691681 3.0649104118
 1747.0427246 6.0000000000 12.191999435 0.0140400650 0.4200601578 2.3380336761 78.144996643 105.16116333 101.84639740 2.3120000362 46.672000885 4.5418238640 3.1059014797
 1747.1950684 6.0000000000 12.173999786 0.0000336269 0.4181945026 2.3200576305 78.000000000 105.24311066 101.94181061 2.2769999504 46.437999725 4.7258524895 3.1040065289
 1747.3475342 6.0000000000 12.173999786 -0.006988782 0.4267063439 2.3160095215 75.582000732 105.12148285 101.82342529 2.2530000210 45.889999390 4.5271592140 3.0052380562
 1747.4998779 6.0000000000 12.190999985 -0.010993590 0.4245834351 2.3080255985 72.916000366 105.16365814 101.89388275 2.2469999790 45.372001648 4.2871923447 2.8195955753
