# LAS format log file from PETREL
# Project units are specified as depth units
#==================================================================
~Version information
VERS.   2.0:
WRAP.   NO:
#==================================================================
~Well
STRT .m      416.08499146 :
STOP .m      2599.3679199 :
STEP .m     0.00000000 :
NULL .        -999.250000 :
COMP.           : COMPANY
WELL.  31/2-2 R   : WELL
FLD.            : FIELD
LOC.            : LOCATION
SRVC.           : SERVICE COMPANY
DATE.  2018-09-11 14:48:33   : Log Export Date {yyyy-MM-dd HH:mm:ss}
PROV.           : PROVINCE
UWI.   31/2-2 R   : UNIQUE WELL ID
API.            : API NUMBER
#==================================================================
~Curve
DEPT .m                   : DEPTH
Lithology_geolink ._      : Lithology_geolink
CALI .in                  : CALI
DRHO .g/cm3               : DRHO
NPHI .m3/m3               : NPHI
RHOB .g/cm3               : RHOB
GR .gAPI                  : GR
DTC .us/ft                : DTC
RDEP .ohm.m               : RDEP
SP .mV                    : SP
RSHA .ohm.m               : RSHA
RMED .ohm.m               : RMED
~Parameter
#==================================================================
~Ascii
 416.08499146  -999.250000 22.233999252 -0.063000001 0.6533200145 2.1170001030 5.7746477127 56.036003113  -999.250000  -999.250000  -999.250000  -999.250000
 416.23736572  -999.250000 22.233999252 -0.057999998 0.6235399842 2.1250000000 5.7660193443 56.035003662  -999.250000  -999.250000  -999.250000  -999.250000
 416.38977051  -999.250000 22.233999252 -0.061000001 0.6274399757 2.0980000496 5.4349308014 56.033004761  -999.250000  -999.250000  -999.250000  -999.250000
 416.54217529  -999.250000 22.266000748 -0.057999998 0.5844699740 2.0569999218 4.7947969437 56.032005310  -999.250000  -999.250000  -999.250000  -999.250000
 416.69458008  -999.250000 22.266000748 -0.052000001 0.6377000213 1.9950000048 5.1201457977 56.030998230  -999.250000  -999.250000  -999.250000  -999.250000
 416.84698486  -999.250000 22.266000748 -0.064999998 0.6591799855 2.0039999485 5.1329684258 56.030002594  -999.250000  -999.250000  -999.250000  -999.250000
 416.99938965  -999.250000 22.266000748 -0.090000004 0.6142599583 2.0550000668 6.4266233444 56.027999878  -999.250000  -999.250000  -999.250000  -999.250000
 417.15179443  -999.250000 22.266000748 -0.054000001 0.5068399906 2.1989998817 8.6741428375 56.027004242  -999.250000  -999.250000  -999.250000  -999.250000
 417.30416870  -999.250000 22.266000748 -0.015000000 0.4599599838 2.1989998817 8.0647296906 56.026004791  -999.250000  -999.250000  -999.250000  -999.250000
 417.45657349  -999.250000 22.266000748 0.0149999997 0.4897499979 2.1089999676 8.8956584930 56.025001526  -999.250000  -999.250000  -999.250000  -999.250000
 417.60897827  -999.250000 22.233999252 -0.014000000 0.5434600115 2.0840001106 10.589245796 56.023002625  -999.250000  -999.250000  -999.250000  -999.250000
 417.76138306  -999.250000 22.266000748 -0.046000000 0.5566400290 2.0820000172 9.3472547531 56.022006989  -999.250000  -999.250000  -999.250000  -999.250000
 417.91378784  -999.250000 22.266000748 -0.096000001 0.5566400290 2.1310000420 9.6013288498 56.021003723  -999.250000  -999.250000  -999.250000  -999.250000
 418.06619263  -999.250000 22.266000748 -0.088000000 0.5615199804 2.1229999065 8.1677427292 56.020004272  -999.250000  -999.250000  -999.250000  -999.250000
 418.21859741  -999.250000 22.266000748 -0.088000000 0.5908200145 2.1189999580 9.0287427902 56.018005371  -999.250000  -999.250000  -999.250000  -999.250000
 418.37097168  -999.250000 22.266000748 -0.085000001 0.5664100051 2.1250000000 9.9274797440 56.017002106  -999.250000  -999.250000  -999.250000  -999.250000
 418.52337646  -999.250000 22.266000748 -0.104999997 0.5317400098 2.0999999046 10.498401642 56.016002655  -999.250000  -999.250000  -999.250000  -999.250000
 418.67578125  -999.250000 22.266000748 -0.103000000 0.4663099945 2.1040000916 10.188874245 56.014003754  -999.250000  -999.250000  -999.250000  -999.250000
 418.82818604  -999.250000 22.266000748 -0.096000001 0.4790000021 2.1210000515 8.4265975952 56.013004303  -999.250000  -999.250000  -999.250000  -999.250000
 418.98059082  -999.250000 22.266000748 -0.094999999 0.4970700145 2.1289999485 8.1337528229 56.012004852  -999.250000  -999.250000  -999.250000  -999.250000
 419.13299561  -999.250000 22.266000748 -0.089000002 0.5322300196 2.1289999485 6.6984562874 56.011005402  -999.250000  -999.250000  -999.250000  -999.250000
 419.28540039  -999.250000 22.266000748 -0.085000001 0.5639600158 2.1229999065 6.4146752357 56.009006500  -999.250000  -999.250000  -999.250000  -999.250000
 419.43777466  -999.250000 22.266000748 -0.079000004 0.6328099966 2.1329998970 5.5372881889 56.008003235  -999.250000  -999.250000  -999.250000  -999.250000
 419.59017944  -999.250000 22.266000748 -0.082999997 0.6152299643 2.1289999485 6.3929328918 56.007003784  -999.250000  -999.250000  -999.250000  -999.250000
 419.74258423  -999.250000 22.280998230 -0.089000002 0.6445300579 2.1210000515 6.6713342667 56.006008148  -999.250000  -999.250000  -999.250000  -999.250000
 419.89498901  -999.250000 22.266000748 -0.088000000 0.6416000128 2.1250000000 6.3916749954 56.004005432  -999.250000  -999.250000  -999.250000  -999.250000
 420.04739380  -999.250000 22.280998230 -0.088000000 0.6411100030 2.1329998970 6.1296296120 56.003002167  -999.250000  -999.250000  -999.250000  -999.250000
 420.19979858  -999.250000 22.266000748 -0.097999997 0.6171900034 2.1389999390 5.8636388779 56.002002716  -999.250000  -999.250000  -999.250000  -999.250000
 420.35217285  -999.250000 22.280998230 -0.098999999 0.5585899949 2.1370000839 6.7397117615 56.001003265 0.4729791582 8.5779008865  -999.250000 2.2740883827
 420.50457764  -999.250000 22.280998230 -0.092000000 0.6010699868 2.1459999084 6.4577417374 56.150581360 0.4789903760 9.9167728424  -999.250000 4.0052175522
 420.65698242  -999.250000 22.266000748 -0.082999997 0.6142599583 2.1310000420 6.4729614258 56.465118408 0.4720112085 13.772816658  -999.250000 2.6092443466
 420.80938721  -999.250000 22.280998230 -0.079000004 0.6225600243 2.1170001030 5.6150665283 56.780178070 0.4749957919 14.004683495  -999.250000 1997.1997070
 420.96179199  -999.250000 22.280998230 -0.082999997 0.6171900034 2.0899999142 5.3097305298 55.783599854 0.4730027914 10.767543793  -999.250000 4.7466363907
 421.11419678  -999.250000 22.280998230 -0.078000002 0.6142599583 2.0920000076 4.6964755058 56.591884613 0.4610168040 10.864856720  -999.250000 1.4007652998
 421.26660156  -999.250000 22.280998230 -0.082999997 0.6411100030 2.0880000591 5.2526569366 56.001544952 0.4699873924 16.208499908  -999.250000 127.13651276
 421.41897583  -999.250000 22.280998230 -0.089000002 0.6240199804 2.0940001011 6.3950219154 56.000000000 0.4660063982 22.494924545  -999.250000 3.5555679798
 421.57138062  -999.250000 22.280998230 -0.090999998 0.6049799919 2.0999999046 6.1097526550 55.595138550 0.4640032053 17.396198273  -999.250000 1996.8015137
 421.72378540  -999.250000 22.280998230 -0.097999997 0.5903300047 2.0940001011 5.8137116432 55.998863220 0.4649986029 12.496866226  -999.250000 5.1426420212
 421.87619019  -999.250000 22.280998230 -0.088000000 0.6035200357 2.1070001125 4.6547899246 56.778964996 0.4669972062 13.370763779  -999.250000 2.6945052147
 422.02859497  -999.250000 22.280998230 -0.085000001 0.6254900098 2.1089999676 4.3636941910 56.376056671 0.4749887884 25.113517761  -999.250000 2.5961387157
 422.18099976  -999.250000 22.280998230 -0.085000001 0.5903300047 2.1210000515 4.9515824318 55.596035004 0.4740014076 27.595541000  -999.250000 1.7701592445
 422.33340454  -999.250000 22.280998230 -0.098999999 0.5913100243 2.1050000191 5.2413058281 56.591400146 0.4769957960 14.383549690  -999.250000 1.1199110746
 422.48577881  -999.250000 22.280998230 -0.101999998 0.6538099647 2.1070001125 6.9794654846 56.375614166 0.4690128267 16.368783951  -999.250000 1.4245097637
 422.63818359  -999.250000 22.280998230 -0.088000000 0.6879900098 2.1250000000 6.9770169258 56.188522339 0.4859727621 19.843431473  -999.250000 3.4247913361
 422.79058838  -999.250000 22.280998230 -0.082000002 0.6982399821 2.1410000324 7.5576014519 56.374477386 0.4640308321 19.732164383  -999.250000 1.3599034548
 422.94299316  -999.250000 22.280998230 -0.083999999 0.6147499681 2.1289999485 7.5819444656 56.000976563 0.4639999866 17.617967606  -999.250000 3.5629036427
 423.09539795  -999.250000 22.280998230 -0.103000000 0.6445300579 2.1089999676 6.7250642776 56.374023438 0.4709901810 10.257327080  -999.250000 2.0661051273
 423.24780273  -999.250000 22.280998230 -0.094999999 0.6196300387 2.1229999065 5.8610763550 56.188488007 0.4719986022 11.222630501  -999.250000 74.523292542
 423.40020752  -999.250000 22.327999115 -0.088000000 0.6606400013 2.1310000420 3.8099355698 56.779453278 0.4799887836 12.729887009  -999.250000 3.3170912266
 423.55258179  -999.250000 22.312999725 -0.079999998 0.6416000128 2.1429998875 4.3894743919 56.002189636 0.4690176249 18.730375290  -999.250000 1.7703212500
 423.70498657  -999.250000 22.312999725 -0.083999999 0.6445300579 2.1229999065 4.6832957268 56.592334747 0.4849743843 29.565629959  -999.250000 1.4874501228
