# LAS format log file from PETREL
# Project units are specified as depth units
#==================================================================
~Version information
VERS.   2.0:
WRAP.   NO:
#==================================================================
~Well
STRT .m      443.33587646 :
STOP .m      1778.0548096 :
STEP .m     0.00000000 :
NULL .        -999.250000 :
COMP.           : COMPANY
WELL.  31/2-9   : WELL
FLD.            : FIELD
LOC.            : LOCATION
SRVC.           : SERVICE COMPANY
DATE.  2018-09-11 14:48:35   : Log Export Date {yyyy-MM-dd HH:mm:ss}
PROV.           : PROVINCE
UWI.   31/2-9   : UNIQUE WELL ID
API.            : API NUMBER
#==================================================================
~Curve
DEPT .m                   : DEPTH
Lithology_geolink ._      : Lithology_geolink
CALI .in                  : CALI
DRHO .g/cm3               : DRHO
SGR .gAPI                 : SGR
NPHI .m3/m3               : NPHI
RHOB .g/cm3               : RHOB
PEF .b/e                  : PEF
GR .gAPI                  : GR
DTC .us/ft                : DTC
RDEP .ohm.m               : RDEP
SP .mV                    : SP
RSHA .ohm.m               : RSHA
RMED .ohm.m               : RMED
~Parameter
#==================================================================
~Ascii
# ...
 1771.0444336  -999.250000 11.116999626 0.0970240235 -360.2500000 0.0018999199 2.0810320377 5.0586438179 35.187999725 107.99999237 0.5879999995 97.321044922 0.5070000291 0.5070000291
 1771.1967773  -999.250000 11.116999626 0.0940120146 -360.2500000 0.0019199200 2.0770158768 5.0131840706 35.187999725 107.99999237 0.5879999995 97.047096252 0.5070000291 0.5070000291
 1771.3492432  -999.250000 11.116999626 0.0939999968 -360.2500000 0.0019399360 2.0750064850 4.9511990547 35.187999725 107.99999237 0.5879999995 96.764900208 0.5070000291 0.5070000291
 1771.5015869  -999.250000 11.116999626 0.1009719819 -360.2500000 0.0019599199 2.0829679966 5.0496039391 35.187999725 107.99999237 0.5879999995 96.482131958 0.5070000291 0.5070000291
 1771.6539307  -999.250000 11.116999626 0.1049839705 -360.2500000 0.0019799198 2.0859880447 5.0778880119 35.187999725 107.99999237 0.5879999995 96.358497620 0.5069992542 0.5069992542
 1771.8063965  -999.250000 11.116999626 0.1149599701 -360.2500000 0.0019999200 2.0949640274 5.0939359665 35.187999725 107.99999237 0.5879999995 96.542259216 0.5060007572 0.5060007572
 1771.9587402  -999.250000 11.116999626 0.1189839765 -360.2500000 0.0020199199 2.0989840031 5.1159119606 35.187999725 107.99999237 0.5879999995 96.728248596 0.5069992542 0.5069992542
 1772.1112061  -999.250000 11.116999626 0.1259719729 -360.2500000 0.0020399198 2.1079640388 5.1498641968 35.187999725 107.99999237 0.5879999995 96.923225403 0.5059999824 0.5059999824
 1772.2635498  -999.250000 11.116999626 0.1250040084 -360.2500000 0.0020599200 2.1080000401 5.0992045403 35.187999725 107.99999237 0.5879999995 97.270606995 0.5059999824 0.5059999824
 1772.4160156  -999.250000 11.116999626 0.1200200170 -360.2500000 0.0020799199 2.1030199528 5.0203161240 35.187999725 107.99999237 0.5879999995 97.617614746 0.5059999824 0.5059999824
 1772.5683594  -999.250000 11.116999626 0.1060560867 -360.2500000 0.0020899600 2.0900518894 4.9333486557 35.187999725 107.99999237 0.5879992247 97.964614868 0.5059999824 0.5059999824
 1772.7208252  -999.250000 11.116999626 0.1000240222 -360.2500000 0.0021099199 2.0840241909 4.9300117493 35.187999725 107.99999237 0.5870000124 98.268775940 0.5059992075 0.5059992075
 1772.8731689  -999.250000 11.116999626 0.0950200334 -360.2500000 0.0021199600 2.0800158978 4.9110760689 35.187999725 107.99999237 0.5880016088 98.560829163 0.5049999952 0.5049999952
 1773.0256348  -999.250000 11.116999626 0.0989839882 -360.2500000 0.0021399199 2.0809960365 4.9458599091 35.187999725 107.99999237 1.8370000124 98.852828979 0.5049999952 0.5049999952
 1773.1779785  -999.250000 11.116999626 0.1039799675 -360.2500000 0.0021499600 2.0859799385 4.9579520226 35.187999725 107.99999237 1.8370000124 98.831092834 0.5049999952 0.5049999952
 1773.3304443  -999.250000 11.116999626 0.1069903821 -360.2500000 0.0021599680 2.0889904499 4.9659743309 35.187999725 107.99999237 1.8370000124 98.489097595 0.5049999952 0.5049999952
 1773.4827881  -999.250000 11.116999626 0.1050080061 -360.2500000 0.0021799197 2.0870079994 4.9490680695 35.187999725 107.99999237 1.8370000124 98.146369934 0.5049992204 0.5049992204
 1773.6352539  -999.250000 11.116999626 0.0980224311 -360.2500000 0.0021899678 2.0770318508 4.9908657074 35.187999725 107.99999237 1.8370000124 97.873870850 0.5040000081 0.5040000081
 1773.7875977  -999.250000 11.116999626 0.0910280198 -360.2500000 0.0022099200 2.0700280666 5.0079317093 35.187999725 107.99999237 1.8370000124 97.863037109 0.5040000081 0.5040000081
 1773.9399414  -999.250000 11.116999626 0.0919959918 -360.2500000 0.0022199601 2.0739839077 5.0448517799 35.187999725 107.99999237 1.8370000124 97.853034973 0.5040000081 0.5040000081
 1774.0924072  -999.250000 11.116999626 0.0949879885 -360.2500000 0.0022399200 2.0779840946 4.9862360954 35.187999725 107.99999237 1.8370000124 97.843040466 0.5040000081 0.5040000081
 1774.2447510  -999.250000 11.116999626 0.0979879797 -360.2500000 0.0022499599 2.0809881687 4.9640884399 35.187999725 107.99999237 1.8370000124 97.830055237 0.5040000081 0.5040000081
 1774.3972168  -999.250000 11.116999626 0.0979999974 -360.2500000 0.0022699200 2.0790081024 4.9908919334 35.187999725 107.99999237 1.8370000124 97.817054749 0.5040000081 0.5040000081
 1774.5495605  -999.250000 11.116999626 0.1039759666 -360.2500000 0.0022799599 2.0869679451 5.1463747025 35.187999725 107.99999237 1.8370000124 102.10176849 0.5040000081 0.5040000081
 1774.7020264  -999.250000 11.116999626 0.1109719798 -360.2500000 0.0022999200 2.0909841061 5.2764797211  -999.250000  -999.250000  -999.250000  -999.250000  -999.250000  -999.250000
 1774.8543701  -999.250000 11.116999626 0.1100040078 -360.2500000 0.0023099601 2.0890080929 5.2819800377  -999.250000  -999.250000  -999.250000  -999.250000  -999.250000  -999.250000
 1775.0068359  -999.250000 11.116999626 0.0990440324 -360.2500000 0.0023299200 2.0760519505 5.1983361244  -999.250000  -999.250000  -999.250000  -999.250000  -999.250000  -999.250000
 1775.1591797  -999.250000 11.116999626 0.0950160250 -360.2500000 0.0023399598 2.0720160007 5.0715088844  -999.250000  -999.250000  -999.250000  -999.250000  -999.250000  -999.250000
 1775.3116455  -999.250000 11.116999626 0.0959967971 -360.2500000 0.0023599360 2.0739934444 5.1447629929  -999.250000  -999.250000  -999.250000  -999.250000  -999.250000  -999.250000
 1775.4639893  -999.250000 11.116999626 0.1009799838 -360.2500000 0.0023699601 2.0789799690 5.1430082321  -999.250000  -999.250000  -999.250000  -999.250000  -999.250000  -999.250000
 1775.6164551  -999.250000 11.116999626 0.1049871743 -360.2500000 0.0023899360 2.0799968243 5.1918430328  -999.250000  -999.250000  -999.250000  -999.250000  -999.250000  -999.250000
 1775.7687988  -999.250000 11.116999626 0.1099799797 -360.2500000 0.0023601202 2.0839841366 5.1053481102  -999.250000  -999.250000  -999.250000  -999.250000  -999.250000  -999.250000
 1775.9211426  -999.250000 11.116999626 0.1090040058 -360.2500000 0.0022504407 2.0859918594 5.0781083107  -999.250000  -999.250000  -999.250000  -999.250000  -999.250000  -999.250000
 1776.0736084  -999.250000 11.116999626 0.0980440304 -360.2500000 0.0021304803 2.0790281296 5.0819835663  -999.250000  -999.250000  -999.250000  -999.250000  -999.250000  -999.250000
 1776.2259521  -999.250000 11.116999626 0.0950120166 -360.2500000 0.0020204408 2.0760118961 5.0959439278  -999.250000  -999.250000  -999.250000  -999.250000  -999.250000  -999.250000
 1776.3784180  -999.250000 11.116999626 0.0959959999 -360.2500000 0.0019004804 2.0750041008 5.1298642159  -999.250000  -999.250000  -999.250000  -999.250000  -999.250000  -999.250000
 1776.5307617  -999.250000 11.116999626 0.1059599370 -360.2500000 0.0017904408 2.0829679966 5.2126674652  -999.250000  -999.250000  -999.250000  -999.250000  -999.250000  -999.250000
 1776.6832275  -999.250000 11.104000092 0.1040080115 -360.2500000 0.0016704802 2.0800118446 5.2040362358  -999.250000  -999.250000  -999.250000  -999.250000  -999.250000  -999.250000
 1776.8355713  -999.250000 11.055999756 0.1020080075 -360.2500000 0.0016799599 2.0780081749 5.2747154236  -999.250000  -999.250000  -999.250000  -999.250000  -999.250000  -999.250000
 1776.9880371  -999.250000 11.027999878 0.0960240215 -360.2500000 0.0020883589 2.0710282326 5.3078680038  -999.250000  -999.250000  -999.250000  -999.250000  -999.250000  -999.250000
 1777.1403809  -999.250000 11.022999763 0.8539510965 -360.2500000 0.0038628685 4.7253232002 5.2910680771  -999.250000  -999.250000  -999.250000  -999.250000  -999.250000  -999.250000
 1777.2928467  -999.250000 9.7580003738 2.7892336845 -360.2500000 0.0105730584 9.6612043381 5.2850236893  -999.250000  -999.250000  -999.250000  -999.250000  -999.250000  -999.250000
 1777.4451904  -999.250000 5.7069997787 4.8497424126 -360.2500000 0.0279800873 14.877098083 5.2849998474  -999.250000  -999.250000  -999.250000  -999.250000  -999.250000  -999.250000
 1777.5976563  -999.250000 4.4409999847 4.8898973465 -360.2500000 0.0430816710 15.740291595 5.2849998474  -999.250000  -999.250000  -999.250000  -999.250000  -999.250000  -999.250000
