# LAS format log file from PETREL
# Project units are specified as depth units
#==================================================================
~Version information
VERS.   2.0:
WRAP.   NO:
#==================================================================
~Well
STRT .m      439.56304932 :
STOP .m      1665.9261475 :
STEP .m     0.00000000 :
NULL .        -999.250000 :
COMP.           : COMPANY
WELL.  31/2-7   : WELL
FLD.            : FIELD
LOC.            : LOCATION
SRVC.           : SERVICE COMPANY
DATE.  2018-09-11 14:48:34   : Log Export Date {yyyy-MM-dd HH:mm:ss}
PROV.           : PROVINCE
UWI.   31/2-7   : UNIQUE WELL ID
API.            : API NUMBER
#==================================================================
~Curve
DEPT .m                   : DEPTH
Lithology_geolink ._      : Lithology_geolink
CALI .in                  : CALI
DRHO .g/cm3               : DRHO
SGR .gAPI                 : SGR
NPHI .m3/m3               : NPHI
RHOB .g/cm3               : RHOB
PEF .b/e                  : PEF
GR .gAPI                  : GR
DTC .us/ft                : DTC
DTE .us/ft                : DTE
RDEP .ohm.m               : RDEP
SP .mV                    : SP
RSHA .ohm.m               : RSHA
RMED .ohm.m               : RMED
~Parameter
#==================================================================
~Ascii
# ...
 764.47998047  -999.250000 17.437999725 0.0080000004  -999.250000 0.3808599710 2.2090001106  -999.250000 72.184249878 127.98113251 127.79656219 2.4469659328 55.286998749 2.0660281181 2.0660281181
 764.63238525  -999.250000 17.141000748 0.0130000003  -999.250000 0.4013700187 2.2170000076  -999.250000 73.871620178 128.30601501 128.13793945 2.4709517956 55.411746979 2.2536234856 2.2536234856
 764.78479004  -999.250000 17.093999863 0.0270000007  -999.250000 0.3750000000 2.2479999065  -999.250000 68.883010864 126.89379883 126.74729919 2.5039470196 55.100498199 2.2270431519 2.2270431519
 764.93719482  -999.250000 17.250000000 0.0329999998  -999.250000 0.3515599966 2.2730000019  -999.250000 66.379005432 125.42449188 125.24325562 2.5199742317 55.785900116 2.2010416985 2.2010416985
 765.08953857  -999.250000 17.202999115 0.0250000004  -999.250000 0.3735400140 2.2709999084  -999.250000 62.321132660 124.37892151 124.22030640 2.5269858837 55.287998199 2.3606796265 2.3606796265
 765.24194336  -999.250000 17.156000137 0.0099999998  -999.250000 0.4062500000 2.2539999485  -999.250000 63.965686798 124.19377136 124.01731110 2.5429680347 55.474620819 2.2362504005 2.2362504005
 765.39434814  -999.250000 17.172000885 0.0109999999  -999.250000 0.4355500042 2.2639999390  -999.250000 64.997932434 125.03521729 124.87841034 2.5330200195 55.100749969 2.3537638187 2.3537638187
 765.54669189  -999.250000 17.156000137 0.0219999999  -999.250000 0.4101599753 2.2829999924  -999.250000 67.618690491 125.69904327 125.55843353 2.5000793934 54.413650513 2.1026055813 2.1026055813
 765.69909668  -999.250000 17.156000137 0.0130000003  -999.250000 0.3959999979 2.2809998989  -999.250000 63.540836334 126.94921875 126.82298279 2.4880287647 54.848945618 2.0740671158 2.0740671158
 765.85150146  -999.250000 17.187999725 0.0060000001  -999.250000 0.3950199783 2.2679998875  -999.250000 59.384986877 127.67370605 127.49012756 2.4820144176 54.475898743 2.0939519405 2.0939519405
 766.00390625  -999.250000 17.375000000 -0.002000000  -999.250000 0.4028300047 2.2560000420  -999.250000 53.763515472 127.42156219 127.22492218 2.4510743618 54.474998474 2.1738078594 2.1738078594
 766.15631104  -999.250000 17.500000000 0.0209999997  -999.250000 0.3901399970 2.2790000439  -999.250000 52.409229279 127.13730621 126.95972443 2.4749422073 54.474998474 2.1500577927 2.1500577927
 766.30871582  -999.250000 17.547000885 0.0450000018  -999.250000 0.3818399906 2.2950000763  -999.250000 49.600757599 126.88516235 126.69451904 2.4879686832 54.412151337 2.1450119019 2.1450119019
 766.46112061  -999.250000 17.577999115 0.0480000004  -999.250000 0.3559600115 2.2869999409  -999.250000 49.594001770 126.58716583 126.42929840 2.4470984936 54.973644257 2.2557332516 2.2557332516
 766.61346436  -999.250000 17.452999115 0.0270000007  -999.250000 0.3828099966 2.2520000935  -999.250000 45.012878418 126.30300140 126.16410828 2.4410169125 54.850349426 2.2709579468 2.2709579468
 766.76586914  -999.250000 17.422000885 0.0260000005  -999.250000 0.3842800260 2.2520000935  -999.250000 46.433967590 126.06248474 125.89885712 2.4569551945 55.099296570 2.1333868504 2.1333868504
 766.91827393  -999.250000 17.343999863 0.0250000004  -999.250000 0.4125999808 2.2520000935  -999.250000 43.132965088 125.80537415 125.63373566 2.4799447060 55.349395752 2.1050672531 2.1050672531
 767.07067871  -999.250000 17.327999115 0.0250000004  -999.250000 0.3955099881 2.2639999390  -999.250000 47.209163666 125.52809906 125.36853027 2.4630408287 55.100597382 2.0371632576 2.0371632576
 767.22308350  -999.250000 17.250000000 0.0020000001  -999.250000 0.4101599753 2.2439999580  -999.250000 44.818782806 125.27597809 125.10714722 2.4749710560 55.349399567 2.0290193558 2.0290193558
 767.37548828  -999.250000 17.343999863 -0.001000000  -999.250000 0.4277299941 2.2520000935  -999.250000 47.681091309 125.08777618 124.94813538 2.4749999046 55.225299835 2.0489518642 2.0489518642
 767.52789307  -999.250000 17.500000000 -0.002000000  -999.250000 0.4541000128 2.2539999485  -999.250000 45.224933624 125.32146454 125.15049744 2.4789905548 55.973197937 2.1088557243 2.1088557243
 767.68029785  -999.250000 17.687999725 0.0080000004  -999.250000 0.4589799941 2.2639999390  -999.250000 47.183269501 125.73873138 125.56468964 2.4919688702 55.226799011 2.1967885494 2.1967885494
 767.83270264  -999.250000 17.452999115 0.0260000005  -999.250000 0.4526399970 2.2579998970  -999.250000 44.880558014 126.29361725 126.11920929 2.4900047779 55.411548615 2.2478773594 2.2478773594
 767.98510742  -999.250000 17.266000748 0.0209999997  -999.250000 0.4589799941 2.2420001030  -999.250000 46.620796204 127.69179535 127.48905182 2.4900000095 56.035495758 2.2400193214 2.2400193214
 768.13751221  -999.250000 17.000000000 0.0130000003  -999.250000 0.4775400162 2.2339999676  -999.250000 47.497898102 130.09893799 129.92619324 2.4530889988 55.787597656 2.1332569122 2.1332569122
 768.28991699  -999.250000 17.000000000 0.0070000002  -999.250000 0.4736299813 2.2400000095  -999.250000 54.888202667 131.24530029 131.10913086 2.4160888195 56.099246979 2.0492019653 2.0492019653
 768.44232178  -999.250000 17.000000000 0.0080000004  -999.250000 0.4262699783 2.2339999676  -999.250000 54.750373840 131.64323425 131.47444153 2.3770937920 56.286548615 1.9562234879 1.9562234879
 768.59472656  -999.250000 17.000000000 0.0109999999  -999.250000 0.4111299813 2.2300000191  -999.250000 55.467273712 133.27188110 133.11256409 2.3440794945 56.723945618 1.8692090511 1.8692090511
 768.74707031  -999.250000 17.000000000 0.0089999996  -999.250000 0.4497100115 2.2190001011  -999.250000 46.026546478 134.28366089 134.11770630 2.3071036339 56.849647522 1.8420757055 1.8420757055
 768.89947510  -999.250000 17.000000000 0.0070000002  -999.250000 0.5190399885 2.2190001011  -999.250000 46.000000000 134.10180664 133.91435242 2.2970240116 55.852401733 1.8519759178 1.8519759178
 769.05187988  -999.250000 17.000000000 -0.001000000  -999.250000 0.5234400034 2.2070000172  -999.250000 44.971477509 133.16645813 132.98545837 2.2950048447 56.099399567 1.8739471436 1.8739471436
 769.20428467  -999.250000 16.983999252 -0.003000000  -999.250000 0.5146499872 2.2070000172  -999.250000 43.752929688 131.37364197 131.22473145 2.3089663982 55.912448883 1.8889640570 1.8889640570
 769.35668945  -999.250000 17.000000000 -0.003000000  -999.250000 0.4668000042 2.2109999657  -999.250000 40.632507324 128.77806091 128.60488892 2.3219687939 54.914402008 1.9388798475 1.9388798475
 769.50909424  -999.250000 17.031000137 0.0000000000  -999.250000 0.4668000042 2.2149999142  -999.250000 37.507507324 127.10491943 126.93378448 2.3539230824 55.410797119 1.9749134779 1.9749134779
 769.66149902  -999.250000 17.031000137 0.0010000000  -999.250000 0.4458000064 2.2170000076  -999.250000 40.087768555 126.65163422 126.46005249 2.3829302788 54.663799286 2.0308654308 2.0308654308
 769.81390381  -999.250000 16.983999252 0.0049999999  -999.250000 0.4838899970 2.2290000916  -999.250000 40.966899872 127.63730621 127.43685150 2.3849952221 53.602550507 2.0230193138 2.0230193138
 769.96630859  -999.250000 17.016000748 0.0030000000  -999.250000 0.4838899970 2.2190001011  -999.250000 45.582889557 128.36611938 128.19204712 2.3790142536 56.592788696 1.9651393890 1.9651393890
 770.11871338  -999.250000 17.062999725 -0.003000000  -999.250000 0.4545899928 2.2130000591  -999.250000 47.027545929 128.55868530 128.42608643 2.3570530415 56.849399567 1.9400601387 1.9400601387
 770.27111816  -999.250000 17.047000885 -0.005000000  -999.250000 0.4677700102 2.2009999752  -999.250000 48.277996063 129.18273926 129.00965881 2.3280696869 58.346393585 1.9360096455 1.9360096455
 770.42352295  -999.250000 17.062999725 0.0000000000  -999.250000 0.4775400162 2.1989998817  -999.250000 46.005481720 131.00585938 130.81289673 2.2950794697 55.543758392 1.9340047836 1.9340047836
 770.57592773  -999.250000 17.062999725 0.0000000000  -999.250000 0.5156300068 2.1909999847  -999.250000 46.872898102 132.41421509 132.26123047 2.2850241661 56.160495758 1.8422210217 1.8422210217
