# LAS format log file from PETREL
# Project units are specified as depth units
#==================================================================
~Version information
VERS.   2.0:
WRAP.   NO:
#==================================================================
~Well
STRT .m      326.13598633 :
STOP .m      1938.6804199 :
STEP .m     0.00000000 :
NULL .        -999.250000 :
COMP.           : COMPANY
WELL.  31/2-17 A   : WELL
FLD.            : FIELD
LOC.            : LOCATION
SRVC.           : SERVICE COMPANY
DATE.  2018-09-11 14:48:33   : Log Export Date {yyyy-MM-dd HH:mm:ss}
PROV.           : PROVINCE
UWI.   31/2-17 A   : UNIQUE WELL ID
API.            : API NUMBER
#==================================================================
~Curve
DEPT .m                   : DEPTH
Lithology_geolink ._      : Lithology_geolink
CALI .in                  : CALI
DRHO .g/cm3               : DRHO
RHOB .g/cm3               : RHOB
GR .gAPI                  : GR
DTC .us/ft                : DTC
RDEP .ohm.m               : RDEP
RMED .ohm.m               : RMED
~Parameter
#==================================================================
~Ascii
# ...
 1611.1727295 16.000000000  -999.250000  -999.250000 2.2200000286 26.312999725 152.25840759 0.8456000090  -999.250000
 1611.3251953 16.000000000  -999.250000  -999.250000 2.2200000286 26.286500931 152.25840759 0.8407999873  -999.250000
 1611.4775391 16.000000000  -999.250000  -999.250000 2.2200000286 24.952600479 152.25840759 0.8605999947  -999.250000
 1611.6300049 16.000000000  -999.250000  -999.250000 2.2200000286 26.639099121 152.25840759 0.8809999824  -999.250000
 1611.7823486 16.000000000  -999.250000  -999.250000 2.2200000286 29.950399399 152.25840759 0.8956999779  -999.250000
 1611.9346924 16.000000000  -999.250000  -999.250000 2.2200000286 32.849800110 152.25840759 0.8984000087  -999.250000
 1612.0871582 16.000000000  -999.250000  -999.250000 2.2200000286 33.395500183 152.25840759 0.9090999961  -999.250000
 1612.2395020 16.000000000  -999.250000  -999.250000 2.2200000286 32.971199036 152.25840759 0.8485999703  -999.250000
 1612.3919678 16.000000000  -999.250000  -999.250000 2.2200000286 31.789100647 152.25840759 0.7964000106  -999.250000
 1612.5443115 16.000000000  -999.250000  -999.250000 2.2200000286 32.559299469 152.25840759 0.7997999787  -999.250000
 1612.6967773 16.000000000  -999.250000  -999.250000 2.2200000286 33.688701630 152.25840759 0.7975999713  -999.250000
 1612.8491211 16.000000000  -999.250000  -999.250000 2.2200000286 32.748901367 152.25840759 0.7965999842  -999.250000
 1613.0015869 16.000000000  -999.250000  -999.250000 2.2200000286 32.407798767 152.25840759 0.7921000123  -999.250000
 1613.1539307 16.000000000  -999.250000  -999.250000 2.2200000286 31.281400681 152.25840759 0.7874000072  -999.250000
 1613.3063965 16.000000000  -999.250000  -999.250000 2.2200000286 30.898500443 152.25840759 0.7829999924  -999.250000
 1613.4587402 16.000000000  -999.250000  -999.250000 2.2200000286 29.697799683 152.25840759 0.7791000009  -999.250000
 1613.6112061 16.000000000  -999.250000  -999.250000 2.2200000286 26.696599960 152.25840759 0.7760000229  -999.250000
 1613.7635498 16.000000000  -999.250000  -999.250000 2.2200000286 27.501100540 152.25840759 0.7777000070  -999.250000
 1613.9158936 16.000000000  -999.250000  -999.250000 2.2200000286 31.309400558 152.25840759 0.7865999937  -999.250000
 1614.0683594 16.000000000  -999.250000  -999.250000 2.2200000286 34.193698883 152.25840759 0.8040000200  -999.250000
 1614.2207031 16.000000000  -999.250000  -999.250000 2.2200000286 33.181900024 152.25840759 0.8220000267  -999.250000
 1614.3731689 16.000000000  -999.250000  -999.250000 2.2200000286 30.821100235 152.25840759 0.8373000026  -999.250000
 1614.5255127 16.000000000  -999.250000  -999.250000 2.2200000286 29.892000198 152.25840759 0.8398000002  -999.250000
 1614.6779785 16.000000000  -999.250000  -999.250000 2.2200000286 29.953300476 152.25840759 0.8399999738  -999.250000
 1614.8303223 16.000000000  -999.250000  -999.250000 2.2200000286 28.838199615 152.25840759 0.8409000039  -999.250000
 1614.9827881 16.000000000  -999.250000  -999.250000 2.2200000286 27.480400085 152.25840759 0.8409000039  -999.250000
 1615.1351318 16.000000000  -999.250000  -999.250000 2.2200000286 27.600999832 152.25840759 0.8404999971  -999.250000
 1615.2875977 16.000000000  -999.250000  -999.250000 2.2200000286 26.525299072 152.25840759 0.8409000039  -999.250000
 1615.4399414 16.000000000  -999.250000  -999.250000 2.2200000286 30.312999725 152.25840759 0.8299000263  -999.250000
 1615.5924072 16.000000000  -999.250000  -999.250000 2.2200000286 31.402000427 152.25840759 0.8177999854  -999.250000
 1615.7447510 16.000000000  -999.250000  -999.250000 2.2200000286 34.223499298 152.25840759 0.8062000275  -999.250000
 1615.8972168 16.000000000  -999.250000  -999.250000 2.2200000286 32.069900513 152.25840759 0.7960000038  -999.250000
 1616.0495605 16.000000000  -999.250000  -999.250000 2.2200000286 34.904201508 152.25840759 0.7821000218  -999.250000
 1616.2019043 16.000000000  -999.250000  -999.250000 2.2200000286 36.121101379 152.25840759 0.7943000197  -999.250000
 1616.3543701 16.000000000  -999.250000  -999.250000 2.2200000286 37.052799225 152.25840759 0.8030999899  -999.250000
 1616.5067139 16.000000000  -999.250000  -999.250000 2.2200000286 36.878501892 152.25840759 0.8173999786  -999.250000
 1616.6591797 16.000000000  -999.250000  -999.250000 2.2200000286 33.589599609 152.25840759 0.8032000065  -999.250000
 1616.8115234 16.000000000  -999.250000  -999.250000 2.2200000286 34.734798431 152.25840759 0.7911999822  -999.250000
 1616.9639893 16.000000000  -999.250000  -999.250000 2.2200000286 35.493900299 152.25840759 0.7778999805  -999.250000
 1617.1163330 16.000000000  -999.250000  -999.250000 2.2200000286 37.332099915 152.25840759 0.7621999979  -999.250000
 1617.2687988 16.000000000  -999.250000  -999.250000 2.2200000286 34.608699799 152.25840759 0.7605999708  -999.250000
 1617.4211426 16.000000000  -999.250000  -999.250000 2.2200000286 30.900800705 152.25840759 0.7656999826  -999.250000
 1617.5736084 16.000000000  -999.250000  -999.250000 2.2200000286 28.437799454 152.25840759 0.7559999824  -999.250000
 1617.7259521 16.000000000  -999.250000  -999.250000 2.2200000286 27.914499283 152.25840759 0.8909999728  -999.250000
 1617.8784180 16.000000000  -999.250000  -999.250000 2.2200000286 25.896499634 152.25840759 0.8683999777  -999.250000
 1618.0307617 16.000000000  -999.250000  -999.250000 2.2200000286 24.271799088 152.25840759 0.8475000262  -999.250000
 1618.1831055 16.000000000  -999.250000  -999.250000 2.2200000286 25.150999069 152.25840759 0.8125000000  -999.250000
 1618.3355713 16.000000000  -999.250000  -999.250000 2.2200000286 28.378900528 152.25840759 0.7728999853  -999.250000
 1618.4879150 16.000000000  -999.250000  -999.250000 2.2200000286 32.396198273 152.25840759 0.7372000217  -999.250000
 1618.6403809 16.000000000  -999.250000  -999.250000 2.2200000286 34.866699219 152.25840759 0.7154999971  -999.250000
 1618.7927246 16.000000000  -999.250000  -999.250000 2.2200000286 35.618598938 152.25840759 0.7059999704  -999.250000
 1618.9451904 16.000000000  -999.250000  -999.250000 2.2200000286 37.011501312 152.25840759 0.7285000086  -999.250000
 1619.0975342 16.000000000  -999.250000  -999.250000 2.2200000286 33.987300873 152.25840759 0.7014999986  -999.250000
 1619.2500000 16.000000000  -999.250000  -999.250000 2.2200000286 32.457698822 152.25840759 0.6959999800  -999.250000
 1619.4023438 16.000000000  -999.250000  -999.250000 2.2200000286 30.005699158 152.25840759 0.6909000278  -999.250000
 1619.5548096 16.000000000  -999.250000  -999.250000 2.2200000286 31.297000885 152.25840759 0.6827999949  -999.250000
 1619.7071533 16.000000000  -999.250000  -999.250000 2.2200000286 32.498401642 152.25840759 0.6704999804  -999.250000
 1619.8596191 16.000000000  -999.250000  -999.250000 2.2200000286 33.662998199 152.25840759 0.6572999954  -999.250000
 1620.0119629 16.000000000  -999.250000  -999.250000 2.2200000286 37.002700806 152.25840759 0.6496999860  -999.250000
 1620.1643066 16.000000000  -999.250000  -999.250000 2.2200000286 38.293701172 152.25840759 0.6581000090  -999.250000
 1620.3167725 16.000000000  -999.250000  -999.250000 2.2200000286 36.610801697 152.25840759 0.6912999749  -999.250000
 1620.4691162 16.000000000  -999.250000  -999.250000 2.2200000286 34.450401306 152.25840759 0.7358000278  -999.250000
 1620.6215820 16.000000000  -999.250000  -999.250000 2.2200000286 33.898601532 152.25840759 0.7843999863  -999.250000
 1620.7739258 16.000000000  -999.250000  -999.250000 2.2200000286 33.676300049 152.25840759 0.8314999938  -999.250000
 1620.9263916 16.000000000  -999.250000  -999.250000 2.2200000286 36.276199341 152.25840759 0.8621000051  -999.250000
 1621.0787354 16.000000000  -999.250000  -999.250000 2.2200000286 36.024200439 152.25840759 0.8731999993  -999.250000
 1621.2312012 16.000000000  -999.250000  -999.250000 2.2200000286 38.079898834 152.25840759 0.8579999804  -999.250000
 1621.3835449 16.000000000  -999.250000  -999.250000 2.2200000286 36.144500732 152.25840759 0.8514000177  -999.250000
