# LAS format log file from PETREL
# Project units are specified as depth units
#==================================================================
~Version information
VERS.   2.0:
WRAP.   NO:
#==================================================================
~Well
STRT .m      1309.8798828 :
STOP .m      4086.9138184 :
STEP .m     0.00000000 :
NULL .        -999.250000 :
COMP.           : COMPANY
WELL.  31/2-19 S   : WELL
FLD.            : FIELD
LOC.            : LOCATION
SRVC.           : SERVICE COMPANY
DATE.  2018-09-11 14:48:33   : Log Export Date {yyyy-MM-dd HH:mm:ss}
PROV.           : PROVINCE
UWI.   31/2-19 S   : UNIQUE WELL ID
API.            : API NUMBER
#==================================================================
~Curve
DEPT .m                   : DEPTH
Lithology_geolink ._      : Lithology_geolink
CALI .in                  : CALI
BS .in                    : BS
DRHO .g/cm3               : DRHO
NPHI .m3/m3               : NPHI
RHOB .g/cm3               : RHOB
GR .gAPI                  : GR
DTC .us/ft                : DTC
DTS .us/ft                : DTS
RDEP .ohm.m               : RDEP
SP .mV                    : SP
RSHA .ohm.m               : RSHA
RMIC .ohm.m               : RMIC
RMED .ohm.m               : RMED
~Parameter
#==================================================================
~Ascii
# ...
 2409.5986328 6.0000000000 12.711999893 12.250000954 -0.008078000 0.2984605730 2.4500000477 120.58408356 98.701965332 199.36273193 2.0539999008 145.75000000 1.9839999676 1.4472559690 1.9839582443
 2409.7509766 6.0000000000 12.713000298 12.250000954 -0.010110000 0.2951053679 2.4460000992 114.54839325 98.546241760 198.22862244 2.0299999714 145.43800354 1.9579999447 1.5270785093 1.9580352306
 2409.9035645 6.0000000000 12.718000412 12.250000954 -0.011867000 0.3013939857 2.4430000782 126.61619568 99.311996460 197.69784546 2.0469999313 146.00000000 1.9800000191 1.5762178898 1.9800256491
 2410.0559082 6.0000000000 12.715000153 12.250000954 -0.012702000 0.2974253595 2.4460000992 125.23356628 99.966949463 203.16622925 2.0550000668 146.37500000 1.9880000353 1.6440064907 1.9880368710
 2410.2082520 6.0000000000 12.711999893 12.250000954 -0.015261000 0.3068029583 2.4449999332 120.69358063 101.00534058 201.31199646 2.0799999237 145.81300354 2.0109999180 1.6457568407 2.0109486580
 2410.3605957 6.0000000000 12.716999054 12.250000954 -0.017137000 0.3141562343 2.4489998817 116.83037567 101.36741638 201.55520630 2.0380001068 145.50000000 1.9789999723 1.5698461533 1.9789807796
 2410.5131836 6.0000000000 12.711999893 12.250000954 -0.016127000 0.3163709939 2.4460000992 119.21814728 101.46600342 202.06716919 2.0280001163 146.00000000 1.9670000076 1.4739102125 1.9669616222
 2410.6655273 6.0000000000 12.713998795 12.250000954 -0.017216001 0.3084529936 2.4400000572 120.38825226 101.89499664 202.26568604 2.0130000114 145.87500000 1.9550000429 1.4464133978 1.9549664259
 2410.8178711 6.0000000000 12.720001221 12.250000954 -0.016472001 0.3051073551 2.4349999428 120.17569733 101.86105347 205.71246338 1.9969999790 146.87500000 1.9340000153 1.5744262934 1.9339102507
 2410.9702148 6.0000000000 12.715000153 12.250000954 -0.017452000 0.3076349497 2.4400000572 124.47218323 100.63397217 206.47357178 1.9529999495 146.50000000 1.8780000210 1.3962688446 1.8779952526
 2411.1228027 6.0000000000 12.716999054 12.250000954 -0.017845999 0.3290939927 2.4430000782 116.87521362 100.39600372 206.55885315 1.9529999495 145.37500000 1.8750000000 1.4798333645 1.8749872446
 2411.2751465 6.0000000000 12.711000443 12.250000954 -0.018602001 0.3227269948 2.4470000267 115.28008270 100.44699860 208.59272766 1.9509999752 146.25000000 1.8710000515 1.4280608892 1.8710016012
 2411.4274902 6.0000000000 12.718999863 12.250000954 -0.018812001 0.3202140331 2.4470000267 114.84239197 101.47735596 198.07788086 1.9529999495 146.81300354 1.8719999790 1.4471122026 1.8720111847
 2411.5798340 6.0000000000 12.713998795 12.250000954 -0.019804001 0.3022268713 2.4500000477 120.08612823 101.62476349 208.43634033 1.9559999704 146.62500000 1.8789999485 1.4823136330 1.8789902925
 2411.7321777 6.0000000000 12.704999924 12.250000954 -0.014005000 0.2983561754 2.4530000687 118.42738342 102.27495575 211.30484009 1.9570000172 146.25000000 1.8730000257 1.5799311399 1.8730000257
 2411.8847656 6.0000000000 12.700000763 12.250000954 -0.012675000 0.3033100069 2.4539999962 120.52325439 102.09700012 208.69519043 1.9550000429 146.31300354 1.8730000257 1.5370352268 1.8727792501
 2412.0371094 6.0000000000 12.687000275 12.250000954 -0.012275001 0.3072436750 2.4519999027 117.02427673 102.51233673 207.90124512 1.8559999466 147.00000000 1.8040000200 1.5480128527 1.8041442633
 2412.1894531 6.0000000000 12.673000336 12.250000954 -0.010115000 0.3012047112 2.4609999657 117.07379913 99.800354004 212.69430542 1.9600000381 146.31300354 1.8940000534 1.5521216393 1.8942019939
 2412.3417969 6.0000000000 12.673000336 12.250000954 -0.013765000 0.2684485614 2.5350000858 115.32363129 100.25326538 193.36807251 2.0810000896 146.50000000 2.0199999809 1.5899102688 2.0205433369
 2412.4943848 6.0000000000 12.689000130 12.250000954 -0.013746000 0.2616339922 2.7260000706 106.26952362 85.040000916 194.89843750 2.4769999981 145.87500000 2.3589999676 1.5350384712 2.3599247932
 2412.6467285 6.0000000000 12.685999870 12.250000954 0.0049709999 0.2677870095 3.0620000362 101.20919800 85.297996521 194.15020752 2.7720000744 145.37500000 2.6480000019 1.9481923580 2.6479599476
 2412.7990723 16.000000000 12.684000015 12.250000954 0.0134370001 0.2965089977 3.1080000401 78.928588867 86.967323303 194.79595947 2.7090001106 146.25000000 2.6229999065 29.919437408 2.6230080128
 2412.9514160 16.000000000 12.704999924 12.250000954 -0.052747998 0.2963523269 2.7030000687 103.36121368 104.94015503 192.84028625 2.7119998932 145.87500000 2.6280000210 5.4726510048 2.6276090145
 2413.1040039 16.000000000 12.782999992 12.250000954 -0.072226003 0.2906889915 2.4820001125 99.843772888 109.20999908 199.58216858 2.4869999886 145.12500000 2.3840000629 1.0046858788 2.3823456764
 2413.2563477 6.0000000000 12.786999702 12.250000954 -0.044165999 0.2842450142 2.4170000553 121.48650360 107.01699829 200.36276245 1.9400000572 145.56300354 1.8669999838 1.5291955471 1.8669935465
 2413.4086914 6.0000000000 12.792000771 12.250000954 -0.009547000 0.2998180687 2.4460000992 122.93157196 103.92395782 198.64376831 1.9359999895 145.56300354 1.8630000353 1.5900577307 1.8630080223
 2413.5610352 6.0000000000 12.793999672 12.250000954 -0.012743000 0.3048689365 2.4400000572 125.95329285 102.72391510 205.42510986 1.9329999685 145.68800354 1.8680000305 1.6077760458 1.8679984808
 2413.7133789 6.0000000000 12.798000336 12.250000954 -0.013017000 0.3140133321 2.4360001087 120.52149200 102.59121704 206.58830261 1.9340000153 145.75000000 1.8669999838 1.5378749371 1.8669999838
 2413.8659668 6.0000000000 12.803000450 12.250000954 -0.010647000 0.2940720022 2.4419999123 119.03571320 102.28000641 205.30209351 1.9290000200 145.25000000 1.8669999838 1.4597244263 1.8670032024
 2414.0183105 6.0000000000 12.802000999 12.250000954 -0.009120000 0.3082752228 2.4389998913 121.77118683 102.25304413 205.27404785 1.9259999990 145.37500000 1.8680000305 1.3744230270 1.8679968119
 2414.1706543 6.0000000000 12.800000191 12.250000954 -0.009699000 0.3055124581 2.4379999638 117.26351929 102.43170929 205.41276550 1.9240000248 146.43800354 1.8660000563 1.5056672096 1.8660224676
 2414.3229980 6.0000000000 12.800999641 12.250000954 -0.010552000 0.3119826019 2.4409999847 116.95095825 102.29820251 199.75816345 1.9390000105 146.31300354 1.8799999952 1.4021394253 1.8800224066
 2414.4755859 6.0000000000 12.800999641 12.250000954 -0.009907000 0.2997010052 2.4530000687 117.92144012 102.09500122 202.58543396 1.9470000267 146.31300354 1.8940000534 1.4887371063 1.8940480947
 2414.6279297 6.0000000000 12.798998833 12.250000954 -0.011820000 0.3030639887 2.4560000896 114.18499756 102.05200195 202.25054932 1.9689999819 145.93800354 1.9090000391 1.4071890116 1.9090256691
 2414.7802734 6.0000000000 12.800999641 12.250000954 -0.013375000 0.3077035844 2.4509999752 117.33483124 102.13786316 201.66893005 1.9750000238 146.62500000 1.9249999523 1.4659264088 1.9250079393
 2414.9326172 6.0000000000 12.807999611 12.250000954 -0.014090000 0.3148455620 2.4470000267 119.56386566 102.35266113 202.70666504 1.9889999628 146.50000000 1.9299999475 1.4430480003 1.9299726486
 2415.0852051 6.0000000000 12.812999725 12.250000954 -0.015029000 0.3111500144 2.4449999332 121.42502594 102.15299988 201.41506958 1.9859999418 147.12500000 1.9129999876 1.4728910923 1.9129583836
 2415.2375488 6.0000000000 12.817000389 12.250000954 -0.014762000 0.3169119954 2.4509999752 124.68653870 102.57299805 202.97450256 1.9700000286 146.81300354 1.8999999762 1.4390544891 1.9000031948
 2415.3898926 6.0000000000 12.817000389 12.250000954 -0.015139000 0.3155242205 2.4500000477 129.17958069 102.77667236 204.03230286 1.9730000496 145.87500000 1.9019999504 1.4560576677 1.9020143747
 2415.5422363 6.0000000000 12.819001198 12.250000954 -0.017104000 0.3175846934 2.4470000267 123.79336548 102.38262939 204.04598999 1.9730000496 146.62500000 1.9110000134 1.4739775658 1.9110015631
 2415.6945801 6.0000000000 12.812999725 12.250000954 -0.017293001 0.3085495234 2.4440000057 130.86122131 102.83127594 203.82070923 1.9730000496 146.81300354 1.9119999409 1.4671186209 1.9119999409
