# LAS format log file from PETREL
# Project units are specified as depth units
#==================================================================
~Version information
VERS.   2.0:
WRAP.   NO:
#==================================================================
~Well
STRT .m      399.05941772 :
STOP .m      2436.9521484 :
STEP .m     0.00000000 :
NULL .        -999.250000 :
COMP.           : COMPANY
WELL.  31/2-1   : WELL
FLD.            : FIELD
LOC.            : LOCATION
SRVC.           : SERVICE COMPANY
DATE.  2018-09-11 14:48:32   : Log Export Date {yyyy-MM-dd HH:mm:ss}
PROV.           : PROVINCE
UWI.   31/2-1   : UNIQUE WELL ID
API.            : API NUMBER
#==================================================================
~Curve
DEPT .m                   : DEPTH
Lithology_geolink ._      : Lithology_geolink
CALI .in                  : CALI
BS .in                    : BS
DRHO .g/cm3               : DRHO
NPHI .m3/m3               : NPHI
RHOB .g/cm3               : RHOB
GR .gAPI                  : GR
DTC .us/ft                : DTC
DTE .us/ft                : DTE
RDEP .ohm.m               : RDEP
SP .mV                    : SP
RSHA .ohm.m               : RSHA
RMED .ohm.m               : RMED
~Parameter
#==================================================================
~Ascii
# ...
 1351.2546387 5.0000000000 12.523591042 12.250000954 -0.039227381 0.5336868763 1.9912990332 30.165889740 160.21911621 160.21130371 1.2009990215 22.019020081 1.5351190567 1.1829910278
 1351.4069824 5.0000000000 12.500000000 12.250000954 -0.033237182 0.5098876953 1.9896229506 30.233299255 160.21911621 160.21130371 1.1963989735 21.592386246 1.5841399431 1.1830680370
 1351.5594482 5.0000000000 12.500229836 12.250000954 -0.011692308 0.4965085983 2.0150089264 28.561580658 160.21911621 160.21130371 1.1902899742 22.150609970 1.5709520578 1.1489160061
 1351.7117920 5.0000000000 12.556309700 12.250000954 0.0063730981 0.5143101811 2.0332999229 26.791349411 160.21911621 160.21130371 1.1583969593 21.921838760 1.4504549503 1.1138279438
 1351.8642578 5.0000000000 12.684748650 12.250000954 0.0106923077 0.5262985826 2.0337998867 26.001380920 160.21911621 160.21130371 1.1191329956 21.503297806 1.3783999681 1.1059080362
 1352.0166016 5.0000000000 12.806321144 12.250000954 0.0084635708 0.5229827166 2.0341930389 26.485050201 160.21911621 160.21130371 1.1058219671 20.996068954 1.4500980377 1.1066110134
 1352.1690674 5.0000000000 12.698878288 12.250000954 0.0046153846 0.5011035800 2.0247840881 27.901290894 160.21911621 160.21130371 1.1173460484 20.788362503 1.4105770588 1.1212099791
 1352.3214111 5.0000000000 12.594139099 12.250000954 0.0014635710 0.5042102933 2.0106129646 30.375009537 160.21911621 160.21130371 1.1680639982 21.639291763 1.3585909605 1.1426010132
 1352.4738770 5.0000000000 12.649800301 12.250000954 0.0001538462 0.5183926821 2.0283999443 33.435760498 160.21911621 160.21130371 1.1863919497 22.061697006 1.4150290489 1.1730890274
 1352.6262207 5.0000000000 12.649999619 12.250000954 0.0033819056 0.5117012262 2.0286040306 36.216369629 160.21911621 160.21130371 1.1949969530 21.927400589 1.4940730333 1.1899919510
 1352.7786865 5.0000000000 12.649999619 12.250000954 0.0090769231 0.5136306882 2.0346109867 38.148170471 160.21911621 160.21130371 1.2023979425 21.709411621 1.5713490248 1.2031960487
 1352.9310303 5.0000000000 12.649990082 12.250000954 0.0150728589 0.5433015227 2.0454070568 39.355808258 160.21911621 160.21130371 1.2074979544 21.492254257 1.5947329998 1.2115919590
 1353.0833740 5.0000000000 12.625450134 12.250000954 0.0193814095 0.5458921790 2.0571019650 37.857589722 160.21911621 160.21130371 1.2127009630 21.275400162 1.5229829550 1.2115000486
 1353.2358398 5.0000000000 12.574892044 12.250000954 0.0208454765 0.5378894806 2.0590960979 35.921718597 160.21911621 160.21130371 1.2186969519 20.911720276 1.4364089966 1.2110979557
 1353.3881836 5.0000000000 12.549980164 12.250000954 0.0184639413 0.5185868144 2.0525949001 35.236240387 160.21911621 160.21130371 1.2239990234 20.474702835 1.4811249971 1.2067990303
 1353.5406494 5.0000000000 12.523560524 12.250000954 0.0154615380 0.5041097999 2.0469980240 35.644908905 160.21911621 160.21130371 1.2280980349 20.088193893 1.4468050003 1.2015030384
 1353.6929932 5.0000000000 12.446209908 12.250000954 0.0133090476 0.5245972872 2.0437059402 36.924629211 160.21911621 160.21130371 1.2321890593 19.879217148 1.3870979548 1.1968009472
 1353.8454590 5.0000000000 12.455010414 12.250000954 0.0121538462 0.5213956237 2.0514020920 37.376239777 160.21911621 160.21130371 1.2238030434 20.141540527 1.4341770411 1.1922030449
 1353.9978027 5.0000000000 12.472350121 12.250000954 0.0179183334 0.5107071996 2.0562939644 36.858539581 160.21911621 160.21130371 1.2103040218 20.470319748 1.4904600382 1.1887029409
 1354.1502686 5.0000000000 12.536009789 12.250000954 0.0232307687 0.5199056864 2.0483961105 36.905269623 160.21911621 160.21130371 1.1980149746 20.784749985 1.5099339485 1.1885260344
 1354.3026123 5.0000000000 12.714159966 12.250000954 0.0146997599 0.5248016119 2.0449929237 38.308280945 160.21911621 160.21130371 1.2004309893 21.127674103 1.4697029591 1.2108069658
 1354.4550781 6.0000000000 12.800099373 12.250000954 0.0028461539 0.5269994736 2.0345931053 39.914371490 160.21911621 160.21130371 1.2474750280 21.486171722 1.5608680248 1.2509000301
 1354.6074219 6.0000000000 12.800009727 12.250000954 0.0010000000 0.5264983177 2.0283029079 41.785190582 160.21911621 160.21130371 1.2668869495 21.872856140 1.9246519804 1.2870670557
 1354.7598877 6.0000000000 12.821630478 12.250000954 0.0052307695 0.5239983201 2.0325160027 43.791969299 160.21911621 160.21130371 1.2767870426 22.540502548 1.5291069746 1.2900739908
 1354.9122314 6.0000000000 12.849899292 12.250000954 0.0127638113 0.5224093199 2.0476069450 44.985630035 160.21911621 160.21130371 1.2735999823 23.258176804 1.4534449577 1.2680079937
 1355.0645752 6.0000000000 12.850049973 12.250000954 0.0190721154 0.5379843712 2.0590970516 45.476268768 160.21911621 160.21130371 1.2687920332 23.165027618 1.5785449743 1.2461030483
 1355.2170410 6.0000000000 12.896108627 12.250000954 0.0166180953 0.5217921138 2.0561010838 45.840160370 160.21911621 160.21130371 1.2557020187 22.795036316 1.6502870321 1.2275079489
 1355.3693848 6.0000000000 12.732970238 12.250000954 0.0117732370 0.5069082975 2.0578970909 45.492160797 160.21911621 160.21130371 1.2365009785 21.898258209 1.5718059540 1.2096010447
 1355.5218506 6.0000000000 12.474760056 12.250000954 0.0118461540 0.5161085129 2.0543019772 45.847900391 160.21911621 160.21130371 1.2174069881 20.989805222 1.4954489470 1.1918150187
 1355.6741943 6.0000000000 12.398368835 12.250000954 0.0153819062 0.5341048241 2.0588979721 45.316989899 160.21911621 160.21130371 1.1927210093 20.470336914 1.4411699772 1.1872099638
 1355.8266602 6.0000000000 12.481460571 12.250000954 0.0193846151 0.5398014188 2.0562980175 43.734241486 160.21911621 160.21130371 1.1887160540 20.388893127 1.4619170427 1.1939090490
 1355.9790039 6.0000000000 12.626420021 12.250000954 0.0166180953 0.5432093143 2.0508871078 42.729259491 160.21911621 160.21130371 1.2194989920 20.456001282 1.5570789576 1.2336959839
 1356.1314697 6.0000000000 12.649999619 12.250000954 0.0075384616 0.5550993085 2.0342049599 43.084869385 160.21911621 160.21130371 1.2574609518 20.641639709 1.6523059607 1.2796510458
 1356.2838135 6.0000000000 12.649979591 12.250000954 0.0026180947 0.5544931889 2.0389080048 44.674259186 160.21911621 160.21130371 1.2557940483 21.529777527 1.6517210007 1.2759890556
 1356.4362793 6.0000000000 12.621980667 12.250000954 0.0036923080 0.5449929833 2.0497119427 44.983749390 160.21911621 160.21130371 1.2446800470 22.227035522 1.5438979864 1.2552789450
 1356.5886230 6.0000000000 12.600100517 12.250000954 0.0116092879 0.5384976268 2.0606989861 45.026020050 160.21911621 160.21130371 1.2164080143 22.316884995 1.5365339518 1.2173219919
 1356.7410889 6.0000000000 12.600090027 12.250000954 0.0096153840 0.5347852707 2.0585908890 45.731029510 160.21911621 160.21130371 1.1863139868 22.136268616 1.5787559748 1.1938040257
 1356.8934326 6.0000000000 12.685430527 12.250000954 0.0030816654 0.5203915238 2.0497040749 45.455581665 160.21911621 160.21130371 1.1717109680 21.823141098 1.5758719444 1.1749140024
 1357.0457764 6.0000000000 12.734180450 12.250000954 0.0070721158 0.5058928728 2.0559990406 44.457519531 160.21911621 160.21130371 1.1666090488 21.957984924 1.5241730213 1.1677149534
 1357.1982422 6.0000000000 12.604860306 12.250000954 0.0088454764 0.4984006882 2.0552959442 43.451240540 160.21911621 160.21130371 1.1711009741 22.894954681 1.4453099966 1.1761009693
 1357.3505859 6.0000000000 12.526659966 12.250000954 0.0081546474 0.4998087883 2.0479910374 42.996688843 160.21911621 160.21130371 1.1810179949 23.053735733 1.9654799700 1.1940059662
 1357.5030518 6.0000000000 12.475991249 12.250000954 0.0029271420 0.5096089244 2.0374979973 43.049591064 160.21911621 160.21130371 1.2125819921 22.365840912 2.7474958897 1.2211869955
 1357.6553955 6.0000000000 12.450019836 12.250000954 0.0028453525 0.5290161967 2.0338060856 42.700988770 160.21911621 160.21130371 1.2407790422 21.589448929 2.1022329330 1.2509659529
 1357.8078613 6.0000000000 12.475110054 12.250000954 0.0123076923 0.5485078096 2.0407090187 43.246219635 160.21911621 160.21130371 1.2490880489 21.709083557 1.5804879665 1.2445989847
