# LAS format log file from PETREL
# Project units are specified as depth units
#==================================================================
~Version information
VERS.   2.0:
WRAP.   NO:
#==================================================================
~Well
STRT .m      439.56304932 :
STOP .m      1665.9261475 :
STEP .m     0.00000000 :
NULL .        -999.250000 :
COMP.           : COMPANY
WELL.  31/2-7   : WELL
FLD.            : FIELD
LOC.            : LOCATION
SRVC.           : SERVICE COMPANY
DATE.  2018-09-11 14:48:34   : Log Export Date {yyyy-MM-dd HH:mm:ss}
PROV.           : PROVINCE
UWI.   31/2-7   : UNIQUE WELL ID
API.            : API NUMBER
#==================================================================
~Curve
DEPT .m                   : DEPTH
Lithology_geolink ._      : Lithology_geolink
CALI .in                  : CALI
DRHO .g/cm3               : DRHO
SGR .gAPI                 : SGR
NPHI .m3/m3               : NPHI
RHOB .g/cm3               : RHOB
PEF .b/e                  : PEF
GR .gAPI                  : GR
DTC .us/ft                : DTC
DTE .us/ft                : DTE
RDEP .ohm.m               : RDEP
SP .mV                    : SP
RSHA .ohm.m               : RSHA
RMED .ohm.m               : RMED
~Parameter
#==================================================================
~Ascii
# ...
 1251.8552246  -999.250000 17.937999725 0.0280000009  -999.250000 0.5410200357 2.0590000153  -999.250000 84.628906250 157.38137817 153.94116211 0.7790216208 61.026504517 0.8269855976 0.8269855976
 1252.0076904  -999.250000 17.843999863 0.0199999996  -999.250000 0.5229499936 2.0490000248  -999.250000 85.872993469 157.46180725 153.96127319 0.7680176497 62.148197174 0.8289967775 0.8289967775
 1252.1600342  -999.250000 17.812999725 0.0149999997  -999.250000 0.4916999936 2.0309998989  -999.250000 80.825164795 158.28579712 154.82305908 0.7680000067 62.274700165 0.8299975991 0.8299975991
 1252.3125000  -999.250000 18.093999863 0.0160000008  -999.250000 0.4145500064 2.0160000324  -999.250000 80.064208984 159.03010559 155.54844666 0.7749887705 60.777404785 0.8170208335 0.8170208335
 1252.4648438  -999.250000 19.047000885 0.0280000009  -999.250000 0.4399400055 2.0409998894  -999.250000 76.131309509 158.40447998 154.92160034 0.7640176415 61.398998260 0.8219920397 0.8219920397
 1252.6171875  -999.250000 18.000000000 0.0299999993  -999.250000 0.4487300217 2.0550000668  -999.250000 78.868392944 157.85299683 154.41545105 0.7639999986 62.522304535 0.8170119524 0.8170119524
 1252.7696533  -999.250000 17.781000137 0.0260000005  -999.250000 0.5444300175 2.0720000267  -999.250000 78.064308167 156.85273743 153.40457153 0.7520192266 61.526603699 0.8429583311 0.8429583311
 1252.9219971  -999.250000 17.906000137 0.0130000003  -999.250000 0.5102500319 2.0550000668  -999.250000 81.741142273 156.63020325 153.22911072 0.7500048280 61.400302887 0.8609567881 0.8609567881
 1253.0744629  -999.250000 17.937999725 0.0020000001  -999.250000 0.5263699889 2.0350000858  -999.250000 81.812904358 156.98272705 153.66172791 0.7529951930 60.900802612 0.8689872026 0.8689872026
 1253.2268066  -999.250000 18.093999863 -0.002000000  -999.250000 0.5039100051 2.0329999924  -999.250000 85.429298401 158.30351257 154.89830017 0.7599831820 60.650600433 0.8630144000 0.8630144000
 1253.3792725  -999.250000 18.233999252 -0.002000000  -999.250000 0.5127000213 2.0409998894  -999.250000 84.875900269 163.27938843 159.83935547 0.7510144114 61.523597717 0.8460272551 0.8460272551
 1253.5316162  -999.250000 18.812999725 0.0010000000  -999.250000 0.5131800175 2.0529999733  -999.250000 86.933052063 171.15501404 167.66041565 0.7589808106 60.278003693 0.8519855738 0.8519855738
 1253.6840820  -999.250000 18.266000748 0.0149999997  -999.250000 0.5004900098 2.0429999828  -999.250000 82.257514954 170.20726013 166.71655273 0.7699823380 59.401405334 0.8460096121 0.8460096121
 1253.8364258  -999.250000 17.906000137 0.0209999997  -999.250000 0.5307599902 2.0139999390  -999.250000 79.569458008 164.34991455 160.91575623 0.7779808044 60.771697998 0.8270456791 0.8270456791
 1253.9888916  -999.250000 18.108999252 0.0070000002  -999.250000 0.5322300196 1.9800000191  -999.250000 74.632911682 150.86601257 147.43008423 0.7939743996 60.275802612 0.8020400405 0.8020400405
 1254.1412354  -999.250000 19.500000000 -0.028999999  -999.250000 0.5317400098 2.0450000763  -999.250000 71.570358276 139.91314697 136.52349854 0.7979903817 61.521999359 0.8179615736 0.8179615736
 1254.2937012  -999.250000 18.843999863 -0.074000001  -999.250000 0.4873000085 2.1989998817  -999.250000 66.133712769 118.06819916 114.72462463 0.7930079699 61.400203705 0.8519455194 0.8519455194
 1254.4460449  -999.250000 18.062999725 -0.013000000  -999.250000 0.4575199783 2.5959999561  -999.250000 66.312705994 103.57849121 100.09702301 0.7740304470 60.401603699 0.8889406919 0.8889406919
 1254.5985107  -999.250000 18.422000885 0.1319999993  -999.250000 0.4081999958 2.6779999733  -999.250000 72.178596497 112.92857361 109.51830292 0.7620192170 62.147197723 0.9169551730 0.9169551730
 1254.7508545  -999.250000 18.016000748 0.1309999973  -999.250000 0.4150400162 2.3729999065  -999.250000 74.371498108 126.89007568 123.46582031 0.7460256219 61.900402069 0.8940368295 0.8940368295
 1254.9031982  -999.250000 17.922000885 0.0579999983  -999.250000 0.4355500042 2.1310000420  -999.250000 77.492492676 146.31175232 142.82067871 0.7519855499 62.149402618 0.8481104970 0.8481104970
 1255.0556641  -999.250000 18.343999863 0.0060000001  -999.250000 0.4946300089 2.0099999905  -999.250000 79.934097290 160.14878845 156.70133972 0.7460095882 62.773998260 0.8020737171 0.8020737171
 1255.2080078  -999.250000 18.062999725 0.0099999998  -999.250000 0.4785200059 2.0250000954  -999.250000 83.616142273 161.28417969 157.85554504 0.7320336103 62.400901794 0.7820480466 0.7820480466
 1255.3604736  -999.250000 17.891000748 0.0320000015  -999.250000 0.4843800068 2.0569999218  -999.250000 79.195114136 159.33517456 155.86471558 0.7150272131 62.400001526 0.7810016274 0.7810016274
 1255.5128174  -999.250000 17.937999725 0.0289999992  -999.250000 0.4877899885 2.0490000248  -999.250000 75.571708679 157.27214050 153.93005371 0.7100119591 61.901203156 0.8019495606 0.8019495606
 1255.6652832  -999.250000 17.843999863 0.0320000015  -999.250000 0.5053699613 2.0409998894  -999.250000 72.380111694 156.84919739 153.41882324 0.7129951715 62.149600983 0.8129823804 0.8129823804
 1255.8176270  -999.250000 17.843999863 0.0309999995  -999.250000 0.5195299983 2.0329999924  -999.250000 76.303543091 155.68630981 152.24942017 0.7169904113 61.775901794 0.8040216565 0.8040216565
 1255.9700928  -999.250000 17.812999725 0.0379999988  -999.250000 0.5058599710 2.0329999924  -999.250000 76.937004089 151.29385376 147.82205200 0.7189967632 61.275802612 0.8159807324 0.8159807324
 1256.1224365  -999.250000 17.891000748 0.0199999996  -999.250000 0.5346699953 2.0199999809  -999.250000 72.510658264 150.26733398 146.86415100 0.7309711576 61.773799896 0.8349543214 0.8349543214
 1256.2749023  -999.250000 18.233999252 0.0160000008  -999.250000 0.4926800132 2.0209999084  -999.250000 72.000801086 149.81733704 146.39071655 0.7569583654 60.277404785 0.8250160217 0.8250160217
 1256.4272461  -999.250000 17.952999115 0.0199999996  -999.250000 0.5161100030 2.0350000858  -999.250000 69.131904602 149.34963989 145.88281250 0.7649807930 62.394897461 0.8329808116 0.8329808116
 1256.5797119  -999.250000 17.875000000 0.0379999988  -999.250000 0.4926800132 2.0429999828  -999.250000 75.240180969 149.09786987 145.63632202 0.7769807577 61.027206421 0.8499727845 0.8499727845
 1256.7320557  -999.250000 17.297000885 0.0299999993  -999.250000 0.5141599774 2.0369999409  -999.250000 68.760414124 148.43988037 145.05102539 0.7809935808 61.149799347 0.9238814116 0.9238814116
 1256.8843994  -999.250000 17.937999725 0.0099999998  -999.250000 0.4838899970 2.0079998970  -999.250000 70.558647156 142.56092834 139.10542297 0.7700263858 60.277103424 0.9469447732 0.9469447732
 1257.0368652  -999.250000 18.108999252 0.0030000000  -999.250000 0.5083000064 2.0099999905  -999.250000 72.310195923 144.51885986 141.03163147 0.7690016031 61.148597717 0.9370160103 0.9370160103
 1257.1892090  -999.250000 17.891000748 0.0089999996  -999.250000 0.4750999808 2.0230000019  -999.250000 75.181098938 145.69575500 142.25804138 0.7640119791 61.274700165 0.8731537461 0.8731537461
 1257.3416748  -999.250000 18.062999725 0.0089999996  -999.250000 0.4765599966 2.0250000954  -999.250000 75.562400818 148.18341064 144.73249817 0.7370432615 60.276603699 0.8460432887 0.8460432887
 1257.4940186  -999.250000 17.922000885 0.0030000000  -999.250000 0.4213899970 2.0199999809  -999.250000 71.447914124 151.84690857 148.42298889 0.7250288725 60.649101257 0.8350263834 0.8350263834
 1257.6464844  -999.250000 17.968999863 -0.003000000  -999.250000 0.4252899885 2.0079998970  -999.250000 77.864685059 153.51274109 150.03398132 0.7299920321 61.024398804 0.8399919868 0.8399919868
 1257.7988281  -999.250000 17.983999252 0.0099999998  -999.250000 0.4086900055 2.0290000439  -999.250000 80.681243896 156.33888245 152.90211487 0.7210216522 60.650901794 0.8409976363 0.8409976363
 1257.9512939  -999.250000 17.937999725 0.0120000001  -999.250000 0.4375000000 2.0390000343  -999.250000 86.241088867 157.58901978 154.12519836 0.7249935865 60.525203705 0.8449935913 0.8449935913
