# LAS format log file from PETREL
# Project units are specified as depth units
#==================================================================
~Version information
VERS.   2.0:
WRAP.   NO:
#==================================================================
~Well
STRT .m      447.54394531 :
STOP .m      3384.4443359 :
STEP .m     0.00000000 :
NULL .        -999.250000 :
COMP.           : COMPANY
WELL.  31/2-8   : WELL
FLD.            : FIELD
LOC.            : LOCATION
SRVC.           : SERVICE COMPANY
DATE.  2018-09-11 14:48:34   : Log Export Date {yyyy-MM-dd HH:mm:ss}
PROV.           : PROVINCE
UWI.   31/2-8   : UNIQUE WELL ID
API.            : API NUMBER
#==================================================================
~Curve
DEPT .m                   : DEPTH
Lithology_geolink ._      : Lithology_geolink
CALI .in                  : CALI
DRHO .g/cm3               : DRHO
SGR .gAPI                 : SGR
NPHI .m3/m3               : NPHI
RHOB .g/cm3               : RHOB
PEF .b/e                  : PEF
GR .gAPI                  : GR
DTC .us/ft                : DTC
RDEP .ohm.m               : RDEP
SP .mV                    : SP
RSHA .ohm.m               : RSHA
RMED .ohm.m               : RMED
~Parameter
#==================================================================
~Ascii
# ...
 1815.4863281 12.000000000 12.012999535 0.0049999999 33.491554260 0.3579199910 2.2630000114 5.3493309021 25.291580200 103.73656464 1.0119183064 68.730094910 0.8763939142 0.8763939142
 1815.6387939 12.000000000 12.050000191 0.0160000008 46.010917664 0.3460699916 2.3050000668 4.6770768166 35.889999390 106.41650391 1.0070079565 66.231010437 0.8660160303 0.8660160303
 1815.7911377 13.000000000 12.168999672 0.0260000005 58.074668884 0.3578699827 2.3399999142 4.2466888428 44.980434418 110.83753967 0.9630705118 65.093818665 0.9728285074 0.9728285074
 1815.9434814 13.000000000 12.284999847 0.0289999992 63.051063538 0.3837799728 2.3410000801 4.5622386932 54.478168488 113.71341705 0.9041417241 63.854984283 1.1974595785 1.1974595785
 1816.0959473 13.000000000 12.190999985 0.0320000015 53.484375000 0.4007300138 2.3150000572 5.0192675591 55.508380890 113.78214264 0.8590721488 64.403114319 1.3048285246 1.3048285246
 1816.2482910 13.000000000 12.067000389 0.0219999999 39.533554077 0.3983300030 2.2720000744 5.8529944420 47.205993652 110.15245056 0.8400456309 66.092933655 1.1124635935 1.1124635935
 1816.4007568 13.000000000 12.022000313 0.0030000000 28.720302582 0.3851100206 2.2300000191 6.1445350647 36.084819794 104.53996277 0.8320128322 66.470397949 0.8803718090 0.8803718090
 1816.5531006 13.000000000 12.019000053 -0.012000000 22.919923782 0.3671699762 2.2100000381 6.4333057404 23.834453583 100.97579956 0.8080576658 67.107467651 0.8091705441 0.8091705441
 1816.7055664 12.000000000 12.027999878 -0.018999999 21.518228531 0.3864099979 2.2060000896 6.1993765831 19.461971283 100.03305054 0.7690625191 66.284324646 0.8040080070 0.8040080070
 1816.8579102 12.000000000 12.034000397 -0.017999999 20.471513748 0.3959999979 2.2179999352 6.0044684410 14.798212051 99.670227051 0.7340840697 64.386566162 0.8129783869 0.8129783869
 1817.0103760 12.000000000 12.043999672 -0.011000000 20.999149323 0.4068900049 2.2360000610 6.1986875534 14.032211304 99.152580261 0.7100384235 63.265789032 0.8259791136 0.8259791136
 1817.1627197 12.000000000 12.046999931 -0.004000000 21.249399185 0.3735599816 2.2530000210 6.2578582764 15.471531868 99.229103088 0.7050119638 62.721309662 0.8489447236 0.8489447236
 1817.3151855 12.000000000 12.052000046 -0.002000000 22.373197556 0.3518600166 2.2660000324 6.4876313210 17.199232101 99.001121521 0.7269647121 66.720573425 0.8799503446 0.8799503446
 1817.4675293 12.000000000 12.064000130 -0.004000000 22.577510834 0.3357799947 2.2790000439 6.6047191620 19.479516983 98.145355225 0.7609183192 68.251327515 0.8949639797 0.8949639797
 1817.6199951 12.000000000 12.066000938 -0.005000000 22.968372345 0.3305699825 2.2929999828 6.5900239944 19.931282043 97.163734436 0.7859599590 65.303741455 0.9269487262 0.9269487262
 1817.7723389 12.000000000 12.069001198 -0.008000000 21.814851761 0.3207300305 2.3010001183 6.9014997482 21.328758240 96.323532104 0.8139551282 64.612106323 0.9938926697 0.9938926697
 1817.9248047 12.000000000 12.069999695 -0.008000000 22.607725143 0.3221600056 2.3110001087 6.5595493317 18.720186234 95.725448608 0.8439519405 67.647132874 1.0349342823 1.0349342823
 1818.0771484 12.000000000 12.069999695 -0.001000000 21.876176834 0.3214100003 2.3220000267 6.6558446884 16.241971970 95.554061890 0.8659647107 67.160789490 1.0160304308 1.0160304308
 1818.2294922 12.000000000 12.069999695 0.0049999999 21.937849045 0.3283900023 2.3280000687 6.3287878036 15.918768883 95.462944031 0.8959279656 68.005966187 1.0100144148 1.0100144148
 1818.3819580 12.000000000 12.071999550 0.0020000001 19.800432205 0.3276800215 2.3210000992 6.4218492508 15.566564560 94.923660278 0.9269503355 65.827499390 1.0399519205 1.0399519205
 1818.5343018 12.000000000 12.079998970 -0.002000000 20.232950211 0.3166899979 2.3210000992 6.4998126030 16.265316010 94.446060181 0.9469519854 63.690139771 1.0380047560 1.0380047560
 1818.6867676 12.000000000 12.092000008 -0.005000000 20.562473297 0.3017500043 2.3280000687 6.4650564194 15.352467537 93.711029053 0.9639727473 62.492916107 1.0439903736 1.0439903736
 1818.8391113 12.000000000 12.099999428 -0.006000000 21.840923309 0.2906900048 2.3340001106 6.4769716263 13.875552177 92.310546875 0.9769687653 65.821983337 1.1008630991 1.1008630991
 1818.9915771 12.000000000 12.102000237 -0.010000000 21.843999863 0.2842200100 2.3210000992 6.2074322701 12.690896034 91.560028076 0.9819920063 65.103164673 1.1898574829 1.1898574829
 1819.1439209 12.000000000 12.102000237 -0.012000000 21.500825882 0.2879799902 2.2990000248 6.3157382011 11.298348427 92.295417786 0.9839951992 65.523986816 1.2528487444 1.2528487444
 1819.2963867 12.000000000 12.099999428 -0.009000000 22.186897278 0.2967199981 2.2799999714 6.1602497101 14.769422531 93.835327148 1.0049663782 66.137016296 1.2599887848 1.2599887848
 1819.4487305 12.000000000 12.097000122 0.0000000000 23.917835236 0.3151199818 2.2829999924 6.1021394730 17.402673721 95.453056335 1.0558774471 66.825347900 1.2101200819 1.2101200819
 1819.6011963 12.000000000 12.111000061 0.0209999997 34.171546936 0.3019799888 2.3229999542 4.7172226906 23.252618790 97.720016479 1.1348733902 68.725944519 1.1291297674 1.1291297674
 1819.7535400 13.000000000 12.198999405 0.0340000018 50.741142273 0.2860099971 2.3629999161 3.8830032349 35.718009949 100.51738739 1.2267789841 68.288063049 1.1349855661 1.1349855661
 1819.9060059 13.000000000 12.411000252 0.0189999994 65.351615906 0.2795599997 2.3729999065 3.6763286591 50.381511688 101.47904968 1.3438124657 67.592117310 1.2807660103 1.2807660103
 1820.0583496 13.000000000 12.601000786 0.0010000000 67.684295654 0.3299399912 2.3729999065 4.7133350372 54.812923431 97.283073425 1.4887676239 66.320037842 1.4537227154 1.4537227154
 1820.2106934 13.000000000 12.666999817 -0.010000000 51.819206238 0.3602800071 2.3880000114 6.5186572075 43.226913452 87.114601135 1.6735556126 64.859512329 1.6265844107 1.6265844107
 1820.3631592 12.000000000 12.663000107 -0.008000000 36.274890900 0.3372200131 2.4230000973 8.2392444611 28.089254379 75.261169434 1.9435672760 68.007942200 1.8456490040 1.8456490040
 1820.5155029 12.000000000 12.708000183 -0.004000000 24.715770721 0.2529399991 2.4549999237 8.0165424347 21.817043304 67.643806458 2.3240849972 69.580223083 2.3737294674 2.3737294674
 1820.6679688 12.000000000 12.782999992 0.0120000001 29.664012909 0.1795000136 2.4860000610 6.6432032585 21.865896225 66.422935486 2.7173700333 71.219375610 3.3174872398 3.3174872398
 1820.8203125 12.000000000 12.847999573 0.0359999985 42.532035828 0.1501699984 2.5030000210 4.6647582054 28.392288208 70.828125000 3.0621712208 71.103279114 4.3924155235 4.3924155235
 1820.9727783 12.000000000 12.932999611 0.0399999991 64.278144836 0.1845100075 2.4839999676 3.6426329613 43.431884766 78.506668091 3.4004583359 68.434280396 4.8103332520 4.8103332520
 1821.1251221 6.0000000000 13.074000359 0.0289999992 86.260162354 0.2699399889 2.4440000057 3.1831023693 69.947219849 86.767097473 3.6623709202 67.051315308 4.4768042564 4.4768042564
 1821.2775879 6.0000000000 13.250000000 0.0109999999 105.21965027 0.3451599777 2.4170000553 3.2379102707 88.242736816 94.118911743 3.8756585121 68.524627686 4.0486855507 4.0486855507
 1821.4299316 6.0000000000 13.340998650 0.0060000001 112.42073822 0.3802700043 2.4110000134 3.2599470615 98.598136902 99.123771667 3.9498221874 73.191772461 3.8804035187 3.8804035187
 1821.5823975 6.0000000000 13.371999741 0.0049999999 115.37029266 0.3716199994 2.4140000343 3.4317243099 98.405349731 100.84162140 3.8890976906 74.884300232 3.9548797607 3.9548797607
 1821.7347412 6.0000000000 13.394000053 0.0030000000 113.81675720 0.3643199801 2.4159998894 3.6514716148 102.58493805 100.53642273 3.7573170662 71.152984619 4.0567550659 4.0567550659
 1821.8872070 6.0000000000 13.387999535 0.0010000000 114.12449646 0.3679800034 2.4179999828 3.9834678173 99.301284790 98.965827942 3.6641490459 69.795166016 4.1618318558 4.1618318558
 1822.0395508 6.0000000000 13.380000114 0.0000000000 112.06630707 0.3520700037 2.4119999409 3.7643525600 99.076347351 97.423965454 3.5791361332 68.563972473 4.3996186256 4.3996186256
