# LAS format log file from PETREL
# Project units are specified as depth units
#==================================================================
~Version information
VERS.   2.0:
WRAP.   NO:
#==================================================================
~Well
STRT .m      439.56304932 :
STOP .m      1665.9261475 :
STEP .m     0.00000000 :
NULL .        -999.250000 :
COMP.           : COMPANY
WELL.  31/2-7   : WELL
FLD.            : FIELD
LOC.            : LOCATION
SRVC.           : SERVICE COMPANY
DATE.  2018-09-11 14:48:34   : Log Export Date {yyyy-MM-dd HH:mm:ss}
PROV.           : PROVINCE
UWI.   31/2-7   : UNIQUE WELL ID
API.            : API NUMBER
#==================================================================
~Curve
DEPT .m                   : DEPTH
Lithology_geolink ._      : Lithology_geolink
CALI .in                  : CALI
DRHO .g/cm3               : DRHO
SGR .gAPI                 : SGR
NPHI .m3/m3               : NPHI
RHOB .g/cm3               : RHOB
PEF .b/e                  : PEF
GR .gAPI                  : GR
DTC .us/ft                : DTC
DTE .us/ft                : DTE
RDEP .ohm.m               : RDEP
SP .mV                    : SP
RSHA .ohm.m               : RSHA
RMED .ohm.m               : RMED
~Parameter
#==================================================================
~Ascii
# ...
 1658.0013428  -999.250000 12.015999794 -0.007000000 56.436870575 0.4003900290 2.2290000916 6.0313286781 71.063003540  -999.250000  -999.250000 1.5119887590 92.675407410 1.5891250372 1.5891250372
 1658.1536865  -999.250000 12.015999794 -0.011000000 56.169136047 0.4252899885 2.2149999142 6.1125473976 71.063003540  -999.250000  -999.250000 1.5119999647 92.550300598 1.5540840626 1.5540840626
 1658.3061523  -999.250000 12.046999931 -0.016000001 59.440502167 0.4335900247 2.2190001011 6.0001883507 71.063003540  -999.250000  -999.250000 1.5040128231 93.049201965 1.6089118719 1.6089118719
 1658.4584961  -999.250000 12.046999931 -0.009000000 60.065372467 0.4238300025 2.2290000916 6.0476245880 71.063003540  -999.250000  -999.250000 1.4940239191 92.925300598 1.6898055077 1.6898055077
 1658.6109619  -999.250000 12.039000511 -0.004000000 60.646984100 0.3989300132 2.2269999981 6.2052998543 71.063003540  -999.250000  -999.250000 1.4910048246 92.301002502 1.7209502459 1.7209502459
 1658.7633057  -999.250000 12.015999794 0.0000000000 58.401870728 0.4223600030 2.2249999046 6.7776122093 71.063003540  -999.250000  -999.250000 1.4929952621 92.549400330 1.6352065802 1.6352065802
 1658.9157715  -999.250000 12.015999794 -0.007000000 57.377254486 0.4043000042 2.2109999657 6.9304685593 71.063003540  -999.250000  -999.250000 1.4910032749 92.050804138 1.5960624218 1.5960624218
 1659.0681152  -999.250000 12.015999794 -0.004000000 57.937999725 0.4199199975 2.2230000496 7.0480327606 71.063003540  -999.250000  -999.250000 1.4910000563 92.549201965 1.5710400343 1.5710400343
 1659.2204590  -999.250000 12.022999763 -0.007000000 57.937999725 0.4003900290 2.2190001011 7.3066024780 71.063003540  -999.250000  -999.250000 1.4900023937 91.552406311 1.5640168190 1.5640168190
 1659.3729248  -999.250000 12.015999794 -0.004000000 57.937999725 0.4282199740 2.2230000496 7.8181023598 71.063003540  -999.250000  -999.250000 1.4909985065 91.425201416 1.5620032549 1.5620032549
 1659.5252686  -999.250000 12.015999794 -0.004000000 57.937999725 0.4555699825 2.2190001011 11.088467598 71.063003540  -999.250000  -999.250000 1.4919975996 92.422599792 1.5610023737 1.5610023737
 1659.6777344  -999.250000 12.015999794 0.0120000001 57.937999725 0.4643599987 2.2360000610 14.357769966 71.063003540  -999.250000  -999.250000 1.4939967394 90.927406311 1.5609999895 1.5609999895
 1659.8300781  -999.250000 11.984001160 0.0189999994 57.937999725 0.4506800175 2.2500000000 17.783189774 71.063003540  -999.250000  -999.250000 1.4930024147 91.548500061 1.5609999895 1.5609999895
 1659.9825439  -999.250000 11.897999763 0.0109999999 57.937999725 0.4311500192 2.2339999676 18.330879211 71.063003540  -999.250000  -999.250000 1.4939984083 91.674804688 1.5609999895 1.5609999895
 1660.1348877  -999.250000 11.758000374 0.0049999999 57.937999725 0.4277299941 2.2300000191 19.045000076 71.063003540  -999.250000  -999.250000 1.4930024147 92.049102783 1.5600023270 1.5600023270
 1660.2873535  -999.250000 11.694998741 -0.003000000 57.937999725 0.4287099838 2.2090001106 18.549192429 71.063003540  -999.250000  -999.250000 1.4949967861 91.675605774 1.5599999428 1.5599999428
 1660.4396973  -999.250000 11.671999931 -0.004000000 57.937999725 0.4130899906 2.2070000172 19.092811584 71.063003540  -999.250000  -999.250000 1.4959976673 91.799705505 1.5590023994 1.5590023994
 1660.5921631  -999.250000 11.664000511 0.0049999999 57.937999725 0.2124000043 2.2130000591 18.800630569 71.063003540  -999.250000  -999.250000 1.4950015545 92.049598694 1.5599983931 1.5599983931
 1660.7445068  -999.250000 11.671999931 0.0070000002 57.937999725 0.0165999997 2.2170000076 19.701122284 71.063003540  -999.250000  -999.250000 1.4950000048 92.922904968 1.5609976053 1.5609976053
 1660.8969727  -999.250000 11.687998772 0.0350000001 57.937999725 -0.037110001 2.2560000420 19.235689163 71.063003540  -999.250000  -999.250000 1.4940015078 92.800201416 1.5600014925 1.5600014925
 1661.0493164  -999.250000 11.671999931 0.0199999996 57.937999725 -0.037110001 2.2379999161 19.653875351 71.063003540  -999.250000  -999.250000 1.4959968328 92.176002502 1.5609984398 1.5609984398
 1661.2016602  -999.250000 11.671999931 0.0170000009 57.937999725 -0.037110001 2.2269999981 19.125301361 71.063003540  -999.250000  -999.250000 1.4950023890 92.549102783 1.5600023270 1.5600023270
 1661.3541260  -999.250000 11.671999931 0.0109999999 57.937999725 -0.037110001 2.2230000496 19.215873718 71.063003540  -999.250000  -999.250000 1.4940015078 92.924400330 1.5599999428 1.5599999428
 1661.5064697  -999.250000 11.671999931 0.0149999997 57.937999725 -0.037110001 2.2209999561 18.438447952 71.063003540  -999.250000  -999.250000 1.4959952831 91.553306580 1.5599999428 1.5599999428
 1661.6589355  -999.250000 11.671999931 0.0320000015 57.937999725 -0.037110001 2.2500000000 18.575305939 71.063003540  -999.250000  -999.250000 1.4930047989 90.551605225 1.5590015650 1.5590015650
 1661.8112793  -999.250000 11.671999931 0.0199999996 57.937999725 -0.037110001 2.2269999981 17.908313751 71.063003540  -999.250000  -999.250000 1.4949952364 90.799400330 1.5599975586 1.5599975586
 1661.9637451  -999.250000 11.671999931 0.0189999994 57.937999725 -0.037110001 2.2269999981 18.480810165 71.063003540  -999.250000  -999.250000 1.4950000048 91.673599243 1.5599999428 1.5599999428
 1662.1160889  -999.250000 11.671999931 0.0170000009 57.937999725 -0.037110001 2.2130000591 17.690750122 71.063003540  -999.250000  -999.250000 1.4959976673 91.051506042 1.5599999428 1.5599999428
 1662.2685547  -999.250000 11.671999931 0.0270000007 57.937999725 -0.037110001 2.2290000916 18.373998642 71.063003540  -999.250000  -999.250000 1.4950015545 90.800407410 1.5609984398 1.5609984398
 1662.4208984  -999.250000 11.671999931 0.0209999997 57.937999725 -0.037110001 2.2320001125 18.124187469 71.063003540  -999.250000  -999.250000 1.4950000048 90.176506042 1.5600023270 1.5600023270
 1662.5733643  -999.250000 11.671999931 0.0250000004 57.937999725 -0.037110001 2.2420001030 17.922189713 71.063003540  -999.250000  -999.250000 1.4959985018 91.422996521 1.5599999428 1.5599999428
 1662.7257080  -999.250000 11.671999931 0.0270000007 57.937999725 -0.037110001 2.2379999161 17.971313477 71.063003540  -999.250000  -999.250000 1.4950023890 90.302703857 1.5609976053 1.5609976053
 1662.8781738  -999.250000 11.671999931 0.0209999997 57.937999725 -0.037110001 2.2209999561 18.552633286 71.063003540  -999.250000  -999.250000 1.4940015078 91.173599243 1.5600014925 1.5600014925
 1663.0305176  -999.250000 11.671999931 0.0179999992 57.937999725 -0.037110001 2.2170000076 19.951250076 71.063003540  -999.250000  -999.250000 1.4949984550 90.925407410 1.5609984398 1.5609984398
 1663.1829834  -999.250000 11.671999931 0.0010000000 57.937999725 -0.037110001 2.1949999332 19.513368607 71.063003540  -999.250000  -999.250000 1.4940015078 90.800201416 1.5600014925 1.5600014925
 1663.3353271  -999.250000 11.671999931 0.0130000003 57.937999725 -0.037110001 2.2109999657 18.852558136 71.063003540  -999.250000  -999.250000 1.4939999580 91.548797607 1.5599999428 1.5599999428
 1663.4876709  -999.250000 11.671999931 0.0280000009 57.937999725 -0.037110001 2.2290000916 17.250499725 71.063003540  -999.250000  -999.250000 1.4939999580 91.051200867 1.5599999428 1.5599999428
 1663.6401367  -999.250000 11.671999931 0.0480000004 57.937999725 -0.037110001 2.2539999485 17.404184341 71.063003540  -999.250000  -999.250000 1.4939999580 91.549201965 1.5599999428 1.5599999428
 1663.7924805  -999.250000 11.671999931 0.0350000001 57.937999725 -0.037110001 2.2420001030 16.957378387 71.063003540  -999.250000  -999.250000 1.4939999580 91.300605774 1.5599999428 1.5599999428
 1663.9449463  -999.250000 11.671999931 0.0250000004 57.937999725 -0.037110001 2.2290000916 18.048816681 71.063003540  -999.250000  -999.250000 1.4939999580 91.674400330 1.5599999428 1.5599999428
 1664.0972900  -999.250000 11.671999931 0.0179999992 57.937999725 -0.037110001 2.2149999142 18.503690720 71.063003540  -999.250000  -999.250000 1.4939999580 91.799705505 1.5599999428 1.5599999428
