# LAS format log file from PETREL
# Project units are specified as depth units
#==================================================================
~Version information
VERS.   2.0:
WRAP.   NO:
#==================================================================
~Well
STRT .m      443.33587646 :
STOP .m      1778.0548096 :
STEP .m     0.00000000 :
NULL .        -999.250000 :
COMP.           : COMPANY
WELL.  31/2-9   : WELL
FLD.            : FIELD
LOC.            : LOCATION
SRVC.           : SERVICE COMPANY
DATE.  2018-09-11 14:48:35   : Log Export Date {yyyy-MM-dd HH:mm:ss}
PROV.           : PROVINCE
UWI.   31/2-9   : UNIQUE WELL ID
API.            : API NUMBER
#==================================================================
~Curve
DEPT .m                   : DEPTH
Lithology_geolink ._      : Lithology_geolink
CALI .in                  : CALI
DRHO .g/cm3               : DRHO
SGR .gAPI                 : SGR
NPHI .m3/m3               : NPHI
RHOB .g/cm3               : RHOB
PEF .b/e                  : PEF
GR .gAPI                  : GR
DTC .us/ft                : DTC
RDEP .ohm.m               : RDEP
SP .mV                    : SP
RSHA .ohm.m               : RSHA
RMED .ohm.m               : RMED
~Parameter
#==================================================================
~Ascii
# ...
 1241.3021240  -999.250000 17.954999924 0.0129927890  -999.250000 0.5254884958 2.0059783459 4.0427045822 83.996200562 149.12530518 0.7780023813 63.490596771 0.9000087976 0.9000087976
 1241.4544678  -999.250000 17.954000473 0.0349471159  -999.250000 0.5374413133 2.0289447308 4.4310650826 79.250000000 149.50000000 0.7810000181 63.098941803 0.9110000134 0.9110000134
 1241.6069336  -999.250000 18.091999054 0.0549519621  -999.250000 0.5333100557 2.0409710407 4.9128422737 83.623245239 148.75059509 0.7910056114 62.706630707 0.9069799781 0.9069799781
 1241.7592773  -999.250000 18.326000214 0.0599879809  -999.250000 0.5069734454 2.0489807129 4.6077380180 81.438003540 149.50000000 0.7979999781 62.436649323 0.8820000291 0.8820000291
 1241.9117432  -999.250000 18.239999771 0.0340624526  -999.250000 0.4766827822 2.0440118313 4.0353760719 81.571006775 149.50000000 0.8150088191 62.436000824 0.8739960194 0.8739960194
 1242.0640869  -999.250000 17.934999466 0.0130504807  -999.250000 0.4509817362 2.0479905605 3.5342042446 91.563003540 149.50000000 0.8259999752 62.436000824 0.8690000176 0.8690000176
 1242.2165527  -999.250000 17.802000046 -0.000966373  -999.250000 0.4560476542 2.0420143604 3.5050673485 93.133659363 147.99920654 0.8460168242 62.430011749 0.8910216093 0.8910216093
 1242.3688965  -999.250000 17.811000824 -0.005987981  -999.250000 0.4785259068 2.0330216885 3.6067550182 103.93800354 147.00000000 0.8669999838 62.220504761 0.9179999828 0.9179999828
 1242.5213623  -999.250000 17.770999908 -0.006997598  -999.250000 0.5018540025 2.0280120373 3.6050047874 94.876853943 145.37420654 0.8740063906 62.011337280 1.0040688515 1.0040688515
 1242.6737061  -999.250000 17.763000488 -0.003009615  -999.250000 0.5254033804 2.0389735699 3.4374039173 97.188003540 144.37500000 0.8820000291 61.801502228 1.0900000334 1.0900000334
 1242.8261719  -999.250000 17.766000748 -0.000007206  -999.250000 0.5374311209 2.0529663563 3.2644155025 90.317512512 144.50019836 0.9030112028 61.503475189 1.1019310951 1.1019310951
 1242.9785156  -999.250000 17.781000137 0.0019951924  -999.250000 0.5147347450 2.0639734268 3.2759711742 95.938957214 144.75129700 0.9169967771 61.174526215 1.0159528255 1.0159528255
 1243.1309814  -999.250000 17.813999176 0.0059903925  -999.250000 0.4708255827 2.0709831715 3.4056875706 97.127655029 146.37530518 0.9130048156 60.845527649 0.9569984078 0.9569984078
 1243.2833252  -999.250000 17.781000137 0.0079951929  -999.250000 0.4499001503 2.0650143623 3.5735960007 100.44070435 146.74920654 0.9189976454 60.855979919 0.9550319910 0.9550319910
 1243.4356689  -999.250000 17.816999435 0.0070024040  -999.250000 0.4539301693 2.0520312786 3.6727621555 103.81300354 145.75000000 0.9160000086 61.249053955 0.9950000048 0.9950000048
 1243.5881348  -999.250000 17.940999985 0.0040072058  -999.250000 0.4715276659 2.0370359421 3.7508125305 105.43900299 145.37590027 0.9120023847 61.643367767 1.0320167542 1.0320167542
 1243.7404785  -999.250000 17.944999695 0.0030024038  -999.250000 0.4789422452 2.0330095291 3.8218293190 106.68800354 146.50000000 0.9150000215 61.994155884 1.0529999733 1.0529999733
 1243.8929443  -999.250000 18.038999557 0.0059927944  -999.250000 0.4629086554 2.0320024490 3.7172522545 112.00045013 147.99980164 0.9340112209 62.159736633 1.0359935760 1.0359935760
 1244.0452881  -999.250000 17.732999802 0.0109879803  -999.250000 0.4486143887 2.0409781933 3.3688390255 112.56300354 147.75000000 0.9480000138 62.324604034 1.0279999971 1.0279999971
 1244.1977539  -999.250000 17.620000839 0.0129951965  -999.250000 0.4405992031 2.0459880829 3.0986485481 118.80854797 148.12570190 0.9469968081 62.489738464 1.0590344667 1.0590344667
 1244.3500977  -999.250000 17.746999741 0.0100072110  -999.250000 0.4385049939 2.0499904156 2.9284086227 113.25000000 149.00000000 0.9430000186 61.952293396 1.1019999981 1.1019999981
 1244.5025635  -999.250000 17.878999710 0.0010216173  -999.250000 0.4453834295 2.0440142155 2.9200193882 111.42654419 148.12579346 0.9269871712 61.339981079 1.1139655113 1.1139655113
 1244.6549072  -999.250000 17.898000717 0.0010000000  -999.250000 0.4593563676 2.0410070419 2.8671274185 97.125000000 149.12500000 0.9110000134 60.729469299 1.0709999800 1.0709999800
 1244.8073730  -999.250000 17.830999374 0.0039927945  -999.250000 0.4896770716 2.0380072594 2.8679976463 86.308494568 150.12580872 0.9009863734 61.077438354 1.0339711905 1.0339711905
 1244.9597168  -999.250000 17.847999573 0.0099855764  -999.250000 0.5242668390 2.0389976501 2.8650071621 80.694961548 151.12550354 0.8839848042 61.996788025 0.9979776144 0.9979776144
 1245.1121826  -999.250000 17.944999695 0.0080048041  -999.250000 0.5500082374 2.0350096226 2.9597718716 89.377807617 151.75030518 0.8649871945 62.919525146 0.9699992537 0.9699992537
 1245.2645264  -999.250000 17.843999863 0.0109927887  -999.250000 0.5432065129 2.0399880409 3.0916826725 92.877204895 152.12449646 0.8489879966 63.304382324 0.9689855576 0.9689855576
 1245.4168701  -999.250000 17.847999573 0.0090064043  -999.250000 0.5304709077 2.0360128880 3.2475004196 95.625000000 151.50000000 0.8339999914 62.674522400 0.9509999752 0.9509999752
 1245.5693359  -999.250000 17.844999313 0.0189759601  -999.250000 0.5110467076 2.0360000134 3.2390217781 94.187202454 151.37550354 0.8299951553 62.044010162 0.9330024123 0.9330024123
 1245.7216797  -999.250000 17.889999390 0.0170048084  -999.250000 0.4889930189 2.0270216465 3.1352500916 93.188003540 152.00000000 0.8240000010 61.434463501 0.9359999895 0.9359999895
 1245.8741455  -999.250000 17.847000122 0.0239831861  -999.250000 0.4715219140 2.0359783173 3.0751440525 96.184951782 152.00059509 0.8089888096 61.123497009 0.9570168257 0.9570168257
 1246.0264893  -999.250000 17.892999649 0.0180144217  -999.250000 0.4739041328 2.0369975567 3.1149039268 92.375000000 152.75000000 0.7950000167 60.813743591 0.9779999852 0.9779999852
 1246.1789551  -999.250000 17.840000153 0.0199951958  -999.250000 0.4938420057 2.0469758511 3.1698679924 92.936050415 152.37528992 0.7789839506 60.503494263 0.9689799547 0.9689799547
 1246.3312988  -999.250000 17.799999237 0.0150120193  -999.250000 0.5126348138 2.0479977131 3.1719951630 90.500000000 152.75000000 0.7590000033 60.080017090 0.9440000057 0.9440000057
 1246.4837646  -999.250000 17.783000946 0.0130048040  -999.250000 0.5317740440 2.0509929657 3.1929495335 91.936553955 153.37559509 0.7439904213 59.623733521 0.9029663801 0.9029663801
 1246.6361084  -999.250000 17.837999344 0.0100072110  -999.250000 0.5544255376 2.0460119247 3.2109568119 90.125000000 154.12500000 0.7319999933 59.168094635 0.8610000014 0.8610000014
 1246.7885742  -999.250000 17.856000900 0.0109975981  -999.250000 0.5510283113 2.0460000038 3.1022617817 90.744239807 154.75050354 0.7219951749 58.727706909 0.8309959769 0.8309959769
 1246.9409180  -999.250000 17.832000732 0.0070096157  -999.250000 0.5180993080 2.0400142670 2.9533581734 83.564804077 155.37429810 0.7159960270 58.303020477 0.8260087967 0.8260087967
 1247.0933838  -999.250000 17.790000916 0.0060024019  -999.250000 0.5051908493 2.0370070934 2.9051153660 85.806343079 154.50000000 0.7109960318 57.878677368 0.8370224237 0.8370224237
 1247.2457275  -999.250000 17.797000885 0.0000144231  -999.250000 0.5086017251 2.0270240307 2.8970193863 77.503555298 154.50019836 0.7059983611 57.522571564 0.8650056124 0.8650056124
 1247.3980713  -999.250000 17.784000397 -0.000996797  -999.250000 0.5152885318 2.0210192204 2.8351986408 81.938003540 154.75000000 0.7039999962 57.407276154 0.8719999790 0.8719999790
 1247.5505371  -999.250000 17.790000916 -0.000002404  -999.250000 0.4982112348 2.0150144100 2.7222714424 82.504707336 155.37480164 0.7110072374 57.292182922 0.8639920354 0.8639920354
 1247.7028809  -999.250000 17.833000183 0.0029927886  -999.250000 0.4651395977 2.0209856033 2.6661345959 88.375000000 155.12500000 0.7200000286 57.177272797 0.8539999723 0.8539999723
 1247.8553467  -999.250000 17.777999878 0.0079879910  -999.250000 0.4455469549 2.0309758186 2.6410601139 85.248199463 154.49920654 0.7280032039 57.891853333 0.8600088358 0.8600088358
