# LAS format log file from PETREL
# Project units are specified as depth units
#==================================================================
~Version information
VERS.   2.0:
WRAP.   NO:
#==================================================================
~Well
STRT .m      399.05941772 :
STOP .m      2436.9521484 :
STEP .m     0.00000000 :
NULL .        -999.250000 :
COMP.           : COMPANY
WELL.  31/2-1   : WELL
FLD.            : FIELD
LOC.            : LOCATION
SRVC.           : SERVICE COMPANY
DATE.  2018-09-11 14:48:32   : Log Export Date {yyyy-MM-dd HH:mm:ss}
PROV.           : PROVINCE
UWI.   31/2-1   : UNIQUE WELL ID
API.            : API NUMBER
#==================================================================
~Curve
DEPT .m                   : DEPTH
Lithology_geolink ._      : Lithology_geolink
CALI .in                  : CALI
BS .in                    : BS
DRHO .g/cm3               : DRHO
NPHI .m3/m3               : NPHI
RHOB .g/cm3               : RHOB
GR .gAPI                  : GR
DTC .us/ft                : DTC
DTE .us/ft                : DTE
RDEP .ohm.m               : RDEP
SP .mV                    : SP
RSHA .ohm.m               : RSHA
RMED .ohm.m               : RMED
~Parameter
#==================================================================
~Ascii
# ...
 948.91857910  -999.250000 17.659099579 17.500000000 0.0083816573 0.5504102707 1.9398022890 38.167575836 159.53205872 159.45982361 1.0259146690 31.376676559 0.9596053958 0.9596053958
 949.07098389  -999.250000 17.840150833 17.500000000 0.0098454142 0.5695030093 1.9464024305 37.626808167 159.42504883 159.33302307 1.0237008333 31.516994476 0.9491986632 0.9491986632
 949.22338867  -999.250000 17.779270172 17.500000000 0.0142270718 0.5727931261 1.9514919519 37.261943817 159.02763367 159.10827637 1.0215008259 32.304786682 0.9321083426 0.9321083426
 949.37579346  -999.250000 17.512720108 17.500000000 0.0149999997 0.5649018288 1.9444009066 38.104701996 158.98719788 159.10643005 1.0194008350 31.856050491 0.9149261713 0.9149261713
 949.52813721  -999.250000 17.301589966 17.500000000 0.0133099724 0.5670133829 1.9420919418 39.245155334 159.38308716 159.36151123 1.0174036026 31.153251648 0.9178017974 0.9178017974
 949.68054199  -999.250000 17.170589447 17.500000000 0.0130000003 0.5835136771 1.9297028780 40.450233459 159.68486023 159.69476318 1.0174999237 30.485563278 0.9263914227 0.9263914227
 949.83294678  -999.250000 17.159599304 17.500000000 0.0130000003 0.6009991765 1.9207091331 41.187698364 160.05949402 160.09547424 1.0175999403 29.979455948 0.9349838495 0.9349838495
 949.98535156  -999.250000 17.159299850 17.500000000 0.0155350426 0.5998936892 1.9231960773 41.471435547 160.58738708 160.52363586 1.0177010298 29.503297806 0.9337988496 0.9337988496
 950.13775635  -999.250000 17.158390045 17.500000000 0.0151549857 0.5912060142 1.9188957214 41.648677826 160.89157104 160.87831116 1.0196992159 29.307621002 0.9299116731 0.9299116731
 950.29016113  -999.250000 17.141189575 17.500000000 0.0099299159 0.5998914242 1.9101065397 41.681129456 161.19546509 161.18800354 1.0221980810 29.290891647 0.9390813112 0.9390813112
 950.44256592  -999.250000 17.128030777 17.500000000 0.0064639421 0.5866838098 1.9140964746 41.491737366 161.49937439 161.48315430 1.0246980190 29.638826370 0.9299147129 0.9299147129
 950.59497070  -999.250000 17.176649094 17.500000000 0.0034637565 0.5607025027 1.9107012749 41.449264526 161.77069092 161.75959778 1.0272929668 30.645143509 0.9330957532 0.9330957532
 950.74737549  -999.250000 17.264629364 17.500000000 0.0021545857 0.5649027824 1.9107049704 41.967044830 162.03149414 161.97966003 1.0210045576 31.643608093 0.9332998395 0.9332998395
 950.89978027  -999.250000 17.317689896 17.500000000 0.0028454144 0.5699934959 1.9203970432 42.255496979 162.12905884 162.06188965 1.0127073526 32.171764374 0.9333999157 0.9333999157
 951.05218506  -999.250000 17.301940918 17.500000000 0.0055362433 0.5577043891 1.9228900671 42.043994904 162.02192688 161.95101929 1.0044063330 31.959154129 0.9336036444 0.9336036444
 951.20458984  -999.250000 17.239730835 17.500000000 0.0060000001 0.5627064109 1.9129040241 40.602546692 161.70121765 161.66482544 0.9986051321 30.564155579 0.9378942847 0.9378942847
 951.35699463  -999.250000 17.157840729 17.500000000 0.0043091713 0.5701056719 1.9125021696 39.857086182 161.29656982 161.26254272 0.9953017831 30.854969025 0.9380998611 0.9380998611
 951.50933838  -999.250000 17.089649200 17.500000000 0.0014649581 0.5768991113 1.9149969816 38.857830048 160.80558777 160.92407227 0.9920017123 31.741193771 0.9381848574 0.9381848574
 951.66174316  -999.250000 17.026290894 17.500000000 0.0026900282 0.5756952763 1.9137051105 37.686889648 160.79321289 160.90798950 0.9870060086 31.798089981 0.9198208451 0.9198208451
 951.81414795  -999.250000 17.008920670 17.500000000 0.0038450141 0.5695981979 1.9185990095 36.916519165 161.19059753 161.24913025 0.9833092690 31.365144730 0.9047269225 0.9047269225
 951.96655273  -999.250000 17.038230896 17.500000000 0.0056900280 0.5672060251 1.9228943586 37.516799927 161.79403687 161.80818176 0.9868975878 30.940174103 0.9047998190 0.9047998190
 952.11895752  -999.250000 17.080520630 17.500000000 0.0085350415 0.5756062269 1.9167963266 38.813030243 162.45686340 162.36439514 0.9904974699 30.075279236 0.9049001336 0.9049001336
 952.27136230  -999.250000 17.117820740 17.500000000 0.0056199436 0.5846058130 1.9075037241 39.574695587 162.79826355 162.69316101 0.9940973520 29.503252029 0.9053057432 0.9053057432
 952.42376709  -999.250000 17.141199112 17.500000000 0.0041549862 0.5935016274 1.9073051214 38.881378174 162.80929565 162.92756653 0.9976971745 29.935819626 0.9149926305 0.9149926305
 952.57617188  -999.250000 17.138879776 17.500000000 0.0183709934 0.5959861279 1.9154018164 38.274555206 163.31779480 163.12283325 1.0011955500 30.186050415 0.9246902466 0.9246902466
 952.72857666  -999.250000 17.103469849 17.500000000 0.0159275122 0.5721892715 1.9235936403 38.297882080 163.08489990 162.98759460 1.0017987490 30.473434448 0.9307916760 0.9307916760
 952.88098145  -999.250000 17.042860031 17.500000000 0.0133091714 0.5528057814 1.9174045324 37.783916473 162.59300232 162.66172791 1.0019998550 30.686994553 0.9308988452 0.9308988452
 953.03338623  -999.250000 16.969779968 17.500000000 0.0121545857 0.5639085174 1.9208965302 36.843238831 162.41188049 162.46112061 1.0020999908 30.289518356 0.9291000366 0.9291000366
 953.18579102  -999.250000 16.930009842 17.500000000 0.0111545855 0.5812150240 1.9175033569 37.136230469 162.41409302 162.41085815 1.0022999048 30.214891434 0.9241019487 0.9241019487
 953.33819580  -999.250000 16.943420410 17.500000000 0.0109999999 0.5986096859 1.9193153381 37.875270844 162.41650391 162.40859985 1.0029007196 30.221050262 0.9183028340 0.9183028340
 953.49060059  -999.250000 16.972110748 17.500000000 0.0194541439 0.6102954745 1.9388042688 38.828968048 162.41909790 162.44929504 1.0049991608 29.924840927 0.9121044278 0.9121044278
 953.64294434  -999.250000 16.983489990 17.500000000 0.0269150995 0.6045827270 1.9533903599 38.923053741 162.56217957 162.31684875 1.0071972609 28.053352356 0.9069170952 0.9069170952
 953.79534912  -999.250000 16.964780807 17.500000000 0.0296900272 0.5819832087 1.9560828209 38.818935394 161.81230164 161.81393433 1.0092983246 27.770925522 0.9171954989 0.9171954989
 953.94775391  -999.250000 16.939680099 17.500000000 0.0173247885 0.5590885878 1.9359081984 39.696098328 161.18531799 161.28811646 1.0114982128 28.686946869 0.9361665249 0.9361665249
 954.10015869  -999.250000 16.908779144 17.500000000 0.0116199441 0.5430009961 1.9245066643 40.064651489 160.95999146 161.15361023 1.0139991045 30.034692764 0.9363998175 0.9363998175
 954.25256348  -999.250000 16.883079529 17.500000000 0.0118450141 0.5444998741 1.9275058508 39.561580658 161.44369507 161.36492920 1.0167979002 30.493391037 0.9364999533 0.9364999533
 954.40496826  -999.250000 16.857379913 17.500000000 0.0145350415 0.5443030000 1.9381936789 39.380771637 161.59614563 161.52239990 1.0196977854 30.680267334 0.9365999699 0.9365999699
 954.55737305  -999.250000 16.815969467 17.500000000 0.0124649582 0.5492048860 1.9347963333 39.912326813 161.53543091 161.52195740 1.0222969055 30.965435028 0.9368064404 0.9368064404
 954.70977783  -999.250000 16.768400192 17.500000000 0.0060825320 0.5577046275 1.9260984659 39.835708618 161.47433472 161.47436523 1.0224000216 31.609159470 0.9483933449 0.9483933449
 954.86218262  -999.250000 16.762250900 17.500000000 0.0024637566 0.5661038756 1.9162008762 39.838031769 161.44281006 161.44479370 1.0226029158 32.099815369 0.9655671716 0.9655671716
 955.01458740  -999.250000 16.859489441 17.500000000 0.0020000001 0.5736982822 1.9100015163 39.709869385 161.44540405 161.50842285 1.0281957388 32.272857666 0.9478206038 0.9478206038
 955.16699219  -999.250000 17.052879333 17.500000000 0.0028454144 0.5700932741 1.9071030617 38.466197968 161.70719910 161.78030396 1.0355920792 32.053768158 0.9397101402 0.9397101402
 955.31939697  -999.250000 17.224159241 17.500000000 0.0046908287 0.5552945733 1.9106945992 37.323398590 162.24188232 161.99189758 1.0407840014 32.258174896 0.9375030994 0.9375030994
 955.47180176  -999.250000 17.301450729 17.500000000 0.0041545858 0.5488067865 1.9055030346 36.019001007 161.85295105 162.14196777 1.0305061340 32.063400269 0.9376000166 0.9376000166
