# LAS format log file from PETREL
# Project units are specified as depth units
#==================================================================
~Version information
VERS.   2.0:
WRAP.   NO:
#==================================================================
~Well
STRT .m      1309.8798828 :
STOP .m      4086.9138184 :
STEP .m     0.00000000 :
NULL .        -999.250000 :
COMP.           : COMPANY
WELL.  31/2-19 S   : WELL
FLD.            : FIELD
LOC.            : LOCATION
SRVC.           : SERVICE COMPANY
DATE.  2018-09-11 14:48:33   : Log Export Date {yyyy-MM-dd HH:mm:ss}
PROV.           : PROVINCE
UWI.   31/2-19 S   : UNIQUE WELL ID
API.            : API NUMBER
#==================================================================
~Curve
DEPT .m                   : DEPTH
Lithology_geolink ._      : Lithology_geolink
CALI .in                  : CALI
BS .in                    : BS
DRHO .g/cm3               : DRHO
NPHI .m3/m3               : NPHI
RHOB .g/cm3               : RHOB
GR .gAPI                  : GR
DTC .us/ft                : DTC
DTS .us/ft                : DTS
RDEP .ohm.m               : RDEP
SP .mV                    : SP
RSHA .ohm.m               : RSHA
RMIC .ohm.m               : RMIC
RMED .ohm.m               : RMED
~Parameter
#==================================================================
~Ascii
# ...
 2590.8024902 7.0000000000 12.400000572 12.250000954 0.0010290000 0.4388180077 2.2400000095 349.16122437 118.63899994 267.26092529 2.1240000725 154.93800354 2.0880000591 0.5300576687 2.0879871845
 2590.9548340 7.0000000000 12.369999886 12.250000954 -0.001090000 0.4317330122 2.2369999886 377.17611694 119.69400024 279.51269531 2.1229999065 154.31300354 2.0840001106 0.5491185784 2.0841698647
 2591.1074219 7.0000000000 12.390000343 12.250000954 -0.002056000 0.4513509870 2.2309999466 382.52954102 119.96700287 258.87420654 2.2039999962 154.56300354 2.1370000839 0.8977548480 2.1372644901
 2591.2597656 7.0000000000 12.387000084 12.250000954 0.0002430000 0.4691089988 2.2479999065 381.02642822 119.15799713 259.43804932 2.2869999409 154.00000000 2.1919999123 1.0547728539 2.1919183731
 2591.4121094 7.0000000000 12.392999649 12.250000954 0.0040980000 0.4566009939 2.2790000439 384.34866333 119.44000244 263.60931396 2.2560000420 154.87500000 2.1749999523 1.2142436504 2.1749293804
 2591.5644531 7.0000000000 12.417000771 12.250000954 0.0070560002 0.4562509954 2.3020000458 377.81549072 117.96299744 258.42532349 2.2360000610 154.87500000 2.1530001163 0.9781794548 2.1530096531
 2591.7167969 7.0000000000 12.423000336 12.250000954 0.0034439999 0.4349220097 2.2880001068 409.96777344 118.12800598 260.82028198 2.2290000916 155.00000000 2.1559998989 0.7238172889 2.1559486389
 2591.8693848 7.0000000000 12.421999931 12.250000954 0.0020310001 0.4366860092 2.2769999504 409.03665161 118.69999695 256.16946411 2.2100000381 154.62500000 2.1400001049 0.9783076644 2.1401348114
 2592.0217285 7.0000000000 12.425000191 12.250000954 0.0003070000 0.4245850146 2.2490000725 399.89266968 118.06999207 256.20693970 2.2420001030 155.18800354 2.1679999828 1.0425088406 2.1679663658
 2592.1740723 7.0000000000 12.430998802 12.250000954 -0.005234000 0.4342980087 2.2249999046 401.54232788 119.00000000 242.70967102 2.2339999676 155.50000000 2.1610000134 1.1468397379 2.1610159874
 2592.3264160 7.0000000000 12.494000435 12.250000954 -0.006195000 0.4509919882 2.2309999466 401.98059082 118.17900085 250.36334229 2.2320001125 155.25000000 2.1659998894 0.7863621712 2.1659390926
 2592.4790039 7.0000000000 12.454999924 12.250000954 -0.000084000 0.4495970011 2.2469999790 391.34606934 117.88900757 251.75979614 2.2200000286 155.31300354 2.1470000744 0.8971297741 2.1469230652
 2592.6313477 7.0000000000 12.319000244 12.250000954 0.0036210001 0.4365890026 2.2669999599 397.36929321 115.06300354 259.48361206 2.2000000477 154.81300354 2.1310000420 0.5105760098 2.1305391788
 2592.7836914 7.0000000000 12.244000435 12.250000954 0.0089119999 0.4085310102 2.2709999084 385.22650146 117.94599915 258.73620605 2.0920000076 155.50000000 2.0350000858 0.6313429475 2.0351090431
 2592.9360352 7.0000000000 12.147998810 12.250000954 0.0442150012 0.4025810063 2.2869999409 352.08831787 116.83499908 246.80529785 2.1370000839 155.25000000 2.0690000057 1.0484262705 2.0690641403
 2593.0886230 7.0000000000 12.107999802 12.250000954 0.0763989985 0.4057930112 2.2799999714 347.76177979 114.69499969 248.25062561 2.1760001183 155.43800354 2.0889999866 0.8736394048 2.0898318291
 2593.2409668 7.0000000000 12.114000320 12.250000954 0.0705510005 0.4142160118 2.2149999142 327.62930298 116.63700104 258.42666626 2.3619999886 155.12500000 2.2620000839 1.6250560284 2.2626338005
 2593.3933105 7.0000000000 12.141000748 12.250000954 0.0729010031 0.4300490022 2.2339999676 324.39016724 118.30400085 259.67501831 2.4849998951 154.75000000 2.3940000534 1.2211025953 2.3939647675
 2593.5456543 7.0000000000 12.435000420 12.250000954 0.0649800003 0.4247780144 2.2739999294 314.94415283 115.74600220 260.00448608 2.4790000916 155.56300354 2.3829998970 0.9408845901 2.3829421997
 2593.6979980 7.0000000000 12.331000328 12.250000954 0.0433420017 0.4157460034 2.3139998913 315.42739868 116.35700226 261.38558960 2.4370000362 155.56300354 2.3650000095 0.5938108563 2.3646860123
 2593.8505859 7.0000000000 12.276000023 12.250000954 0.0243110005 0.3884199858 2.2860000134 312.63647461 116.58799744 256.03359985 2.3239998817 154.87500000 2.2669999599 0.5358365774 2.2663798332
 2594.0029297 7.0000000000 12.439999580 12.250000954 0.0287149996 0.3836599886 2.2490000725 308.15518188 116.85198975 254.57731628 2.1879999638 155.18800354 2.1380000114 0.7086687684 2.1374433041
 2594.1552734 7.0000000000 12.505998611 12.250000954 0.0495989993 0.4405579865 2.2290000916 328.87374878 117.25100708 251.99513245 2.0669999123 155.43800354 2.0220000744 0.6402435899 2.0220513344
 2594.3076172 7.0000000000 12.461001396 12.250000954 0.0670360029 0.4667659998 2.1700000763 316.46093750 118.15899658 251.80958557 2.0739998817 156.18800354 2.0380001068 0.7145416737 2.0381443501
 2594.4602051 7.0000000000 12.453000069 12.250000954 0.0615030006 0.5224949718 2.1419999599 319.92639160 118.31198883 238.89672852 2.1610000134 155.62500000 2.0829999447 0.2612259686 2.0835144520
 2594.6125488 7.0000000000 12.230999947 12.250000954 0.0471629985 0.4837160110 2.1619999409 314.41885376 118.93399811 256.17224121 2.3180000782 155.68800354 2.1900000572 0.3086960018 2.1900193691
 2594.7648926 7.0000000000 12.198999405 12.250000954 0.0288619995 0.4818939865 2.2369999886 333.96658325 118.74199677 237.73364258 2.3190000057 155.81300354 2.1940000057 0.4559487402 2.1940865517
 2594.9172363 7.0000000000 12.161001205 12.250000954 0.0095589999 0.4386869967 2.2790000439 362.65798950 117.97499847 243.90209961 2.3580000401 156.31300354 2.2209999561 1.3720320463 2.2210159302
 2595.0698242 7.0000000000 12.241999626 12.250000954 -0.008801000 0.4290190041 2.2630000114 362.08508301 115.85600281 241.95616150 2.3610000610 155.93800354 2.2260000706 1.0703653097 2.2265672684
 2595.2221680 7.0000000000 12.279000282 12.250000954 -0.014543000 0.4119670093 2.2679998875 339.75384521 115.20700073 229.98921204 2.4730000496 156.37500000 2.3440001011 0.9440928102 2.3447105885
 2595.3745117 7.0000000000 12.255999565 12.250000954 -0.020372000 0.4035199881 2.2730000019 336.00894165 114.75900269 232.98814392 2.5869998932 155.81300354 2.4920001030 2.0021154881 2.4924936295
 2595.5268555 7.0000000000 11.970000267 12.250000954 -0.012326000 0.4199759960 2.2769999504 329.78298950 115.18099976 236.79888916 2.7579998970 156.68800354 2.6459999084 2.6595354080 2.6467595100
 2595.6791992 7.0000000000 12.457999229 12.250000954 -0.007301000 0.4403080046 2.2390000820 326.32904053 115.55000305 241.93751526 3.0160000324 156.56300354 2.8829998970 2.5141956806 2.8833684921
 2595.8317871 7.0000000000 12.465999603 12.250000954 -0.003986000 0.4495500028 2.2009999752 327.06280518 115.48300171 243.45059204 3.1280000210 156.50000000 2.9979999065 2.2615239620 2.9976584911
 2595.9841309 7.0000000000 12.450999260 12.250000954 -0.001296000 0.4625509977 2.2019999027 323.56362915 117.51599884 252.75506592 3.0940001011 156.81300354 2.9270000458 1.7423855066 2.9255745411
 2596.1364746 7.0000000000 12.369999886 12.250000954 0.0039969999 0.4533019960 2.2430000305 332.62445068 118.76699829 250.58750916 2.7980000973 156.25000000 2.6300001144 0.3717544079 2.6294906139
 2596.2888184 7.0000000000 12.340999603 12.250000954 0.0021939999 0.4506109953 2.2569999695 331.81564331 117.33599854 261.80895996 2.6380000114 156.12500000 2.4709999561 0.6070192456 2.4705095291
 2596.4414063 7.0000000000 12.385000229 12.250000954 -0.008656000 0.4360910058 2.2500000000 323.17984009 117.87599945 273.47631836 2.4590001106 156.25000000 2.3180000782 0.8163397908 2.3172740936
 2596.5937500 7.0000000000 12.388999939 12.250000954 -0.016152000 0.4434820116 2.2369999886 324.48089600 119.09600067 260.10247803 2.2909998894 155.87500000 2.1670000553 0.5600513220 2.1672832966
 2596.7460938 7.0000000000 12.378000259 12.250000954 -0.011677000 0.4544410110 2.2769999504 327.01895142 118.22499847 259.62072754 2.3299999237 155.87500000 2.2260000706 0.7210735679 2.2261891365
 2596.8984375 7.0000000000 12.378999710 12.250000954 -0.004803000 0.4562079906 2.2799999714 328.55905151 118.08200073 253.81564331 2.3800001144 155.25000000 2.2850000858 0.4251778722 2.2855770588
