# LAS format log file from PETREL
# Project units are specified as depth units
#==================================================================
~Version information
VERS.   2.0:
WRAP.   NO:
#==================================================================
~Well
STRT .m      452.86209106 :
STOP .m      2603.6831055 :
STEP .m     0.00000000 :
NULL .        -999.250000 :
COMP.           : COMPANY
WELL.  31/2-3   : WELL
FLD.            : FIELD
LOC.            : LOCATION
SRVC.           : SERVICE COMPANY
DATE.  2018-09-11 14:48:34   : Log Export Date {yyyy-MM-dd HH:mm:ss}
PROV.           : PROVINCE
UWI.   31/2-3   : UNIQUE WELL ID
API.            : API NUMBER
#==================================================================
~Curve
DEPT .m                   : DEPTH
Lithology_geolink ._      : Lithology_geolink
CALI .in                  : CALI
DRHO .g/cm3               : DRHO
NPHI .m3/m3               : NPHI
RHOB .g/cm3               : RHOB
GR .gAPI                  : GR
DTC .us/ft                : DTC
DTE .us/ft                : DTE
RDEP .ohm.m               : RDEP
SP .mV                    : SP
RSHA .ohm.m               : RSHA
RMED .ohm.m               : RMED
~Parameter
#==================================================================
~Ascii
# ...
 2596.2153320  -999.250000 4.6989998817 0.0350000001 -0.024410000 2.1870241165 52.550998688  -999.250000  -999.250000 2.4049999714 114.11499786  -999.250000 3.4200143814
 2596.3676758  -999.250000 4.6989998817 0.0389807709 -0.024300531 2.1830193996 52.553001404  -999.250000  -999.250000 2.4070000648 113.96199799  -999.250000 3.4180095196
 2596.5202637  -999.250000 4.6989998817 0.0340160280 -0.023971058 2.1879839897 52.555000305  -999.250000  -999.250000 2.4100000858 113.85099792  -999.250000 3.4150094986
 2596.6726074  -999.250000 4.6989998817 0.0310096145 -0.023780609 2.1889967918 52.646999359  -999.250000  -999.250000 2.4119999409 113.71399689  -999.250000 3.4120094776
 2596.8249512  -999.250000 4.6989998817 0.0270192008 -0.023282399 2.1850192547 52.873001099  -999.250000  -999.250000 2.4149999619 113.71499634  -999.250000 3.4100096226
 2596.9772949  -999.250000 4.6989998817 0.0180432685 -0.022603270 2.1790287495 53.793998718  -999.250000  -999.250000 2.4170000553 113.82700348  -999.250000 3.4070143700
 2597.1298828  -999.250000 4.6989998817 0.0150096146 -0.021872340 2.1710257530 53.757999420  -999.250000  -999.250000 2.4189999104 113.85299683  -999.250000 3.4050064087
 2597.2822266  -999.250000 4.6989998817 0.0149999997 -0.022767114 2.1660158634 52.534000397  -999.250000  -999.250000 2.4219999313 113.71800232  -999.250000 3.4020094872
 2597.4345703  -999.250000 4.6989998817 0.0189807992 -0.012310447 2.1699807644 52.180000305  -999.250000  -999.250000 2.4240000248 113.71800232  -999.250000 3.4000096321
 2597.5869141  -999.250000 4.6989998817 0.0299471151 -0.000058942 2.1759712696 53.085998535  -999.250000  -999.250000 2.4270000458 113.60299683  -999.250000 3.3950240612
 2597.7395020  -999.250000 4.6989998817 0.0439551286 0.0000000000 2.1859681606 54.334999084  -999.250000  -999.250000 2.4289999008 113.48699951  -999.250000 3.3840353489
 2597.8918457  -999.250000 4.6989998817 0.0539679490 0.0000000000 2.2188942432 53.938999176  -999.250000  -999.250000 2.4319999218 114.41899872  -999.250000 3.3720383644
 2598.0441895  -999.250000 4.6989998817 0.0211057682 0.0000000000 2.4044039249 54.058998108  -999.250000  -999.250000 2.4340000153 114.98500061  -999.250000 3.3600382805
 2598.1965332  -999.250000 4.6989998817 0.0001008000 0.0000000000 2.4995439053 53.237998962  -999.250000  -999.250000 2.4370000362 114.35900116  -999.250000 3.3470623493
 2598.3488770  -999.250000 4.6989998817 0.0000000000 0.0000000000 2.5000000000 53.305000305  -999.250000  -999.250000 2.4389998913 114.22299957  -999.250000 3.3370480537
 2598.5014648  -999.250000 4.6989998817 0.0000000000 0.0000000000 2.5000000000 54.064998627  -999.250000  -999.250000 2.4419999123 114.09999847  -999.250000 3.3360030651
 2598.6538086  -999.250000 4.6989998817 0.0009967949 0.0000000000 2.5000000000 55.060001373  -999.250000  -999.250000 2.4430000782 114.03399658  -999.250000 3.3359999657
 2598.8061523  -999.250000 4.6989998817 0.0000048000 0.0000000000 2.5000000000 55.562000275  -999.250000  -999.250000 2.4309999943 114.14199829  -999.250000 3.3359999657
 2598.9584961  -999.250000 4.6989998817 0.0000000000 0.0000000000 2.5000000000 54.624000549  -999.250000  -999.250000 2.4119999409 116.47200012  -999.250000 3.2971873283
 2599.1110840  -999.250000 4.6989998817 0.0000000000 0.0000000000 2.5000000000 49.893001556  -999.250000  -999.250000 2.2569999695 139.01600647  -999.250000 2.9660639763
 2599.2634277  -999.250000 4.6989998817 0.0000000000 0.0000000000 2.5000000000 19.038000107  -999.250000  -999.250000 1.7519999743 170.57400513  -999.250000 2.2961504459
 2599.4157715  -999.250000 4.6989998817 0.0000000000 0.0000000000 2.5000000000 2.5569999218  -999.250000  -999.250000 1.2230000496 179.90400696  -999.250000 1.3734399080
 2599.5681152  -999.250000 4.6989998817 0.0000000000 0.0000000000 2.5000000000 2.0920000076  -999.250000  -999.250000 1.0010000467 180.20300293  -999.250000 1.0684520006
 2599.7207031  -999.250000 4.6989998817 0.0000000000 0.0000000000 2.5000000000 1.9329999685  -999.250000  -999.250000 0.9860000014 180.27600098  -999.250000 1.0570321083
 2599.8730469  -999.250000 4.6989998817 0.0000000000 0.0000000000 2.5000000000 1.7730000019  -999.250000  -999.250000 0.9810000062 180.30499268  -999.250000 1.0460352898
 2600.0253906  -999.250000 4.6989998817 0.0000000000 0.0000000000 2.5000000000 1.6130000353  -999.250000  -999.250000 0.9810000062 180.31700134  -999.250000 1.0360320807
 2600.1777344  -999.250000 4.6989998817 0.0000000000 0.0000000000 2.5000000000 1.4539999962  -999.250000  -999.250000 0.9810000062 180.33000183  -999.250000 1.0260480642
 2600.3303223  -999.250000 4.6989998817 0.0000000000 0.0000000000 2.5000000000 1.2949999571  -999.250000  -999.250000 0.9810000062 180.34199524  -999.250000 1.0150352716
 2600.4826660  -999.250000 4.6989998817 0.0000000000 0.0000000000 2.5000000000 1.1959999800  -999.250000  -999.250000 0.9810000062 180.35499573  -999.250000 1.0050320625
 2600.6350098  -999.250000 4.6960000992 0.0000000000 0.0000000000 2.5000000000 1.1799999475  -999.250000  -999.250000 0.9810000062 180.36700439  -999.250000 0.9940353036
 2600.7873535  -999.250000 4.5960001945 0.0000000000 0.0000000000 2.5000000000 1.1640000343  -999.250000  -999.250000 0.9810000062  -999.250000  -999.250000 0.9850432277
 2600.9396973  -999.250000 3.7009999752 -0.003980769 -0.000776250 2.4611873627 1.1490000486  -999.250000  -999.250000 0.9810000062  -999.250000  -999.250000 0.9830095768
 2601.0922852  -999.250000 1.1210000515 -0.116637819 -0.023606602 1.3216633797 1.1330000162  -999.250000  -999.250000 0.9810000062  -999.250000  -999.250000 0.9849935770
 2601.2446289  -999.250000 0.0070000002 -0.245586544 -0.049487017 0.0291442312 1.1180000305  -999.250000  -999.250000 0.9810000062  -999.250000  -999.250000 0.9879903793
 2601.3969727  -999.250000 0.0000000000 -0.246995196 -0.049798898 0.0140528008 1.1019999981  -999.250000  -999.250000 0.9810000062  -999.250000  -999.250000 0.9899904132
 2601.5493164  -999.250000 0.0000000000 -0.246999994 -0.049800001 0.0140000004 1.0870000124  -999.250000  -999.250000 0.9810000062  -999.250000  -999.250000 0.9919903874
 2601.7019043  -999.250000 0.0000000000 -0.246999994 -0.049800001 0.0140000004 1.0720000267  -999.250000  -999.250000 0.9810000062  -999.250000  -999.250000 0.9949904084
 2601.8542480  -999.250000 0.0000000000 -0.246999994 -0.049800001 0.0140000004 1.0559999943  -999.250000  -999.250000 0.9810000062  -999.250000  -999.250000 0.9969935417
 2602.0065918  -999.250000 0.0000000000 -0.246999994 -0.049800001 0.0140000004 1.0410000086  -999.250000  -999.250000 0.9810000062  -999.250000  -999.250000 0.9999904037
 2602.1589355  -999.250000 0.0000000000 -0.246999994 -0.049800001 0.0140000004 1.0249999762  -999.250000  -999.250000 0.9810000062  -999.250000  -999.250000 1.0019903183
 2602.3115234  -999.250000 0.0000000000 -0.246999994 -0.049800001 0.0140000004 1.0099999905  -999.250000  -999.250000 0.9810000062  -999.250000  -999.250000 1.0049903393
 2602.4638672  -999.250000 0.0000000000 -0.246999994 -0.049800001 0.0140000004 0.9940000176  -999.250000  -999.250000 0.9819999933  -999.250000  -999.250000 1.0069935322
 2602.6162109  -999.250000 0.0000000000 -0.246999994 -0.049800001 0.0140000004 0.9789999723  -999.250000  -999.250000 0.9819999933  -999.250000  -999.250000 1.0099903345
 2602.7685547  -999.250000 0.0000000000 -0.246999994 -0.049800001 0.0140000004  -999.250000  -999.250000  -999.250000 0.9819999933  -999.250000  -999.250000 1.0119903088
 2602.9208984  -999.250000 0.0000000000 -0.246999994 -0.049800001 0.0140000004  -999.250000  -999.250000  -999.250000 0.9700000286  -999.250000  -999.250000 1.0139904022
 2603.0734863  -999.250000 0.0000000000 -0.246999994 -0.049800001 0.0140000004  -999.250000  -999.250000  -999.250000  -999.250000  -999.250000  -999.250000 1.0169903040
 2603.2258301  -999.250000 0.0000000000 -0.246999994 -0.049800001 0.0140000004  -999.250000  -999.250000  -999.250000  -999.250000  -999.250000  -999.250000  -999.250000
 2603.3781738  -999.250000 0.0000000000 -0.246999994 -0.049800001 0.0140000004  -999.250000  -999.250000  -999.250000  -999.250000  -999.250000  -999.250000  -999.250000
