# LAS format log file from PETREL
# Project units are specified as depth units
#==================================================================
~Version information
VERS.   2.0:
WRAP.   NO:
#==================================================================
~Well
STRT .m      326.13598633 :
STOP .m      1938.6804199 :
STEP .m     0.00000000 :
NULL .        -999.250000 :
COMP.           : COMPANY
WELL.  31/2-17 A   : WELL
FLD.            : FIELD
LOC.            : LOCATION
SRVC.           : SERVICE COMPANY
DATE.  2018-09-11 14:48:33   : Log Export Date {yyyy-MM-dd HH:mm:ss}
PROV.           : PROVINCE
UWI.   31/2-17 A   : UNIQUE WELL ID
API.            : API NUMBER
#==================================================================
~Curve
DEPT .m                   : DEPTH
Lithology_geolink ._      : Lithology_geolink
CALI .in                  : CALI
DRHO .g/cm3               : DRHO
RHOB .g/cm3               : RHOB
GR .gAPI                  : GR
DTC .us/ft                : DTC
RDEP .ohm.m               : RDEP
RMED .ohm.m               : RMED
~Parameter
#==================================================================
~Ascii
# ...
 865.02239990  -999.250000 8.6134996414 -1.004699945 2.2200000286 43.932498932 152.25840759 1.2412999868  -999.250000
 865.17480469  -999.250000 8.6134996414 -1.004699945 2.2200000286 45.538200378 152.25840759 1.2472000122  -999.250000
 865.32720947  -999.250000 8.6134996414 -1.004699945 2.2200000286 46.471199036 152.25840759 1.2516000271  -999.250000
 865.47961426  -999.250000 8.6134996414 -1.004699945 2.2200000286 43.077098846 152.25840759 1.2562999725  -999.250000
 865.63201904  -999.250000 8.6134996414 -1.004699945 2.2200000286 44.754398346 152.25840759 1.2612999678  -999.250000
 865.78442383  -999.250000 8.6134996414 -1.004699945 2.2200000286 46.794998169 152.25840759 1.2668000460  -999.250000
 865.93682861  -999.250000 8.6134996414 -1.004699945 2.2200000286 47.741100311 152.25840759 1.2728999853  -999.250000
 866.08923340  -999.250000 8.6134996414 -1.004699945 2.2200000286 46.764099121 152.25840759 1.2789000273  -999.250000
 866.24163818  -999.250000 8.6134996414 -1.004699945 2.2200000286 48.609798431 152.25840759 1.2813999653  -999.250000
 866.39404297  -999.250000 8.6134996414 -1.004699945 2.2200000286 49.344200134 152.25840759 1.2738000154  -999.250000
 866.54644775  -999.250000 8.6134996414 -1.004699945 2.2200000286 47.145900726 152.25840759 1.2497999668  -999.250000
 866.69879150  -999.250000 8.6134996414 -1.004699945 2.2200000286 45.790901184 152.25840759 1.2108000517  -999.250000
 866.85119629  -999.250000 8.6134996414 -1.004699945 2.2200000286 44.322101593 152.25840759 1.1670999527  -999.250000
 867.00360107  -999.250000 8.6134996414 -1.004699945 2.2200000286 46.520401001 152.25840759 1.1275999546  -999.250000
 867.15600586  -999.250000 8.6134996414 -1.004699945 2.2200000286 44.874000549 152.25840759 1.0939999819  -999.250000
 867.30841064  -999.250000 8.6134996414 -1.004699945 2.2200000286 48.546100616 152.25840759 1.0642999411  -999.250000
 867.46081543  -999.250000 8.6134996414 -1.004699945 2.2200000286 50.255901337 152.25840759 1.0369999409  -999.250000
 867.61322021  -999.250000 8.6134996414 -1.004699945 2.2200000286 51.865200043 152.25840759 1.0126999617  -999.250000
 867.76562500  -999.250000 8.6134996414 -1.004699945 2.2200000286 49.093299866 152.25840759 0.9919999838  -999.250000
 867.91802979  -999.250000 8.6134996414 -1.004699945 2.2200000286 48.923999786 152.25840759 0.9749000072  -999.250000
 868.07043457  -999.250000 8.6134996414 -1.004699945 2.2200000286 48.154399872 152.25840759 0.9635000229  -999.250000
 868.22283936  -999.250000 8.6134996414 -1.004699945 2.2200000286 49.010299683 152.25840759 0.9632999897  -999.250000
 868.37524414  -999.250000 8.6134996414 -1.004699945 2.2200000286 44.566200256 152.25840759 0.9756000042  -999.250000
 868.52764893  -999.250000 8.6134996414 -1.004699945 2.2200000286 43.409999847 152.25840759 0.9918000102  -999.250000
 868.68005371  -999.250000 8.6134996414 -1.004699945 2.2200000286 42.597400665 152.25840759 1.0025999546  -999.250000
 868.83239746  -999.250000 8.6134996414 -1.004699945 2.2200000286 47.286800385 152.25840759 1.0063999891  -999.250000
 868.98480225  -999.250000 8.6134996414 -1.004699945 2.2200000286 48.687301636 152.25840759 1.0069999695  -999.250000
 869.13720703  -999.250000 8.6134996414 -1.004699945 2.2200000286 50.231098175 152.25840759 1.0069999695  -999.250000
 869.28961182  -999.250000 8.6134996414 -1.004699945 2.2200000286 48.969001770 152.25840759 1.0069999695  -999.250000
 869.44201660  -999.250000 8.6134996414 -1.004699945 2.2200000286 47.884998322 152.25840759 1.0069999695  -999.250000
 869.59442139  -999.250000 8.6134996414 -1.004699945 2.2200000286 43.654399872 152.25840759 1.0069999695  -999.250000
 869.74682617  -999.250000 8.6134996414 -1.004699945 2.2200000286 43.164699554 152.25840759 1.0069999695  -999.250000
 869.89923096  -999.250000 8.6134996414 -1.004699945 2.2200000286 42.815601349 152.25840759 1.0069999695  -999.250000
 870.05163574  -999.250000 8.6134996414 -1.004699945 2.2200000286 42.600498199 152.25840759 1.0069999695  -999.250000
 870.20404053  -999.250000 8.6134996414 -1.004699945 2.2200000286 45.048599243 152.25840759 1.0069999695  -999.250000
 870.35644531  -999.250000 8.6134996414 -1.004699945 2.2200000286 47.080299377 152.25840759 1.0069999695  -999.250000
 870.50885010  -999.250000 8.6134996414 -1.004699945 2.2200000286 48.793899536 152.25840759 1.0069999695  -999.250000
 870.66125488  -999.250000 8.6134996414 -1.004699945 2.2200000286 47.288799286 152.25840759 1.0069999695  -999.250000
 870.81365967  -999.250000 8.6134996414 -1.004699945 2.2200000286 47.460300446 152.25840759 1.0069999695  -999.250000
 870.96594238  -999.250000 8.6134996414 -1.004699945 2.2200000286 49.625598907 152.25840759 1.0068999529  -999.250000
 871.11834717  -999.250000 8.6134996414 -1.004699945 2.2200000286 49.154899597 152.25840759 1.0063002110  -999.250000
 871.27075195  -999.250000 8.6134996414 -1.004699945 2.2200000286 50.379001617 152.25840759 1.0051004887  -999.250000
 871.42315674  -999.250000 8.6134996414 -1.004699945 2.2200000286 49.646198273 152.25840759 1.0034006834  -999.250000
 871.57556152  -999.250000 8.6134996414 -1.004699945 2.2200000286 47.705101013 152.25840759 1.0016007423  -999.250000
 871.72796631  -999.250000 8.6134996414 -1.004699945 2.2200000286 43.083698273 152.25840759 0.9998007417  -999.250000
 871.88037109  -999.250000 8.6134996414 -1.004699945 2.2200000286 42.582199097 152.25840759 0.9980007410  -999.250000
 872.03277588  -999.250000 8.6134996414 -1.004699945 2.2200000286 44.050998688 152.25840759 0.9962007403  -999.250000
 872.18518066  -999.250000 8.6134996414 -1.004699945 2.2200000286 47.938098907 152.25840759 0.9943007827  -999.250000
 872.33758545  -999.250000 8.6134996414 -1.004699945 2.2200000286 45.997001648 152.25840759 0.9925007224  -999.250000
 872.48992920  -999.250000 8.6134996414 -1.004699945 2.2200000286 45.049800873 152.25840759 0.9906015396  -999.250000
 872.64233398  -999.250000 8.6134996414 -1.004699945 2.2200000286 42.112201691 152.25840759 0.9888014197  -999.250000
 872.79473877  -999.250000 8.6134996414 -1.004699945 2.2200000286 44.101398468 152.25840759 0.9868016243  -999.250000
 872.94714355  -999.250000 8.6134996414 -1.004699945 2.2200000286 43.579799652 152.25840759 0.9848007560  -999.250000
 873.09954834  -999.250000 8.6134996414 -1.004699945 2.2200000286 45.428298950 152.25840759 0.9830006957  -999.250000
 873.25195313  -999.250000 8.6134996414 -1.004699945 2.2200000286 50.616199493 152.25840759 0.9820004106  -999.250000
 873.40435791  -999.250000 8.6134996414 -1.004699945 2.2200000286 55.470500946 152.25840759 0.9838992357  -999.250000
 873.55676270  -999.250000 8.6134996414 -1.004699945 2.2200000286 55.580398560 152.25840759 0.9900975227  -999.250000
 873.70916748  -999.250000 8.6134996414 -1.004699945 2.2200000286 49.624500275 152.25840759 0.9994962215  -999.250000
 873.86157227  -999.250000 8.6134996414 -1.004699945 2.2200000286 49.498298645 152.25840759 1.0098999739  -999.250000
 874.01397705  -999.250000 8.6134996414 -1.004699945 2.2200000286 48.519100189 152.25840759 1.0202000141  -999.250000
 874.16638184  -999.250000 8.6134996414 -1.004699945 2.2200000286 51.490299225 152.25840759 1.0306999683  -999.250000
 874.31878662  -999.250000 8.6134996414 -1.004699945 2.2200000286 46.762199402 152.25840759 1.0413000584  -999.250000
 874.47119141  -999.250000 8.6134996414 -1.004699945 2.2200000286 46.027801514 152.25840759 1.0532000065  -999.250000
 874.62353516  -999.250000 8.6134996414 -1.004699945 2.2200000286 40.591400146 152.25840759 1.0671999454  -999.250000
 874.77593994  -999.250000 8.6134996414 -1.004699945 2.2200000286 44.302700043 152.25840759 1.0801999569  -999.250000
 874.92834473  -999.250000 8.6134996414 -1.004699945 2.2200000286 44.270198822 152.25840759 1.0887999535  -999.250000
 875.08074951  -999.250000 8.6134996414 -1.004699945 2.2200000286 47.784099579 152.25840759 1.0923000574  -999.250000
 875.23315430  -999.250000 8.6134996414 -1.004699945 2.2200000286 43.553501129 152.25840759 1.0930999517  -999.250000
