# LAS format log file from PETREL
# Project units are specified as depth units
#==================================================================
~Version information
VERS.   2.0:
WRAP.   NO:
#==================================================================
~Well
STRT .m      1309.8798828 :
STOP .m      4086.9138184 :
STEP .m     0.00000000 :
NULL .        -999.250000 :
COMP.           : COMPANY
WELL.  31/2-19 S   : WELL
FLD.            : FIELD
LOC.            : LOCATION
SRVC.           : SERVICE COMPANY
DATE.  2018-09-11 14:48:33   : Log Export Date {yyyy-MM-dd HH:mm:ss}
PROV.           : PROVINCE
UWI.   31/2-19 S   : UNIQUE WELL ID
API.            : API NUMBER
#==================================================================
~Curve
DEPT .m                   : DEPTH
Lithology_geolink ._      : Lithology_geolink
CALI .in                  : CALI
BS .in                    : BS
DRHO .g/cm3               : DRHO
NPHI .m3/m3               : NPHI
RHOB .g/cm3               : RHOB
GR .gAPI                  : GR
DTC .us/ft                : DTC
DTS .us/ft                : DTS
RDEP .ohm.m               : RDEP
SP .mV                    : SP
RSHA .ohm.m               : RSHA
RMIC .ohm.m               : RMIC
RMED .ohm.m               : RMED
~Parameter
#==================================================================
~Ascii
# ...
 1859.7392578 2.0000000000 12.144000053 12.250000954 -0.001396000 0.3139730096 2.1579999924 74.433746338 98.411231995 196.21250916 1.2410000563 189.25000000 1.0390000343 0.3640272319 1.0390000343
 1859.8917236 1.0000000000 12.258999825 12.250000954 -0.002282000 0.3452549875 2.1640000343 77.823410034 98.198173523 197.88365173 1.1540000439 190.12500000 0.9648529887 0.3979647756 0.9649999738
 1860.0440674 1.0000000000 12.265000343 12.250000954 -0.009922000 0.3564420044 2.1610000134 73.957603455 98.228973389 195.11122131 1.1369999647 190.62500000 0.9432770014 0.3759583235 0.9430000186
 1860.1965332 1.0000000000 12.269000053 12.250000954 -0.021307999 0.3517239988 2.1549999714 74.385574341 101.24858093 194.98410034 1.1490000486 190.00000000 0.9558979869 0.3240176141 0.9559999704
 1860.3488770 1.0000000000 12.295000076 12.250000954 -0.029689999 0.3128710091 2.1619999409 70.564369202 101.19204712 190.20083618 1.1670000553 190.31300354 0.9768750072 0.3350072205 0.9769999981
 1860.5013428 1.0000000000 12.310999870 12.250000954 -0.032019001 0.2802830040 2.1659998894 72.466835022 98.955795288 193.74316406 1.1920000315 190.62500000 1.0030000210 0.3439807892 1.0030000210
 1860.6536865 1.0000000000 12.305000305 12.250000954 -0.023452999 0.2564440072 2.1659998894 71.778793335 98.379455566 192.77677917 1.2089999914 190.50000000 1.0199999809 0.3320055902 1.0199999809
 1860.8060303 1.0000000000 12.270999908 12.250000954 -0.016266000 0.2694329917 2.1559998989 71.779983521 97.448493958 186.17359924 1.2159999609 190.37500000 1.0210000277 0.3389967978 1.0210000277
 1860.9584961 1.0000000000 12.260999680 12.250000954 -0.014197000 0.2826769948 2.1589999199 68.778060913 96.747558594 185.63142395 1.2220000029 190.37500000 1.0230000019 0.3350424767 1.0230000019
 1861.1108398 1.0000000000 12.149000168 12.250000954 -0.010784000 0.3011629879 2.1749999523 70.589660645 96.560295105 184.26119995 1.2209999561 190.68800354 1.0240000486 0.3880336285 1.0240000486
 1861.2633057 1.0000000000 12.076999664 12.250000954 -0.011583000 0.2845700085 2.1879999638 69.325111389 98.311599731 186.71702576 1.2439999580 191.12500000 1.0399999619 0.4300176501 1.0399999619
 1861.4156494 1.0000000000 12.076001167 12.250000954 -0.019917000 0.2927809954 2.1830000877 65.091011047 98.062400818 184.00135803 1.2480000257 189.93800354 1.0429999828 0.4519751668 1.0429999828
 1861.5681152 1.0000000000 12.069001198 12.250000954 -0.026342001 0.2893959880 2.1740000248 66.807037354 97.983062744 183.61230469 1.2489999533 190.93800354 1.0429999828 0.4209903777 1.0429999828
 1861.7204590 1.0000000000 12.083999634 12.250000954 -0.027729999 0.3002069890 2.1760001183 74.482154846 98.273765564 183.30624390 1.2439999580 190.68800354 1.0440000296 0.4089871943 1.0439840555
 1861.8729248 1.0000000000 12.069999695 12.250000954 -0.028155999 0.3007200062 2.1800000668 74.011016846 98.496826172 184.68389893 1.2209999561 190.62500000 1.0240000486 0.3929935992 1.0239920616
 1862.0252686 1.0000000000 12.078000069 12.250000954 -0.027736999 0.2953869998 2.1830000877 73.972145081 98.062347412 183.08528137 1.2109999657 190.87500000 1.0190000534 0.3889991939 1.0189976692
 1862.1777344 1.0000000000 12.074999809 12.250000954 -0.026334001 0.2884599864 2.1819999218 69.946937561 97.547409058 182.54643250 1.2029999495 190.93800354 1.0160000324 0.3879807889 1.0159856081
 1862.3300781 1.0000000000 12.076001167 12.250000954 -0.027797000 0.2675780058 2.1789999008 71.280593872 98.666107178 189.01882935 1.1979999542 191.00000000 1.0069999695 0.3760104179 1.0069952011
 1862.4825439 1.0000000000 12.082999229 12.250000954 -0.025906000 0.2630229890 2.1830000877 72.168159485 98.535110474 190.18606567 1.1870000362 191.18800354 1.0010000467 0.3890160024 1.0009984970
 1862.6348877 1.0000000000 12.071999550 12.250000954 -0.024435000 0.2684180140 2.1860001087 69.081420898 98.719856262 189.72836304 1.1820000410 190.93800354 0.9996340275 0.3990152180 1.0000040531
 1862.7872314 1.0000000000 12.097999573 12.250000954 -0.021372000 0.2807120085 2.1879999638 65.030242920 98.904701233 189.81185913 1.1859999895 191.06300354 1.0049999952 0.4180048108 1.0050008297
 1862.9396973 1.0000000000 12.104000092 12.250000954 -0.024838001 0.2981120050 2.1800000668 65.986091614 99.081855774 188.63996887 1.1900000572 191.43800354 1.0060000420 0.4239975810 1.0060088634
 1863.0920410 1.0000000000 12.131999969 12.250000954 -0.027174000 0.2962099910 2.1730000973 70.333526611 98.462989807 192.12440491 1.2000000477 190.93800354 1.0169999599 0.4210039973 1.0169935226
 1863.2445068 1.0000000000 12.121000290 12.250000954 -0.026422000 0.2956260145 2.1700000763 67.656829834 100.02474976 194.37519836 1.2000000477 190.68800354 1.0089999437 0.4259887934 1.0089951754
 1863.3968506 1.0000000000 12.135000229 12.250000954 -0.026782000 0.2851180136 2.1679999828 67.157958984 100.85766602 189.17933655 1.1879999638 190.93800354 1.0030000210 0.4119703770 1.0029959679
 1863.5493164 1.0000000000 12.142999649 12.250000954 -0.027812000 0.2830629945 2.1649999619 67.213768005 99.147377014 195.88061523 1.1799999475 190.81300354 0.9984319806 0.3749847710 0.9979944229
 1863.7016602 1.0000000000 12.168001175 12.250000954 -0.027982000 0.2722649872 2.1610000134 70.515716553 100.80966187 197.25090027 1.1670000553 190.68800354 0.9914759994 0.3559927940 0.9909871817
 1863.8541260 1.0000000000 12.161999702 12.250000954 -0.026815001 0.2776190042 2.1630001068 71.272018433 99.617958069 197.75061035 1.1490000486 190.18800354 0.9751399755 0.3470384479 0.9749823809
 1864.0064697 1.0000000000 12.164999008 12.250000954 -0.025734000 0.2769689858 2.1689999104 73.060813904 99.942741394 199.08993530 1.1390000582 189.93800354 0.9635819793 0.3710047901 0.9639895558
 1864.1589355 1.0000000000 12.164999008 12.250000954 -0.024139000 0.2897369862 2.1710000038 68.936599731 99.573295593 193.90914917 1.1219999790 191.06300354 0.9510729909 0.3770224154 0.9509759545
 1864.3112793 1.0000000000 12.189000130 12.250000954 -0.024985000 0.2876499891 2.1710000038 68.132164001 99.638946533 196.72874451 1.1119999886 190.25000000 0.9356819987 0.3910032213 0.9360095859
 1864.4637451 1.0000000000 12.239000320 12.250000954 -0.024600999 0.2892859876 2.1679999828 69.694961548 100.24851227 194.10310364 1.1269999743 190.06300354 0.9483579993 0.3949871957 0.9480016232
 1864.6160889 1.0000000000 12.258000374 12.250000954 -0.024274999 0.2829200029 2.1679999828 69.972900391 100.66266632 197.68013000 1.1310000420 190.12500000 0.9486219883 0.3869983852 0.9490039945
 1864.7684326 1.0000000000 12.267999649 12.250000954 -0.025973000 0.2768400013 2.1619999409 68.170257568 101.30197906 200.82496643 1.1390000582 190.31300354 0.9539359808 0.3849927783 0.9539936185
 1864.9208984 1.0000000000 12.258999825 12.250000954 -0.028819000 0.2819829881 2.1570000648 64.387176514 101.54080963 194.42813110 1.1280000210 190.37500000 0.9460409880 0.3759911656 0.9459919930
 1865.0732422 1.0000000000 12.265999794 12.250000954 -0.028724000 0.2850919962 2.1540000439 67.966545105 102.06216431 197.55895996 1.1150000095 190.25000000 0.9360280037 0.3649927974 0.9359823465
 1865.2257080 1.0000000000 12.265000343 12.250000954 -0.028279999 0.2894620001 2.1519999504 68.571624756 101.84017181 204.85615540 1.0930000544 191.12500000 0.9143850207 0.3560064137 0.9139911532
 1865.3780518 1.0000000000 12.258999825 12.250000954 -0.030611999 0.2949210107 2.1459999084 67.852897644 102.28628540 208.91749573 1.0839999914 190.87500000 0.9032260180 0.3640047908 0.9029855728
 1865.5305176 1.0000000000 12.266999245 12.250000954 -0.032221999 0.3074570000 2.1419999599 72.059082031 102.40290833 205.84747314 1.0599999428 191.25000000 0.8851270080 0.3699983954 0.8849855661
 1865.6828613 1.0000000000 12.270999908 12.250000954 -0.033941001 0.3204460144 2.1359999180 71.331993103 102.45396423 207.49166870 1.0509999990 191.37500000 0.8672400117 0.3680047989 0.8669903874
 1865.8353271 1.0000000000 12.296999931 12.250000954 -0.036784999 0.3247289956 2.1280000210 71.094940186 103.40123749 206.99539185 1.0360000134 191.75000000 0.8553490043 0.3739807904 0.8550016284
