# LAS format log file from PETREL
# Project units are specified as depth units
#==================================================================
~Version information
VERS.   2.0:
WRAP.   NO:
#==================================================================
~Well
STRT .m      326.13598633 :
STOP .m      1938.6804199 :
STEP .m     0.00000000 :
NULL .        -999.250000 :
COMP.           : COMPANY
WELL.  31/2-17 A   : WELL
FLD.            : FIELD
LOC.            : LOCATION
SRVC.           : SERVICE COMPANY
DATE.  2018-09-11 14:48:33   : Log Export Date {yyyy-MM-dd HH:mm:ss}
PROV.           : PROVINCE
UWI.   31/2-17 A   : UNIQUE WELL ID
API.            : API NUMBER
#==================================================================
~Curve
DEPT .m                   : DEPTH
Lithology_geolink ._      : Lithology_geolink
CALI .in                  : CALI
DRHO .g/cm3               : DRHO
RHOB .g/cm3               : RHOB
GR .gAPI                  : GR
DTC .us/ft                : DTC
RDEP .ohm.m               : RDEP
RMED .ohm.m               : RMED
~Parameter
#==================================================================
~Ascii
# ...
 429.76800537  -999.250000 8.6134996414 -1.004699945 2.2200000286 48.763198853 152.25840759 1.1691999435  -999.250000
 429.92041016  -999.250000 8.6134996414 -1.004699945 2.2200000286 51.205799103 152.25840759 1.1855000257  -999.250000
 430.07281494  -999.250000 8.6134996414 -1.004699945 2.2200000286 52.185001373 152.25840759 1.2114000320  -999.250000
 430.22521973  -999.250000 8.6134996414 -1.004699945 2.2200000286 51.165798187 152.25840759 1.2412999868  -999.250000
 430.37759399  -999.250000 8.6134996414 -1.004699945 2.2200000286 49.211799622 152.25840759 1.2740999460  -999.250000
 430.52999878  -999.250000 8.6134996414 -1.004699945 2.2200000286 48.722198486 152.25840759 1.3077000380  -999.250000
 430.68240356  -999.250000 8.6134996414 -1.004699945 2.2200000286 48.210700989 152.25840759 1.3335000277  -999.250000
 430.83480835  -999.250000 8.6134996414 -1.004699945 2.2200000286 48.246498108 152.25840759 1.3521000147  -999.250000
 430.98721313  -999.250000 8.6134996414 -1.004699945 2.2200000286 49.673500061 152.25840759 1.3515000343  -999.250000
 431.13955688  -999.250000 8.6134996414 -1.004699945 2.2200000286 49.448898315 152.25840759 1.2816280127  -999.250000
 431.29196167  -999.250000 8.6134996414 -1.004699945 2.2200000286 46.970600128 152.25840759 1.1538256407  -999.250000
 431.44436646  -999.250000 8.6134996414 -1.004699945 2.2200000286 44.074699402 152.25840759 1.0577192307  -999.250000
 431.59677124  -999.250000 8.6134996414 -1.004699945 2.2200000286 44.775398254 152.25840759 1.0234068632  -999.250000
 431.74917603  -999.250000 8.6134996414 -1.004699945 2.2200000286 46.133998871 152.25840759 1.0168013573  -999.250000
 431.90158081  -999.250000 8.6134996414 -1.004699945 2.2200000286 45.399600983 152.25840759 1.0159002542  -999.250000
 432.05398560  -999.250000 8.6134996414 -1.004699945 2.2200000286 47.847698212 152.25840759 1.0149002075  -999.250000
 432.20635986  -999.250000 8.6134996414 -1.004699945 2.2200000286 47.988201141 152.25840759 1.0112013817  -999.250000
 432.35876465  -999.250000 8.6134996414 -1.004699945 2.2200000286 47.498600006 152.25840759 1.0040013790  -999.250000
 432.51116943  -999.250000 8.6134996414 -1.004699945 2.2200000286 40.937000275 152.25840759 0.9951018095  -999.250000
 432.66357422  -999.250000 8.6134996414 -1.004699945 2.2200000286 41.461399078 152.25840759 0.9859018326  -999.250000
 432.81597900  -999.250000 8.6134996414 -1.004699945 2.2200000286 42.161701202 152.25840759 0.9768018723  -999.250000
 432.96838379  -999.250000 8.6134996414 -1.004699945 2.2200000286 44.561599731 152.25840759 0.9676018357  -999.250000
 433.12075806  -999.250000 8.6134996414 -1.004699945 2.2200000286 42.538101196 152.25840759 0.9586035609  -999.250000
 433.27316284  -999.250000 8.6134996414 -1.004699945 2.2200000286 44.793800354 152.25840759 0.9503033161  -999.250000
 433.42556763  -999.250000 8.6134996414 -1.004699945 2.2200000286 46.228000641 152.25840759 0.9445011616  -999.250000
 433.57797241  -999.250000 8.6134996414 -1.004699945 2.2200000286 47.727100372 152.25840759 0.9414005876  -999.250000
 433.73037720  -999.250000 8.6134996414 -1.004699945 2.2200000286 45.505401611 152.25840759 0.9395003319  -999.250000
 433.88278198  -999.250000 8.6134996414 -1.004699945 2.2200000286 48.233001709 152.25840759 0.9376000166  -999.250000
 434.03518677  -999.250000 8.6134996414 -1.004699945 2.2200000286 51.660198212 152.25840759 0.9351999760  -999.250000
 434.18756104  -999.250000 8.6134996414 -1.004699945 2.2200000286 52.884300232 152.25840759 0.9318000078  -999.250000
 434.33996582  -999.250000 8.6134996414 -1.004699945 2.2200000286 48.034400940 152.25840759 0.9276999831  -999.250000
 434.49237061  -999.250000 8.6134996414 -1.004699945 2.2200000286 43.627899170 152.25840759 0.9239000082  -999.250000
 434.64477539  -999.250000 8.6134996414 -1.004699945 2.2200000286 43.835300446 152.25840759 0.9221000075  -999.250000
 434.79718018  -999.250000 8.6134996414 -1.004699945 2.2200000286 47.744598389 152.25840759 0.9240999818  -999.250000
 434.94958496  -999.250000 8.6134996414 -1.004699945 2.2200000286 51.906299591 152.25840759 0.9290999770  -999.250000
 435.10198975  -999.250000 8.6134996414 -1.004699945 2.2200000286 53.412601471 152.25840759 0.9351000190  -999.250000
 435.25436401  -999.250000 8.6134996414 -1.004699945 2.2200000286 50.573101044 152.25840759 0.9411000013  -999.250000
 435.40676880  -999.250000 8.6134996414 -1.004699945 2.2200000286 47.635398865 152.25840759 0.9467999935  -999.250000
 435.55917358  -999.250000 8.6134996414 -1.004699945 2.2200000286 44.697700500 152.25840759 0.9524999857  -999.250000
 435.71157837  -999.250000 8.6134996414 -1.004699945 2.2200000286 44.071300507 152.25840759 0.9585000277  -999.250000
 435.86398315  -999.250000 8.6134996414 -1.004699945 2.2200000286 42.399600983 152.25840759 0.9666000009  -999.250000
 436.01638794  -999.250000 8.6134996414 -1.004699945 2.2200000286 45.337299347 152.25840759 0.9829999804  -999.250000
 436.16879272  -999.250000 8.6134996414 -1.004699945 2.2200000286 48.726100922 152.25840759 1.0116000175  -999.250000
 436.32116699  -999.250000 8.6134996414 -1.004699945 2.2200000286 50.152900696 152.25840759 1.0463000536  -999.250000
 436.47357178  -999.250000 8.6134996414 -1.004699945 2.2200000286 46.022701263 152.25840759 1.0762000084  -999.250000
 436.62597656  -999.250000 8.6134996414 -1.004699945 2.2200000286 44.758098602 152.25840759 1.0942000151  -999.250000
 436.77838135  -999.250000 8.6134996414 -1.004699945 2.2200000286 44.236099243 152.25840759 1.1023000479  -999.250000
 436.93078613  -999.250000 8.6134996414 -1.004699945 2.2200000286 43.470199585 152.25840759 1.1076999903  -999.250000
 437.08319092  -999.250000 8.6134996414 -1.004699945 2.2200000286 44.038799286 152.25840759 1.1129000187  -999.250000
 437.23559570  -999.250000 8.6134996414 -1.004699945 2.2200000286 43.091999054 152.25840759 1.1167999506  -999.250000
 437.38796997  -999.250000 8.6134996414 -1.004699945 2.2200000286 45.050498962 152.25840759 1.1152000427  -999.250000
 437.54037476  -999.250000 8.6134996414 -1.004699945 2.2200000286 43.091999054 152.25840759 1.1052000523  -999.250000
 437.69277954  -999.250000 8.6134996414 -1.004699945 2.2200000286 47.008899689 152.25840759 1.0923999548  -999.250000
 437.84518433  -999.250000 8.6134996414 -1.004699945 2.2200000286 45.122898102 152.25840759 1.0879000425  -999.250000
 437.99758911  -999.250000 8.6134996414 -1.004699945 2.2200000286 46.591701508 152.25840759 1.0952999592  -999.250000
 438.14999390  -999.250000 8.6134996414 -1.004699945 2.2200000286 47.815799713 152.25840759 1.1030999422  -999.250000
 438.30239868  -999.250000 8.6134996414 -1.004699945 2.2200000286 50.191398621 152.25840759 1.1010999680  -999.250000
 438.45477295  -999.250000 8.6134996414 -1.004699945 2.2200000286 47.988098145 152.25840759 1.0945999622  -999.250000
 438.60717773  -999.250000 8.6134996414 -1.004699945 2.2200000286 49.457000732 152.25840759 1.0940999985  -999.250000
 438.75958252  -999.250000 8.6134996414 -1.004699945 2.2200000286 47.269100189 152.25840759 1.1037000418  -999.250000
 438.91198730  -999.250000 8.6134996414 -1.004699945 2.2200000286 47.545398712 152.25840759 1.1183999777  -999.250000
 439.06439209  -999.250000 8.6134996414 -1.004699945 2.2200000286 43.347999573 152.25840759 1.1239000559  -999.250000
 439.21679688  -999.250000 8.6134996414 -1.004699945 2.2200000286 45.291000366 152.25840759 1.1159000397  -999.250000
 439.36917114  -999.250000 8.6134996414 -1.004699945 2.2200000286 47.384601593 152.25840759 1.1122000217  -999.250000
 439.52157593  -999.250000 8.6134996414 -1.004699945 2.2200000286 42.499401093 152.25840759 1.1241999865  -999.250000
 439.67398071  -999.250000 8.6134996414 -1.004699945 2.2200000286 41.307498932 152.25840759 1.1423000097  -999.250000
 439.82638550  -999.250000 8.6134996414 -1.004699945 2.2200000286 41.140899658 152.25840759 1.1572999954  -999.250000
 439.97879028  -999.250000 8.6134996414 -1.004699945 2.2200000286 43.583400726 152.25840759 1.1663999557  -999.250000
