# LAS format log file from PETREL
# Project units are specified as depth units
#==================================================================
~Version information
VERS.   2.0:
WRAP.   NO:
#==================================================================
~Well
STRT .m      399.05941772 :
STOP .m      2436.9521484 :
STEP .m     0.00000000 :
NULL .        -999.250000 :
COMP.           : COMPANY
WELL.  31/2-1   : WELL
FLD.            : FIELD
LOC.            : LOCATION
SRVC.           : SERVICE COMPANY
DATE.  2018-09-11 14:48:32   : Log Export Date {yyyy-MM-dd HH:mm:ss}
PROV.           : PROVINCE
UWI.   31/2-1   : UNIQUE WELL ID
API.            : API NUMBER
#==================================================================
~Curve
DEPT .m                   : DEPTH
Lithology_geolink ._      : Lithology_geolink
CALI .in                  : CALI
BS .in                    : BS
DRHO .g/cm3               : DRHO
NPHI .m3/m3               : NPHI
RHOB .g/cm3               : RHOB
GR .gAPI                  : GR
DTC .us/ft                : DTC
DTE .us/ft                : DTE
RDEP .ohm.m               : RDEP
SP .mV                    : SP
RSHA .ohm.m               : RSHA
RMED .ohm.m               : RMED
~Parameter
#==================================================================
~Ascii
# ...
 2162.6323242 6.0000000000 8.3088016510 8.5000000000 -0.006538461 0.3420023918 2.3987009525 70.998207092 92.270339966 92.252342224 1.9193999767 41.522174835 3.0232100487 3.0232100487
 2162.7846680 6.0000000000 8.3100023270 8.5000000000 0.0000688001 0.3449895084 2.4003949165 70.844009399 91.733200073 91.727111816 1.9203170538 41.080448151 3.0498640537 3.0498640537
 2162.9370117 6.0000000000 8.3113021851 8.5000000000 0.0010000000 0.3358832896 2.3963890076 70.115386963 91.196037292 91.190551758 1.9358830452 41.029556274 3.1288554668 3.1288554668
 2163.0893555 6.0000000000 8.3125000000 8.5000000000 -0.006600962 0.3248983026 2.3892979622 70.840049744 90.659790039 90.719886780 1.9513661861 41.405876160 3.2345263958 3.2345263958
 2163.2416992 6.0000000000 8.3138008118 8.5000000000 -0.008000000 0.3191024065 2.3816030025 69.901237488 90.387680054 90.561065674 1.9736562967 41.599678040 3.2308881283 3.2308881283
 2163.3942871 6.0000000000 8.3151016235 8.5000000000 -0.005465600 0.3228049874 2.3857018948 69.897010803 90.833442688 90.808341980 1.9948920012 41.603610992 3.1983070374 3.1983070374
 2163.5466309 6.0000000000 8.3163022995 8.5000000000 -0.002466346 0.3276912868 2.3879060745 69.326889038 91.190437317 91.034645081 2.0073869228 41.243160248 3.1741375923 3.1741375923
 2163.6989746 6.0000000000 8.3176002502 8.5000000000 0.0030673079 0.3214994073 2.3922009468 67.125793457 90.935836792 90.848434448 2.0211658478 40.672031403 3.1567378044 3.1567378044
 2163.8513184 6.0000000000 8.3188133240 8.5000000000 0.0065336539 0.3179025054 2.3977909088 65.950866699 90.351043701 90.636535645 2.0322751999 41.432651520 3.1139137745 3.1139137745
 2164.0039063 6.0000000000 8.3434505463 8.5000000000 -0.014119999 0.3226077855 2.3815960884 65.845359802 90.936187744 90.666404724 2.0399000645 42.707534790 3.1201519966 3.1201519966
 2164.1562500 6.0000000000 8.3992710114 8.5000000000 -0.017999999 0.3312017024 2.3768119812 65.144203186 90.451217651 90.614906311 2.0477159023 42.075923920 3.1844871044 3.1844871044
 2164.3085938 6.0000000000 8.4547271729 8.5000000000 -0.009554488 0.3325065970 2.3862199783 67.972724915 90.645645142 90.664878845 2.0665817261 41.355979919 3.2235631943 3.2235631943
 2164.4609375 6.0000000000 8.4711027145 8.5000000000 -0.001243590 0.3365033865 2.3984971046 70.122261047 90.935096741 90.931503296 2.0854587555 41.361900330 3.2626154423 3.2626154423
 2164.6135254 6.0000000000 8.4784002304 8.5000000000 -0.005076923 0.3448950946 2.3917090893 70.373130798 91.225563049 91.222091675 2.1044960022 42.295913696 3.3017919064 3.3017919064
 2164.7658691 6.0000000000 8.4778633118 8.5000000000 -0.006000000 0.3386008143 2.4035220146 71.994552612 91.515327454 91.465019226 2.1234030724 43.114032745 3.3408598900 3.3408598900
 2164.9182129 6.0000000000 8.4455833435 8.5000000000 -0.000088141 0.3393036127 2.4230899811 72.550300598 91.617332458 91.550239563 2.1422467232 42.567974091 3.3390848637 3.3390848637
 2165.0705566 6.0000000000 8.4339981079 8.5000000000 0.0035336539 0.3417012990 2.4164979458 74.212539673 91.466667175 91.513542175 2.1392071247 42.030582428 3.3268315792 3.3268315792
 2165.2229004 6.0000000000 8.4286966324 8.5000000000 0.0048445514 0.3463059068 2.4094030857 75.738838196 91.522918701 91.504119873 2.1339106560 42.500717163 3.3268997669 3.3268997669
 2165.3754883 6.0000000000 8.4232950211 8.5000000000 0.0058447998 0.3552963138 2.4132969379 74.495521545 91.521057129 91.497680664 2.1286010742 43.092067719 3.3270480633 3.3270480633
 2165.5278320 6.0000000000 8.4176588058 8.5000000000 0.0034663461 0.3516739011 2.4100100994 71.188659668 91.443229675 91.418518066 2.1249098778 42.251350403 3.2768166065 3.2768166065
 2165.6801758 6.0000000000 8.3881950378 8.5000000000 0.0004663462 0.3329001069 2.4170000553 70.697555542 91.284858704 91.279960632 2.1249997616 42.334293365 3.2670314312 3.2670314312
 2165.8325195 6.0000000000 8.3580904007 8.5000000000 -0.002533654 0.3339008093 2.4171950817 71.423629761 91.126159668 91.121261597 2.1251997948 42.154994965 3.3074061871 3.3074061871
 2165.9851074 6.0000000000 8.3404064178 8.5000000000 -0.002155200 0.3353982866 2.4078040123 72.018051147 90.967193604 90.962310791 2.1252999306 42.004104614 3.3276619911 3.3276619911
 2166.1374512 6.0000000000 8.3472089767 8.5000000000 0.0005336539 0.3335059881 2.4121050835 71.830322266 90.808761597 90.856994629 2.1254000664 41.951175690 3.3067090511 3.3067090511
 2166.2897949 6.0000000000 8.3541116714 8.5000000000 0.0018445514 0.3382118046 2.4162828922 69.579437256 90.864280701 90.979095459 2.1254997253 42.263031006 3.2976305485 3.2976305485
 2166.4421387 6.0000000000 8.3611030579 8.5000000000 0.0020000001 0.3453978896 2.4060020447 68.977699280 91.399909973 91.339393616 2.1255998611 42.487064362 3.3021955490 3.3021955490
 2166.5947266 6.0000000000 8.3680057526 8.5000000000 -0.000538462 0.3401041031 2.4112029076 68.103607178 91.705482483 91.402938843 2.1256999969 42.634326935 3.3228969574 3.3228969574
 2166.7470703 6.0000000000 8.3750076294 8.5000000000 -0.001000000 0.3454054892 2.4151089191 68.963256836 90.812858582 91.180297852 2.1257998943 42.700603485 3.3455080986 3.3455080986
 2166.8994141 6.0000000000 8.3819103241 8.5000000000 -0.000155449 0.3502058983 2.4231920242 69.838912964 91.420822144 91.190345764 2.1260395050 42.966449738 3.3722991943 3.3722991943
 2167.0517578 6.0000000000 8.3889017105 8.5000000000 -0.001689103 0.3540995121 2.4178969860 70.748565674 91.116653442 91.135948181 2.1531395912 43.333030701 3.4175972939 3.4175972939
 2167.2041016 6.0000000000 8.3960142136 8.5000000000 -0.006222757 0.3523980975 2.4083011150 74.037200928 90.909782410 90.965156555 2.1897294521 43.614273071 3.4700739384 3.4700739384
 2167.3566895 6.0000000000 8.4177246094 8.5000000000 -0.001086400 0.3494027853 2.4093060493 74.198440552 90.945686340 90.941299438 2.2262020111 43.456218719 3.4847209454 3.4847209454
 2167.5090332 6.0000000000 8.4417324066 8.5000000000 0.0109791672 0.3521955907 2.4152040482 74.484802246 90.981842041 90.977424622 2.2626745701 43.066368103 3.4218509197 3.4218509197
 2167.6613770 6.0000000000 8.4655027390 8.5000000000 0.0155336550 0.3489994109 2.4182000160 75.598594666 91.017959595 91.013542175 2.3124830723 42.768627167 3.4132184982 3.4132184982
 2167.8137207 6.0000000000 8.4827060699 8.5000000000 0.0100881411 0.3446978927 2.4192020893 74.109733582 91.054092407 91.049461365 2.3926343918 43.025360107 3.3909568787 3.3909568787
 2167.9663086 6.0000000000 8.4946107864 8.5000000000 0.0030864000 0.3405975997 2.4239110947 73.107116699 91.089401245 91.069396973 2.4730920792 43.656890869 3.3910288811 3.3910288811
 2168.1186523 6.0000000000 8.5065164566 8.5000000000 0.0087564103 0.3378789127 2.4363319874 71.809173584 91.060798645 90.835861206 2.5533208847 44.072025299 3.4245150089 3.4245150089
 2168.2709961 6.0000000000 8.5197324753 8.5000000000 0.0294246785 0.3210675120 2.4617669582 69.981819153 90.138099670 89.409263611 2.6334216595 43.970989227 3.5437490940 3.5437490940
 2168.4233398 6.0000000000 8.5391292572 8.5000000000 0.0591810904 0.3010956943 2.5027050972 66.301803589 86.287010193 86.057380676 2.7134177685 43.604461670 4.1105165482 4.1105165482
 2168.5759277 6.0000000000 8.6108446121 8.5000000000 0.0504615381 0.2903017104 2.5149919987 64.510742188 81.536125183 82.439445496 2.7749540806 43.441532135 5.1983718872 5.1983718872
 2168.7282715 6.0000000000 8.9301042557 8.5000000000 0.0353280008 0.2925075889 2.5039889812 62.812671661 80.479286194 81.580230713 2.7930729389 43.308540344 5.5127301216 5.5127301216
 2168.8806152 6.0000000000 8.9332637787 8.5000000000 0.0253990386 0.2992238104 2.4942219257 63.532993317 83.885551453 84.225196838 2.6984605789 43.072456360 4.6510977745 4.6510977745
 2169.0329590 6.0000000000 8.5759439468 8.5000000000 0.0071089747 0.3151040971 2.4420909882 66.560546875 88.684768677 88.227050781 2.5787758827 42.252071381 3.6854748726 3.6854748726
 2169.1853027 6.0000000000 8.3671674728 8.5000000000 -0.002756410 0.3302960098 2.4099929333 67.579467773 91.646347046 91.029754639 2.4587223530 41.511009216 3.2714340687 3.2714340687
