# LAS format log file from PETREL
# Project units are specified as depth units
#==================================================================
~Version information
VERS.   2.0:
WRAP.   NO:
#==================================================================
~Well
STRT .m      452.86209106 :
STOP .m      2603.6831055 :
STEP .m     0.00000000 :
NULL .        -999.250000 :
COMP.           : COMPANY
WELL.  31/2-3   : WELL
FLD.            : FIELD
LOC.            : LOCATION
SRVC.           : SERVICE COMPANY
DATE.  2018-09-11 14:48:34   : Log Export Date {yyyy-MM-dd HH:mm:ss}
PROV.           : PROVINCE
UWI.   31/2-3   : UNIQUE WELL ID
API.            : API NUMBER
#==================================================================
~Curve
DEPT .m                   : DEPTH
Lithology_geolink ._      : Lithology_geolink
CALI .in                  : CALI
DRHO .g/cm3               : DRHO
NPHI .m3/m3               : NPHI
RHOB .g/cm3               : RHOB
GR .gAPI                  : GR
DTC .us/ft                : DTC
DTE .us/ft                : DTE
RDEP .ohm.m               : RDEP
SP .mV                    : SP
RSHA .ohm.m               : RSHA
RMED .ohm.m               : RMED
~Parameter
#==================================================================
~Ascii
# ...
 1594.0330811 6.0000000000 12.939000130 0.0019919872 0.4047877789 2.1930608749 70.781997681 119.25119781 115.99494171 1.5160000324 35.901000977 2.4619998932 1.7678542137
 1594.1854248 6.0000000000 12.911999702 -0.002987990 0.4187365174 2.1810383797 69.953002930 119.60809326 116.27218628 1.4060000181 36.164001465 2.6719999313 1.8677598238
 1594.3378906 6.0000000000 12.861000061 -0.009988782 0.4185603261 2.1730256081 68.432998657 120.01421356 116.70413208 1.3339999914 36.384998322 2.7430000305 1.9338942766
 1594.4902344 6.0000000000 12.796999931 -0.010000000 0.4280670881 2.1710064411 66.585998535 120.57093048 117.29810333 1.3099999428 36.037998199 2.7820000648 1.9140480757
 1594.6427002 5.0000000000 12.753000259 -0.013993590 0.4424669445 2.1749904156 66.380996704 121.05182648 117.78188324 1.3070000410 35.651000977 2.6949999332 1.8680737019
 1594.7950439 5.0000000000 12.748999596 -0.009012009 0.4338907301 2.1879582405 67.698997498 121.10260773 117.79264069 1.2819999456 35.596000671 2.6219999790 1.8330839872
 1594.9475098 5.0000000000 12.732999802 -0.001012821 0.4239758849 2.1899952888 68.700996399 120.86549377 117.48829651 1.0559999943 35.664001465 2.6909999847 1.8290064335
 1595.0998535 5.0000000000 12.682000160 -0.005987991 0.4131360650 2.1929905415 69.083000183 120.57791138 117.31817627 1.2369999886 35.875000000 2.6740000248 1.8339879513
 1595.2523193 5.0000000000 12.631999016 -0.008995192 0.3953285515 2.1890094280 68.953002930 120.50502014 117.22943115 1.3120000362 36.104999542 2.6800000668 1.8250144720
 1595.4046631 5.0000000000 12.626999855 -0.009997598 0.3916587830 2.1790318489 68.652999878 120.44721222 117.15159607 1.3289999962 36.312000275 2.7520000935 1.8040504456
 1595.5571289 5.0000000000 12.621998787 -0.007004808 0.4036107957 2.1839880943 68.966003418 120.45587158 117.20046234 1.3539999723 36.298999786 2.8039999008 1.8040000200
 1595.7094727 5.0000000000 12.604000092 -0.008996795 0.4127054214 2.1879870892 68.983001709 120.56510162 117.21498871 1.3919999599 36.228000641 2.7249999046 1.8589118719
 1595.8618164 6.0000000000 12.601000786 -0.009000000 0.4053377807 2.1879999638 69.492996216 120.33003998 117.00736237 1.4340000153 36.361000061 2.7730000019 1.9956710339
 1596.0142822 6.0000000000 12.591000557 -0.006004808 0.3888165057 2.1929841042 70.547996521 119.80559540 116.48606110 1.4839999676 36.470001221 3.1219999790 2.1447610855
 1596.1666260 6.0000000000 12.550999641 -0.009990392 0.3845402002 2.2099454403 71.680000305 119.02162170 115.74225616 1.5199999809 36.412998199 3.3789999485 2.1998679638
 1596.3190918 6.0000000000 12.472000122 -0.015990386 0.3856981099 2.2209646702 72.610000610 118.23139191 114.98043060 1.5579999685 36.344001770 3.3619999886 2.1770370007
 1596.4714355 6.0000000000 12.382999420 -0.018992793 0.3903986812 2.2269806862 72.527000427 117.82397461 114.47232056 1.5909999609 36.395000458 3.1579999924 2.1440792084
 1596.6239014 6.0000000000 12.319999695 -0.017003207 0.4023907781 2.2210142612 72.169998169 117.64421082 114.34716797 1.6210000515 36.536998749 3.1080000401 2.1519870758
 1596.7762451 6.0000000000 12.289999962 -0.017997596 0.4051135182 2.2170128822 70.345001221 117.64253998 114.34262085 1.6349999905 36.486999512 3.3080000877 2.1929016113
 1596.9287109 6.0000000000 12.256999016 -0.018998398 0.4024742544 2.2140071392 68.565002441 117.64416504 114.32187653 1.6200000048 36.555000305 3.4230000973 2.1830160618
 1597.0810547 6.0000000000 12.216000557 -0.012016813 0.3988686800 2.2159936428 68.461997986 117.65486908 114.37612915 1.6009999514 37.101001740 3.4849998951 2.0812451839
 1597.2335205 5.0000000000 12.196999550 -0.004012821 0.3930593133 2.2279710770 69.377998352 117.88002777 114.57077026 1.5759999752 37.011001587 3.4639999866 1.9891474247
 1597.3858643 5.0000000000 12.196000099 -0.006992795 0.3959130943 2.2279999256 69.061996460 118.00162506 114.73478699 1.5599999428 36.409999847 3.3859999180 1.9660551548
 1597.5383301 5.0000000000 12.196000099 -0.005003205 0.4043664336 2.2220141888 68.649002075 117.94177246 114.64542389 1.5549999475 36.113998413 3.3480000496 1.9829727411
 1597.6906738 5.0000000000 12.197999954 -0.006996795 0.4087030292 2.2110352516 69.723999023 117.76484680 114.42248535 1.5449999571 36.071998596 3.4240000248 2.0079598427
 1597.8431396 5.0000000000 12.208000183 -0.010993595 0.3994249105 2.2010240555 70.497001648 117.46625519 114.18540192 1.5420000553 36.430999756 3.4969999790 2.0439422131
 1597.9954834 5.0000000000 12.236000061 -0.015991988 0.3903245628 2.1960160732 70.153999329 117.10980225 113.79795837 1.5529999733 36.856998444 3.3970000744 2.1049022675
 1598.1478271 5.0000000000 12.260999680 -0.016000001 0.3890031874 2.1989903450 69.002998352 116.58737946 113.29295349 1.5679999590 37.215000153 3.3489999771 2.1638584137
 1598.3002930 5.0000000000 12.283999443 -0.012006410 0.3938722014 2.2119581699 68.248001099 116.14140320 112.87023163 1.5950000286 37.118000031 3.4519999027 2.1829695702
 1598.4526367 5.0000000000 12.295999527 -0.008009608 0.4039058685 2.2239615917 69.051002502 115.85690308 112.50547791 1.6349999905 36.761001587 3.4679999352 2.1790094376
 1598.6051025 5.0000000000 12.295000076 -0.006003205 0.4118772447 2.2359712124 70.497001648 115.45388031 112.16400146 1.6699999571 36.466999054 3.5150001049 2.1889839172
 1598.7574463 6.0000000000 12.283999443 -0.007995197 0.4192323089 2.2459681034 72.513999939 115.02238464 111.76676178 1.7130000591 36.588001251 3.6410000324 2.2488560677
 1598.9099121 6.0000000000 12.258999825 -0.009996795 0.4146773219 2.2360241413 74.853996277 114.54685974 111.28790283 1.7489999533 37.004001617 3.7369999886 2.3308687210
 1599.0622559 6.0000000000 12.234999657 -0.011995196 0.4010528028 2.2350029945 76.152000427 114.08217621 110.78919983 1.7779999971 37.185001373 3.7569999695 2.4237766266
 1599.2147217 6.0000000000 12.208999634 -0.010003204 0.3943107724 2.2449758053 75.503997803 113.59268188 110.19937897 1.8090000153 37.083000183 3.7360000610 2.5278334618
 1599.3670654 6.0000000000 12.196000099 -0.008004804 0.3974523842 2.2539710999 73.094001770 112.93757629 109.64330292 1.8300000429 36.910999298 3.7699999809 2.6357405186
 1599.5195313 5.0000000000 12.196000099 -0.008998397 0.4079132080 2.2569928169 70.440002441 112.41317749 109.14145660 1.8480000496 36.757999420 3.7609999180 2.6849215031
 1599.6718750 5.0000000000 12.196000099 -0.007004804 0.4197515547 2.2619841099 69.253997803 111.82041931 108.52053070 1.8500000238 36.743999481 3.7009999752 2.5273795128
 1599.8243408 5.0000000000 12.196000099 -0.004004808 0.4228350818 2.2709782124 68.637001038 111.20622253 107.90624237 1.8400000334 37.020999908 3.6229999065 2.3073525429
 1599.9766846 5.0000000000 12.196000099 -0.005996795 0.4196650982 2.2789745331 67.886001587 110.84806824 107.47094727 1.8229999542 37.061000824 3.5429999828 2.1003315449
 1600.1290283 5.0000000000 12.196000099 -0.006000000 0.4215055704 2.2839839458 66.516998291 110.43223572 107.12270355 1.8070000410 36.863998413 3.5599999428 1.9832810163
 1600.2814941 2.0000000000 12.196000099 -0.006998398 0.4178259075 2.2879872322 64.375000000 109.76267242 106.50959015 1.8049999475 36.603000641 3.6240000725 1.9350768328
 1600.4338379 2.0000000000 12.196000099 -0.009992794 0.3963915706 2.2919871807 59.039001465 108.23873901 105.00308228 1.8159999847 36.342998505 3.8039999008 1.8781368732
 1600.5863037 2.0000000000 12.196000099 -0.007004808 0.3663780987 2.2999744415 53.721000671 104.20751953 100.91715240 1.8459999561 36.090999603 5.7729997635 1.9798365831
 1600.7386475 2.0000000000 12.196000099 -0.003009608 0.3196423948 2.3199357986 48.707000732 95.568977356 92.221244812 1.8780000210 35.842998505 20.429000854 2.4917678833
 1600.8911133 2.0000000000 12.192999840 -0.006993590 0.2534760237 2.3519229889 44.573001862 84.970069885 81.695419312 1.8869999647 35.599998474 62.292999268 3.7719471455
 1601.0434570 16.000000000 12.180999756 -0.010990392 0.1926561743 2.4068238735 41.835998535 76.849075317 73.538589478 1.8739999533 35.387001038 70.094001770 7.1259293556
 1601.1959229 16.000000000 12.156000137 -0.009003204 0.1529634744 2.4718437195 40.055000305 70.868736267 67.550361633 1.7419999838 35.186000824 57.618000031 14.362397194
