# LAS format log file from PETREL
# Project units are specified as depth units
#==================================================================
~Version information
VERS.   2.0:
WRAP.   NO:
#==================================================================
~Well
STRT .m      1309.8798828 :
STOP .m      4086.9138184 :
STEP .m     0.00000000 :
NULL .        -999.250000 :
COMP.           : COMPANY
WELL.  31/2-19 S   : WELL
FLD.            : FIELD
LOC.            : LOCATION
SRVC.           : SERVICE COMPANY
DATE.  2018-09-11 14:48:33   : Log Export Date {yyyy-MM-dd HH:mm:ss}
PROV.           : PROVINCE
UWI.   31/2-19 S   : UNIQUE WELL ID
API.            : API NUMBER
#==================================================================
~Curve
DEPT .m                   : DEPTH
Lithology_geolink ._      : Lithology_geolink
CALI .in                  : CALI
BS .in                    : BS
DRHO .g/cm3               : DRHO
NPHI .m3/m3               : NPHI
RHOB .g/cm3               : RHOB
GR .gAPI                  : GR
DTC .us/ft                : DTC
DTS .us/ft                : DTS
RDEP .ohm.m               : RDEP
SP .mV                    : SP
RSHA .ohm.m               : RSHA
RMIC .ohm.m               : RMIC
RMED .ohm.m               : RMED
~Parameter
#==================================================================
~Ascii
# ...
 2959.4582520 7.0000000000 12.635999680 12.250000954 -0.017222000 0.3318910003 2.4760000706 147.96577454 80.111999512 140.20446777 12.967000008 163.50000000 10.739999771 11.219906807 10.740920067
 2959.6105957 7.0000000000 12.715000153 12.250000954 -0.012381000 0.3439520001 2.4890000820 148.46121216 80.310997009 140.50550842 13.321999550 163.56300354 11.027000427 10.273750305 11.027298927
 2959.7629395 7.0000000000 12.789999962 12.250000954 -0.010571000 0.3405700028 2.4869999886 151.18725586 79.638000488 140.27275085 13.494000435 163.25000000 11.119999886 10.219927788 11.120579720
 2959.9155273 7.0000000000 12.793000221 12.250000954 -0.009193000 0.3382399976 2.4839999676 146.12913513 79.603996277 141.37222290 13.911999702 163.68800354 11.300999641 9.7432050705 11.311086655
 2960.0678711 7.0000000000 12.760000229 12.250000954 -0.008796000 0.3195390105 2.4769999981 148.40533447 79.625999451 141.99000549 17.313999176 163.56300354 13.399000168 2.3407692909 13.372695923
 2960.2202148 7.0000000000 12.732999802 12.250000954 -0.010742000 0.3330090046 2.4809999466 158.26617432 79.577003479 141.81329346 9.2849998474 163.75000000 7.9190001488 3.2761390209 7.9157309532
 2960.3725586 7.0000000000 12.641999245 12.250000954 -0.013773000 0.3301990032 2.4830000401 154.87792969 80.197998047 142.11303711 8.0659999847 163.68800354 6.8990001678 9.6628513336 6.8973464966
 2960.5251465 7.0000000000 12.601000786 12.250000954 -0.015628001 0.3471260071 2.4790000916 151.83985901 80.475997925 142.30468750 7.4400000572 163.75000000 6.3829998970 9.6263008118 6.3799324036
 2960.6774902 6.0000000000 12.600000381 12.250000954 -0.019611999 0.3492200077 2.4730000496 146.52651978 80.746002197 142.81118774 6.5320000648 163.62500000 5.7449998856 8.7177562714 5.7511630058
 2960.8298340 6.0000000000 12.600000381 12.250000954 -0.017601000 0.3711880147 2.4749999046 137.71212769 80.955001831 145.49868774 8.3649997711 164.25000000 7.0289998055 4.7892365456 7.0309324265
 2960.9821777 5.0000000000 12.664999962 12.250000954 -0.014082000 0.3587889969 2.4900000095 132.58641052 81.452003479 146.16287231 9.0920000076 164.62500000 7.6319999695 2.3648221493 7.6282114983
 2961.1347656 5.0000000000 12.730999947 12.250000954 -0.012195000 0.3444049954 2.5009999275 136.98191833 80.917999268 145.80058289 7.4060001373 163.87500000 6.4499998093 7.0751795769 6.4492306709
 2961.2871094 5.0000000000 12.736000061 12.250000954 -0.011920000 0.3394829929 2.5020000935 136.01457214 79.917999268 145.41661072 7.2430000305 163.87500000 6.2899999619 4.9639105797 6.2873744965
 2961.4394531 5.0000000000 12.706998825 12.250000954 -0.011662000 0.3597289920 2.5120000839 134.43553162 78.579002380 155.31311035 6.5069999695 164.00000000 5.7430000305 9.7095346451 5.7436251640
 2961.5917969 5.0000000000 12.631999016 12.250000954 -0.016440000 0.3664369881 2.5179998875 142.12565613 77.356002808 147.39872742 6.7989997864 164.43800354 5.9380002022 2.6631491184 5.9382276535
 2961.7441406 5.0000000000 12.595999718 12.250000954 -0.016533000 0.3431479931 2.5329999924 141.43225098 76.336006165 145.37644958 6.9460000992 164.56300354 6.0089998245 5.2249231339 6.0101728439
 2961.8967285 5.0000000000 12.608000755 12.250000954 -0.016582999 0.3168579936 2.5409998894 139.87550354 75.790000916 141.56211853 7.4340000153 164.37500000 6.3750000000 14.866262436 6.3763270378
 2962.0490723 5.0000000000 12.663000107 12.250000954 -0.018041000 0.3032830060 2.5380001068 138.40136719 75.434997559 141.86549377 7.7880001068 164.68800354 6.6510000229 3.7981216908 6.6500687599
 2962.2014160 5.0000000000 12.680999756 12.250000954 -0.016879000 0.3142949939 2.5290000439 130.03543091 77.051002502 139.18530273 7.5980000496 164.43800354 6.4569997787 11.723491669 6.4586887360
 2962.3537598 7.0000000000 12.434000969 12.250000954 -0.014206000 0.3291920125 2.5099999905 156.78408813 78.625999451 140.04920959 8.3750000000 164.56300354 6.9840002060 11.949316978 6.9863462448
 2962.5063477 7.0000000000 12.715999603 12.250000954 -0.015683999 0.3479639888 2.4890000820 156.22804260 79.737998962 145.40341187 9.3199996948 163.93800354 7.7160000801 10.776121140 7.7151346207
 2962.6586914 7.0000000000 12.727001190 12.250000954 -0.013677000 0.3448249996 2.4839999676 159.83021545 81.731002808 145.25624084 8.9930000305 163.37500000 7.5359997749 11.254410744 7.5354094505
 2962.8110352 7.0000000000 12.460000038 12.250000954 -0.013595000 0.3520199955 2.4730000496 162.98594666 82.969001770 147.52735901 8.7519998550 163.56300354 7.4130001068 10.390194893 7.4167723656
 2962.9633789 7.0000000000 12.651000023 12.250000954 -0.011582000 0.3492130041 2.4590001106 165.32250977 83.577003479 147.39842224 10.366999626 163.43800354 8.5900001526 10.735903740 8.5918941498
 2963.1159668 7.0000000000 12.623999596 12.250000954 -0.012422000 0.3823559880 2.4389998913 163.09858704 84.679000854 147.75244141 10.984999657 163.25000000 9.1809997559 11.769006729 9.1850957870
 2963.2683105 7.0000000000 12.633000374 12.250000954 -0.010222000 0.3771280050 2.4270000458 164.82522583 85.030998230 148.70747375 12.140999794 163.25000000 10.032999992 14.548045158 10.038779259
 2963.4206543 7.0000000000 12.658999443 12.250000954 -0.013614000 0.3797110021 2.4189999104 163.35934448 84.924003601 149.18423462 13.472000122 163.37500000 11.237000465 12.663652420 11.238990784
 2963.5729980 7.0000000000 12.656000137 12.250000954 -0.011820000 0.3461090028 2.4240000248 169.22857666 84.864997864 149.20297241 14.241000175 163.18800354 11.857999802 7.7972497940 11.857336044
 2963.7253418 7.0000000000 12.663000107 12.250000954 -0.009213000 0.3325099945 2.4460000992 167.83949280 84.429000854 150.52973938 13.899000168 163.68800354 11.651000023 7.8732161522 11.646426201
 2963.8779297 7.0000000000 12.678000450 12.250000954 -0.008638000 0.3317640126 2.4609999657 168.55584717 83.142997742 149.85009766 12.140999794 163.00000000 10.223999977 12.874685287 10.220942497
 2964.0302734 7.0000000000 12.694000244 12.250000954 -0.011315000 0.3389829993 2.4690001011 171.43437195 82.940002441 148.29748535 11.406000137 163.43800354 9.5880002975 11.117596626 9.5837039948
 2964.1826172 6.0000000000 12.670000076 12.250000954 -0.010070000 0.3438259959 2.4779999256 152.30770874 82.902000427 147.99449158 10.282999992 163.43800354 8.6929998398 10.590243340 8.6937437057
 2964.3349609 6.0000000000 12.637000084 12.250000954 -0.011099001 0.3279989958 2.4939999580 150.07406616 82.220001221 147.12777710 10.489000320 163.87500000 8.9250001907 10.628605843 8.9296255112
 2964.4875488 6.0000000000 12.666000366 12.250000954 -0.012824000 0.3436250091 2.5039999485 152.05180359 81.963996887 148.11940002 12.175000191 164.56300354 10.368000031 10.733096123 10.374321938
 2964.6398926 6.0000000000 12.708000183 12.250000954 -0.012545000 0.3582170010 2.5039999485 158.59950256 82.335998535 145.07389832 13.704000473 164.50000000 11.682999611 7.4620771408 11.681233406
 2964.7922363 6.0000000000 12.722999573 12.250000954 -0.012331000 0.3709580004 2.4939999580 149.37182617 81.767997742 147.87350464 13.048999786 164.75000000 11.314999580 2.7187855244 11.309124947
 2964.9445801 6.0000000000 12.722000122 12.250000954 -0.011806000 0.3667300045 2.4920001030 147.67440796 81.518997192 147.68661499 10.835000038 163.87500000 9.4820003510 10.449667931 9.4814167023
 2965.0971680 6.0000000000 12.723999023 12.250000954 -0.013214000 0.3559190035 2.4809999466 147.52923584 81.193000793 147.18180847 10.652000427 164.50000000 9.3000001907 10.768070221 9.2974042892
 2965.2495117 7.0000000000 12.730999947 12.250000954 -0.011397000 0.3503740132 2.4890000820 148.88282776 81.455001831 145.97393799 10.038999557 164.12500000 8.7600002289 6.6179294586 8.7588529587
 2965.4018555 7.0000000000 12.718999863 12.250000954 -0.012337000 0.3517040014 2.4820001125 153.79911804 81.399002075 144.55029297 9.7819995880 163.81300354 8.5209999084 10.333098412 8.5246410370
 2965.5541992 7.0000000000 12.694000244 12.250000954 -0.013487000 0.3538140059 2.4849998951 151.46076965 81.375999451 142.51226807 11.295999527 164.12500000 9.6569995880 11.279629707 9.6576185226
