# LAS format log file from PETREL
# Project units are specified as depth units
#==================================================================
~Version information
VERS.   2.0:
WRAP.   NO:
#==================================================================
~Well
STRT .m      416.08499146 :
STOP .m      2599.3679199 :
STEP .m     0.00000000 :
NULL .        -999.250000 :
COMP.           : COMPANY
WELL.  31/2-2 R   : WELL
FLD.            : FIELD
LOC.            : LOCATION
SRVC.           : SERVICE COMPANY
DATE.  2018-09-11 14:48:33   : Log Export Date {yyyy-MM-dd HH:mm:ss}
PROV.           : PROVINCE
UWI.   31/2-2 R   : UNIQUE WELL ID
API.            : API NUMBER
#==================================================================
~Curve
DEPT .m                   : DEPTH
Lithology_geolink ._      : Lithology_geolink
CALI .in                  : CALI
DRHO .g/cm3               : DRHO
NPHI .m3/m3               : NPHI
RHOB .g/cm3               : RHOB
GR .gAPI                  : GR
DTC .us/ft                : DTC
RDEP .ohm.m               : RDEP
SP .mV                    : SP
RSHA .ohm.m               : RSHA
RMED .ohm.m               : RMED
~Parameter
#==================================================================
~Ascii
# ...
 1869.5241699 2.0000000000 8.1949996948 -0.008000000 0.2748999894 2.1989998817 40.563373566 90.749046326 0.6700024009 32.961551666  -999.250000 0.9740320444
 1869.6765137 2.0000000000 8.1949996948 -0.008000000 0.2846699953 2.1909999847 40.724010468 92.185699463 0.6560224295 32.775299072  -999.250000 0.9270752668
 1869.8289795 2.0000000000 8.1949996948 -0.003000000 0.2978500128 2.1930000782 43.839645386 93.998550415 0.6440095901 33.711250305  -999.250000 0.8710448742
 1869.9813232 2.0000000000 8.1949996948 0.0020000001 0.2944300175 2.1860001087 42.029346466 96.747787476 0.6230168343 32.213203430  -999.250000 0.8140456676
 1870.1337891 2.0000000000 8.1949996948 0.0020000001 0.3129900098 2.1909999847 41.002403259 97.998992920 0.5970208049 31.088899612  -999.250000 0.7920176387
 1870.2861328 2.0000000000 8.2030000687 0.0010000000 0.3256800175 2.1819999218 42.001354218 100.74779510 0.5740184188 32.585800171  -999.250000 0.7840064168
 1870.4385986 2.0000000000 8.2030000687 -0.006000000 0.3466799855 2.1679999828 42.845729828 103.37290192 0.5480207801 32.961700439  -999.250000 0.7620176673
 1870.5909424 2.0000000000 8.2030000687 -0.002000000 0.3466799855 2.1480000019 43.563701630 103.56285095 0.5230200291 32.962001801  -999.250000 0.7380192280
 1870.7434082 2.0000000000 8.2030000687 -0.005000000 0.3432599902 2.1449999809 43.991893768 105.56140137 0.5070128441 33.586502075  -999.250000 0.7060256004
 1870.8957520 2.0000000000 8.2030000687 -0.006000000 0.3344699740 2.1429998875 40.627605438 105.74984741 0.4960088134 33.462100983  -999.250000 0.6780223846
 1871.0482178 2.0000000000 8.2030000687 -0.011000000 0.3237300217 2.1480000019 42.258705139 105.56315613 0.4880064130 32.525753021  -999.250000 0.6789992452
 1871.2005615 2.0000000000 8.2030000687 -0.007000000 0.3120099902 2.1459999084 45.875602722 105.18829346 0.4860016108 32.586952209  -999.250000 0.7039799690
 1871.3529053 2.0000000000 8.2030000687 -0.009000000 0.3115200102 2.1519999504 46.248748779 104.00189972 0.4889951944 33.335800171  -999.250000 0.7349503636
 1871.5053711 2.0000000000 8.2030000687 -0.005000000 0.3266600072 2.1600000858 45.461421967 103.18865204 0.4860024154 32.900352478  -999.250000 0.7529855967
 1871.6577148 2.0000000000 8.2030000687 -0.017999999 0.3403300047 2.1579999924 42.315002441 103.00028992 0.5009759665 33.149600983  -999.250000 0.7879439592
 1871.8101807 2.0000000000 8.2030000687 -0.011000000 0.3339799941 2.1679999828 43.561046600 102.56335449 0.5000007749 34.523899078  -999.250000 0.8199743629
 1871.9625244 2.0000000000 8.2030000687 -0.011000000 0.3203099966 2.1640000343 42.750049591 102.00090027 0.5029951930 33.089305878  -999.250000 0.8060224056
 1872.1149902 2.0000000000 8.1949996948 -0.005000000 0.3012700081 2.1579999924 42.781826019 102.18785095 0.5049983859 32.025852203  -999.250000 0.7770232558
 1872.2673340 2.0000000000 8.2030000687 -0.009000000 0.3251999915 2.1459999084 43.123096466 102.00015259 0.5099959970 31.650300980  -999.250000 0.7440264821
 1872.4197998 2.0000000000 8.2030000687 -0.013000000 0.3286100030 2.1480000019 41.934020996 102.18785095 0.5199919939 31.712947845  -999.250000 0.7100272179
 1872.5721436 2.0000000000 8.2340002060 -0.012000000 0.3388700187 2.1559998989 40.280246735 101.75034332 0.5279935598 31.463201523  -999.250000 0.7080016136
 1872.7246094 2.0000000000 8.2500000000 -0.007000000 0.3222700059 2.1719999313 39.814048767 101.74999237 0.5429880023 31.275150299  -999.250000 0.7139951587
 1872.8769531 2.0000000000 8.2580003738 -0.009000000 0.3203099966 2.1740000248 40.252704620 100.75080109 0.5489951968 32.024398804  -999.250000 0.7509703636
 1873.0294189 2.0000000000 8.2500000000 -0.002000000 0.2963899970 2.1949999332 41.937099457 100.00060272 0.5639880300 32.649501801  -999.250000 0.8439255357
 1873.1817627 2.0000000000 8.2500000000 -0.002000000 0.2836900055 2.2090001106 41.562747955 99.563354492 0.5809863210 33.399398804  -999.250000 0.9529126883
 1873.3341064 2.0000000000 8.2580003738 0.0140000004 0.2831999958 2.2249999046 41.405548096 98.751304626 0.5919823647 31.840499878  -999.250000 0.9450128078
 1873.4865723 2.0000000000 8.2580003738 0.0089999996 0.2876000106 2.2130000591 41.124401093 99.374504089 0.6029911637 31.525251389  -999.250000 0.8930416703
 1873.6389160 2.0000000000 8.2580003738 0.0049999999 0.3022499979 2.1949999332 40.874698639 99.562705994 0.6069936156 32.398601532  -999.250000 0.8900048137
 1873.7913818 2.0000000000 8.2580003738 -0.008000000 0.2939499915 2.1819999218 40.699630737 99.375160217 0.6010048389 32.586853027  -999.250000 0.9449559450
 1873.9437256 5.0000000000 8.2580003738 -0.007000000 0.2895500064 2.1909999847 45.536258698 99.375007629 0.5930128098 33.273899078  -999.250000 0.9909263253
 1874.0961914 5.0000000000 8.2659997940 -0.004000000 0.2744100094 2.1970000267 48.813674927 100.37419891 0.5969967842 33.212051392  -999.250000 0.9270512462
 1874.2485352 5.0000000000 8.2659997940 -0.002000000 0.2890599966 2.1930000782 49.086090088 101.56205750 0.6099895835 32.712402344  -999.250000 0.8180873394
 1874.4010010 5.0000000000 8.2580003738 -0.008000000 0.3046900034 2.1760001183 44.149620056 100.56380463 0.6279855967 33.274551392  -999.250000 0.7620448470
 1874.5533447 5.0000000000 8.2659997940 -0.017000001 0.2958999872 2.1819999218 41.501052856 100.00045013 0.6459856033 33.399902344  -999.250000 0.8589223027
 1874.7058105 5.0000000000 8.2580003738 -0.016000001 0.2758799791 2.1949999332 42.163127899 98.750999451 0.6849687696 33.524902344  -999.250000 0.9619175196
 1874.8581543 5.0000000000 8.2659997940 -0.002000000 0.2802700102 2.2269999981 45.133613586 98.563156128 0.7539446950 34.086551666  -999.250000 1.0149575472
 1875.0106201 5.0000000000 8.2500000000 -0.004000000 0.2963899970 2.2320001125 50.513809204 98.563003540 0.8319375515 33.525451660  -999.250000 1.0169984102
 1875.1629639 5.0000000000 8.2500000000 -0.005000000 0.2939499915 2.2660000324 56.258262634 96.751441956 0.9149335027 34.274398804  -999.250000 1.1938581467
 1875.3153076 6.0000000000 8.2500000000 -0.018999999 0.2963899970 2.2790000439 61.412952423 97.187301636 0.9798959494 34.960903168  -999.250000 1.4545820951
 1875.4677734 6.0000000000 8.2500000000 -0.011000000 0.2910200059 2.3199999332 65.747398376 95.001754761 1.0159711838 34.150653839  -999.250000 1.7897315025
 1875.6201172 6.0000000000 8.2419996262 -0.009000000 0.3164100051 2.3399999142 64.120193481 94.563705444 1.0419584513 34.649200439  -999.250000 2.0855259895
 1875.7725830 5.0000000000 8.2419996262 -0.002000000 0.3325199783 2.3459999561 61.117870331 96.748237610 1.0690000057 34.650001526  -999.250000 2.0450000763
 1875.9249268 5.0000000000 8.2340002060 -0.001000000 0.3510699868 2.3069999218 58.155849457 98.560096741 1.0750000477 34.400001526  -999.250000 1.7209999561
 1876.0773926 5.0000000000 8.2500000000 -0.004000000 0.3383800089 2.2579998970 58.057895660 100.37355042 1.0499999523 35.212001801  -999.250000 1.3539999723
 1876.2297363 5.0000000000 8.2969999313 -0.012000000 0.3178700209 2.2400000095 55.934894562 100.37500000 0.9959999919 34.962001801  -999.250000 1.3150000572
 1876.3822021 5.0000000000 8.2659997940 -0.016000001 0.3120099902 2.2620000839 53.987464905 99.188957214 0.9430000186 32.337001801  -999.250000 1.4589999914
 1876.5345459 5.0000000000 8.2659997940 -0.011000000 0.3007799983 2.2969999313 48.773838043 96.190406799 0.9240000248 32.337001801  -999.250000 1.5299999714
 1876.6870117 2.0000000000 8.2659997940 -0.011000000 0.3037100136 2.2990000248 44.305194855 93.565101624 0.9670000076 31.649999619  -999.250000 1.4029999971
 1876.8393555 2.0000000000 8.2810001373 -0.015000000 0.2900399864 2.2869999409 41.062900543 92.189102173 1.1200000048 32.962001801  -999.250000 1.2710000277
 1876.9918213 2.0000000000 8.3129997253 -0.024000000 0.2998000085 2.2909998894 41.000598907 90.751152039 1.2730000019 34.150001526  -999.250000 1.3109999895
 1877.1441650 2.0000000000 8.2889995575 -0.022000000 0.2548800111 2.3629999161 41.249599457 81.570373535 1.4559999704 34.212001801  -999.250000 1.5540000200
