# LAS format log file from PETREL
# Project units are specified as depth units
#==================================================================
~Version information
VERS.   2.0:
WRAP.   NO:
#==================================================================
~Well
STRT .m      443.33587646 :
STOP .m      1778.0548096 :
STEP .m     0.00000000 :
NULL .        -999.250000 :
COMP.           : COMPANY
WELL.  31/2-9   : WELL
FLD.            : FIELD
LOC.            : LOCATION
SRVC.           : SERVICE COMPANY
DATE.  2018-09-11 14:48:35   : Log Export Date {yyyy-MM-dd HH:mm:ss}
PROV.           : PROVINCE
UWI.   31/2-9   : UNIQUE WELL ID
API.            : API NUMBER
#==================================================================
~Curve
DEPT .m                   : DEPTH
Lithology_geolink ._      : Lithology_geolink
CALI .in                  : CALI
DRHO .g/cm3               : DRHO
SGR .gAPI                 : SGR
NPHI .m3/m3               : NPHI
RHOB .g/cm3               : RHOB
PEF .b/e                  : PEF
GR .gAPI                  : GR
DTC .us/ft                : DTC
RDEP .ohm.m               : RDEP
SP .mV                    : SP
RSHA .ohm.m               : RSHA
RMED .ohm.m               : RMED
~Parameter
#==================================================================
~Ascii
# ...
 798.73260498  -999.250000 14.675999641 0.0129975975  -999.250000 0.5508103967 1.7599920034 2.6148982048 32.687049866 160.12524414 1.1559944153 79.280960083 1.1879987717 1.1879987717
 798.88500977  -999.250000 14.694000244 0.0159975979  -999.250000 0.5615113974 1.7629976273 2.7788686752 30.311754227 160.75039673 1.1419951916 79.384918213 1.1849983931 1.1849983931
 799.03741455  -999.250000 14.713000298 0.0130024031  -999.250000 0.5554149151 1.7600023746 3.0977444649 27.202911377 161.75094604 1.1299996376 79.538879395 1.1809967756 1.1809967756
 799.18981934  -999.250000 14.717000008 0.0090032034  -999.250000 0.5346066952 1.7430136204 3.0020771027 26.983886719 164.12524414 1.1289999485 79.692878723 1.1729984283 1.1729984283
 799.34222412  -999.250000 14.666001320 0.0109983981  -999.250000 0.5209909081 1.7350064516 2.9800176620 26.704524994 164.75059509 1.1290031672 79.807907104 1.1689832211 1.1689832211
 799.49462891  -999.250000 14.831000328 0.0199927911  -999.250000 0.5202905536 1.7359991074 2.8870744705 28.610376358 165.49909973 1.1330103874 79.805999756 1.1479952335 1.1479952335
 799.64703369  -999.250000 15.477999687 0.0289927907  -999.250000 0.5310214162 1.7529864311 2.9239704609 30.327699661 164.37399292 1.1460120678 79.804000854 1.1420143843 1.1420143843
 799.79937744  -999.250000 14.953000069 0.0140180225  -999.250000 0.5376920104 1.7539987564 2.9020264149 29.952823639 163.12445068 1.1610064507 79.802001953 1.1600164175 1.1600164175
 799.95178223  -999.250000 14.960000038 0.0090060066  -999.250000 0.5297195911 1.7649867535 3.0697979927 29.515243530 161.74909973 1.1770156622 80.142585754 1.2010096312 1.2010096312
 800.10418701  -999.250000 14.895999908 0.0060036043  -999.250000 0.5135794282 1.7729903460 3.0699999332 27.625595093 159.49945068 1.2160191536 80.497573853 1.2250124216 1.2250124216
 800.25659180  -999.250000 14.829998970 0.0089963954  -999.250000 0.4977589846 1.7809903622 2.8832244873 29.109098434 158.12445068 1.2640228271 80.851570129 1.2560228109 1.2560228109
 800.40899658  -999.250000 14.769000053 0.0119963959  -999.250000 0.4949333668 1.7899891138 2.4824819565 29.361471176 156.74890137 1.3210252523 81.268493652 1.3130332232 1.3130332232
 800.56140137  -999.250000 14.717000008 0.0120000001  -999.250000 0.4962683916 1.8059808016 2.4430470467 35.530097961 153.99949646 1.3840291500 81.714462280 1.3960309029 1.3960309029
 800.71380615  -999.250000 14.734000206 0.0110008009  -999.250000 0.4955805540 1.8289815187 2.5878839493 33.281059265 152.74920654 1.4570292234 82.161643982 1.4730300903 1.4730300903
 800.86621094  -999.250000 14.727998734 0.0129983984  -999.250000 0.4857678711 1.8639719486 2.8847620487 33.435371399 150.74269104 1.5300176144 82.534706116 1.5480320454 1.5480320454
 801.01861572  -999.250000 14.713000298 0.0120008010  -999.250000 0.4745389819 1.8929767609 3.8062615395 26.875400543 132.50491333 1.5740052462 82.799789429 1.6280364990 1.6280364990
 801.17102051  -999.250000 14.713000298 0.0139983986  -999.250000 0.4637486339 1.9019927979 5.5925683975 27.875757217 144.75039673 1.5869971514 83.064788818 1.7190120220 1.7190120220
 801.32342529  -999.250000 14.680999756 0.0090040043  -999.250000 0.4607223868 1.8720240593 11.479282379 29.766550064 145.75160217 1.5799888372 83.258850098 1.7489566803 1.7489566803
 801.47583008  -999.250000 14.666999817 -0.002990389  -999.250000 0.4939333797 1.8130471706 24.942211151 30.453413010 147.74980164 1.5659855604 82.943252563 1.6948671341 1.6948671341
 801.62823486  -999.250000 15.166000366 -0.019986384  -999.250000 0.5435702205 1.7700344324 -371.1824646 30.964168549 147.50741577 1.5479807854 82.626251221 1.5288703442 1.5288703442
 801.78057861  -999.250000 16.760000229 -0.028989187  -999.250000 0.5627270341 1.7610108852 -275.8650513 24.938543320 156.75199890 1.5239888430 82.309379578 1.3669651747 1.3669651747
 801.93298340  -999.250000 17.843000412 -0.029998798  -999.250000 0.5433233976 1.7839723825 27.915723801 26.296918869 161.75024414 1.4959840775 82.071281433 1.2800055742 1.2800055742
 802.08538818  -999.250000 18.499000549 -0.046979573  -999.250000 0.5186696053 1.7969844341 6.3463850021 26.094512939  -999.250000 1.4559875727 81.848266602 1.2940204144 1.2940204144
 802.23779297  -999.250000 19.031999588 -0.048997596  -999.250000 0.4892553687 1.7999963760 3.7470948696 27.374830246  -999.250000 1.4249914885 81.625267029 1.3450103998 1.3450103998
 802.39019775  -999.250000 14.909999847 -0.038013216  -999.250000 0.4906183481 1.7920097113 2.7841546535 26.951959610  -999.250000 1.4039920568 81.350326538 1.3710060120 1.3710060120
 802.54260254  -999.250000 15.736000061 -0.010033640  -999.250000 0.5169283152 1.7929987907 2.9647812843 24.361026764  -999.250000 1.3839919567 81.032379150 1.3860116005 1.3860116005
 802.69500732  -999.250000 16.972000122 -0.004004808  -999.250000 0.5350654721 1.7920008898 2.9380216599 29.421781540  -999.250000 1.3639899492 80.715248108 1.4149955511 1.4149955511
 802.84741211  -999.250000 15.055000305 -0.006997597  -999.250000 0.5359392762 1.7929991484 2.9729719162 28.876108170  -999.250000 1.3389915228 80.387260437 1.4039756060 1.4039756060
 802.99981689  -999.250000 14.765999794 -0.006000801  -999.250000 0.5202325583 1.7810096741 2.7381880283 31.639837265  -999.250000 1.3179943562 80.031280518 1.3429623842 1.3429623842
 803.15222168  -999.250000 14.765999794 -0.007998399  -999.250000 0.5075701475 1.7590175867 2.5161778927 28.734413147  -999.250000 1.3039923906 79.676284790 1.2489823103 1.2489823103
 803.30462646  -999.250000 14.763999939 -0.007000801  -999.250000 0.5205395818 1.7360184193 2.4920194149 29.766632080  -999.250000 1.2849919796 79.321281433 1.2049944401 1.2049944401
 803.45703125  -999.250000 14.758001328 -0.011995995  -999.250000 0.5463093519 1.7250088453 2.4220559597 31.360870361  -999.250000 1.2649759054 79.198097229 1.1910111904 1.1910111904
 803.60943604  -999.250000 14.760000229 -0.014997597  -999.250000 0.5509262681 1.7230015993 2.4429831505 52.406898499  -999.250000 1.2349832058 79.075096130 1.2050160170 1.2050160170
 803.76184082  -999.250000 14.771999359 -0.014000801  -999.250000 0.5458041430 1.7319928408 2.3630640507 53.534877777  -999.250000 1.2139840126 78.953102112 1.2250032425 1.2250032425
 803.91418457  -999.250000 14.795000076 -0.013001202  -999.250000 0.5484168530 1.7379928827 2.3889687061 58.375740051  -999.250000 1.1939947605 79.099822998 1.2289996147 1.2289996147
 804.06658936  -999.250000 14.819000244 -0.011002403  -999.250000 0.5604555011 1.7380000353 2.4099748135 60.221343994  -999.250000 1.1809991598 79.353691101 1.2279956341 1.2279956341
 804.21899414  -999.250000 14.831999779 -0.017991589  -999.250000 0.5560253859 1.7250156403 2.4549458027 66.061737061  -999.250000 1.1789984703 79.606697083 1.2169964314 1.2169964314
 804.37139893  -999.250000 14.819998741 -0.018998798  -999.250000 0.5342162251 1.7210047245 2.5778522491 62.904071808  -999.250000 1.1749963760 79.765808105 1.2079919577 1.2079919577
 804.52380371  -999.250000 14.817999840 -0.018001201  -999.250000 0.5221844316 1.7259939909 2.6039688587 58.090950012  -999.250000 1.1659952402 79.802955627 1.1879907846 1.1879907846
 804.67620850  -999.250000 14.800000191 -0.016002404  -999.250000 0.5325874686 1.7289963961 2.7188618183 50.468299866  -999.250000 1.1539959908 79.838951111 1.1649955511 1.1649955511
 804.82861328  -999.250000 14.771999359 -0.018997595  -999.250000 0.5512949824 1.7210063934 2.6560504436 48.720741272  -999.250000 1.1439948082 79.839996338 1.1540032625 1.1540032625
 804.98101807  -999.250000 14.789000511 -0.016002404  -999.250000 0.5429267287 1.7249968052 2.6410119534 53.063976288  -999.250000 1.1309947968 79.646156311 1.1620028019 1.1620028019
 805.13342285  -999.250000 14.795000076 -0.013002403  -999.250000 0.5164113045 1.7289967537 2.6779704094 55.500263214  -999.250000 1.1179944277 79.452156067 1.1689935923 1.1689935923
 805.28582764  -999.250000 14.806000710 -0.007004806  -999.250000 0.5015019178 1.7339959145 2.6480240822 56.154659271  -999.250000 1.1039935350 79.257156372 1.1529955864 1.1529955864
