# LAS format log file from PETREL
# Project units are specified as depth units
#==================================================================
~Version information
VERS.   2.0:
WRAP.   NO:
#==================================================================
~Well
STRT .m      452.86209106 :
STOP .m      2603.6831055 :
STEP .m     0.00000000 :
NULL .        -999.250000 :
COMP.           : COMPANY
WELL.  31/2-3   : WELL
FLD.            : FIELD
LOC.            : LOCATION
SRVC.           : SERVICE COMPANY
DATE.  2018-09-11 14:48:34   : Log Export Date {yyyy-MM-dd HH:mm:ss}
PROV.           : PROVINCE
UWI.   31/2-3   : UNIQUE WELL ID
API.            : API NUMBER
#==================================================================
~Curve
DEPT .m                   : DEPTH
Lithology_geolink ._      : Lithology_geolink
CALI .in                  : CALI
DRHO .g/cm3               : DRHO
NPHI .m3/m3               : NPHI
RHOB .g/cm3               : RHOB
GR .gAPI                  : GR
DTC .us/ft                : DTC
DTE .us/ft                : DTE
RDEP .ohm.m               : RDEP
SP .mV                    : SP
RSHA .ohm.m               : RSHA
RMED .ohm.m               : RMED
~Parameter
#==================================================================
~Ascii
 452.86209106  -999.250000 19.285999298 0.0390000008 0.4021599889 2.0879693031 45.035999298 163.81785583 161.86480713 2.9560000896 26.160999298  -999.250000 3.0429999828
 453.01449585  -999.250000 18.604000092 0.0299999993 0.4003700018 2.0830090046 46.686000824 163.52401733 161.58425903 2.8369998932 26.159000397  -999.250000 2.9939999580
 453.16687012  -999.250000 18.308000565 0.0350000001 0.4019599855 2.0720219612 47.923999786 163.22184753 161.29666138 2.7650001049 26.156000137  -999.250000 2.9960000515
 453.31927490  -999.250000 18.368000031 0.0340000018 0.4005700052 2.0610220432 48.275001526 163.23870850 161.29595947 2.7300000191 26.153999329  -999.250000 3.0179998875
 453.47167969  -999.250000 18.770000458 0.0390000008 0.4042599797 2.0649919510 48.741001129 163.23838806 161.29541016 2.7079999447 26.150999069  -999.250000 3.0750000477
 453.62408447  -999.250000 19.499000549 0.0549999997 0.4193999767 2.0769758224 49.624000549 163.22254944 161.29484558 2.7030000687 26.149000168  -999.250000 3.1570000648
 453.77648926  -999.250000 19.957000732 0.0640000030 0.4256899953 2.0789959431 49.051998138 163.22184753 161.29434204 2.7060000896 26.145999908  -999.250000 3.2130000591
 453.92889404  -999.250000 19.860000610 0.0590000004 0.4245000184 2.0859873295 48.404998779 163.22254944 161.29380798 2.7269999981 26.143999100  -999.250000 3.2479999065
 454.08129883  -999.250000 19.618999481 0.0520000011 0.4286800027 2.1029694080 47.437000275 163.22184753 161.29325867 2.7760000229 26.135999680  -999.250000 3.2430000305
 454.23367310  -999.250000 19.458000183 0.0529999994 0.4333299994 2.1289479733 46.970001221 163.23870850 161.29270935 2.8259999752 26.122999191  -999.250000 3.1960000992
 454.38607788  -999.250000 19.332000732 0.0549999997 0.4328500032 2.1549479961 48.054000854 163.23838806 161.29216003 2.8550000191 26.107999802  -999.250000 3.1640000343
 454.53848267  -999.250000 19.139999390 0.0549999997 0.4397200048 2.1719658375 50.023998260 163.22254944 161.29165649 2.8800001144 26.093999863  -999.250000 3.1349999905
 454.69088745  -999.250000 18.900999069 0.0610000007 0.4518399835 2.1779880524 51.722000122 163.22184753 161.29113770 2.8829998970 26.079000473  -999.250000 3.1050000191
 454.84329224  -999.250000 18.708999634 0.0549999997 0.4652599990 2.1610341072 52.444999695 163.22254944 161.29058838 2.8829998970 26.065000534  -999.250000 3.0759999752
 454.99569702  -999.250000 18.552000046 0.0460000001 0.4897800088 2.1500198841 54.490001678 163.22184753 161.29005432 2.8829998970 26.049999237  -999.250000 3.0460000038
 455.14810181  -999.250000 18.367000580 0.0640000030 0.5042499900 2.1549909115 56.308998108 163.22254944 161.28956604 2.8829998970 26.035999298  -999.250000 2.9979999065
 455.30047607  -999.250000 18.243000031 0.0520000011 0.5036199689 2.1589918137 56.828998566 163.23799133 161.28900146 2.8849999905 26.025999069  -999.250000 2.9649999142
 455.45288086  -999.250000 18.056999207 0.0379999988 0.5057600141 2.1589999199 56.708999634 163.18019104 161.22584534 2.9049999714 26.033000946  -999.250000 2.9389998913
 455.60528564  -999.250000 17.868000031 0.0390000008 0.5142900348 2.1629920006 55.983001709 162.51351929 160.58345032 2.9119999409 26.041000366  -999.250000 2.9130001068
 455.75769043  -999.250000 17.770999908 0.0430000015 0.5276499987 2.1610040665 54.088001251 161.55780029 159.63691711 2.9360001087 26.049999237  -999.250000 2.9100000858
 455.91009521  -999.250000 17.732999802 0.0260000005 0.5255699754 2.1310601234 51.827999115 161.48988342 159.56256104 2.9609999657 26.059000015  -999.250000 2.9110000134
 456.06250000  -999.250000 17.715999603 0.0189999994 0.5195800066 2.1100378036 49.515998840 160.99674988 159.02426147 2.9869999886 26.068000793  -999.250000 2.9360001087
 456.21487427  -999.250000 17.708000183 0.0370000005 0.5197499990 2.1020159721 48.077999115 160.37469482 158.41706848 2.9920001030 26.076999664  -999.250000 2.9609999657
 456.36727905  -999.250000 17.708000183 0.0489999987 0.5086700320 2.0940160751 47.581001282 161.73535156 159.79899597 2.9649999142 26.086000443  -999.250000 2.9630000591
 456.51968384  -999.250000 17.725999832 0.0439999998 0.4947600067 2.0740399361 47.960998535 164.94415283 163.01260376 2.9389998913 26.093999863  -999.250000 2.9630000591
 456.67208862  -999.250000 17.819999695 0.0390000008 0.4925500154 2.0620241165 46.720001221 163.92982483 161.99362183 2.8900001049 26.103000641  -999.250000 2.9130001068
 456.82449341  -999.250000 18.072999954 0.0560000017 0.4854300022 2.0689859390 45.105998993 161.39695740 159.46876526 2.8589999676 26.111999512  -999.250000 2.8610000610
 456.97689819  -999.250000 18.363000870 0.0829999968 0.4822700024 2.0440449715 44.890998840 162.14830017 160.21995544 2.8350000381 26.121000290  -999.250000 2.7669999599
 457.12930298  -999.250000 18.704000473 0.0960000008 0.4899399877 1.9711315632 43.761001587 161.45898438 159.51530457 2.8299999237 26.129999161  -999.250000 2.7060000896
 457.28167725  -999.250000 19.211999893 0.1049999967 0.5071600080 1.8462502956 41.737998962 161.20547485 159.24850464 2.8269999027 26.138999939  -999.250000 2.6659998894
 457.43408203  -999.250000 19.829999924 0.0820000023 0.5267599821 1.6992943287 39.841999054 162.55752563 160.62559509 2.8059999943 26.146999359  -999.250000 2.6779999733
 457.58648682  -999.250000 20.524999619 0.0410000011 0.5243899822 1.6331322193 40.033000946 162.39877319 160.48609924 2.7839999199 26.156000137  -999.250000 2.7219998837
 457.73889160  -999.250000 21.147001266 0.0350000001 0.5307700038 1.6619418859 39.840999603 161.58110046 159.65235901 2.7809998989 26.165000916  -999.250000 2.7539999485
 457.89129639  -999.250000 20.979000092 0.0430000015 0.5493900180 1.7258718014 39.872001648 161.79136658 159.84284973 2.8059999943 26.173999786  -999.250000 2.8020000458
 458.04370117  -999.250000 20.662002563 0.0520000011 0.5380399823 1.7459640503 39.980998993 161.79203796 159.83593750 2.8540000916 26.183000565  -999.250000 2.8519999981
 458.19610596  -999.250000 21.043998718 0.0320000015 0.5065700412 1.7679603100 40.153999329 161.77790833 159.82893372 2.9049999714 26.191999435  -999.250000 2.8810000420
 458.34848022  -999.250000 21.711000443 0.0489999987 0.4879600108 1.8398559093 41.469001770 161.74880981 159.82194519 2.9389998913 26.200000763  -999.250000 2.9079999924
 458.50088501  -999.250000 21.712001801 0.0740000010 0.4693500102 1.9328137636 42.157001495 161.73176575 159.81489563 2.9869999886 26.208999634  -999.250000 2.9340000153
 458.65328979  -999.250000 21.183000565 0.0649999976 0.4667299986 2.0228197575 41.840000153 161.73243713 159.80784607 3.0179998875 26.218000412  -999.250000 2.9400000572
 458.80569458  -999.250000 20.491998672 0.0860000029 0.4927200079 2.0758938789 42.051998138 161.73176575 159.80084229 3.0439999104 26.226999283  -999.250000 2.9600000381
 458.95809937  -999.250000 19.906997681 0.1080000028 0.5175899863 2.0769979954 42.022998810 161.73243713 159.79383850 3.0469999313 26.236000061  -999.250000 2.9630000591
 459.11050415  -999.250000 19.625999451 0.1239999980 0.5133299828 2.0171082020 41.126998901 161.71832275 159.78678894 3.0460000038 26.243999481  -999.250000 2.9630000591
 459.26290894  -999.250000 19.747999191 0.0769999996 0.4940399826 1.9241676331 41.645999908 161.71867371 159.77973938 3.0209999084 26.253000259  -999.250000 2.9600000381
 459.41528320  -999.250000 19.833000183 0.0540000014 0.4867902696 1.8750981092 42.794998169 161.73176575 159.77273560 2.9939999580 26.261999130  -999.250000 2.9389998913
 459.56768799  -999.250000 19.898000717 0.0350000001 0.4880715907 1.8670159578 44.321998596 161.70297241 159.76574707 2.9479999542 26.270999908  -999.250000 2.9049999714
 459.72009277  -999.250000 20.096002579 0.0410000011 0.4960511625 1.9109119177 46.073001862 161.67216492 159.75874329 2.9379999638 26.280000687  -999.250000 2.8350000381
 459.87249756  -999.250000 20.621002197 0.0619999990 0.5018867850 1.9389439821 46.877998352 161.67283630 159.75169373 2.9119999409 26.288999557  -999.250000 2.7590000629
 460.02490234  -999.250000 21.147001266 0.0839999989 0.4858670235 1.9150480032 44.952999115 161.67216492 159.74464417 2.8849999905 26.297000885  -999.250000 2.6830000877
