# LAS format log file from PETREL
# Project units are specified as depth units
#==================================================================
~Version information
VERS.   2.0:
WRAP.   NO:
#==================================================================
~Well
STRT .m      416.08499146 :
STOP .m      2599.3679199 :
STEP .m     0.00000000 :
NULL .        -999.250000 :
COMP.           : COMPANY
WELL.  31/2-2 R   : WELL
FLD.            : FIELD
LOC.            : LOCATION
SRVC.           : SERVICE COMPANY
DATE.  2018-09-11 14:48:33   : Log Export Date {yyyy-MM-dd HH:mm:ss}
PROV.           : PROVINCE
UWI.   31/2-2 R   : UNIQUE WELL ID
API.            : API NUMBER
#==================================================================
~Curve
DEPT .m                   : DEPTH
Lithology_geolink ._      : Lithology_geolink
CALI .in                  : CALI
DRHO .g/cm3               : DRHO
NPHI .m3/m3               : NPHI
RHOB .g/cm3               : RHOB
GR .gAPI                  : GR
DTC .us/ft                : DTC
RDEP .ohm.m               : RDEP
SP .mV                    : SP
RSHA .ohm.m               : RSHA
RMED .ohm.m               : RMED
~Parameter
#==================================================================
~Ascii
# ...
 1574.1728516 5.0000000000 11.921999931 -0.007000000 0.3151699901 2.0680000782 55.775592804 138.00019836 10.228494644 16.732749939 1.8132435083 8.7509756088
 1574.3251953 5.0000000000 11.921999931 -0.013000000 0.3168700039 2.0690000057 52.405296326 138.49879456 9.0709266663 16.483200073 1.8893939257 7.6259012222
 1574.4776611 6.0000000000 11.921999931 -0.013000000 0.3211100101 2.0720000267 51.537853241 138.37519836 8.9690809250 15.109100342 2.0113718510 6.0172882080
 1574.6300049 6.0000000000 11.921999931 -0.012000000 0.3058300018 2.0690000057 55.816806793 139.12319946 9.0699186325 14.608400345 1.8155837059 5.2815890312
 1574.7824707 6.0000000000 11.921999931 -0.005000000 0.2821300030 2.0499999523 60.562450409 140.12339783 9.3277931213 16.106798172 1.6882660389 5.5937490463
 1574.9348145 6.0000000000 11.921999931 -0.005000000 0.2472299933 2.0130000114 60.219276428 139.75059509 9.5698060989 15.608400345 2.3982105255 8.1929159164
 1575.0871582 6.0000000000 11.929001808 -0.007000000 0.2215500027 1.9950000048 60.563549042 139.00180054 9.5230751038 14.609601021 4.0185194016 12.071782112
 1575.2396240 6.0000000000 11.921999931 -0.017999999 0.2248100042 1.9960000515 61.251777649 138.37600708 9.4690427780 14.607999802 3.4009416103 13.920522690
 1575.3919678 6.0000000000 11.930000305 -0.014000000 0.2578800023 2.0299999714 63.469528198 136.37980652 10.107975006 14.546098709 2.4477546215 12.424402237
 1575.5444336 6.0000000000 11.930000305 -0.010000000 0.2795400023 2.0650000572 64.123519897 136.12539673 10.140974045 15.295398712 1.9309263229 9.8770408630
 1575.6967773 6.0000000000 11.930000305 -0.007000000 0.2919200063 2.0799999237 62.279495239 136.12500000 9.2204761505 16.169597626 1.9084086418 7.5387468338
 1575.8492432 6.0000000000 11.930000305 -0.013000000 0.2920100093 2.0820000172 60.404720306 135.50100708 8.1648445129 15.921200752 2.0777151585 6.0242114067
 1576.0015869 6.0000000000 11.921999931 -0.017000001 0.2938899994 2.0840001106 58.814002991 136.12350464 7.0668797493 15.921000481 1.9891297817 5.5084123611
 1576.1540527 6.0000000000 11.921999931 -0.018999999 0.2997400165 2.0859999657 60.068553925 134.75219727 6.2706375122 16.295700073 2.0435829163 5.9406533241
 1576.3063965 6.0000000000 11.921999931 -0.010000000 0.3064500093 2.0950000286 63.531024933 135.49819946 5.8523349762 16.046199799 2.2256705761 6.3906393051
 1576.4588623 6.0000000000 11.921999931 -0.008000000 0.2903400064 2.0959999561 63.565700531 135.37519836 5.7231035233 16.170900345 2.5031666756 6.6328063011
 1576.6112061 6.0000000000 11.921999931 -0.015000000 0.2934499979 2.0880000591 65.247497559 134.75149536 5.7969408035 15.546500206 2.2440767288 6.5470690727
 1576.7636719 6.0000000000 11.930000305 -0.018999999 0.2886700034 2.0959999561 62.119846344 134.12600708 5.8669438362 15.171299934 2.2682690620 6.2812132835
 1576.9160156 6.0000000000 11.930000305 -0.015000000 0.3237900138 2.1019999981 58.904571533 133.50100708 5.9019718170 15.295899391 2.3530793190 6.0391941071
 1577.0683594 6.0000000000 11.930000305 -0.007000000 0.3392300010 2.1129999161 57.124576569 133.74940491 5.9139809608 15.920000076 2.6883869171 5.8323311806
 1577.2208252 5.0000000000 11.930000305 -0.007000000 0.3708100021 2.1110000610 56.595352173 133.37559509 5.9799470901 15.171600342 2.4347941875 5.6521439552
 1577.3731689 5.0000000000 11.930000305 -0.012000000 0.3766400218 2.1150000095 58.280349731 133.37500000 6.2575545311 14.796600342 2.6825959682 5.4802756310
 1577.5256348 5.0000000000 11.930000305 -0.012000000 0.3709099889 2.1289999485 57.469150543 133.49980164 6.8045616150 14.920899391 2.9306309223 5.3011436462
 1577.6779785 5.0000000000 11.930000305 -0.011000000 0.3655599952 2.1440000534 57.652320862 132.37770081 7.7255239487 15.794599533 3.1281177998 5.1841874123
 1577.8304443 5.0000000000 11.943998337 -0.010000000 0.3293699920 2.1459999084 53.055938721 130.75260925 8.7881488800 15.796000481 3.5953946114 5.7695302963
 1577.9827881 5.0000000000 11.944999695 -0.008000000 0.2837699950 2.1329998970 44.243640900 132.74519348 10.022010803 15.733050346 4.6491465569 8.1620817184
 1578.1352539 5.0000000000 11.930999756 -0.006000000 0.2131699920 2.0929999352 36.310947418 128.13241577 12.334148407 15.546149254 3.4628028870 12.598446846
 1578.2875977 1.0000000000 11.943998337 -0.012000000 0.1837799996 2.0499999523 35.030296326 126.56676483 17.464887619 15.920700073 2.7778558731 16.169139862
 1578.4400635 1.0000000000 11.944999695 -0.014000000 0.1712599993 2.0409998894 34.156799316 122.19501495 25.946207047 16.420598984 2.3020288944 16.608650208
 1578.5924072 1.0000000000 11.944999695 -0.029999999 0.1972400099 2.0490000248 34.654769897 122.74864960 32.026126862 16.420999527 1.9996829033 19.310832977
 1578.7448730 1.0000000000 11.953000069 -0.025000000 0.2392600030 2.1059999466 33.124450684 121.56491089 30.173488617 15.921401024 1.9013910294 26.572181702
 1578.8972168 1.0000000000 11.961000443 -0.028000001 0.2816900015 2.1319999695 32.779685974 122.56140137 25.878442764 15.796100616 2.0225195885 35.648723602
 1579.0495605 1.0000000000 11.961000443 -0.020000000 0.2986800075 2.1459999084 31.143314362 122.00135040 24.486227036 15.608301163 1.8730168343 39.868244171
 1579.2020264 1.0000000000 11.961000443 -0.015000000 0.2979100049 2.1459999084 34.033329010 122.18770599 24.328125000 15.358200073 1.8797565699 38.813850403
 1579.3543701 1.0000000000 11.984001160 -0.017999999 0.2863699794 2.1470000744 36.939777374 120.75345612 23.891700745 14.983600616 1.8037332296 34.819404602
 1579.5068359 1.0000000000 11.984001160 -0.016000001 0.2847200036 2.1679999828 39.153221130 118.56650543 22.298278809 13.796950340 1.6931537390 31.330791473
 1579.6591797 1.0000000000 11.961000443 -0.017000001 0.2796199918 2.1600000858 35.687973022 119.37305450 21.579151154 13.857900620 1.7413438559 28.301855087
 1579.8116455 2.0000000000 11.961000443 -0.017000001 0.2936500013 2.1500000954 35.656623840 119.99900055 20.719688416 15.231898308 1.8837597370 25.205478668
 1579.9639893 2.0000000000 11.961000443 -0.013000000 0.3023299873 2.1410000324 36.439125061 121.99519348 18.329914093 15.171049118 1.8090096712 22.720991135
 1580.1164551 2.0000000000 11.975999832 -0.016000001 0.3146100044 2.1410000324 37.845581055 126.55570221 17.875362396 16.295099258 1.8127373457 22.484188080
 1580.2687988 2.0000000000 11.961000443 -0.014000000 0.3071900010 2.1419999599 39.815628052 126.00135040 18.858211517 15.108951569 1.7310191393 23.202423096
 1580.4212646 2.0000000000 11.961000443 -0.021000000 0.3085399866 2.1310000420 43.098205566 127.74719238 20.311836243 15.482699394 1.7388845682 24.233173370
 1580.5736084 2.0000000000 11.961999893 -0.022000000 0.2964999974 2.1159999371 45.718601227 127.75000000 22.326383591 15.732799530 1.7029807568 24.640674591
 1580.7260742 2.0000000000 11.977001190 -0.022000000 0.3017700016 2.1040000916 45.211795807 124.56810760 25.356573105 15.795949936 1.6975288391 24.780887604
 1580.8784180 2.0000000000 11.979000092 -0.024000000 0.3023699820 2.1040000916 40.716796875 105.40574646 26.030462265 15.171500206 1.8615996838 25.343547821
 1581.0308838 16.000000000 12.015000343 -0.018999999 0.3043000102 2.1229999065 37.968101501 103.19150543 25.969049454 15.420799255 1.7368493080 26.577011108
 1581.1832275 16.000000000 12.007999420 -0.027000001 0.2979499996 2.1170001030 37.406673431 102.37630463 26.671438217 15.296099663 1.6897695065 27.233472824
 1581.3355713 2.0000000000 12.007000923 -0.023000000 0.2913199961 2.1289999485 38.249950409 103.99609375 26.843725204 14.921600342 1.6183077097 27.078248978
 1581.4880371 2.0000000000 11.999999046 -0.028000001 0.2967700064 2.1180000305 38.187698364 106.55890656 26.734086990 15.420598984 1.7458783388 26.266651154
 1581.6403809 2.0000000000 11.999999046 -0.020000000 0.2814800143 2.1370000839 37.812198639 124.70631409 26.968624115 16.419397354 1.7078604698 24.783378601
 1581.7928467 2.0000000000 11.999999046 -0.021000000 0.2876800001 2.1270000935 36.812923431 125.37400055 26.250576019 15.358851433 1.6500896215 23.828762054
