# LAS format log file from PETREL
# Project units are specified as depth units
#==================================================================
~Version information
VERS.   2.0:
WRAP.   NO:
#==================================================================
~Well
STRT .m      1309.8798828 :
STOP .m      4086.9138184 :
STEP .m     0.00000000 :
NULL .        -999.250000 :
COMP.           : COMPANY
WELL.  31/2-19 S   : WELL
FLD.            : FIELD
LOC.            : LOCATION
SRVC.           : SERVICE COMPANY
DATE.  2018-09-11 14:48:33   : Log Export Date {yyyy-MM-dd HH:mm:ss}
PROV.           : PROVINCE
UWI.   31/2-19 S   : UNIQUE WELL ID
API.            : API NUMBER
#==================================================================
~Curve
DEPT .m                   : DEPTH
Lithology_geolink ._      : Lithology_geolink
CALI .in                  : CALI
BS .in                    : BS
DRHO .g/cm3               : DRHO
NPHI .m3/m3               : NPHI
RHOB .g/cm3               : RHOB
GR .gAPI                  : GR
DTC .us/ft                : DTC
DTS .us/ft                : DTS
RDEP .ohm.m               : RDEP
SP .mV                    : SP
RSHA .ohm.m               : RSHA
RMIC .ohm.m               : RMIC
RMED .ohm.m               : RMED
~Parameter
#==================================================================
~Ascii
# ...
 2778.2546387 6.0000000000 12.796999931 12.250000954 -0.010867000 0.3052580059 2.4969999790 143.42225647 78.530998230 137.17883301 10.548000336 167.25000000 9.0600004196 5.9876923561 9.0593090057
 2778.4069824 6.0000000000 12.611001015 12.250000954 -0.009907000 0.3199540079 2.4930000305 141.25546265 78.665000916 137.61529541 10.487000465 168.06300354 8.9160003662 7.1867647171 8.9156608582
 2778.5593262 6.0000000000 12.529000282 12.250000954 -0.010398000 0.3226380050 2.4849998951 139.88220215 79.175003052 141.09941101 10.350999832 168.43800354 8.8100004196 8.2347650528 8.8098621368
 2778.7116699 6.0000000000 12.671999931 12.250000954 -0.012276000 0.3275829852 2.4820001125 133.99191284 79.861000061 142.97698975 10.298000336 167.56300354 8.7670001984 7.7700238228 8.7673654556
 2778.8642578 6.0000000000 12.723999023 12.250000954 -0.012570000 0.3279730082 2.4809999466 133.83721924 80.302001953 142.74238586 10.392999649 167.56300354 8.8809995651 7.3600835800 8.8817644119
 2779.0166016 5.0000000000 12.779999733 12.250000954 -0.014057000 0.3283129930 2.4830000401 137.22456360 80.375000000 141.53894043 10.652999878 167.31300354 9.0399999619 7.2234745026 9.0407152176
 2779.1689453 5.0000000000 12.808999062 12.250000954 -0.014092000 0.3294540048 2.4839999676 139.26573181 79.943000793 144.05195618 10.817999840 167.12500000 9.1890001297 8.0689277649 9.1897306442
 2779.3212891 5.0000000000 12.802000999 12.250000954 -0.010568000 0.3118360043 2.4900000095 135.31867981 79.956001282 142.30461121 11.149000168 167.43800354 9.4169998169 7.5871539116 9.4167757034
 2779.4738770 5.0000000000 12.760999680 12.250000954 -0.007874000 0.3211719990 2.4939999580 133.72853088 79.735000610 145.78939819 11.069999695 167.12500000 9.3470001221 6.5844678879 9.3468275070
 2779.6262207 5.0000000000 12.696998596 12.250000954 -0.006111000 0.3178650141 2.4890000820 134.09339905 79.304000854 138.02445984 10.979999542 167.37500000 9.3109998703 6.6652178764 9.3111867905
 2779.7785645 5.0000000000 12.576000214 12.250000954 -0.007046000 0.3419080079 2.4860000610 129.65213013 79.392997742 138.37141418 11.104999542 166.56300354 9.3500003815 7.9335727692 9.3503561020
 2779.9309082 5.0000000000 12.564000130 12.250000954 -0.008890000 0.3407010138 2.4769999981 135.97865295 79.126998901 138.78865051 11.175000191 167.06300354 9.4610004425 7.0975480080 9.4612989426
 2780.0834961 5.0000000000 12.602999687 12.250000954 -0.012353000 0.3463830054 2.4809999466 133.62081909 79.017997742 137.98229980 11.342000008 167.00000000 9.5539999008 8.4408779144 9.5543031693
 2780.2358398 5.0000000000 12.730999947 12.250000954 -0.012207000 0.3355540037 2.4820001125 136.07206726 78.947998047 140.09060669 11.482000351 167.50000000 9.6169996262 6.5709357262 9.6178541183
 2780.3881836 5.0000000000 12.762999535 12.250000954 -0.011971000 0.3340499997 2.4909999371 135.28627014 78.378997803 141.28807068 11.755999565 167.12500000 9.7950000763 7.9437375069 9.7951221466
 2780.5405273 5.0000000000 12.765999794 12.250000954 -0.012013000 0.3208540082 2.4890000820 137.31472778 78.361999512 143.77201843 11.755999565 166.81300354 9.8330001831 6.0248126984 9.8328752518
 2780.6928711 5.0000000000 12.713000298 12.250000954 -0.011172000 0.3156329989 2.4869999886 134.13621521 78.827011108 145.77159119 11.727999687 167.25000000 9.7939996719 2.9005336761 9.7939071655
 2780.8454590 6.0000000000 12.696998596 12.250000954 -0.008661000 0.3092199862 2.4920001030 139.32264709 79.780006409 149.36723328 11.654000282 167.31300354 9.7650003433 6.9458012581 9.7646017075
 2780.9978027 6.0000000000 12.644000053 12.250000954 -0.009911000 0.3190940022 2.4879999161 138.41546631 80.501998901 147.09066772 11.567999840 166.75000000 9.6820001602 7.2181773186 9.6808385849
 2781.1501465 6.0000000000 12.548999786 12.250000954 -0.008966000 0.3244819939 2.4890000820 136.62387085 80.884002686 147.38552856 11.225999832 167.12500000 9.4399995804 6.1590766907 9.4395732880
 2781.3024902 6.0000000000 12.541999817 12.250000954 -0.011204000 0.3265619874 2.4779999256 145.45465088 81.303993225 151.28846741 10.951999664 167.18800354 9.3070001602 6.1740193367 9.3066349030
 2781.4550781 6.0000000000 12.562999725 12.250000954 -0.010756000 0.3293470144 2.4779999256 135.84347534 81.583999634 171.87896729 10.859999657 167.50000000 9.1929998398 5.9682564735 9.1928272247
 2781.6074219 6.0000000000 12.659999847 12.250000954 -0.010727000 0.3255650103 2.4749999046 143.42181396 82.199996948 146.85421753 10.807000160 167.31300354 9.1569995880 5.5438976288 9.1567401886
 2781.7597656 6.0000000000 12.740999222 12.250000954 -0.009468000 0.3228349984 2.4730000496 143.38307190 81.632003784 149.20915222 10.694000244 167.93800354 9.1029996872 5.6871857643 9.1021471024
 2781.9121094 6.0000000000 12.743000031 12.250000954 -0.011235000 0.3189229965 2.4690001011 144.77851868 81.612991333 146.04916382 10.296999931 168.06300354 8.8369998932 6.3406057358 8.8319902420
 2782.0646973 6.0000000000 12.743999481 12.250000954 -0.009391000 0.3219749928 2.4700000286 129.52949524 81.542991638 145.76243591 8.4639997482 168.00000000 7.2740001678 7.0799484253 7.2730336189
 2782.2170410 6.0000000000 12.697999954 12.250000954 -0.009198000 0.3280169964 2.4619998932 134.33424377 81.539001465 146.06150818 8.2150001526 168.12500000 7.0729999542 5.9912114143 7.0723567009
 2782.3693848 6.0000000000 12.609999657 12.250000954 -0.006861000 0.3350189924 2.4630000591 136.86395264 81.447998047 144.97674561 8.0819997787 168.25000000 6.9390001297 6.6504640579 6.9382629395
 2782.5217285 6.0000000000 12.578000069 12.250000954 -0.007164000 0.3467989862 2.4639999866 136.70825195 81.179000854 145.83462524 7.7930002213 168.06300354 6.7090001106 7.6493654251 6.7115001678
 2782.6740723 6.0000000000 12.592000008 12.250000954 -0.007457000 0.3440690041 2.4709999561 139.61167908 80.971992493 145.98452759 8.8050003052 167.37500000 7.4889998436 6.6829085350 7.4923171997
 2782.8266602 6.0000000000 12.644000053 12.250000954 -0.008402000 0.3516460061 2.4690001011 140.67730713 80.501998901 146.61599731 9.9759998322 166.81300354 8.5240001678 5.2238783836 8.5255651474
 2782.9790039 5.0000000000 12.746999741 12.250000954 -0.011620000 0.3389140069 2.4570000172 135.94859314 80.492996216 146.41632080 10.373000145 167.62500000 8.8500003815 6.5922751427 8.8502988815
 2783.1313477 5.0000000000 12.762000084 12.250000954 -0.018447001 0.3405070007 2.4440000057 133.27229309 80.393997192 146.75845337 10.482999802 167.12500000 8.9429998398 5.4001393318 8.9431085587
 2783.2836914 5.0000000000 12.760999680 12.250000954 -0.020725001 0.3156389892 2.4379999638 127.91419220 79.431999207 142.48072815 10.572999954 167.12500000 8.9770002365 6.8828125000 8.9766445160
 2783.4362793 5.0000000000 12.713998795 12.250000954 -0.019219000 0.3085669875 2.4509999752 133.38519287 79.083000183 141.35578918 10.437000275 167.12500000 8.8660001755 7.8797054291 8.8657064438
 2783.5886230 5.0000000000 12.640000343 12.250000954 -0.018676000 0.2982569933 2.4690001011 134.52218628 77.995002747 140.44346619 10.380999565 167.25000000 8.8050003052 7.9871087074 8.8061904907
 2783.7409668 5.0000000000 12.534999847 12.250000954 -0.017310999 0.3097290099 2.4939999580 125.89484406 77.436996460 140.18341064 10.758999825 166.18800354 9.0530004501 7.6885471344 9.0530290604
 2783.8933105 5.0000000000 12.569000244 12.250000954 -0.017039999 0.3167209923 2.5069999695 130.07154846 77.236999512 140.73323059 10.897999763 167.12500000 9.0620002747 6.8381681442 9.0622148514
 2784.0458984 5.0000000000 12.607000351 12.250000954 -0.017887000 0.3321000040 2.5030000210 129.38012695 77.778999329 139.57885742 10.977000237 166.93800354 9.1289997101 6.0520000458 9.1289949417
 2784.1982422 5.0000000000 12.718000412 12.250000954 -0.019510999 0.3390699923 2.4909999371 138.19586182 78.987998962 140.51548767 10.930000305 167.87500000 9.1280002594 7.1382565498 9.1259841919
 2784.3505859 6.0000000000 12.750000000 12.250000954 -0.018687000 0.3304289877 2.4830000401 134.09060669 79.477996826 141.37562561 10.321000099 167.75000000 8.7080001831 7.3292179108 8.7070512772
