# LAS format log file from PETREL
# Project units are specified as depth units
#==================================================================
~Version information
VERS.   2.0:
WRAP.   NO:
#==================================================================
~Well
STRT .m      445.17501831 :
STOP .m      1838.8730469 :
STEP .m     0.00000000 :
NULL .        -999.250000 :
COMP.           : COMPANY
WELL.  31/2-10   : WELL
FLD.            : FIELD
LOC.            : LOCATION
SRVC.           : SERVICE COMPANY
DATE.  2018-09-11 14:48:32   : Log Export Date {yyyy-MM-dd HH:mm:ss}
PROV.           : PROVINCE
UWI.   31/2-10   : UNIQUE WELL ID
API.            : API NUMBER
#==================================================================
~Curve
DEPT .m                   : DEPTH
Lithology_geolink ._      : Lithology_geolink
CALI .in                  : CALI
DRHO .g/cm3               : DRHO
NPHI .m3/m3               : NPHI
RHOB .g/cm3               : RHOB
PEF .b/e                  : PEF
GR .gAPI                  : GR
DTC .us/ft                : DTC
RDEP .ohm.m               : RDEP
SP .mV                    : SP
RSHA .ohm.m               : RSHA
RMED .ohm.m               : RMED
~Parameter
#==================================================================
~Ascii
# ...
 628.05505371  -999.250000 15.418999672 0.0179999992 0.4140499830 2.2709999084 4.4520001411 53.062084198 129.26005554 2.9920048714 46.999801636  -999.250000 2.4139993191
 628.20745850  -999.250000 15.401000023 0.0140000004 0.4190499783 2.2509999275 4.9120001793 53.843688965 128.60853577 2.9959983826 47.000000000  -999.250000 2.4339919090
 628.35986328  -999.250000 15.382000923 0.0199999996 0.4201599956 2.2379999161 5.5799999237 47.846405029 128.07261658 3.0039968491 47.000000000  -999.250000 2.3810212612
 628.51226807  -999.250000 15.397000313 0.0419999994 0.4107600152 2.2609999180 5.9559998512 46.250637054 127.24211121 3.0099976063 47.499801636  -999.250000 2.3909959793
 628.66467285  -999.250000 15.401000023 0.0500000007 0.4207400084 2.2999999523 5.0659999847 50.373348236 127.50630188 3.0060017109 46.500400543  -999.250000 2.3730070591
 628.81707764  -999.250000 15.425999641 0.0240000002 0.4286199808 2.3110001087 4.2249999046 58.996547699 127.67039490 3.0000023842 46.500000000  -999.250000 2.4299771786
 628.96948242  -999.250000 15.220000267 0.0040000002 0.4389400184 2.2990000248 3.9270000458 60.405433655 127.73088837 2.9880046844 46.000198364  -999.250000 2.4569892883
 629.12182617  -999.250000 15.036999702 0.0000000000 0.4196499884 2.2850000858 3.8010001183 60.031299591 125.31551361 2.9820048809 46.000000000  -999.250000 2.4570000172
 629.27423096  -999.250000 15.000000954 0.0010000000 0.4035300016 2.2780001163 3.7639999390 60.124923706 123.66417694 2.9939904213 46.000000000  -999.250000 2.4609968662
 629.42663574  -999.250000 15.034999847 0.0020000001 0.3875699937 2.2769999504 3.9660000801 62.498096466 123.02587891 2.9979968071 44.501201630  -999.250000 2.4490094185
 629.57904053  -999.250000 15.082000732 0.0040000002 0.3838999867 2.2820000648 4.2769999504 63.874450684 122.55183411 3.0039975643 44.999797821  -999.250000 2.4390039444
 629.73144531  -999.250000 15.140999794 0.0070000002 0.3754700124 2.2829999924 4.3179998398 63.188274384 122.61145020 3.0039999485 45.499801636  -999.250000 2.4160091877
 629.88385010  -999.250000 15.114999771 0.0070000002 0.3829499781 2.2820000648 4.0850000381 60.064250946 122.38061523 2.9980022907 45.500000000  -999.250000 2.4359920025
 630.03625488  -999.250000 15.053999901 0.0049999999 0.3742400110 2.2780001163 3.7279999256 56.657363892 121.21438599 2.9800071716 45.999801636  -999.250000 2.4669876099
 630.18865967  -999.250000 14.972000122 0.0030000000 0.3830899894 2.2760000229 3.6150000095 57.530647278 120.87693787 2.9690043926 46.000000000  -999.250000 2.5209782124
 630.34106445  -999.250000 14.984000206 0.0010000000 0.3786999881 2.2750000954 3.6329998970 61.404445648 121.88426971 2.9709992409 45.500198364  -999.250000 2.5209999084
 630.49340820  -999.250000 15.065999985 -0.001000000 0.3853400052 2.2750000954 3.7950000763 61.499923706 123.34970856 2.9630064964 45.500000000  -999.250000 2.4900248051
 630.64575195  -999.250000 15.161000252 0.0020000001 0.3678200245 2.2799999714 4.0289998055 60.220539093 124.78801727 2.9630000591 45.000598907  -999.250000 2.4490492344
 630.79815674  -999.250000 15.243000031 0.0070000002 0.3486299813 2.2880001068 4.2540001869 55.474708557 126.44042206 2.9550094604 45.998798370  -999.250000 2.4430072308
 630.95056152  -999.250000 15.220000267 0.0130000003 0.3527600169 2.2909998894 4.3130002022 53.440441132 129.01063538 2.9380204678 46.499401093  -999.250000 2.4260206223
 631.10296631  -999.250000 15.089000702 0.0170000009 0.3689300120 2.2860000134 4.4699997902 55.341712952 130.54333496 2.9280118942 46.500000000  -999.250000 2.3960359097
 631.25537109  -999.250000 15.133999825 0.0140000004 0.3886699975 2.2739999294 5.0770001411 59.464046478 130.56037903 2.9339928627 46.500000000  -999.250000 2.3730275631
 631.40777588  -999.250000 15.253000259 0.0130000003 0.3728699982 2.2679998875 6.8179998398 64.432037354 130.45787048 2.9429893494 45.501201630  -999.250000 2.3630118370
 631.56018066  -999.250000 15.490999222 0.0230000000 0.3761600256 2.2839999199 9.1859998703 68.684600830 130.14328003 2.9489951134 45.999599457  -999.250000 2.3889791965
 631.71258545  -999.250000 15.730999947 0.0289999992 0.3820199966 2.2939999104 8.9230003357 68.188400269 130.00480652 2.9669857025 46.499599457  -999.250000 2.3929967880
 631.86499023  -999.250000 15.765999794 0.0219999999 0.4105300009 2.2899999619 6.4510002136 64.502952576 129.16940308 2.9769918919 46.500000000  -999.250000 2.3870048523
 632.01739502  -999.250000 15.427000046 0.0040000002 0.3942800164 2.2669999599 4.6360001564 57.099933624 128.26239014 2.9819960594 46.500000000  -999.250000 2.3520281315
 632.16979980  -999.250000 15.026000023 -0.004000000 0.3834199905 2.2669999599 3.7179999352 57.562625885 128.08006287 2.9919919968 45.001201630  -999.250000 2.3729829788
 632.32220459  -999.250000 14.901000023 -0.009000000 0.3603200018 2.2709999084 3.4690001011 57.063400269 127.83917236 3.0059888363 45.999198914  -999.250000 2.4099705219
 632.47460938  -999.250000 14.842000008 -0.010000000 0.3604699969 2.2820000648 3.3780000210 62.589572906 128.22702026 3.0179903507 46.499599457  -999.250000 2.4489686489
 632.62701416  -999.250000 14.821999550 -0.006000000 0.3647899926 2.2969999313 3.4100000858 64.373573303 128.67034912 3.0269927979 46.999599457  -999.250000 2.4549951553
 632.77935791  -999.250000 14.791999817 -0.008000000 0.3652299941 2.2990000248 3.4189999104 67.246543884 128.69023132 3.0369880199 47.000000000  -999.250000 2.4260349274
 632.93176270  -999.250000 14.881999969 -0.007000000 0.3469200134 2.2950000763 3.5450000763 64.877853394 128.94638062 3.0330047607 46.001201630  -999.250000 2.4000313282
 633.08416748  -999.250000 14.918998718 -0.005000000 0.3308000267 2.2880001068 3.5369999409 58.008258820 129.19410706 3.0270071030 46.000000000  -999.250000 2.3960046768
 633.23657227  -999.250000 14.915000916 -0.001000000 0.3291400075 2.2890000343 3.4660000801 57.095088959 129.75880432 3.0180106163 45.500598907  -999.250000 2.3910059929
 633.38897705  -999.250000 14.885000229 -0.002000000 0.3501699865 2.2869999409 3.4040000439 57.655323029 130.04246521 3.0120072365 45.500000000  -999.250000 2.4119746685
 633.54138184  -999.250000 14.845999718 -0.011000000 0.3640300035 2.2699999809 3.2509999275 61.308605194 130.03770447 3.0040094852 45.999401093  -999.250000 2.4179928303
 633.69378662  -999.250000 14.821000099 -0.013000000 0.3479799926 2.2620000839 3.2809998989 60.969276428 130.03274536 3.0000030994 46.000000000  -999.250000 2.4259936810
 633.84619141  -999.250000 14.798000336 -0.007000000 0.3316799998 2.2690000534 3.3110001087 60.906047821 129.51240540 3.0059952736 46.000000000  -999.250000 2.4379904270
 633.99859619  -999.250000 14.796999931 -0.004000000 0.3182799816 2.2809998989 3.3880000114 60.219551086 128.98602295 3.0079982281 46.000000000  -999.250000 2.4429960251
 634.15100098  -999.250000 14.805000305 -0.007000000 0.3321799934 2.2760000229 3.3680000305 59.125877380 128.10972595 3.0139951706 46.000000000  -999.250000 2.4390029907
 634.30340576  -999.250000 14.819998741 -0.009000000 0.3464599848 2.2730000019 3.3110001087 56.033477783 126.60124207 3.0389800072 46.499599457  -999.250000 2.4380006790
 634.45581055  -999.250000 14.819998741 -0.005000000 0.3287500143 2.2750000954 3.5060000420 55.719253540 125.36315918 3.0350031853 46.500000000  -999.250000 2.4340031147
 634.60821533  -999.250000 14.859000206 0.0040000002 0.3222700059 2.2969999313 3.6889998913 56.968002319 125.31267548 3.0210111141 46.999599457  -999.250000 2.4749670029
 634.76062012  -999.250000 14.828000069 0.0000000000 0.3130400181 2.2909998894 3.7269999981 58.654647827 125.31188202 3.0229983330 47.499599457  -999.250000 2.5509393215
 634.91296387  -999.250000 14.819998741 0.0030000000 0.3193399906 2.2950000763 3.5409998894 59.124435425 126.58683014 3.0349857807 47.500000000  -999.250000 2.5330216885
 635.06536865  -999.250000 14.819998741 0.0040000002 0.3199599981 2.2969999313 3.5499999523 56.846740723 128.17143250 3.0489830971 47.500000000  -999.250000 2.5040347576
 635.21777344  -999.250000 14.821000099 0.0140000004 0.3259100020 2.3159999847 3.5309998989 55.876163483 128.97668457 3.0779652596 47.500000000  -999.250000 2.4710395336
