# LAS format log file from PETREL
# Project units are specified as depth units
#==================================================================
~Version information
VERS.   2.0:
WRAP.   NO:
#==================================================================
~Well
STRT .m      447.54394531 :
STOP .m      3384.4443359 :
STEP .m     0.00000000 :
NULL .        -999.250000 :
COMP.           : COMPANY
WELL.  31/2-8   : WELL
FLD.            : FIELD
LOC.            : LOCATION
SRVC.           : SERVICE COMPANY
DATE.  2018-09-11 14:48:34   : Log Export Date {yyyy-MM-dd HH:mm:ss}
PROV.           : PROVINCE
UWI.   31/2-8   : UNIQUE WELL ID
API.            : API NUMBER
#==================================================================
~Curve
DEPT .m                   : DEPTH
Lithology_geolink ._      : Lithology_geolink
CALI .in                  : CALI
DRHO .g/cm3               : DRHO
SGR .gAPI                 : SGR
NPHI .m3/m3               : NPHI
RHOB .g/cm3               : RHOB
PEF .b/e                  : PEF
GR .gAPI                  : GR
DTC .us/ft                : DTC
RDEP .ohm.m               : RDEP
SP .mV                    : SP
RSHA .ohm.m               : RSHA
RMED .ohm.m               : RMED
~Parameter
#==================================================================
~Ascii
# ...
 2204.4111328 2.0000000000 11.908999443 0.0040000002 50.249851227 0.2969499826 2.2929999828 3.9976360798 40.977058411 89.640380859 0.7969920039 64.393310547 1.0469151735 1.0469151735
 2204.5634766 2.0000000000 11.895000458 0.0030000000 50.343852997 0.2846300006 2.2909998894 4.0429282188 43.603580475 88.285087585 0.8009935617 63.513820648 1.0659695864 1.0659695864
 2204.7160645 2.0000000000 11.890999794 0.0020000001 52.530998230 0.2816599905 2.2930142879 3.9489998817 45.110591888 87.575767517 0.8100000024 62.768192291 1.0329999924 1.0329999924
 2204.8684082 2.0000000000 11.888998985 0.0020032052 53.280998230 0.2921200097 2.3020224571 3.8610000610 45.063079834 88.027946472 0.8270000219 63.444911957 1.0019999743 1.0019999743
 2205.0207520 2.0000000000 11.883999825 0.0040096003 57.024997711 0.2865699828 2.3160192966 4.0197453499 45.524261475 89.098960876 0.8469679952 63.260295868 0.9860255718 0.9860255718
 2205.1730957 2.0000000000 11.883000374 0.0099999998 58.466697693 0.2960700095 2.3280000687 4.0469565392 47.493679047 90.359619141 0.8569839597 62.324005127 0.9939872026 0.9939872026
 2205.3256836 2.0000000000 11.883999825 0.0090112174 60.030998230 0.3104000092 2.3280017376 4.1409997940 52.113594055 91.398590088 0.8600000143 63.018875122 1.0290000439 1.0290000439
 2205.4780273 2.0000000000 11.888998985 0.0160048082 59.625000000 0.3276499808 2.3289742470 3.9219999313 54.280532837 92.012268066 0.8510000110 63.100872040 1.0870000124 1.0870000124
 2205.6303711 2.0000000000 11.890999794 0.0190095995 57.971652985 0.3165299892 2.3129694462 3.6933665276 54.046382904 92.111747742 0.8310319781 63.510341644 1.1379183531 1.1379183531
 2205.7827148 2.0000000000 11.885999680 0.0250000004 59.154094696 0.2974099815 2.2939999104 3.6450769901 53.954147339 91.877128601 0.8090353012 65.661552429 1.1409952641 1.1409952641
 2205.9350586 2.0000000000 11.871998787 0.0140000004 58.314350128 0.2991600037 2.2650001049 3.6879310608 55.614665985 92.003326416 0.7910288572 63.975425720 1.0761041641 1.0761041641
 2206.0876465 2.0000000000 11.871998787 0.0019919872 58.280998230 0.3042200208 2.2470030785 3.9749999046 53.281753540 92.991691589 0.7730000019 61.003761292 0.9629999995 0.9629999995
 2206.2399902 2.0000000000 11.887000084 -0.002998400 55.410598755 0.3153400123 2.2490065098 4.0199279785 52.662986755 93.981300354 0.7530320287 61.885578156 0.8691504002 0.8691504002
 2206.3923340 2.0000000000 11.897000313 -0.002000000 55.999046326 0.3087999821 2.2530000210 3.8932034969 51.669593811 94.288871765 0.7300368547 61.120231628 0.8440400362 0.8440400362
 2206.5446777 2.0000000000 11.897999763 0.0000000000 56.530147552 0.3050400019 2.2500000000 3.6463956833 51.402851105 94.433006287 0.7050400376 59.642738342 0.8909246325 0.8909246325
 2206.6972656 2.0000000000 11.897000313 -0.000996795 58.094001770 0.2872699797 2.2379918098 3.5999999046 50.517417908 94.650314331 0.6819999814 63.053512573 0.9549999833 0.9549999833
 2206.8496094 2.0000000000 11.887000084 0.0010064001 59.187999725 0.2764199972 2.2330095768 3.7709999084 51.020191193 94.619247437 0.6690000296 63.386470795 0.9629999995 0.9629999995
 2207.0019531 2.0000000000 11.871998787 0.0049999999 62.338951111 0.2682400048 2.2390000820 3.7051055431 55.662548065 94.767601013 0.6640079618 63.492828369 0.9350448251 0.9350448251
 2207.1542969 2.0000000000 11.871998787 0.0099999998 61.969604492 0.2737100124 2.2479999065 3.6500883102 54.838668823 95.232177734 0.6649984121 64.409065247 0.9080432653 0.9080432653
 2207.3068848 2.0000000000 11.885999680 0.0059967949 61.062999725 0.2782599926 2.2500047684 3.7149999142 53.231575012 95.812080383 0.6719999909 63.256858826 0.8870000243 0.8870000243
 2207.4592285 2.0000000000 11.890999794 0.0039919876 58.000000000 0.2724899948 2.2530257702 3.9749999046 49.799503326 96.695228577 0.6949999928 59.610847473 0.8330000043 0.8330000043
 2207.6115723 2.0000000000 11.890999794 -0.000996800 62.056499481 0.2612499893 2.2690656185 4.1557106972 49.837932587 97.273971558 0.7339376211 62.541286469 0.7930639982 0.7930639982
 2207.7639160 5.0000000000 11.888998985 0.0010000000 67.054992676 0.2567600012 2.3099999428 4.1480126381 50.479969025 96.995681763 0.7879134417 63.404621124 0.8169615269 0.8169615269
 2207.9165039 5.0000000000 11.880999565 0.0040032053 73.313003540 0.2686400115 2.3440241814 4.3480000496 56.930664063 95.751701355 0.8590000272 63.197338104 0.9670000076 0.9670000076
 2208.0688477 5.0000000000 11.869000435 0.0059903846 75.125000000 0.2808200121 2.3589792252 4.6640000343 61.206153870 94.178398132 0.9470000267 63.499519348 1.2159999609 1.2159999609
 2208.2211914 5.0000000000 11.862999916 -0.000008000 76.248199463 0.2879000008 2.3459823132 4.6600060463 66.742126465 92.929260254 1.0528303385 63.826477051 1.5125248432 1.5125248432
 2208.3735352 5.0000000000 11.869999886 -0.005000000 76.374801636 0.2955299914 2.3350000381 4.4024133682 68.008979797 92.324562073 1.1857868433 63.855953217 1.7476234436 1.7476234436
 2208.5258789 5.0000000000 11.885999680 -0.006000000 80.243789673 0.2982000113 2.3239998817 4.2582306862 66.004440308 92.417976379 1.3177883625 64.759101868 1.9037500620 1.9037500620
 2208.6784668 5.0000000000 11.883999825 -0.004980769 82.438003540 0.3246900141 2.3160288334 4.4340000153 61.979450226 92.921524048 1.4309999943 65.195304871 1.9340000153 1.9340000153
 2208.8308105 5.0000000000 11.866999626 0.0070240004 83.311599731 0.3363600075 2.3340449333 4.8193826675 57.997383118 93.384780884 1.5108720064 60.809040070 1.8561247587 1.8561247587
 2208.9831543 6.0000000000 11.866000175 0.0219999999 79.194610596 0.3320000172 2.3619999886 4.8239936829 62.411903381 93.910865784 1.5509358644 63.326950073 1.7541633844 1.7541633844
 2209.1354980 6.0000000000 11.866999626 0.0329999998 77.066406250 0.3061899841 2.3889999390 4.7071871758 67.899406433 94.134567261 1.5549935102 64.188247681 1.6930977106 1.6930977106
 2209.2880859 6.0000000000 11.866999626 0.0119791664 74.875000000 0.3091700077 2.3639631271 4.3400001526 71.059959412 93.820701599 1.5269999504 64.392677307 1.7070000172 1.7070000172
 2209.4404297 6.0000000000 11.862000465 -0.001003205 75.563003540 0.3244900107 2.3409759998 4.2699999809 72.871101379 93.655616760 1.4789999723 65.558128357 1.7649999857 1.7649999857
 2209.5927734 6.0000000000 11.858000755 -0.003000000 76.124099731 0.3408900201 2.3259840012 4.5345759392 70.164352417 93.624900818 1.4240880013 65.475135803 1.8269008398 1.8269008398
 2209.7451172 6.0000000000 11.880999565 -0.003000000 79.120193481 0.3306000233 2.3159999847 4.6168684959 69.469223022 93.469902039 1.3660930395 66.625305176 1.8479664326 1.8479664326
 2209.8977051 6.0000000000 11.890999794 -0.003995193 80.063003540 0.3169800043 2.3069999218 4.4730000496 66.666496277 93.598304749 1.3029999733 64.064117432 1.7999999523 1.7999999523
 2210.0500488 6.0000000000 11.890999794 -0.000998397 79.313003540 0.3157199919 2.3070142269 4.0859999657 71.815727234 93.845947266 1.2439999580 63.885276794 1.7120000124 1.7120000124
 2210.2023926 6.0000000000 11.890999794 -0.000003200 78.689002991 0.3185099959 2.3160030842 4.0740189552 74.296035767 93.934249878 1.1930816174 65.807907104 1.5901951790 1.5901951790
 2210.3547363 6.0000000000 11.890999794 -0.002000000 79.623497009 0.3270699978 2.3180000782 4.1518750191 74.636459351 93.915534973 1.1550608873 64.429222107 1.4681955576 1.4681955576
 2210.5070801 6.0000000000 11.892001152 -0.004000000 81.372192383 0.3265599906 2.3220000267 4.3157372475 70.668739319 93.803672791 1.1340335608 64.172813416 1.4190785885 1.4190785885
 2210.6596680 6.0000000000 11.897000313 0.0010160257 78.938003540 0.3241400123 2.3450577259 4.4299998283 70.919578552 93.808723450 1.1310000420 64.177993774 1.4559999704 1.4559999704
 2210.8120117 6.0000000000 11.902999878 0.0110160001 77.690002441 0.3293500245 2.3810591698 4.5777630806 73.975097656 93.702552795 1.1489712000 62.108322144 1.5338752270 1.5338752270
 2210.9643555 6.0000000000 11.916999817 0.0209999997 74.443214417 0.3238300085 2.4179999828 4.7577114105 78.972991943 93.021194458 1.1919311285 64.221603394 1.6408286095 1.6408286095
