# LAS format log file from PETREL
# Project units are specified as depth units
#==================================================================
~Version information
VERS.   2.0:
WRAP.   NO:
#==================================================================
~Well
STRT .m      1999.6403809 :
STOP .m      3191.7131348 :
STEP .m     0.00000000 :
NULL .        -999.250000 :
COMP.           : COMPANY
WELL.  31/2-21 S   : WELL
FLD.            : FIELD
LOC.            : LOCATION
SRVC.           : SERVICE COMPANY
DATE.  2018-09-11 14:48:34   : Log Export Date {yyyy-MM-dd HH:mm:ss}
PROV.           : PROVINCE
UWI.   31/2-21 S   : UNIQUE WELL ID
API.            : API NUMBER
#==================================================================
~Curve
DEPT .m                   : DEPTH
Lithology_geolink ._      : Lithology_geolink
CALI .in                  : CALI
BS .in                    : BS
ROP .m/h                  : ROP
DRHO .g/cm3               : DRHO
NPHI .m3/m3               : NPHI
RHOB .g/cm3               : RHOB
PEF .b/e                  : PEF
GR .gAPI                  : GR
DTC .us/ft                : DTC
DTS .us/ft                : DTS
RDEP .ohm.m               : RDEP
RMED .ohm.m               : RMED
~Parameter
#==================================================================
~Ascii
# ...
 2475.7377930 6.0000000000 9.7108001709 8.5000000000 25.185695648 0.1362738758 0.3208131492 2.2860000134 4.0367999077 96.222953796 86.850776672 161.28723145 2.5707604885 2.5109174252
 2475.8903809 6.0000000000 9.2952995300 8.5000000000 20.302822113 0.1089000031 0.3404000103 2.3164999485 3.9895999432 103.94049835 86.861289978 161.11761475 2.9667999744 3.1545000076
 2476.0427246 6.0000000000 9.2510004044 8.5000000000 17.911088943 0.0961999968 0.3436999917 2.3347001076 3.8875999451 106.95559692 87.105491638 161.14990234 2.5641000271 2.5448000431
 2476.1950684 6.0000000000 9.2679004669 8.5000000000 20.146326065 0.0950019211 0.3279252648 2.3053998947 3.4781999588 105.06822205 87.877067566 161.24234009 2.4527783394 2.3570008278
 2476.3474121 7.0000000000 9.3592996597 8.5000000000 25.782808304 0.1083785295 0.3106277287 2.3052999973 3.6982998848 110.30549622 88.073486328 161.16563416 2.5601274967 2.4772067070
 2476.5000000 7.0000000000 9.1876001358 8.5000000000 30.244424820 0.1167000011 0.3262000084 2.3180000782 3.9168000221 110.62999725 88.131591797 160.51330566 2.7414000034 2.7005999088
 2476.6523438 7.0000000000 9.1178998947 8.5000000000 32.019355774 0.1348000020 0.3213999867 2.3541998863 4.1027998924 115.28399658 87.943199158 160.60939026 2.7272999287 2.7032001019
 2476.8046875 7.0000000000 9.1338996887 8.5000000000 27.010498047 0.1175276786 0.3200022280 2.3610000610 3.5699999332 111.36397552 87.755004883 160.70535278 2.8744642735 2.9402201176
 2476.9570313 6.0000000000 9.0256004333 8.5000000000 20.774276733 0.1142052934 0.3228953481 2.3979001045 3.6884999275 96.873847961 87.304122925 160.74433899 2.8918724060 2.9098494053
 2477.1093750 6.0000000000 8.8970003128 8.5000000000 19.055118561 0.1072112173 0.2879560888 2.4516000748 4.1532998085 87.425231934 86.313789368 159.44699097 2.9470114708 2.9404509068
 2477.2619629 6.0000000000 8.7547998428 8.5000000000 20.975393295 0.0874999985 0.2881000042 2.4881999493 5.1634998322 79.255401611 83.854095459 157.64830017 3.0868999958 3.0852000713
 2477.4143066 6.0000000000 8.8798999786 8.5000000000 21.713254929 0.0972843170 0.2943899333 2.5169000626 5.1698999405 84.235221863 81.008758545 154.84230042 2.9307503700 2.9047892094
 2477.5666504 6.0000000000 8.9790000916 8.5000000000 19.935367584 0.1010939106 0.2841165066 2.4558999538 4.4060997963 84.461051941 78.834587097 151.62425232 2.8964545727 2.8893244267
 2477.7189941 6.0000000000 9.0177001953 8.5000000000 19.671260834 0.1047940701 0.2972788513 2.3991000652 3.8619999886 100.39582825 78.987449646 151.87779236 2.7338607311 2.6676557064
 2477.8715820 7.0000000000 9.0165996552 8.5000000000 23.526575089 0.1215000004 0.3080999851 2.3778998852 3.6298999786 107.16049957 80.256401062 155.26669312 2.6854999065 2.5892000198
 2478.0239258 7.0000000000 9.0947999954 8.5000000000 35.596130371 0.1289000064 0.3046999872 2.3847999573 3.5376999378 112.01779938 82.329101563 158.75382996 2.9537000656 2.9038999081
 2478.1762695 7.0000000000 9.0291004181 8.5000000000 44.185695648 0.1171000004 0.3072958291 2.3850998878 3.4107999802 114.78795624 84.505310059 161.21295166 2.7139840126 2.5457739830
 2478.3286133 7.0000000000 9.2770996094 8.5000000000 34.398296356 0.1231999993 0.3168846369 2.3712999821 3.9347999096 103.29864502 85.500007629 160.55705261 2.7405569553 2.5165460110
 2478.4812012 6.0000000000 9.2442998886 8.5000000000 25.712270737 0.1242000014 0.3036000133 2.3922998905 4.1676001549 87.838401794 85.475296021 159.66149902 2.9763998985 2.7262001038
 2478.6335449 6.0000000000 9.0796003342 8.5000000000 23.688648224 0.1217999980 0.2890999913 2.4367001057 4.5570998192 85.292396545 84.561798096 158.24259949 3.6280000210 3.5051999092
 2478.7858887 6.0000000000 9.0656995773 8.5000000000 25.178150177 0.1120000035 0.2922948599 2.4649999142 4.3751001358 90.812454224 83.143470764 156.39175415 3.9083507061 3.9033620358
 2478.9382324 6.0000000000 9.1555004120 8.5000000000 26.007873535 0.1137000024 0.2722322047 2.4570999146 4.1609997749 91.940696716 79.198715210 153.68104553 3.3037710190 3.3188393116
 2479.0905762 6.0000000000 9.2264003754 8.5000000000 25.379592896 0.1230000034 0.2529309392 2.4045000076 3.9537999630 94.555305481 77.738235474 152.11181641 2.9779214859 2.9563803673
 2479.2431641 6.0000000000 9.2708997726 8.5000000000 25.497047424 0.1253000051 0.2594999969 2.3631000519 3.8598001003 99.137603760 78.407402039 151.73959351 2.9265999794 2.8898999691
 2479.3955078 7.0000000000 9.2719001770 8.5000000000 30.718833923 0.1155999973 0.2946436703 2.3468999863 3.5813999176 98.225364685 80.904006958 155.19825745 2.9744234085 3.0336697102
 2479.5478516 7.0000000000 9.2504997253 8.5000000000 42.606296539 0.1019999981 0.3120720983 2.3276998997 3.4175999165 109.94288635 82.806945801 158.44021606 2.6979439259 2.6661903858
 2479.7001953 7.0000000000 9.3015003204 8.5000000000 45.086944580 0.1307000071 0.3167924583 2.3348000050 3.8431000710 112.25421906 83.679313660 160.04930115 2.6747364998 2.5021622181
 2479.8527832 7.0000000000 9.3808002472 8.5000000000 36.269687653 0.1304000020 0.3179000020 2.3215000629 3.9361999035 115.38539886 83.418998718 161.27850342 2.6823000908 2.4486999512
 2480.0051270 6.0000000000 9.4377002716 8.5000000000 29.682415009 0.1250000000 0.3249999881 2.3062000275 3.6312999725 114.44650269 82.892196655 162.12649536 2.7065000534 2.4583001137
 2480.1574707 6.0000000000 9.4771995544 8.5000000000 28.539043427 0.1257999986 0.3095248044 2.3071000576 3.7300999165 108.36804199 83.224769592 162.54621887 2.8643469810 2.6486947536
 2480.3098145 6.0000000000 9.3729000092 8.5000000000 32.483268738 0.1290999949 0.3159895837 2.3320000172 3.8410999775 105.06787872 83.436561584 161.43696594 3.0477061272 2.9777724743
 2480.4624023 6.0000000000 9.1513996124 8.5000000000 33.022308350 0.1111000031 0.3291000128 2.3534998894 3.8145999908 106.14109802 82.918502808 159.90559387 2.6984000206 2.5808000565
 2480.6147461 6.0000000000 9.3671998978 8.5000000000 30.389438629 0.1168999970 0.3355999887 2.3345999718 3.9423999786 108.56880188 83.168800354 159.71028137 2.3452999592 2.1206998825
 2480.7670898 6.0000000000 9.7210998535 8.5000000000 29.837924957 0.1433999985 0.3198252618 2.3073000908 4.0661001205 103.13900757 83.313270569 159.18733215 2.5560622215 2.3799843788
 2480.9194336 6.0000000000 9.5528001785 8.5000000000 32.875656128 0.1422999948 0.3264892697 2.3113999367 4.0349998474 102.85124969 84.011779785 158.14945984 2.9199166298 2.8719110489
 2481.0720215 6.0000000000 9.4323997498 8.5000000000 33.359252930 0.1198000014 0.3264000118 2.3099999428 3.9063000679 108.42120361 84.524902344 156.92350769 2.8852000237 2.8822999001
 2481.2243652 6.0000000000 9.3118000031 8.5000000000 31.445865631 0.1115000024 0.3181999922 2.3066999912 3.9516999722 109.85160065 82.755302429 157.86380005 2.5985000134 2.6038000584
 2481.3767090 6.0000000000 9.4183998108 8.5000000000 28.499671936 0.1529999971 0.3088150620 2.3689000607 4.2741999626 103.35710907 82.563003540 158.46614075 2.3977217674 2.3525025845
 2481.5290527 6.0000000000 9.4448003769 8.5000000000 29.230644226 0.1318999976 0.3047065437 2.3724999428 4.6010999680 94.380989075 82.051322937 161.29244995 2.5131142139 2.4867837429
 2481.6813965 6.0000000000 8.8554000854 8.5000000000 31.069555283 0.1018999964 0.3244682550 2.3726999760 5.2302999496 88.440414429 81.994789124 162.79968262 2.4299337864 2.3084864616
 2481.8339844 6.0000000000 8.8570003510 8.5000000000 30.752298355 0.1164000034 0.3294999897 2.3808999062 4.5654001236 97.950202942 83.114898682 161.81739807 2.6105000973 2.4609999657
 2481.9863281 6.0000000000 9.0819997787 8.5000000000 30.328411102 0.1312000006 0.3264049590 2.3475999832 4.0493001938 102.84565735 84.758064270 161.07078552 2.7547688484 2.6051690578
 2482.1386719 6.0000000000 9.2719001770 8.5000000000 32.537075043 0.1247999966 0.3292953372 2.2992999554 4.1879000664 102.74447632 85.245124817 160.23793030 2.8869881630 2.7654433250
 2482.2910156 6.0000000000 9.3369998932 8.5000000000 36.462268829 0.1130999997 0.3533613682 2.2885000706 3.9886999130 105.42819214 86.213439941 159.60990906 2.7074885368 2.6217310429
