# LAS format log file from PETREL
# Project units are specified as depth units
#==================================================================
~Version information
VERS.   2.0:
WRAP.   NO:
#==================================================================
~Well
STRT .m      399.05941772 :
STOP .m      2436.9521484 :
STEP .m     0.00000000 :
NULL .        -999.250000 :
COMP.           : COMPANY
WELL.  31/2-1   : WELL
FLD.            : FIELD
LOC.            : LOCATION
SRVC.           : SERVICE COMPANY
DATE.  2018-09-11 14:48:32   : Log Export Date {yyyy-MM-dd HH:mm:ss}
PROV.           : PROVINCE
UWI.   31/2-1   : UNIQUE WELL ID
API.            : API NUMBER
#==================================================================
~Curve
DEPT .m                   : DEPTH
Lithology_geolink ._      : Lithology_geolink
CALI .in                  : CALI
BS .in                    : BS
DRHO .g/cm3               : DRHO
NPHI .m3/m3               : NPHI
RHOB .g/cm3               : RHOB
GR .gAPI                  : GR
DTC .us/ft                : DTC
DTE .us/ft                : DTE
RDEP .ohm.m               : RDEP
SP .mV                    : SP
RSHA .ohm.m               : RSHA
RMED .ohm.m               : RMED
~Parameter
#==================================================================
~Ascii
# ...
 673.98901367  -999.250000 25.474977493 26.000001907  -999.250000  -999.250000 2.0370800495 34.776718140 150.05439758 150.04710388 2.1910750866  -999.250000 1.7436109781 1.7436109781
 674.14141846  -999.250000 25.714801788 26.000001907  -999.250000  -999.250000 2.0370640755 34.836139679 150.05450439 150.04714966 2.1896929741  -999.250000 1.7422330379 1.7422330379
 674.29382324  -999.250000 25.711359024 26.000001907  -999.250000  -999.250000 2.0370469093 35.069919586 150.05459595 150.04724121 2.1883120537  -999.250000 1.7408560514 1.7408560514
 674.44622803  -999.250000 25.566619873 26.000001907  -999.250000  -999.250000 2.0370299816 35.601581573 150.05459595 150.04730225 2.1869289875  -999.250000 1.7394779921 1.7394779921
 674.59863281  -999.250000 25.590589523 26.000001907  -999.250000  -999.250000 2.0370140076 36.314548492 150.05470276 150.04734802 2.1855480671  -999.250000 1.7381000519 1.7381000519
 674.75103760  -999.250000 25.739540100 26.000001907  -999.250000  -999.250000 2.0369980335 34.601760864 150.05470276 150.04743958 2.1841659546  -999.250000 1.7367219925 1.7367219925
 674.90338135  -999.250000 25.984680176 26.000001907  -999.250000  -999.250000 2.0369811058 33.935749054 150.05477905 150.04750061 2.1827840805  -999.250000 1.7353450060 1.7353450060
 675.05578613  -999.250000 26.525510788 26.000001907  -999.250000  -999.250000 2.0369648933 31.881660461 150.05491638 150.04754639 2.1814019680  -999.250000 1.7339680195 1.7339680195
 675.20819092  -999.250000 27.559669495 26.000001907  -999.250000  -999.250000 2.0369479656 30.582309723 150.05499268 150.04765320 2.1800210476  -999.250000 1.7325899601 1.7325899601
 675.36059570  -999.250000 28.587409973 26.000001907  -999.250000  -999.250000 2.0369319916 32.042961121 150.05499268 150.04771423 2.1786389351  -999.250000 1.7312120199 1.7312120199
 675.51300049  -999.250000 27.681911469 26.000001907  -999.250000  -999.250000 2.0369150639 31.982860565 150.05509949 150.04776001 2.1772580147  -999.250000 1.7298350334 1.7298350334
 675.66540527  -999.250000 26.196550369 26.000001907  -999.250000  -999.250000 2.0368990898 32.312641144 150.05520630 150.04785156 2.1758759022  -999.250000 1.7284569740 1.7284569740
 675.81781006  -999.250000 26.052320480 26.000001907  -999.250000  -999.250000 2.0368819237 33.122718811 150.05520630 150.04789734 2.1744940281  -999.250000 1.7270799875 1.7270799875
 675.97021484  -999.250000 26.118330002 26.000001907  -999.250000  -999.250000 2.0368659496 33.776809692 150.05529785 150.04794312 2.1731119156  -999.250000 1.7257020473 1.7257020473
 676.12261963  -999.250000 26.207910538 26.000001907  -999.250000  -999.250000 2.0368490219 34.202941895 150.05540466 150.04804993 2.1717309952  -999.250000 1.7243249416 1.7243249416
 676.27502441  -999.250000 26.227792740 26.000001907  -999.250000  -999.250000 2.0368330479 33.637100220 150.05549622 150.04814148 2.1703488827  -999.250000 1.7229470015 1.7229470015
 676.42742920  -999.250000 26.161378860 26.000001907  -999.250000  -999.250000 2.0368170738 33.334121704 150.05549622 150.04820251 2.1689670086  -999.250000 1.7215689421 1.7215689421
 676.57983398  -999.250000 26.044960022 26.000001907  -999.250000  -999.250000 2.0367999077 33.209041595 150.05560303 150.04824829 2.1675848961  -999.250000 1.7201910019 1.7201910019
 676.73223877  -999.250000 25.970300674 26.000001907  -999.250000  -999.250000 2.0367829800 32.142730713 150.05569458 150.04833984 2.1662030220  -999.250000 1.7188140154 1.7188140154
 676.88464355  -999.250000 25.972730637 26.000001907  -999.250000  -999.250000 2.0367670059 32.523769379 150.05569458 150.04840088 2.1648209095  -999.250000 1.7174359560 1.7174359560
 677.03698730  -999.250000 26.029809952 26.000001907  -999.250000  -999.250000 2.0367510319 35.165100098 150.05580139 150.04844666 2.1634399891  -999.250000 1.7160589695 1.7160589695
 677.18939209  -999.250000 26.057180405 26.000001907  -999.250000  -999.250000 2.0367341042 34.741600037 150.05589294 150.04853821 2.1620581150  -999.250000 1.7146810293 1.7146810293
 677.34179688  -999.250000 26.005870819 26.000001907  -999.250000  -999.250000 2.0367178917 34.517230988 150.05589294 150.04859924 2.1606760025  -999.250000 1.7133029699 1.7133029699
 677.49420166  -999.250000 25.925601959 26.000001907  -999.250000  -999.250000 2.0367009640 33.145870209 150.05599976 150.04864502 2.1592950821  -999.250000 1.7119259834 1.7119259834
 677.64660645  -999.250000 25.922443390 26.000001907  -999.250000  -999.250000 2.0366849899 34.685310364 150.05609131 150.04873657 2.1579129696  -999.250000 1.7105480433 1.7105480433
 677.79901123  -999.250000 26.019870758 26.000001907  -999.250000  -999.250000 2.0366680622 34.031028748 150.05619812 150.04882813 2.1565310955  -999.250000 1.7091710567 1.7091710567
 677.95141602  -999.250000 26.239978790 26.000001907  -999.250000  -999.250000 2.0366520882 33.445430756 150.05619812 150.04888916 2.1551489830  -999.250000 1.7077929974 1.7077929974
 678.10382080  -999.250000 26.505764008 26.000001907  -999.250000  -999.250000 2.0366349220 32.259639740 150.05630493 150.04893494 2.1537680626  -999.250000 1.7064160109 1.7064160109
 678.25622559  -999.250000 26.727489471 26.000001907  -999.250000  -999.250000 2.0366189480 31.362340927 150.05630493 150.04899597 2.1523859501  -999.250000 1.7050379515 1.7050379515
 678.40863037  -999.250000 26.684720993 26.000001907  -999.250000  -999.250000 2.0366020203 32.647251129 150.05639648 150.04904175 2.1510040760  -999.250000 1.7036609650 1.7036609650
 678.56103516  -999.250000 26.300439835 26.000001907  -999.250000  -999.250000 2.0365860462 31.545860291 150.05650330 150.04914856 2.1496219635  -999.250000 1.7022830248 1.7022830248
 678.71343994  -999.250000 26.188199997 26.000001907  -999.250000  -999.250000 2.0365691185 30.716630936 150.05650330 150.04924011 2.1482410431  -999.250000 1.7009049654 1.7009049654
 678.86584473  -999.250000 26.371271133 26.000001907  -999.250000  -999.250000 2.0365529060 30.020690918 150.05659485 150.04930115 2.1468589306  -999.250000 1.6995270252 1.6995270252
 679.01818848  -999.250000 26.304559708 26.000001907  -999.250000  -999.250000 2.0365359783 30.507429123 150.05670166 150.04934692 2.1454770565  -999.250000 1.6981500387 1.6981500387
 679.17059326  -999.250000 26.211521149 26.000001907  -999.250000  -999.250000 2.0365200043 31.712120056 150.05679321 150.04943848 2.1440958977  -999.250000 1.6967719793 1.6967719793
 679.32299805  -999.250000 26.476360321 26.000001907  -999.250000  -999.250000 2.0365040302 33.522499084 150.05679321 150.04949951 2.1427140236  -999.250000 1.6953949928 1.6953949928
 679.47540283  -999.250000 27.347990036 26.000001907  -999.250000  -999.250000 2.0364871025 34.195240021 150.05690002 150.04954529 2.1413319111  -999.250000 1.6940170527 1.6940170527
 679.62780762  -999.250000 27.312120438 26.000001907  -999.250000  -999.250000 2.0364708900 33.313140869 150.05700684 150.04965210 2.1399500370  -999.250000 1.6926399469 1.6926399469
 679.78021240  -999.250000 26.525159836 26.000001907  -999.250000  -999.250000 2.0364539623 33.624851227 150.05700684 150.04969788 2.1385691166  -999.250000 1.6912620068 1.6912620068
 679.93261719  -999.250000 26.402568817 26.000001907  -999.250000  -999.250000 2.0364379883 35.206970215 150.05709839 150.04974365 2.1371870041  -999.250000 1.6898850203 1.6898850203
 680.08502197  -999.250000 26.296417236 26.000001907  -999.250000  -999.250000 2.0364210606 36.057849884 150.05720520 150.04985046 2.1358048916  -999.250000 1.6885069609 1.6885069609
 680.23742676  -999.250000 26.373340607 26.000001907  -999.250000  -999.250000 2.0364050865 37.486839294 150.05720520 150.04994202 2.1344239712  -999.250000 1.6871290207 1.6871290207
 680.38983154  -999.250000 26.570709229 26.000001907  -999.250000  -999.250000 2.0363879204 37.649799347 150.05731201 150.05000305 2.1330420971  -999.250000 1.6857520342 1.6857520342
 680.54223633  -999.250000 26.629280090 26.000001907  -999.250000  -999.250000 2.0363719463 41.690391541 150.05741882 150.05004883 2.1316599846  -999.250000 1.6843739748 1.6843739748
