# LAS format log file from PETREL
# Project units are specified as depth units
#==================================================================
~Version information
VERS.   2.0:
WRAP.   NO:
#==================================================================
~Well
STRT .m      439.56304932 :
STOP .m      1665.9261475 :
STEP .m     0.00000000 :
NULL .        -999.250000 :
COMP.           : COMPANY
WELL.  31/2-7   : WELL
FLD.            : FIELD
LOC.            : LOCATION
SRVC.           : SERVICE COMPANY
DATE.  2018-09-11 14:48:34   : Log Export Date {yyyy-MM-dd HH:mm:ss}
PROV.           : PROVINCE
UWI.   31/2-7   : UNIQUE WELL ID
API.            : API NUMBER
#==================================================================
~Curve
DEPT .m                   : DEPTH
Lithology_geolink ._      : Lithology_geolink
CALI .in                  : CALI
DRHO .g/cm3               : DRHO
SGR .gAPI                 : SGR
NPHI .m3/m3               : NPHI
RHOB .g/cm3               : RHOB
PEF .b/e                  : PEF
GR .gAPI                  : GR
DTC .us/ft                : DTC
DTE .us/ft                : DTE
RDEP .ohm.m               : RDEP
SP .mV                    : SP
RSHA .ohm.m               : RSHA
RMED .ohm.m               : RMED
~Parameter
#==================================================================
~Ascii
# ...
 1333.0844727 6.0000000000 18.077999115 -0.002000000  -999.250000 0.4301800132 2.0920000076  -999.250000 75.940208435 140.34574890 134.64677429 1.0099791288 69.775001526 1.0220015049 1.0220015049
 1333.2368164 5.0000000000 18.047000885 0.0080000004  -999.250000 0.4711900055 2.1070001125  -999.250000 75.688606262 141.27526855 135.58564758 1.0010216236 69.775001526 1.0090311766 1.0090311766
 1333.3892822 5.0000000000 18.077999115 0.0089999996  -999.250000 0.4477500021 2.1019999981  -999.250000 67.762718201 142.21623230 136.47889709 0.9810320735 70.024597168 0.9980176687 0.9980176687
 1333.5416260 5.0000000000 18.093999863 0.0270000007  -999.250000 0.4453099966 2.1110000610  -999.250000 70.992195129 143.74928284 138.00144958 0.9740167856 69.650901794 0.9890216589 0.9890216589
 1333.6940918 5.0000000000 18.108999252 0.0140000004  -999.250000 0.4150400162 2.0980000496  -999.250000 71.936500549 145.43357849 139.68014526 0.9570272565 69.525199890 0.9870032072 0.9870032072
 1333.8464355 5.0000000000 18.266000748 0.0080000004  -999.250000 0.4360400140 2.1040000916  -999.250000 76.239639282 145.14041138 139.38362122 0.9500167966 70.273200989 0.9850048423 0.9850048423
 1333.9989014 5.0000000000 18.218999863 0.0109999999  -999.250000 0.4921900034 2.1229999065  -999.250000 75.064903259 144.35919189 138.63116455 0.9380192757 69.651000977 0.9969807267 0.9969807267
 1334.1512451 5.0000000000 18.266000748 0.0289999992  -999.250000 0.5483400226 2.1429998875  -999.250000 76.745948792 142.29354858 136.56590271 0.9340096116 68.901802063 1.0159543753 1.0159543753
 1334.3037109 6.0000000000 18.312999725 0.0430000015  -999.250000 0.5629900098 2.1559998989  -999.250000 79.433692932 139.64756775 133.94589233 0.9330016375 68.400802612 1.0379647017 1.0379647017
 1334.4560547 6.0000000000 18.391000748 0.0130000003  -999.250000 0.5566400290 2.1110000610  -999.250000 80.935600281 138.50851440 132.80746460 0.9310032129 69.148796082 1.0429919958 1.0429919958
 1334.6085205 5.0000000000 18.483999252 0.0120000001  -999.250000 0.5302699804 2.1070001125  -999.250000 82.747100830 138.49710083 132.76161194 0.9339951873 68.900398254 1.0429999828 1.0429999828
 1334.7608643 5.0000000000 18.452999115 0.0000000000  -999.250000 0.4809600115 2.0799999237  -999.250000 76.947319031 137.69270325 131.94989014 0.9220192432 68.650405884 1.0340144634 1.0340144634
 1334.9132080 5.0000000000 18.327999115 0.0030000000  -999.250000 0.4394499958 2.0820000172  -999.250000 72.261260986 136.89923096 131.24008179 0.9030456543 68.400604248 1.0320047140 1.0320047140
 1335.0656738 5.0000000000 18.250000000 0.0260000005  -999.250000 0.4570299983 2.0880000591  -999.250000 65.635620117 136.20881653 130.62226868 0.8770416379 67.900802612 1.0200191736 1.0200191736
 1335.2180176 5.0000000000 18.077999115 0.0309999995  -999.250000 0.5234400034 2.1050000191  -999.250000 62.382804871 136.44778442 130.71916199 0.8809903860 67.650604248 0.9820912480 0.9820912480
 1335.3704834 5.0000000000 18.047000885 0.0230000000  -999.250000 0.5395500064 2.0980000496  -999.250000 58.037960052 135.31697083 129.56942749 0.8899855614 67.650001526 0.9570400715 0.9570400715
 1335.5228271 5.0000000000 18.077999115 0.0010000000  -999.250000 0.5268599987 2.0959999561  -999.250000 57.938224792 134.04983521 128.35714722 0.9069591761 67.525299072 0.9380456805 0.9380456805
 1335.6752930 5.0000000000 18.047000885 -0.005000000  -999.250000 0.4868199825 2.1070001125  -999.250000 59.685195923 133.62193298 127.89116669 0.9149872065 68.149002075 1.0008990765 1.0008990765
 1335.8276367 5.0000000000 18.047000885 0.0030000000  -999.250000 0.4760699868 2.1500000954  -999.250000 63.490844727 132.16177368 126.47329712 0.9000359774 67.775901794 1.0588606596 1.0588606596
 1335.9801025 5.0000000000 18.047000885 0.0000000000  -999.250000 0.4614300132 2.1640000343  -999.250000 65.746391296 132.15394592 126.46392059 0.8960064650 68.149398804 1.2407083511 1.2407083511
 1336.1324463 5.0000000000 18.000000000 0.0099999998  -999.250000 0.4658200145 2.1679999828  -999.250000 64.503005981 133.24725342 127.52732849 0.9199423790 69.022903442 1.2519735098 1.2519735098
 1336.2849121 5.0000000000 17.983999252 -0.001000000  -999.250000 0.4643599987 2.1459999084  -999.250000 63.782150269 134.78021240 129.07688904 0.9339776039 68.900199890 1.1491651535 1.1491651535
 1336.4372559 5.0000000000 17.983999252 0.0020000001  -999.250000 0.4628900290 2.1480000019  -999.250000 69.175018311 136.89436340 131.14077759 0.9539519548 69.149398804 1.0602136850 1.0602136850
 1336.5897217 6.0000000000 18.031000137 0.0060000001  -999.250000 0.4643599987 2.1559998989  -999.250000 74.554389954 137.45507813 131.74203491 0.9679775834 69.150001526 1.0240577459 1.0240577459
 1336.7420654 6.0000000000 18.031000137 0.0120000001  -999.250000 0.4555699825 2.1519999504  -999.250000 76.122497559 138.34649658 132.65046692 0.9530240297 69.150001526 1.0619391203 1.0619391203
 1336.8944092 5.0000000000 18.077999115 0.0060000001  -999.250000 0.4291999936 2.1250000000  -999.250000 75.065551758 139.42372131 133.67524719 0.9101033211 69.648803711 1.0759663582 1.0759663582
 1337.0468750 5.0000000000 18.077999115 -0.004000000  -999.250000 0.4067400098 2.0980000496  -999.250000 71.006507874 140.21580505 134.48960876 0.8830432892 70.024398804 1.0809919834 1.0809919834
 1337.1992188 5.0000000000 18.108999252 -0.009000000  -999.250000 0.3833000064 2.0980000496  -999.250000 70.688751221 138.38357544 132.68185425 0.8780120015 70.149703979 1.0710239410 1.0710239410
 1337.3516846 5.0000000000 18.156000137 -0.003000000  -999.250000 0.4038099945 2.1150000095  -999.250000 66.195213318 132.25274658 126.55955505 0.8710111976 69.276405334 1.1309038401 1.1309038401
 1337.5040283 5.0000000000 18.172000885 -0.004000000  -999.250000 0.4121099710 2.1210000515  -999.250000 64.691604614 130.84529114 125.10033417 0.8690048456 69.524398804 1.1848702431 1.1848702431
 1337.6564941 5.0000000000 18.202999115 0.0149999997  -999.250000 0.4233399928 2.1389999390  -999.250000 61.255508423 129.89982605 124.16575623 0.8959567547 68.526603699 1.1710224152 1.1710224152
 1337.8088379 5.0000000000 18.156000137 0.0020000001  -999.250000 0.4482400119 2.1289999485  -999.250000 61.936347961 130.57458496 124.90264893 0.9079711437 68.525001526 1.1310961246 1.1310961246
 1337.9613037 5.0000000000 18.125000000 -0.002000000  -999.250000 0.4643599987 2.1270000935  -999.250000 58.194007874 135.07806396 129.35679626 0.9010112286 67.901000977 1.1270064116 1.1270064116
 1338.1136475 5.0000000000 18.172000885 -0.011000000  -999.250000 0.5083000064 2.1210000515  -999.250000 63.082218170 135.74034119 130.01724243 0.9039927721 67.151802063 1.1469519138 1.1469519138
 1338.2661133 5.0000000000 18.233999252 -0.011000000  -999.250000 0.5136700273 2.1189999580  -999.250000 62.656700134 136.22647095 130.48040771 0.9169791341 67.649200439 1.1390129328 1.1390129328
 1338.4184570 5.0000000000 18.218999863 0.0000000000  -999.250000 0.4931600094 2.1289999485  -999.250000 73.786201477 137.88703918 132.18572998 0.9189952016 67.151199341 1.1190479994 1.1190479994
 1338.5709229 5.0000000000 18.233999252 0.0000000000  -999.250000 0.4487300217 2.1250000000  -999.250000 70.130912781 139.27972412 133.52638245 0.9239920378 66.900405884 1.1110128164 1.1110128164
 1338.7232666 5.0000000000 18.297000885 -0.003000000  -999.250000 0.3994100094 2.1170001030  -999.250000 71.685501099 139.28735352 133.58992004 0.9379776120 67.149597168 1.1179888248 1.1179888248
 1338.8756104 5.0000000000 18.281000137 -0.008000000  -999.250000 0.4160200059 2.1019999981  -999.250000 67.448211670 137.82501221 132.13839722 0.9549591541 65.653602600 1.1349591017 1.1349591017
 1339.0280762 5.0000000000 18.297000885 -0.011000000  -999.250000 0.4487300217 2.0959999561  -999.250000 70.058799744 136.96038818 131.19723511 0.9649839401 66.773200989 1.1419887543 1.1419887543
 1339.1804199 5.0000000000 18.125000000 -0.006000000  -999.250000 0.5014600158 2.0940001011  -999.250000 69.314804077 137.28483582 131.54539490 0.9789663553 66.775001526 1.1449928284 1.1449928284
