# LAS format log file from PETREL
# Project units are specified as depth units
#==================================================================
~Version information
VERS.   2.0:
WRAP.   NO:
#==================================================================
~Well
STRT .m      439.56304932 :
STOP .m      1665.9261475 :
STEP .m     0.00000000 :
NULL .        -999.250000 :
COMP.           : COMPANY
WELL.  31/2-7   : WELL
FLD.            : FIELD
LOC.            : LOCATION
SRVC.           : SERVICE COMPANY
DATE.  2018-09-11 14:48:34   : Log Export Date {yyyy-MM-dd HH:mm:ss}
PROV.           : PROVINCE
UWI.   31/2-7   : UNIQUE WELL ID
API.            : API NUMBER
#==================================================================
~Curve
DEPT .m                   : DEPTH
Lithology_geolink ._      : Lithology_geolink
CALI .in                  : CALI
DRHO .g/cm3               : DRHO
SGR .gAPI                 : SGR
NPHI .m3/m3               : NPHI
RHOB .g/cm3               : RHOB
PEF .b/e                  : PEF
GR .gAPI                  : GR
DTC .us/ft                : DTC
DTE .us/ft                : DTE
RDEP .ohm.m               : RDEP
SP .mV                    : SP
RSHA .ohm.m               : RSHA
RMED .ohm.m               : RMED
~Parameter
#==================================================================
~Ascii
# ...
 602.02148438  -999.250000 17.797000885 0.0179999992  -999.250000 0.4879600108 2.2590000629  -999.250000 37.564048767 137.66918945 137.50511169 3.0629856586 49.725749969 2.3890695572 2.3890695572
 602.17388916  -999.250000 18.025999069 0.0309999995  -999.250000 0.4521900117 2.2599999905  -999.250000 37.313598633 130.72830200 130.55636597 3.0819544792 49.537448883 2.3500936031 2.3500936031
 602.32629395  -999.250000 18.062000275 0.0399999991  -999.250000 0.4340700209 2.2249999046  -999.250000 39.962619781 119.31188202 119.19743347 3.0999567509 50.098644257 2.3519952297 2.3519952297
 602.47869873  -999.250000 17.895999908 0.0460000001  -999.250000 0.4430400133 2.2090001106  -999.250000 39.969001770 111.32430267 111.14369202 3.0920193195 50.099998474 2.4018797874 2.4018797874
 602.63110352  -999.250000 17.233999252 0.0469999984  -999.250000 0.4956099987 2.2109999657  -999.250000 38.128692627 110.42108154 110.23128510 3.0800240040 50.161872864 2.4798438549 2.4798438549
 602.78350830  -999.250000 17.375000000 0.0390000008  -999.250000 0.4467800260 2.2290000916  -999.250000 34.725822449 112.93215179 112.76090240 3.0700199604 50.224872589 2.4800000191 2.4800000191
 602.93591309  -999.250000 17.608999252 0.0179999992  -999.250000 0.4648400247 2.2170000076  -999.250000 35.030372620 125.75208282 125.57026672 3.0719959736 50.349746704 2.4450700283 2.4450700283
 603.08831787  -999.250000 17.781000137 0.0089999996  -999.250000 0.4643599987 2.2109999657  -999.250000 35.374309540 131.91886902 131.73609924 3.0779881477 50.786125183 2.3960981369 2.3960981369
 603.24072266  -999.250000 18.062999725 0.0060000001  -999.250000 0.4902299941 2.1989998817  -999.250000 38.275180817 135.79786682 135.64799500 3.0919718742 50.974620819 2.3810300827 2.3810300827
 603.39312744  -999.250000 18.125000000 0.0070000002  -999.250000 0.5039100051 2.1889998913  -999.250000 37.033500671 137.18267822 137.01887512 3.0959918499 51.411125183 2.3540542126 2.3540542126
 603.54553223  -999.250000 18.062999725 0.0030000000  -999.250000 0.4946300089 2.1700000763  -999.250000 40.773490906 136.74114990 136.54972839 3.0720481873 51.225372314 2.3320441246 2.3320441246
 603.69787598  -999.250000 18.000000000 -0.003000000  -999.250000 0.4848600030 2.1679999828  -999.250000 39.098056793 136.10597229 135.91120911 3.0550408363 50.912750244 2.3399806023 2.3399806023
 603.85028076  -999.250000 17.547000885 -0.001000000  -999.250000 0.4414099753 2.1740000248  -999.250000 38.376728058 135.31224060 135.12649536 3.0330529213 50.725448608 2.3549640179 2.3549640179
 604.00268555  -999.250000 17.797000885 0.0020000001  -999.250000 0.4252899885 2.1879999638  -999.250000 38.344078064 133.59729004 133.41754150 3.0160408020 50.662151337 2.3649759293 2.3649759293
 604.15509033  -999.250000 17.968999863 0.0130000003  -999.250000 0.4648400247 2.1970000267  -999.250000 39.092201233 133.90896606 133.75822449 3.0140047073 50.661998749 2.3669953346 2.3669953346
 604.30749512  -999.250000 18.062999725 0.0040000002  -999.250000 0.4746099710 2.1879999638  -999.250000 42.023941040 134.53260803 134.36608887 3.0269687176 53.343540192 2.3520359993 2.3520359993
 604.45989990  -999.250000 18.218999863 0.0010000000  -999.250000 0.4809600115 2.1860001087  -999.250000 39.973957062 134.09706116 133.91485596 3.0200169086 51.167255402 2.3569881916 2.3569881916
 604.61230469  -999.250000 18.016000748 0.0070000002  -999.250000 0.4433599710 2.1930000782  -999.250000 37.848258972 133.42782593 133.22756958 3.0199999809 50.850624084 2.3520100117 2.3520100117
 604.76470947  -999.250000 18.202999115 0.0070000002  -999.250000 0.4804700017 2.1989998817  -999.250000 37.531623840 132.04298401 131.85099792 3.0229940414 50.101501465 2.3629779816 2.3629779816
 604.91711426  -999.250000 18.562999725 0.0170000009  -999.250000 0.4492200017 2.2149999142  -999.250000 39.277492523 132.35934448 132.18467712 3.0210039616 50.349498749 2.3570120335 2.3570120335
 605.06951904  -999.250000 18.531000137 0.0000000000  -999.250000 0.4521499872 2.2009999752  -999.250000 38.407749176 132.35942078 132.21058655 3.0269880295 49.476749420 2.3689758778 2.3689758778
 605.22192383  -999.250000 18.250000000 0.0020000001  -999.250000 0.4306600094 2.2090001106  -999.250000 38.344127655 131.90089417 131.74845886 3.0389759541 49.350250244 2.3809759617 2.3809759617
 605.37432861  -999.250000 18.233999252 -0.005000000  -999.250000 0.4174800217 2.2070000172  -999.250000 38.998687744 131.87182617 131.70686340 3.0350081921 52.405868530 2.3829958439 2.3829958439
 605.52673340  -999.250000 18.343999863 0.0040000002  -999.250000 0.4028300047 2.2170000076  -999.250000 40.902183533 131.73356628 131.54888916 3.0210280418 49.792255402 2.3730199337 2.3730199337
 605.67907715  -999.250000 19.156000137 0.0109999999  -999.250000 0.3603500128 2.2360000610  -999.250000 41.093551636 131.55633545 131.39094543 3.0180070400 50.659896851 2.3650193214 2.3650193214
 605.83148193  -999.250000 17.500000000 0.0289999992  -999.250000 0.3652299941 2.2679998875  -999.250000 40.750827789 131.38285828 131.23295593 3.0249831676 50.287899017 2.4178726673 2.4178726673
 605.98388672  -999.250000 17.422000885 0.0179999992  -999.250000 0.3476599753 2.2709999084  -999.250000 41.778522491 131.21780396 131.07498169 3.0369710922 50.848644257 2.4449350834 2.4449350834
 606.13629150  -999.250000 17.468999863 0.0109999999  -999.250000 0.3662099838 2.2750000954  -999.250000 39.349857330 131.08485413 130.91705322 3.0699205399 50.849998474 2.4839062691 2.4839062691
 606.28869629  -999.250000 17.656000137 0.0140000004  -999.250000 0.4047900140 2.2639999390  -999.250000 42.181167603 130.91979980 130.75904846 3.1069111824 50.787151337 2.4590601921 2.4590601921
 606.44110107  -999.250000 17.672000885 0.0289999992  -999.250000 0.4306600094 2.2769999504  -999.250000 47.019359589 130.78684998 130.60241699 3.1449086666 50.475749969 2.4689760208 2.4689760208
 606.59350586  -999.250000 17.718999863 0.0209999997  -999.250000 0.4086900055 2.2579998970  -999.250000 54.984035492 130.63555908 130.48260498 3.1410081387 49.352252960 2.4220941067 2.4220941067
 606.74584961  -999.250000 17.641000748 0.0070000002  -999.250000 0.3632799983 2.2539999485  -999.250000 55.280323029 130.64460754 130.50726318 3.1250383854 52.529342651 2.5018079281 2.5018079281
 606.89825439  -999.250000 17.562999725 0.0040000002  -999.250000 0.3388700187 2.2539999485  -999.250000 56.153896332 130.85554504 130.65478516 3.1329805851 51.228149414 2.6456539631 2.6456539631
 607.05065918  -999.250000 17.500000000 0.0209999997  -999.250000 0.3452099860 2.2750000954  -999.250000 55.470653534 130.97474670 130.80238342 3.1250193119 50.912750244 2.6430070400 2.6430070400
 607.20306396  -999.250000 17.375000000 0.0240000002  -999.250000 0.3408200145 2.2829999924  -999.250000 55.499923706 131.10766602 130.94998169 3.1389663219 51.598346710 2.5392498970 2.5392498970
 607.35546875  -999.250000 17.266000748 0.0130000003  -999.250000 0.3344699740 2.2750000954  -999.250000 53.692352295 131.28486633 131.09756470 3.1579544544 51.038352966 2.4941082001 2.4941082001
 607.50787354  -999.250000 17.562999725 0.0149999997  -999.250000 0.3481400013 2.2790000439  -999.250000 48.635143280 131.43244934 131.24508667 3.1350460052 51.474121094 2.5309257507 2.5309257507
 607.66027832  -999.250000 17.766000748 0.0120000001  -999.250000 0.3750000000 2.2829999924  -999.250000 47.252754211 131.53869629 131.39727783 3.0980741978 51.599746704 2.5000619888 2.5000619888
 607.81268311  -999.250000 17.641000748 0.0140000004  -999.250000 0.3959999979 2.2909998894  -999.250000 47.530433655 131.87333679 131.68258667 3.0660641193 51.475250244 2.4491019249 2.4491019249
 607.96508789  -999.250000 17.718999863 0.0160000008  -999.250000 0.3750000000 2.2909998894  -999.250000 49.933181763 132.79017639 132.62176514 3.0370581150 50.851249695 2.4340300560 2.4340300560
 608.11749268  -999.250000 17.733999252 0.0189999994  -999.250000 0.3676800132 2.2950000763  -999.250000 49.937999725 134.22079468 134.06947327 3.0180380344 50.662376404 2.4320039749 2.4320039749
