# LAS format log file from PETREL
# Project units are specified as depth units
#==================================================================
~Version information
VERS.   2.0:
WRAP.   NO:
#==================================================================
~Well
STRT .m      447.54394531 :
STOP .m      3384.4443359 :
STEP .m     0.00000000 :
NULL .        -999.250000 :
COMP.           : COMPANY
WELL.  31/2-8   : WELL
FLD.            : FIELD
LOC.            : LOCATION
SRVC.           : SERVICE COMPANY
DATE.  2018-09-11 14:48:34   : Log Export Date {yyyy-MM-dd HH:mm:ss}
PROV.           : PROVINCE
UWI.   31/2-8   : UNIQUE WELL ID
API.            : API NUMBER
#==================================================================
~Curve
DEPT .m                   : DEPTH
Lithology_geolink ._      : Lithology_geolink
CALI .in                  : CALI
DRHO .g/cm3               : DRHO
SGR .gAPI                 : SGR
NPHI .m3/m3               : NPHI
RHOB .g/cm3               : RHOB
PEF .b/e                  : PEF
GR .gAPI                  : GR
DTC .us/ft                : DTC
RDEP .ohm.m               : RDEP
SP .mV                    : SP
RSHA .ohm.m               : RSHA
RMED .ohm.m               : RMED
~Parameter
#==================================================================
~Ascii
# ...
 3377.8911133  -999.250000 8.2880001068 0.0199999996 60.030998230 0.2477899939 2.3489999771 5.7729997635 62.666000366  -999.250000 3.3020000458 84.541000366 3.1050000191 3.1050000191
 3378.0434570  -999.250000 8.2709999084 0.0099999998 60.030998230 0.2574599981 2.3420000076 6.9489998817 67.273002625  -999.250000 2.9860000610 83.238998413 2.8280000687 2.8280000687
 3378.1960449  -999.250000 8.3090000153 0.0060000001 60.030998230 0.2698799968 2.3469998837 8.0000000000 65.335998535  -999.250000 2.5510001183 82.483001709 2.9040000439 2.9040000439
 3378.3483887  -999.250000 8.3809995651 0.0060000001 60.030998230 0.2727400064 2.3540000916 8.9139995575 62.084999084  -999.250000 2.3120000362 81.652000427 2.9890000820 2.9890000820
 3378.5007324  -999.250000 8.4589996338 0.0030000000 60.030998230 0.2668400109 2.3529999256 11.421999931 57.365001678  -999.250000 2.2090001106 82.352996826 2.8619999886 2.8619999886
 3378.6530762  -999.250000 8.5000000000 0.0010000000 60.030998230 0.2541099787 2.3340001106 13.211000443 58.067001343  -999.250000 2.1989998817 82.837997437 2.8129999638 2.8129999638
 3378.8056641  -999.250000 8.5399999619 0.0089999996 60.030998230 0.2443799973 2.2809998989 16.062999725 56.092998505  -999.250000 2.2149999142 83.352996826 2.7699999809 2.7699999809
 3378.9580078  -999.250000 8.5050001144 0.0329999998 60.030998230 0.2435899973 2.2460000515 16.125000000 54.084999084  -999.250000 2.2230000496 84.453002930 2.6579999924 2.6579999924
 3379.1103516  -999.250000 8.2110004425 0.0640000030 60.030998230 0.2479999959 2.2379999161 16.062999725 55.151000977  -999.250000 2.2300000191 85.013000488 2.5899999142 2.5899999142
 3379.2626953  -999.250000 7.7670001984 0.0759999976 60.030998230 0.2565400004 2.2390000820 14.250000000 56.313999176  -999.250000 2.2339999676 85.458999634 2.5780000687 2.5780000687
 3379.4150391  -999.250000 7.3530001640 0.0640000030 60.030998230 0.2631399930 2.2309999466 13.156000137 57.777999878  -999.250000 2.2369999886 86.412002563 2.5759999752 2.5759999752
 3379.5676270  -999.250000 7.1550002098 0.0500000007 60.030998230 0.2646499872 2.2239999771 12.663999557 57.756000519  -999.250000 2.2439999580 87.442001343 2.5729999542 2.5729999542
 3379.7199707  -999.250000 7.0440001488 0.0509999990 60.030998230 0.2656999826 2.2190001011 11.968999863 58.104999542  -999.250000 2.2479999065 87.716003418 2.5720000267 2.5720000267
 3379.8723145  -999.250000 6.9470000267 0.0610000007 60.030998230 0.2664600015 2.2130000591 11.343999863 36.148998260  -999.250000 2.2520000935 87.388000488 2.5699999332 2.5699999332
 3380.0246582  -999.250000 6.8819999695 0.0700000003 60.030998230 0.2669500113 2.2090001106 11.741999626 -173.5800018  -999.250000 2.2609999180 86.983001709 2.5699999332 2.5699999332
 3380.1772461  -999.250000 6.8489999771 0.0689999983 60.030998230 0.2674399912 2.2060000896 12.328000069 -404.7139893  -999.250000 2.2750000954 87.263000488 2.5650000572 2.5650000572
 3380.3295898  -999.250000 6.8280000687 0.0710000023 60.030998230 0.2675800025 2.2049999237 13.133000374 -613.7769775  -999.250000 2.2850000858 87.549003601 2.5650000572 2.5650000572
 3380.4819336  -999.250000 6.8150005341 0.0710000023 60.030998230 0.2675800025 2.2000000477 12.819999695 -635.5000000  -999.250000 2.2890000343 88.001998901 2.5680000782 2.5680000782
 3380.6342773  -999.250000 6.8060002327 0.0710000023 60.030998230 0.2675800025 2.1960000992 12.758000374 -635.5000000  -999.250000 2.2890000343 88.280998230 2.5659999847 2.5659999847
 3380.7868652  -999.250000 6.7940001488 0.0670000017 60.030998230 0.2679300010 2.1940000057 12.602000237 -635.5000000  -999.250000 2.2890000343 88.564002991 2.5650000572 2.5650000572
 3380.9392090  -999.250000 6.7870001793 0.0610000007 60.030998230 0.2680699825 2.1930000782 11.913999557 -635.5000000  -999.250000 2.2869999409 88.679000854 2.5639998913 2.5639998913
 3381.0915527  -999.250000 6.7809996605 0.0610000007 60.030998230 0.2680699825 2.1909999847 11.796999931 -635.5000000  -999.250000 2.2890000343 88.972000122 2.5639998913 2.5639998913
 3381.2438965  -999.250000 6.7800002098 0.0700000003 60.030998230 0.2680699825 2.1860001087 11.859000206 -635.5000000  -999.250000 2.2890000343 88.836997986 2.5639998913 2.5639998913
 3381.3962402  -999.250000 6.7779998779 0.0829999968 60.030998230 0.2680699825 2.1800000668 12.109000206 -635.5000000  -999.250000 2.2890000343 88.620002747 2.5639998913 2.5639998913
 3381.5488281  -999.250000 6.7670001984 0.0930000022 60.030998230 0.2680699825 2.1719999313 12.741999626 -635.5000000  -999.250000 2.2890000343 88.226997375 2.5639998913 2.5639998913
 3381.7011719  -999.250000 6.7620000839 0.0939999968 60.030998230 0.2680699825 2.1630001068 12.711000443 -635.5000000  -999.250000 2.2869999409 88.427001953 2.5650000572 2.5650000572
 3381.8535156  -999.250000 6.7620000839 0.0920000002 60.030998230 0.2680699825 2.1549999714 12.515999794 -635.5000000  -999.250000 2.2869999409 88.441001892 2.5659999847 2.5659999847
 3382.0058594  -999.250000 6.7620000839 0.0710000023 60.030998230 0.2680699825 2.1589999199 11.875000000 -635.5000000  -999.250000 2.2890000343 88.632003784 2.5650000572 2.5650000572
 3382.1584473  -999.250000 6.7620000839 0.0520000011 60.030998230 0.2680699825 2.1689999104 12.711000443 -635.5000000  -999.250000 2.2909998894 87.863998413 2.5639998913 2.5639998913
 3382.3107910  -999.250000 6.7620000839 0.0480000004 60.030998230 0.2680699825 2.1789999008 14.187999725 -635.5000000  -999.250000 2.2890000343 88.431999207 2.5639998913 2.5639998913
 3382.4631348  -999.250000 6.7620000839 0.0489999987 60.030998230 0.2680699825 2.1809999943 14.875000000 -635.5000000  -999.250000 2.2890000343 86.616996765 2.5639998913 2.5639998913
 3382.6154785  -999.250000 6.7620000839 0.0480000004 60.030998230 0.2680699825 2.1789999008 13.788999557 -635.5000000  -999.250000 2.2890000343 87.339996338 2.5650000572 2.5650000572
 3382.7680664  -999.250000 6.7620000839 0.0469999984 60.030998230 0.2680699825 2.1770000458 13.663999557 -635.5000000  -999.250000 2.2890000343 87.888000488 2.5659999847 2.5659999847
 3382.9204102  -999.250000 6.7620000839 0.0460000001 60.030998230 0.2680699825 2.1749999523 13.375000000 -635.5000000  -999.250000 2.2890000343 88.226997375 2.5650000572 2.5650000572
 3383.0727539  -999.250000 6.7620000839 0.0430000015 60.030998230 0.2680699825 2.1710000038 13.305000305 -635.5000000  -999.250000 2.2869999409 88.079002380 2.5650000572 2.5650000572
 3383.2250977  -999.250000 6.7620000839 0.0419999994 60.030998230 0.2680699825 2.1689999104 12.156000137 -635.5000000  -999.250000 2.2869999409 87.380996704 2.5659999847 2.5659999847
 3383.3774414  -999.250000 6.7620000839 0.0439999998 60.030998230 0.2680699825 2.1700000763 12.171999931 -635.5000000  -999.250000 2.2869999409 87.393997192 2.5650000572 2.5650000572
 3383.5300293  -999.250000 6.7620000839 0.0520000011 60.030998230 0.2680699825 2.1800000668 12.897999763 -635.5000000  -999.250000 2.2860000134 86.483001709 2.5639998913 2.5639998913
 3383.6823730  -999.250000 6.7649998665 0.0529999994 60.030998230 0.2680699825 2.1849999428 14.250000000 -635.5000000  -999.250000 2.2899999619 86.174003601 2.5639998913 2.5639998913
 3383.8347168  -999.250000 6.7659993172 0.0460000001 60.030998230 0.2680699825 2.1789999008 13.937999725 -635.5000000  -999.250000 2.2860000134 86.138000488 2.5650000572 2.5650000572
 3383.9870605  -999.250000 6.7659993172 0.0410000011 60.030998230 0.2680699825 2.1700000763 13.031000137 -635.5000000  -999.250000 2.2869999409 85.988998413 2.5659999847 2.5659999847
 3384.1396484  -999.250000 6.7659993172 0.0390000008 60.030998230 0.2680699825 2.1649999619 11.977000237 -635.5000000  -999.250000 2.2869999409 85.704002380 2.5650000572 2.5650000572
 3384.2919922  -999.250000 6.7659993172 0.0430000015 60.030998230 0.2680699825 2.1700000763 11.765999794 -635.5000000  -999.250000 2.2869999409 86.841003418 2.5650000572 2.5650000572
 3384.4443359  -999.250000 7.0770001411 0.0450000018 60.030998230 0.2680699825 2.1749999523 12.086000443 -635.5000000  -999.250000 2.2890000343 87.614997864 2.5659999847 2.5659999847
