# LAS format log file from PETREL
# Project units are specified as depth units
#==================================================================
~Version information
VERS.   2.0:
WRAP.   NO:
#==================================================================
~Well
STRT .m      416.08499146 :
STOP .m      2599.3679199 :
STEP .m     0.00000000 :
NULL .        -999.250000 :
COMP.           : COMPANY
WELL.  31/2-2 R   : WELL
FLD.            : FIELD
LOC.            : LOCATION
SRVC.           : SERVICE COMPANY
DATE.  2018-09-11 14:48:33   : Log Export Date {yyyy-MM-dd HH:mm:ss}
PROV.           : PROVINCE
UWI.   31/2-2 R   : UNIQUE WELL ID
API.            : API NUMBER
#==================================================================
~Curve
DEPT .m                   : DEPTH
Lithology_geolink ._      : Lithology_geolink
CALI .in                  : CALI
DRHO .g/cm3               : DRHO
NPHI .m3/m3               : NPHI
RHOB .g/cm3               : RHOB
GR .gAPI                  : GR
DTC .us/ft                : DTC
RDEP .ohm.m               : RDEP
SP .mV                    : SP
RSHA .ohm.m               : RSHA
RMED .ohm.m               : RMED
~Parameter
#==================================================================
~Ascii
# ...
 851.33947754  -999.250000 20.758001328 0.0049999999 0.5916600227 1.8890000582 55.321647644 162.93540955 1.1700096130 3.7777514458  -999.250000 1.1930143833
 851.49188232  -999.250000 20.829002380 0.0109999999 0.5859999657 1.8990000486 54.462028503 163.43200684 1.1620095968 3.7859904766  -999.250000 1.1740227938
 851.64428711  -999.250000 20.756000519 0.0179999992 0.5757799745 1.9019999504 54.568870544 163.81423950 1.1560071707 3.5942308903  -999.250000 1.1660096645
 851.79669189  -999.250000 21.048000336 0.0120000001 0.5688800216 1.8960000277 53.953739166 164.00662231 1.1530035734 3.7168521881  -999.250000 1.1590085030
 851.94909668  -999.250000 20.247001648 0.0040000002 0.5573099852 1.8839999437 53.016124725 164.19761658 1.1510024071 3.8148822784  -999.250000 1.1639940739
 852.10150146  -999.250000 20.475999832 -0.004000000 0.5112500191 1.8569999933 52.856189728 164.41256714 1.1510000229 3.5003783703  -999.250000 1.1640000343
 852.25390625  -999.250000 20.263002396 -0.004000000 0.5065700412 1.8500000238 53.976104736 164.78225708 1.1510000229 3.0293774605  -999.250000 1.1649991274
 852.40631104  -999.250000 20.065999985 -0.003000000 0.5128300190 1.8589999676 55.463809967 165.20115662 1.1510000229 2.7162508965  -999.250000 1.1649999619
 852.55871582  -999.250000 21.083999634 0.0030000000 0.5132499933 1.8880000114 56.489181519 165.79481506 1.1519991159 2.6460559368  -999.250000 1.1689968109
 852.71112061  -999.250000 20.381999969 0.0130000003 0.5074899793 1.9119999409 56.801746368 165.94070435 1.1549975872 2.6539936066  -999.250000 1.1660023928
 852.86352539  -999.250000 21.910001755 0.0170000009 0.5618500113 1.9249999523 57.214668274 165.67553711 1.1569983959 2.6619935036  -999.250000 1.1669992208
 853.01593018  -999.250000 21.412998199 0.0070000002 0.5654499531 1.9240000248 58.371074677 165.32569885 1.1589984894 2.6699936390  -999.250000 1.1670000553
 853.16833496  -999.250000 20.906000137 -0.002000000 0.5585899949 1.9140000343 60.026672363 164.13591003 1.1599991322 2.6779935360  -999.250000 1.1670000553
 853.32073975  -999.250000 21.106000900 -0.003000000 0.4968700111 1.9149999619 58.931877136 164.02616882 1.1619983912 2.8848342896  -999.250000 1.1679991484
 853.47308350  -999.250000 20.933998108 -0.001000000 0.4797900021 1.9119999409 58.033081055 164.37330627 1.1639976501 2.6942293644  -999.250000 1.1679999828
 853.62548828  -999.250000 20.010999680 0.0000000000 0.5111600161 1.9019999504 56.960289001 164.96682739 1.1649987698 2.7019903660  -999.250000 1.1779879332
 853.77789307  -999.250000 19.746000290 0.0020000001 0.5223399997 1.8899999857 56.164955139 165.10171509 1.1659988165 2.7099905014  -999.250000 1.1859903336
 853.93029785  -999.250000 20.163999557 0.0049999999 0.5429700017 1.8919999599 55.472831726 164.82754517 1.1660000086 2.9167513847  -999.250000 1.1929914951
 854.08270264  -999.250000 20.794000626 0.0000000000 0.5428699851 1.8880000114 54.999568939 164.56353760 1.1660000086 3.0118858814  -999.250000 1.1929999590
 854.23510742  -999.250000 20.649999619 0.0020000001 0.5387099981 1.8710000515 55.946861267 164.27856445 1.1660000086 2.8442020416  -999.250000 1.1860084534
 854.38751221  -999.250000 20.886999130 -0.002000000 0.5300899744 1.8350000381 58.431007385 164.54843140 1.1640015841 2.5432412624  -999.250000 1.1790056229
 854.53991699  -999.250000 20.261999130 -0.003000000 0.5308399796 1.8150000572 59.249343872 165.14179993 1.1620014906 2.7498342991  -999.250000 1.1819976568
 854.69232178  -999.250000 20.493999481 -0.007000000 0.5180500150 1.8190000057 57.848125458 165.73480225 1.1610008478 2.7579934597  -999.250000 1.1820000410
 854.84472656  -999.250000 20.760000229 -0.007000000 0.5134000182 1.8400000334 55.058235168 166.04437256 1.1639976501 2.8709094524  -999.250000 1.1829991341
 854.99713135  -999.250000 20.427000046 -0.007000000 0.4948099852 1.8450000286 54.116752625 166.01904297 1.1659984589 2.7870671749  -999.250000 1.1829999685
 855.14953613  -999.250000 19.514999390 -0.003000000 0.5042300224 1.8279999495 53.166759491 165.73445129 1.1640015841 3.4934337139  -999.250000 1.1839991808
 855.30194092  -999.250000 19.763999939 0.0020000001 0.5119400024 1.8059999943 52.240741730 165.17190552 1.1610023975 3.7857661247  -999.250000 1.1840000153
 855.45428467  -999.250000 19.885002136 0.0030000000 0.5291199684 1.7979999781 51.618747711 164.61412048 1.1550071239 3.7939903736  -999.250000 1.1849987507
 855.60668945  -999.250000 20.861999512 0.0010000000 0.5500900149 1.7999999523 51.517120361 164.71380615 1.1530023813 4.3283572197  -999.250000 1.1849999428
 855.75909424  -999.250000 21.211000443 0.0000000000 0.5478200316 1.8070000410 51.897541046 165.10719299 1.1510024071 4.2081456184  -999.250000 1.1780084372
 855.91149902  -999.250000 20.528999329 0.0000000000 0.5656899810 1.8190000057 53.761756897 165.70080566 1.1500011683 3.5298159122  -999.250000 1.1750035286
 856.06390381  -999.250000 20.100999832 0.0010000000 0.5572000146 1.8289999962 56.359874725 166.27185059 1.1490012407 3.1374709606  -999.250000 1.1759988070
 856.21630859  -999.250000 20.909000397 -0.002000000 0.5524799824 1.8350000381 58.679214478 166.88876343 1.1480011940 2.8383593559  -999.250000 1.1600191593
 856.36871338  -999.250000 20.482000351 -0.004000000 0.5096799731 1.8250000477 58.004543304 167.16345215 1.1470007896 2.8459935188  -999.250000 1.1649959087
 856.52111816  -999.250000 19.673999786 -0.010000000 0.5036699772 1.7929999828 56.183460236 167.03027344 1.1460008621 2.8779742718  -999.250000 1.1689968109
 856.67352295  -999.250000 19.416000366 -0.015000000 0.4988000095 1.7690000534 55.421611786 166.28749084 1.1469991207 2.9859135151  -999.250000 1.1690000296
 856.82592773  -999.250000 19.572000504 -0.016000001 0.5062800050 1.7699999809 56.266319275 164.65428162 1.1479991674 3.0869190693  -999.250000 1.1640040874
 856.97833252  -999.250000 19.191999435 -0.012000000 0.5331400037 1.7869999409 58.593135834 163.21388245 1.1499984264 3.1659367085  -999.250000 1.1520096064
 857.13073730  -999.250000 18.929000854 -0.009000000 0.5519900322 1.7999999523 60.144756317 162.68305969 1.1509991884 3.2449367046  -999.250000 1.1729831696
 857.28314209  -999.250000 18.760999680 -0.009000000 0.5982699990 1.7970000505 59.455554962 163.19317627 1.1519991159 3.3679015636  -999.250000 1.1739991903
 857.43554688  -999.250000 18.478000641 -0.007000000 0.5751599669 1.7999999523 58.038135529 163.96376038 1.1559967995 3.5478558540  -999.250000 1.1740000248
 857.58789063  -999.250000 18.391000748 -0.006000000 0.5766599774 1.7990000248 56.564769745 164.49893188 1.1560000181 3.7317790985  -999.250000 1.1730011702
 857.74029541  -999.250000 18.469999313 -0.008000000 0.5379700065 1.8120000362 56.449138641 164.59181213 1.1550011635 3.9407489300  -999.250000 1.1710023880
 857.89270020  -999.250000 18.493999481 -0.008000000 0.5626199841 1.8329999447 57.157150269 164.40037537 1.1530023813 4.4693641663  -999.250000 1.1690024137
 858.04510498  -999.250000 18.406000137 -0.003000000 0.5766199827 1.8539999723 57.106060028 163.90399170 1.1500035524 4.2712388039  -999.250000 1.1670024395
 858.19750977  -999.250000 18.403999329 0.0010000000 0.6226400137 1.8519999981 55.332134247 163.76828003 1.1460047960 3.5478696823  -999.250000 1.1640036106
 858.34991455  -999.250000 18.412000656 -0.001000000 0.5979800224 1.8209999800 54.273269653 163.85981750 1.1420047283 3.5469999313  -999.250000 1.1620023251
 858.50231934  -999.250000 18.545000076 -0.007000000 0.6043399572 1.7940000296 54.468845367 164.43385315 1.1380032301 3.1573126316  -999.250000 1.1600015163
 858.65472412  -999.250000 18.659999847 -0.009000000 0.5941100121 1.7949999571 55.179431915 165.31623840 1.1350023746 3.1729872227  -999.250000 1.1570023298
 858.80712891  -999.250000 18.663000107 -0.008000000 0.5987799764 1.8229999542 55.422805786 166.11041260 1.1349999905 4.2721185684  -999.250000 1.1550015211
 858.95953369  -999.250000 18.641000748 -0.006000000 0.5470600128 1.8550000191 55.561889648 167.00321960 1.1349999905 4.3899059296  -999.250000 1.1530015469
