# LAS format log file from PETREL
# Project units are specified as depth units
#==================================================================
~Version information
VERS.   2.0:
WRAP.   NO:
#==================================================================
~Well
STRT .m      416.08499146 :
STOP .m      2599.3679199 :
STEP .m     0.00000000 :
NULL .        -999.250000 :
COMP.           : COMPANY
WELL.  31/2-2 R   : WELL
FLD.            : FIELD
LOC.            : LOCATION
SRVC.           : SERVICE COMPANY
DATE.  2018-09-11 14:48:33   : Log Export Date {yyyy-MM-dd HH:mm:ss}
PROV.           : PROVINCE
UWI.   31/2-2 R   : UNIQUE WELL ID
API.            : API NUMBER
#==================================================================
~Curve
DEPT .m                   : DEPTH
Lithology_geolink ._      : Lithology_geolink
CALI .in                  : CALI
DRHO .g/cm3               : DRHO
NPHI .m3/m3               : NPHI
RHOB .g/cm3               : RHOB
GR .gAPI                  : GR
DTC .us/ft                : DTC
RDEP .ohm.m               : RDEP
SP .mV                    : SP
RSHA .ohm.m               : RSHA
RMED .ohm.m               : RMED
~Parameter
#==================================================================
~Ascii
# ...
 1138.9183350 5.0000000000 19.003000259 0.0080000004 0.5429300070 1.9850000143 38.427097321 144.38116455 0.8800120354 11.310093880  -999.250000 0.8990248442
 1139.0708008 19.000000000 18.863000870 0.0170000009 0.5458499789 2.0099999905 38.446998596 141.32389832 0.8610152006 11.194092751  -999.250000 0.8720216155
 1139.2231445 19.000000000 19.010999680 0.0060000001 0.5350999832 1.9989999533 40.339481354 139.14024353 0.8410160542 11.077093124  -999.250000 0.8530151844
 1139.3756104 19.000000000 18.912000656 -0.002000000 0.5332700014 1.9850000143 42.090000153 139.41055298 0.8220152259 10.960093498  -999.250000 0.8330160379
 1139.5279541 19.000000000 18.822000504 -0.003000000 0.5658500195 1.9839999676 42.068019867 140.88163757 0.8040144444 10.863077164  -999.250000 0.8060216308
 1139.6804199 19.000000000 18.767000198 0.0049999999 0.5762799978 2.0060000420 41.261001587 144.42031860 0.7880128026 10.865997314  -999.250000 0.7900128365
 1139.8327637 19.000000000 18.934999466 0.0160000008 0.5614799857 2.0380001068 39.329547882 147.60989380 0.7840031981 10.880987167  -999.250000 0.7900000215
 1139.9851074 19.000000000 18.905000687 0.0199999996 0.5233700275 2.0590000153 39.104179382 149.36479187 0.7839999795 11.720653534  -999.250000 0.8299359083
 1140.1375732 19.000000000 18.632999420 0.0140000004 0.5172299743 2.0590000153 39.510677338 147.54393005 0.7919935584 11.957811356  -999.250000 0.8569783568
 1140.2899170 19.000000000 18.871999741 0.0080000004 0.5054199696 2.0559999943 39.855724335 146.33091736 0.8009855747 12.062831879  -999.250000 0.8769679666
 1140.4423828 19.000000000 19.218000412 0.0120000001 0.4924899936 2.0559999943 39.575000763 146.03446960 0.8079944253 11.637341499  -999.250000 0.8899895549
 1140.5947266 19.000000000 18.777999878 0.0040000002 0.4866099954 2.0439999104 39.192306519 145.50726318 0.8109951615 11.211682320  -999.250000 0.8989855647
 1140.7471924 19.000000000 18.684999466 0.0010000000 0.4689799845 2.0290000439 38.694999695 145.58287048 0.8040056229 10.862279892  -999.250000 0.8980007768
 1140.8995361 19.000000000 18.728000641 -0.009000000 0.4654000103 2.0120000839 37.151237488 146.91479492 0.7920095921 10.545253754  -999.250000 0.8740192652
 1141.0520020 19.000000000 18.966999054 -0.004000000 0.4357899725 2.0030000210 36.174999237 149.43795776 0.7810088396 10.345160484  -999.250000 0.8340319991
 1141.2043457 19.000000000 18.552999496 -0.002000000 0.4569800198 1.9930000305 35.804298401 152.72908020 0.7690095901 10.533848763  -999.250000 0.8010264635
 1141.3568115 19.000000000 18.443000793 -0.002000000 0.4613000154 1.9819999933 35.807998657 154.56906128 0.7580088377 10.716853142  -999.250000 0.7810160518
 1141.5091553 19.000000000 18.320999146 0.0000000000 0.5207999945 1.9859999418 35.417312622 154.49517822 0.7460095882 10.830908775  -999.250000 0.7740055919
 1141.6616211 19.000000000 18.504999161 -0.003000000 0.5249300003 1.9789999723 34.526000977 154.28833008 0.7340096235 10.907938004  -999.250000 0.7879887819
 1141.8139648 19.000000000 18.801000595 -0.005000000 0.5949299932 1.9759999514 34.024398804 154.36985779 0.7310023904 10.885018349  -999.250000 0.7989912033
 1141.9663086 19.000000000 18.643999100 -0.002000000 0.5478699803 1.9639999866 34.026996613 154.99949646 0.7359920144 10.861038208  -999.250000 0.8069871664
 1142.1187744 19.000000000 18.702999115 -0.001000000 0.5400599837 1.9600000381 34.030994415 155.40036011 0.7439935803 10.837018967  -999.250000 0.8069999814
 1142.2711182 19.000000000 18.780000687 -0.001000000 0.4903599918 1.9500000477 34.034996033 155.25935364 0.7529855967 10.814037323  -999.250000 0.8069999814
 1142.4235840 19.000000000 18.701000214 -0.010000000 0.4996099770 1.9490000010 34.039001465 154.61203003 0.7629920244 10.790019035  -999.250000 0.8069999814
 1142.5759277 19.000000000 18.643999100 -0.008000000 0.5338499546 1.9589999914 34.699470520 153.18743896 0.7729839683 10.766037941  -999.250000 0.8089967966
 1142.7283936 19.000000000 18.746000290 -0.008000000 0.5461599827 1.9850000143 36.708999634 151.14230347 0.7829920053 10.743018150  -999.250000 0.8129968047
 1142.8807373 19.000000000 19.091999054 -0.003000000 0.5407199860 2.0120000839 37.783138275 149.26451111 0.7929919958 11.019778252  -999.250000 0.8399783373
 1143.0332031 19.000000000 18.722999573 -0.001000000 0.5107799768 2.0409998894 38.221000671 147.19731140 0.8029919863 11.302773476  -999.250000 0.8679775596
 1143.1855469 19.000000000 18.638000488 0.0250000004 0.4666999876 2.0739998817 38.049137115 146.17944336 0.8139911890 11.351961136  -999.250000 0.8899823427
 1143.3380127 19.000000000 18.711000443 0.0370000005 0.4934099913 2.0869998932 38.053001404 145.36331177 0.8269895911 11.355997086  -999.250000 0.9019904137
 1143.4903564 19.000000000 18.527000427 0.0410000011 0.4889300168 2.0780000687 37.797206879 144.77839661 0.8399895430 11.359996796  -999.250000 0.9119920135
 1143.6428223 19.000000000 18.340999603 0.0250000004 0.5235800147 2.0510001183 36.931999207 145.16937256 0.8469944000 11.363997459  -999.250000 0.9139983654
 1143.7951660 19.000000000 18.429000854 0.0120000001 0.5287100077 2.0309998989 36.836074829 145.69914246 0.8519960046 11.354007721  -999.250000 0.8980128169
 1143.9475098 19.000000000 18.584999084 0.0099999998 0.5892400146 2.0329999924 38.376762390 145.65510559 0.8559936285 11.014544487  -999.250000 0.8830240369
 1144.0999756 19.000000000 18.773000717 0.0060000001 0.5868899822 2.0429999828 39.689949036 145.61007690 0.8550007939 10.674272537  -999.250000 0.8909935355
 1144.2523193 19.000000000 18.709999084 0.0099999998 0.5808599591 2.0529999733 39.300312042 145.33966064 0.8540015817 10.581149101  -999.250000 0.9059759974
 1144.4047852 19.000000000 18.745000839 0.0020000001 0.5281199813 2.0439999104 38.303001404 145.50971985 0.8549992442 10.583996773  -999.250000 0.9149928093
 1144.5571289 19.000000000 18.725999832 -0.001000000 0.4907699823 2.0309998989 37.286811829 145.52397156 0.8550000191 10.587993622  -999.250000 0.9249839783
 1144.7095947 19.000000000 18.989000320 -0.007000000 0.4779299796 2.0179998875 37.143001556 145.29936218 0.8550000191 10.591997147  -999.250000 0.9369903803
 1144.8619385 19.000000000 19.000999451 -0.003000000 0.4784299731 2.0139999390 36.996116638 145.29301453 0.8520023823 10.679929733  -999.250000 0.9509887695
 1145.0144043 19.000000000 18.798000336 0.0010000000 0.4819599986 2.0099999905 36.284000397 145.37586975 0.8470039964 10.884836197  -999.250000 0.9500007629
 1145.1667480 19.000000000 18.708000183 0.0020000001 0.4636799991 2.0020000935 34.953067780 145.58248901 0.8420040011 11.089836121  -999.250000 0.9330136776
 1145.3192139 19.000000000 18.707000732 0.0060000001 0.4727900028 2.0050001144 33.710998535 145.96139526 0.8300095797 11.294836044  -999.250000 0.9110176563
 1145.4715576 19.000000000 18.843999863 0.0149999997 0.4714300036 2.0139999390 33.365280151 146.55957031 0.8180096149 11.299996376  -999.250000 0.8960120678
 1145.6240234 19.000000000 19.013999939 0.0160000008 0.4932300150 2.0130000114 33.631999969 146.66383362 0.8070088029 11.063189507  -999.250000 0.8800128102
 1145.7763672 19.000000000 19.136999130 0.0040000002 0.5289599895 1.9950000048 34.658176422 146.86268616 0.7950096130 10.826189995  -999.250000 0.8750039935
 1145.9288330 19.000000000 19.062999725 0.0010000000 0.5539500117 1.9850000143 35.349998474 147.65771484 0.7840088010 10.886951447  -999.250000 0.8690048456
 1146.0811768 19.000000000 18.951000214 0.0089999996 0.5454999804 1.9880000353 35.713001251 148.23606873 0.7750071883 10.956943512  -999.250000 0.8640040159
 1146.2335205 19.000000000 18.891000748 0.0170000009 0.5148699880 1.9960000515 35.930999756 148.77470398 0.7670128345 11.027886391  -999.250000 0.8580095768
 1146.3859863 19.000000000 18.875999451 0.0160000008 0.5092399716 2.0009999275 35.905998230 149.76341248 0.7590064406 11.098942757  -999.250000 0.8540031910
 1146.5383301 19.000000000 18.875000000 0.0189999994 0.5160700083 2.0099999905 35.938999176 149.83782959 0.7520111799 11.169886589  -999.250000 0.8500064015
