# LAS format log file from PETREL
# Project units are specified as depth units
#==================================================================
~Version information
VERS.   2.0:
WRAP.   NO:
#==================================================================
~Well
STRT .m      445.17501831 :
STOP .m      1838.8730469 :
STEP .m     0.00000000 :
NULL .        -999.250000 :
COMP.           : COMPANY
WELL.  31/2-10   : WELL
FLD.            : FIELD
LOC.            : LOCATION
SRVC.           : SERVICE COMPANY
DATE.  2018-09-11 14:48:32   : Log Export Date {yyyy-MM-dd HH:mm:ss}
PROV.           : PROVINCE
UWI.   31/2-10   : UNIQUE WELL ID
API.            : API NUMBER
#==================================================================
~Curve
DEPT .m                   : DEPTH
Lithology_geolink ._      : Lithology_geolink
CALI .in                  : CALI
DRHO .g/cm3               : DRHO
NPHI .m3/m3               : NPHI
RHOB .g/cm3               : RHOB
PEF .b/e                  : PEF
GR .gAPI                  : GR
DTC .us/ft                : DTC
RDEP .ohm.m               : RDEP
SP .mV                    : SP
RSHA .ohm.m               : RSHA
RMED .ohm.m               : RMED
~Parameter
#==================================================================
~Ascii
# ...
 1001.1302490  -999.250000 17.726999283 -0.010000000 0.4254399836 2.1080000401 3.8020000458 65.689903259 145.51208496 1.3580048084 61.643787384  -999.250000 1.1979999542
 1001.2826538  -999.250000 17.733999252 -0.014000000 0.4208999872 2.1080000401 3.4890000820 68.065055847 143.29400635 1.3639831543 61.377998352  -999.250000 1.1979863644
 1001.4350586  -999.250000 17.656000137 -0.013000000 0.4176400006 2.0959999561 3.6700000763 70.627250671 143.95271301 1.3429832458 61.378280640  -999.250000 1.1809928417
 1001.5874634  -999.250000 17.641000748 -0.002000000 0.3978699744 2.0889999866 4.0409998894 72.501800537 145.76475525 1.3289759159 61.613616943  -999.250000 1.1750059128
 1001.7398682  -999.250000 17.653999329 0.0049999999 0.3745099902 2.0720000267 4.7630000114 73.997520447 149.01963806 1.3089796305 62.128017426  -999.250000 1.1799879074
 1001.8922729  -999.250000 17.746999741 0.0120000001 0.4312399924 2.0599999428 4.8550000191 71.937026978 151.60702515 1.2919903994 62.144317627  -999.250000 1.1699807644
 1002.0446777  -999.250000 17.974000931 0.0120000001 0.4930099845 2.0439999104 5.0789999962 71.118995667 152.36965942 1.2839940786 62.408683777  -999.250000 1.1539484262
 1002.1970825  -999.250000 18.003000259 0.0189999994 0.4911299944 2.0460000038 5.3070001602 66.121994019 151.32231140 1.2789868116 62.144565582  -999.250000 1.1109819412
 1002.3494263  -999.250000 18.142999649 0.0189999994 0.4631299973 2.0520000458 5.2719998360 63.625000000 149.31153870 1.2679952383 62.612808228  -999.250000 1.0959984064
 1002.5018311  -999.250000 17.858999252 0.0140000004 0.4946300089 2.0490000248 5.1050000191 63.624698639 148.41967773 1.2619935274 62.377811432  -999.250000 1.0940176249
 1002.6541748  -999.250000 17.641000748 0.0080000004 0.5080599785 2.0460000038 4.8920001984 63.250236511 149.05755615 1.2540043592 62.143993378  -999.250000 1.1160116196
 1002.8065796  -999.250000 17.608999252 0.0089999996 0.5011399984 2.0399999619 4.9889998436 63.843864441 150.70141602 1.2650067806 62.127693176  -999.250000 1.1450059414
 1002.9589844  -999.250000 17.544000626 0.0099999998 0.4706100225 2.0439999104 5.3480000496 63.502052307 151.98802185 1.2820111513 61.363086700  -999.250000 1.1600035429
 1003.1113892  -999.250000 17.492000580 0.0199999996 0.5157300234 2.0599999428 5.4819998741 68.626174927 151.23985291 1.3100047112 61.580905914  -999.250000 1.1690015793
 1003.2637939  -999.250000 17.549999237 0.0149999997 0.5189599991 2.0629999638 5.7179999352 71.563301086 149.81094360 1.3220059872 61.347000122  -999.250000 1.1730031967
 1003.4161987  -999.250000 17.875000000 0.0089999996 0.5159500241 2.0610001087 5.4330000877 72.313331604 147.82823181 1.3370003700 61.346992493  -999.250000 1.1809967756
 1003.5686035  -999.250000 18.068000793 0.0040000002 0.4533599913 2.0510001183 5.4130001068 73.123802185 147.83192444 1.3379880190 61.330600739  -999.250000 1.1729903221
 1003.7210083  -999.250000 18.197999954 0.0010000000 0.4596399963 2.0499999523 4.8590002060 71.625953674 147.63180542 1.3229879141 60.831401825  -999.250000 1.1609911919
 1003.8734131  -999.250000 18.035999298 0.0030000000 0.4251300097 2.0569999218 5.3390002251 72.812751770 147.05462646 1.3079943657 61.330814362  -999.250000 1.1499991417
 1004.0257568  -999.250000 17.986999512 0.0010000000 0.4606299996 2.0629999638 5.7239999771 72.501502991 148.82565308 1.3009959459 61.097305298  -999.250000 1.1490020752
 1004.1781616  -999.250000 17.879999161 0.0030000000 0.4496999979 2.0480000973 6.1979999542 76.249801636 150.42436218 1.2909955978 61.862998962  -999.250000 1.1539971828
 1004.3305664  -999.250000 17.754999161 0.0089999996 0.4877299964 2.0380001068 5.5780000687 75.747474670 152.01525879 1.2800052166 61.862792969  -999.250000 1.1469975710
 1004.4829712  -999.250000 18.242000580 0.0109999999 0.4899899960 2.0350000858 4.9520001411 69.437377930 153.09857178 1.2930047512 61.347301483  -999.250000 1.1409984827
 1004.6353760  -999.250000 19.099000931 0.0070000002 0.4952799976 2.0469999313 4.8979997635 67.874496460 151.45864868 1.3050031662 62.097007751  -999.250000 1.1370059252
 1004.7877808  -999.250000 17.908000946 0.0070000002 0.4811100066 2.0620000362 5.4790000916 66.626373291 148.33154297 1.3129991293 62.113204956  -999.250000 1.1520031691
 1004.9401855  -999.250000 17.641000748 0.0049999999 0.4544100165 2.0690000057 7.3359999657 70.062477112 146.12684631 1.3110003471 62.628196716  -999.250000 1.1600019932
 1005.0925903  -999.250000 17.562000275 0.0089999996 0.4281300008 2.0769999027 9.4460000992 68.751701355 145.42655945 1.3120028973 63.112693787  -999.250000 1.1649975777
 1005.2449951  -999.250000 17.547000885 0.0060000001 0.4262699783 2.0720000267 9.1590003967 73.000427246 144.48268127 1.3190076351 62.363605499  -999.250000 1.1589980125
 1005.3973999  -999.250000 17.482000351 0.0070000002 0.4230899811 2.0720000267 7.2789998055 74.064605713 145.18795776 1.3380029202 63.877803802  -999.250000 1.1540044546
 1005.5498047  -999.250000 17.156000137 0.0080000004 0.4390599728 2.0739998817 5.9660000801 78.060852051 146.53326416 1.3450056314 63.394615173  -999.250000 1.1650135517
 1005.7022095  -999.250000 16.975999832 0.0099999998 0.4334299862 2.0840001106 5.8060002327 75.376701355 146.53637695 1.3519991636 64.158210754  -999.250000 1.1820056438
 1005.8546143  -999.250000 17.017999649 0.0120000001 0.4397799969 2.0989999771 6.6690001488 77.496994019 145.79133606 1.3509902954 63.175197601  -999.250000 1.1889791489
 1006.0069580  -999.250000 17.056999207 0.0099999998 0.4283800125 2.1080000401 7.2630000114 73.748748779 145.16322327 1.3389940262 63.424987793  -999.250000 1.1629855633
 1006.1593628  -999.250000 17.101999283 0.0049999999 0.4156000018 2.1059999466 6.8590002060 70.624702454 145.20831299 1.3239984512 63.408805847  -999.250000 1.1269863844
 1006.3117676  -999.250000 17.160999298 0.0030000000 0.3716400266 2.1050000191 6.1979999542 69.875022888 145.62986755 1.3200056553 62.924800873  -999.250000 1.0930136442
 1006.4641724  -999.250000 17.197999954 0.0049999999 0.3657199740 2.1050000191 6.1640000343 69.937179565 145.15559387 1.3340015411 62.440906525  -999.250000 1.1270176172
 1006.6165771  -999.250000 17.267999649 0.0049999999 0.3483000100 2.1119999886 6.6880002022 67.873023987 144.45146179 1.3380008936 62.206001282  -999.250000 1.1710140705
 1006.7689819  -999.250000 17.281000137 0.0020000001 0.3675299883 2.1199998856 6.4310002327 62.937385559 142.65411377 1.3400112391 62.206394196  -999.250000 1.2060015202
 1006.9213867  -999.250000 17.281000137 -0.005000000 0.3855099976 2.1289999485 6.2779998779 61.407138824 140.72599792 1.3680071831 63.190898895  -999.250000 1.2099956274
 1007.0737915  -999.250000 17.319999695 -0.004000000 0.3841100037 2.1389999390 6.0110001564 64.249977112 140.19430542 1.3859928846 62.925193787  -999.250000 1.1989976168
 1007.2261963  -999.250000 17.327999115 -0.010000000 0.3959199786 2.1289999485 5.9060001373 64.188606262 141.53723145 1.3679944277 63.424800873  -999.250000 1.1930011511
 1007.3786011  -999.250000 17.406000137 -0.009000000 0.3829700053 2.1270000935 5.6830000877 65.689155579 142.56431580 1.3539987803 62.941005707  -999.250000 1.1960035563
 1007.5310059  -999.250000 17.500000000 -0.012000000 0.3941299915 2.1199998856 5.8880000114 68.564529419 144.02009583 1.3509951830 62.956199646  -999.250000 1.2050048113
 1007.6834106  -999.250000 17.541999817 -0.011000000 0.3961600065 2.1210000515 6.4099998474 72.375152588 144.39907837 1.3389903307 63.455986023  -999.250000 1.2170112133
 1007.8358154  -999.250000 17.455999374 -0.009000000 0.4069900215 2.1129999161 6.9790000916 72.563102722 143.77912903 1.3270015717 63.441188812  -999.250000 1.2309758663
 1007.9882202  -999.250000 17.306999207 -0.006000000 0.4295399785 2.1080000401 7.1199998856 72.684349060 143.19969177 1.3289799690 63.674991608  -999.250000 1.2009687424
 1008.1405640  -999.250000 16.825000763 -0.002000000 0.4254499674 2.1059999466 7.3280000687 68.125373840 141.94044495 1.3039888144 63.658988953  -999.250000 1.1619827747
 1008.2929688  -999.250000 16.604000092 0.0060000001 0.3851499856 2.1099998951 7.7649998665 69.062126160 142.09608459 1.2759968042 63.643993378  -999.250000 1.1190052032
