# LAS format log file from PETREL
# Project units are specified as depth units
#==================================================================
~Version information
VERS.   2.0:
WRAP.   NO:
#==================================================================
~Well
STRT .m      447.54394531 :
STOP .m      3384.4443359 :
STEP .m     0.00000000 :
NULL .        -999.250000 :
COMP.           : COMPANY
WELL.  31/2-8   : WELL
FLD.            : FIELD
LOC.            : LOCATION
SRVC.           : SERVICE COMPANY
DATE.  2018-09-11 14:48:34   : Log Export Date {yyyy-MM-dd HH:mm:ss}
PROV.           : PROVINCE
UWI.   31/2-8   : UNIQUE WELL ID
API.            : API NUMBER
#==================================================================
~Curve
DEPT .m                   : DEPTH
Lithology_geolink ._      : Lithology_geolink
CALI .in                  : CALI
DRHO .g/cm3               : DRHO
SGR .gAPI                 : SGR
NPHI .m3/m3               : NPHI
RHOB .g/cm3               : RHOB
PEF .b/e                  : PEF
GR .gAPI                  : GR
DTC .us/ft                : DTC
RDEP .ohm.m               : RDEP
SP .mV                    : SP
RSHA .ohm.m               : RSHA
RMED .ohm.m               : RMED
~Parameter
#==================================================================
~Ascii
# ...
 2794.5039063 6.0000000000 8.5570001602 0.0140000004 78.813003540 0.3333700299 2.4100000858 4.1290001869 68.591415405 89.879585266 2.1419999599 60.174705505 3.3420000076 3.3420000076
 2794.6562500 2.0000000000 8.4289999008 0.0040000002 68.250000000 0.3097999990 2.3519999981 4.2620000839 59.111362457 89.945106506 1.9370000362 59.770290375 2.6949999332 2.6949999332
 2794.8088379 2.0000000000 8.3710002899 -0.002000000 63.594001770 0.2863900065 2.3250000477 4.1719999313 57.135124207 89.580047607 1.7690000534 59.528385162 2.4649999142 2.4649999142
 2794.9611816 2.0000000000 8.3690004349 -0.005000000 62.094001770 0.2710199952 2.3190000057 4.2969999313 54.545150757 88.495910645 1.6579999924 59.760627747 2.4519999027 2.4519999027
 2795.1135254 2.0000000000 8.3730001450 -0.004000000 63.687999725 0.2651199996 2.3190000057 4.2230000496 54.327342987 86.882820129 1.6050000191 59.471466064 2.4270000458 2.4270000458
 2795.2658691 2.0000000000 8.3750000000 0.0000000000 65.125000000 0.2666200101 2.3239998817 4.4489998817 55.440425873 85.988945007 1.6059999466 59.706245422 2.3529999256 2.3529999256
 2795.4184570 5.0000000000 8.3750000000 0.0020000001 64.563003540 0.2658300102 2.3389999866 4.6840000153 59.582359314 85.905220032 1.6640000343 59.956600189 2.4000000954 2.4000000954
 2795.5708008 5.0000000000 8.3760004044 0.0020000001 63.219001770 0.2640900016 2.3599998951 4.7810001373 61.987152100 85.715400696 1.7779999971 60.172653198 2.6540000439 2.6540000439
 2795.7231445 5.0000000000 8.3809995651 -0.002000000 63.280998230 0.2706800103 2.3880000114 4.8090000153 66.370971680 85.627700806 1.9329999685 60.528427124 3.0669999123 3.0669999123
 2795.8754883 6.0000000000 8.3909997940 -0.003000000 68.000000000 0.2695800066 2.4349999428 4.7030000687 68.291854858 85.730407715 2.0950000286 60.406391144 3.8629999161 3.8629999161
 2796.0280762 6.0000000000 8.4300003052 0.0020000001 72.313003540 0.2705200016 2.5000000000 4.6129999161 68.701354980 85.558990479 2.2049999237 60.192344666 5.5190000534 5.5190000534
 2796.1804199 5.0000000000 8.4860000610 0.0160000008 72.125000000 0.2536100149 2.5620000362 4.4299998283 63.750946045 85.159271240 2.1919999123 59.318405151 9.1359996796 9.1359996796
 2796.3327637 5.0000000000 8.5159997940 0.0209999997 65.500000000 0.2216899991 2.5799999237 4.2849998474 53.520408630 84.499938965 2.0480000973 58.654064178 14.831000328 14.831000328
 2796.4851074 16.000000000 8.5150003433 0.0260000005 57.655998230 0.1722100079 2.5699999332 4.4689998627 48.348274231 83.353752136 1.8209999800 57.591705322 14.312000275 14.312000275
 2796.6374512 16.000000000 8.4890003204 0.0350000001 54.405998230 0.1420100033 2.5320000648 4.2769999504 46.265659332 81.484596252 1.5829999447 56.984943390 6.6259999275 6.6259999275
 2796.7900391 2.0000000000 8.4250001907 0.0450000018 54.312999725 0.1428899914 2.4679999352 4.1680002213 49.024559021 78.447769165 1.3660000563 56.202255249 2.8329999447 2.8329999447
 2796.9423828 2.0000000000 8.3579998016 0.0390000008 56.562999725 0.1795099974 2.3870000839 4.0980000496 48.548000336 73.721832275 1.1829999685 56.326000214 1.6720000505 1.6720000505
 2797.0947266 2.0000000000 8.3120002747 0.0219999999 58.687999725 0.2272999883 2.3180000782 4.1680002213 49.055000305 68.630645752 1.0349999666 56.556999207 1.3930000067 1.3930000067
 2797.2470703 2.0000000000 8.3009996414 0.0080000004 58.030998230 0.2575600147 2.2780001163 4.1479997635 51.838001251 64.520645142 0.9200000167 57.217998505 1.3519999981 1.3519999981
 2797.3996582 2.0000000000 8.2989997864 -0.001000000 55.812999725 0.2613599896 2.2650001049 3.9979999065 55.113998413 63.737606049 0.8360000253 55.009998322 1.3680000305 1.3680000305
 2797.5520020 2.0000000000 8.2980003357 -0.005000000 54.437999725 0.2427300066 2.2579998970 3.8180000782 56.299999237 67.936515808 0.7879999876 53.835998535 1.3910000324 1.3910000324
 2797.7043457 2.0000000000 8.3030004501 -0.003000000 54.344001770 0.2439000010 2.2620000839 3.8550000191 55.133998871 74.447410583 0.7599999905 52.368999481 1.4199999571 1.4199999571
 2797.8566895 2.0000000000 8.3050003052 0.0049999999 53.750000000 0.2540900111 2.2739999294 3.7639999390 50.335998535 80.345108032 0.7490000129 52.009998322 1.4570000172 1.4570000172
 2798.0092773 2.0000000000 8.3050003052 0.0130000003 51.812999725 0.2712100148 2.2869999409 3.7990000248 46.874000549 84.280319214 0.7480000257 54.546001434 1.4730000496 1.4730000496
 2798.1616211 2.0000000000 8.3050003052 0.0189999994 51.375000000 0.2670400143 2.2939999104 3.6819999218 45.737998962 86.070007324 0.7509999871 55.046001434 1.4570000172 1.4570000172
 2798.3139648 2.0000000000 8.3050003052 0.0120000001 52.875000000 0.2614299953 2.2850000858 3.7639999390 47.132999420 86.574142456 0.7580000162 55.849998474 1.4119999409 1.4119999409
 2798.4663086 2.0000000000 8.3050003052 0.0130000003 53.312999725 0.2558200061 2.2860000134 3.7850000858 46.640998840 86.243270874 0.7699999809 55.798999786 1.3880000114 1.3880000114
 2798.6186523 2.0000000000 8.3050003052 0.0189999994 53.687999725 0.2595199943 2.2920000553 3.9000000954 45.339000702 86.012245178 0.7900000215 55.819999695 1.3869999647 1.3869999647
 2798.7712402 2.0000000000 8.3050003052 0.0340000018 52.500000000 0.2578600049 2.3039999008 3.9670000076 47.235000610 86.220611572 0.8249999881 55.742000580 1.3860000372 1.3860000372
 2798.9235840 2.0000000000 8.3050003052 0.0340000018 50.844001770 0.2528400123 2.2990000248 4.1170001030 50.848999023 86.169723511 0.8740000129 55.905998230 1.4019999504 1.4019999504
 2799.0759277 2.0000000000 8.3059997559 0.0130000003 48.405998230 0.2469000071 2.2750000954 4.1449999809 52.984001160 86.000930786 0.9399999976 56.131999969 1.4349999428 1.4349999428
 2799.2282715 2.0000000000 8.3090000153 0.0000000000 48.937999725 0.2409099936 2.2620000839 4.0349998474 50.526000977 85.980346680 1.0080000162 56.176998138 1.5149999857 1.5149999857
 2799.3808594 2.0000000000 8.3070001602 0.0000000000 50.469001770 0.2301400006 2.2709999084 3.9649999142 50.956001282 85.813659668 1.0829999447 55.858001709 1.6260000467 1.6260000467
 2799.5332031 2.0000000000 8.3050003052 0.0099999998 51.469001770 0.2223600000 2.2880001068 4.0229997635 46.089000702 85.306640625 1.1540000439 55.280998230 1.7480000257 1.7480000257
 2799.6855469 2.0000000000 8.3050003052 0.0149999997 52.375000000 0.2168499976 2.2850000858 4.1329998970 43.930000305 84.614570618 1.2220000029 55.680000305 1.8279999495 1.8279999495
 2799.8378906 2.0000000000 8.3050003052 0.0120000001 51.625000000 0.2216500044 2.2660000324 4.1519999504 41.659000397 83.668342590 1.2799999714 55.423999786 1.8279999495 1.8279999495
 2799.9904785 2.0000000000 8.3050003052 0.0089999996 51.030998230 0.2265800089 2.2569999695 4.1250000000 48.647998810 82.590545654 1.3190000057 55.256999969 1.7829999924 1.7829999924
 2800.1428223 2.0000000000 8.3050003052 0.0060000001 49.562999725 0.2377099991 2.2679998875 4.2849998474 54.451000214 81.504272461 1.3279999495 55.015998840 1.7480000257 1.7480000257
 2800.2951660 2.0000000000 8.3100004196 0.0120000001 52.187999725 0.2469599843 2.3010001183 4.3979997635 55.812999725 80.663253784 1.3170000315 55.201000214 1.7339999676 1.7339999676
 2800.4475098 2.0000000000 8.3280000687 0.0179999992 54.969001770 0.2483200133 2.3259999752 4.6719999313 55.658000946 80.343238831 1.2819999456 55.342998505 1.7660000324 1.7660000324
 2800.6000977 2.0000000000 8.3360004425 0.0209999997 57.750000000 0.2438400090 2.3369998932 4.6880002022 55.902999878 80.472122192 1.2400000095 55.477001190 1.8370000124 1.8370000124
 2800.7524414 2.0000000000 8.3360004425 0.0149999997 57.655998230 0.2421900034 2.3250000477 4.5939998627 57.886001587 80.912521362 1.2079999447 55.236000061 1.9400000572 1.9400000572
 2800.9047852 2.0000000000 8.3360004425 0.0099999998 58.405998230 0.2481500059 2.3110001087 4.4019999504 56.613998413 81.471038818 1.1940000057 55.202999115 1.9459999800 1.9459999800
 2801.0571289 2.0000000000 8.3369998932 0.0049999999 56.969001770 0.2518900037 2.2980000973 4.1719999313 53.958999634 81.522163391 1.1909999847 55.590999603 1.8589999676 1.8589999676
