# LAS format log file from PETREL
# Project units are specified as depth units
#==================================================================
~Version information
VERS.   2.0:
WRAP.   NO:
#==================================================================
~Well
STRT .m      1309.8798828 :
STOP .m      4086.9138184 :
STEP .m     0.00000000 :
NULL .        -999.250000 :
COMP.           : COMPANY
WELL.  31/2-19 S   : WELL
FLD.            : FIELD
LOC.            : LOCATION
SRVC.           : SERVICE COMPANY
DATE.  2018-09-11 14:48:33   : Log Export Date {yyyy-MM-dd HH:mm:ss}
PROV.           : PROVINCE
UWI.   31/2-19 S   : UNIQUE WELL ID
API.            : API NUMBER
#==================================================================
~Curve
DEPT .m                   : DEPTH
Lithology_geolink ._      : Lithology_geolink
CALI .in                  : CALI
BS .in                    : BS
DRHO .g/cm3               : DRHO
NPHI .m3/m3               : NPHI
RHOB .g/cm3               : RHOB
GR .gAPI                  : GR
DTC .us/ft                : DTC
DTS .us/ft                : DTS
RDEP .ohm.m               : RDEP
SP .mV                    : SP
RSHA .ohm.m               : RSHA
RMIC .ohm.m               : RMIC
RMED .ohm.m               : RMED
~Parameter
#==================================================================
~Ascii
# ...
 1678.5356445 5.0000000000 12.536001205 12.250000954 -0.013089000 0.3942799866 2.1789999008 121.79600525 137.79969788 342.76226807 0.9510909915 141.87500000 0.8435580134 0.6959927678 0.8439999819
 1678.6879883 5.0000000000 12.550999641 12.250000954 -0.016468000 0.3882539868 2.1849999428 118.32494354 135.97447205 320.61175537 0.9209470153 141.81300354 0.8171219826 0.6870095730 0.8169999719
 1678.8404541 5.0000000000 12.689998627 12.250000954 -0.019130001 0.3929679990 2.1930000782 115.60089111 133.38607788 318.45172119 0.9626500010 142.25000000 0.8454440236 0.6989647746 0.8450000286
 1678.9927979 5.0000000000 12.715000153 12.250000954 -0.021523001 0.3880299926 2.1919999123 113.37590027 130.70115662 315.70919800 1.1050000191 141.50000000 0.9718760252 0.6770504713 0.9720000029
 1679.1452637 5.0000000000 12.718999863 12.250000954 -0.019467000 0.3870590031 2.1960000992 109.71567535 129.55691528 309.24218750 1.1770000458 141.62500000 1.0440000296 0.7399839759 1.0440000296
 1679.2976074 5.0000000000 12.718000412 12.250000954 -0.021012001 0.3776459992 2.1919999123 117.48070526 128.40991211 322.85406494 1.2400000095 142.12500000 1.0889999866 0.7300080061 1.0889999866
 1679.4500732 5.0000000000 12.750000000 12.250000954 -0.021175999 0.3843809962 2.1970000267 117.21694946 126.83126831 322.04568481 1.2250000238 142.00000000 1.0779999495 0.7400224209 1.0779999495
 1679.6024170 5.0000000000 12.831999779 12.250000954 -0.023080001 0.3749020100 2.1930000782 116.33255005 128.60955811 293.46691895 1.2220000029 142.06300354 1.0750000477 0.7540007830 1.0750000477
 1679.7547607 5.0000000000 12.831999779 12.250000954 -0.021904999 0.3888010085 2.1979999542 118.10585022 127.75237274 312.65521240 1.2230000496 141.93800354 1.0779999495 0.7549711466 1.0779999495
 1679.9072266 5.0000000000 12.869999886 12.250000954 -0.022560002 0.3950630128 2.1949999332 110.38904572 128.04277039 294.39068604 1.2139999866 142.87500000 1.0729999542 0.7189703584 1.0729999542
 1680.0595703 5.0000000000 12.887001038 12.250000954 -0.022745000 0.3995440006 2.1940000057 102.58327484 128.34451294 305.59002686 1.2089999914 142.37500000 1.0650000572 0.6820247769 1.0650000572
 1680.2120361 5.0000000000 12.958000183 12.250000954 -0.023240000 0.3987030089 2.1919999123 102.64263153 128.78364563 286.76510620 1.2170000076 143.37500000 1.0659999847 0.7130296230 1.0659999847
 1680.3643799 5.0000000000 12.969000816 12.250000954 -0.021237001 0.3845750093 2.1960000992 98.871177673 127.94135284 303.75671387 1.2330000401 142.56300354 1.0829999447 0.7500176430 1.0829999447
 1680.5168457 5.0000000000 12.969000816 12.250000954 -0.020129001 0.3744150102 2.1979999542 107.75921631 127.27353668 300.78540039 1.2530000210 143.25000000 1.1019999981 0.7719944119 1.1019999981
 1680.6691895 5.0000000000 13.001999855 12.250000954 -0.020119000 0.3623850048 2.1949999332 107.54599762 127.15010071 299.93368530 1.2699999809 144.18800354 1.1180000305 0.7650256157 1.1180000305
 1680.8216553 5.0000000000 13.013999939 12.250000954 -0.020687001 0.3588519990 2.1900000572 100.72441101 127.16498566 289.55731201 1.2920000553 144.56300354 1.1319999695 0.7969759703 1.1319999695
 1680.9739990 5.0000000000 13.008000374 12.250000954 -0.017514000 0.3677060008 2.1930000782 107.71376801 126.02491760 290.66912842 1.2899999619 144.00000000 1.1369999647 0.7670072317 1.1369999647
 1681.1264648 5.0000000000 13.114000320 12.250000954 -0.015939999 0.3728820086 2.2000000477 111.10648346 125.29458618 289.55288696 1.2749999762 144.31300354 1.1289999485 0.7759696245 1.1289999485
 1681.2788086 5.0000000000 13.168000221 12.250000954 -0.014078000 0.3692269921 2.2039999962 114.81613159 125.46286011 288.01025391 1.2730000019 143.62500000 1.1250000000 0.7570024133 1.1250000000
 1681.4312744 5.0000000000 13.180999756 12.250000954 -0.013720000 0.3592880070 2.2049999237 115.53971863 126.59110260 289.26998901 1.2749999762 143.43800354 1.1330000162 0.7600207925 1.1330000162
 1681.5836182 5.0000000000 13.185000420 12.250000954 -0.011600000 0.3607740104 2.2079999447 113.29403687 126.68892670 291.63909912 1.2699999809 142.43800354 1.1339999437 0.7729623318 1.1339999437
 1681.7360840 5.0000000000 13.248000145 12.250000954 -0.011685000 0.3705680072 2.2079999447 108.90906525 127.92700958 290.51593018 1.2599999905 142.81300354 1.1200000048 0.7260800600 1.1200000048
 1681.8884277 5.0000000000 13.337000847 12.250000954 -0.011275000 0.3788500130 2.2149999142 114.75942993 128.51353455 288.19885254 1.2560000420 142.37500000 1.1200000048 0.7759848237 1.1200000048
 1682.0407715 5.0000000000 13.476999283 12.250000954 -0.010901000 0.3678730130 2.2160000801 116.84072113 129.62123108 290.80880737 1.1729999781 142.00000000 1.0509999990 0.7569976449 1.0509999990
 1682.1932373 5.0000000000 13.526000023 12.250000954 -0.011345000 0.3760490119 2.2139999866 114.27733612 129.67295837 290.03460693 1.1560000181 141.12500000 1.0379999876 0.7540264726 1.0379999876
 1682.3455811 5.0000000000 13.543999672 12.250000954 -0.012400000 0.3849360049 2.2100000381 122.76681519 130.89903259 299.18035889 1.1499999762 140.68800354 1.0410000086 0.7869871855 1.0410000086
 1682.4980469 5.0000000000 13.560000420 12.250000954 -0.015712000 0.3927890062 2.2060000896 109.85503387 131.00093079 309.06109619 1.1289999485 140.31300354 1.0269999504 0.7709960341 1.0269999504
 1682.6503906 5.0000000000 13.553000450 12.250000954 -0.014640000 0.3857040107 2.2130000591 113.03300476 131.30052185 316.25347900 1.1399999857 141.00000000 1.0329999924 0.7659895420 1.0329999924
 1682.8028564 5.0000000000 13.678999901 12.250000954 -0.016665000 0.3896870017 2.2149999142 116.95529175 131.18908691 316.74661255 1.1619999409 140.31300354 1.0590000153 0.7530088425 1.0590000153
 1682.9552002 5.0000000000 13.748000145 12.250000954 -0.017750001 0.4012889862 2.2149999142 115.81266022 130.46357727 316.89886475 1.1649999619 140.00000000 1.0599999428 0.7639214993 1.0599999428
 1683.1076660 5.0000000000 13.777999878 12.250000954 -0.019215001 0.4311310053 2.2109999657 116.57192993 130.56492615 315.99472046 1.1649999619 139.75000000 1.0670000315 0.6660560369 1.0670000315
 1683.2600098 5.0000000000 13.814001083 12.250000954 -0.017553000 0.4309819937 2.2009999752 109.41181946 130.47207642 304.68106079 1.1599999666 139.87500000 1.0609999895 0.7009646893 1.0609999895
 1683.4124756 5.0000000000 13.744999886 12.250000954 -0.016527001 0.4221360087 2.1879999638 110.44258881 131.44422913 302.27093506 1.1440000534 138.87500000 1.0460000038 0.6570016146 1.0460000038
 1683.5648193 5.0000000000 13.687000275 12.250000954 -0.012613000 0.4255569875 2.1749999523 112.81747437 131.96759033 302.83654785 1.1289999485 138.81300354 1.0369999409 0.6578397155 1.0369999409
 1683.7172852 5.0000000000 13.689999580 12.250000954 -0.012888000 0.4238660038 2.1579999924 108.69429016 132.03793335 311.96066284 1.1030000448 138.81300354 1.0099999905 0.4583538771 1.0099999905
 1683.8696289 5.0000000000 13.722001076 12.250000954 -0.012154000 0.4255590141 2.1549999714 106.52964783 131.31257629 292.98422241 1.0740000010 139.00000000 0.9865499735 0.6790488958 0.9869999886
 1684.0219727 5.0000000000 13.741000175 12.250000954 -0.010971000 0.3892869949 2.1630001068 108.68927765 132.86849976 303.64788818 1.0379999876 139.00000000 0.9514920115 0.7399888039 0.9509999752
 1684.1744385 5.0000000000 13.696999550 12.250000954 -0.011334000 0.3762220144 2.1760001183 106.79165649 133.70132446 315.87219238 1.0110000372 139.62500000 0.9275879860 0.7260160446 0.9279999733
 1684.3267822 5.0000000000 13.687000275 12.250000954 -0.014750000 0.3650310040 2.1819999218 106.64755249 133.29266357 323.37698364 0.9691749811 139.62500000 0.8905689716 0.7460128069 0.8909999728
 1684.4792480 5.0000000000 13.715000153 12.250000954 -0.013284000 0.3712890148 2.1860001087 111.82419586 132.28381348 325.93695068 0.9783509970 140.06300354 0.8963860273 0.7619863749 0.8960000277
 1684.6315918 5.0000000000 13.722001076 12.250000954 -0.012395000 0.3663719893 2.1960000992 108.35902405 131.33950806 330.59054565 1.0039999485 141.31300354 0.9244639874 0.7449936271 0.9240000248
