# LAS format log file from PETREL
# Project units are specified as depth units
#==================================================================
~Version information
VERS.   2.0:
WRAP.   NO:
#==================================================================
~Well
STRT .m      447.54394531 :
STOP .m      3384.4443359 :
STEP .m     0.00000000 :
NULL .        -999.250000 :
COMP.           : COMPANY
WELL.  31/2-8   : WELL
FLD.            : FIELD
LOC.            : LOCATION
SRVC.           : SERVICE COMPANY
DATE.  2018-09-11 14:48:34   : Log Export Date {yyyy-MM-dd HH:mm:ss}
PROV.           : PROVINCE
UWI.   31/2-8   : UNIQUE WELL ID
API.            : API NUMBER
#==================================================================
~Curve
DEPT .m                   : DEPTH
Lithology_geolink ._      : Lithology_geolink
CALI .in                  : CALI
DRHO .g/cm3               : DRHO
SGR .gAPI                 : SGR
NPHI .m3/m3               : NPHI
RHOB .g/cm3               : RHOB
PEF .b/e                  : PEF
GR .gAPI                  : GR
DTC .us/ft                : DTC
RDEP .ohm.m               : RDEP
SP .mV                    : SP
RSHA .ohm.m               : RSHA
RMED .ohm.m               : RMED
~Parameter
#==================================================================
~Ascii
# ...
 2988.9665527 5.0000000000 8.1940002441 -0.004003200 47.312999725 0.2407400012 2.3050129414 4.9140000343 52.424999237 77.854972839 1.4589999914 62.488998413 2.0989999771 2.0989999771
 2989.1188965 5.0000000000 8.1899995804 -0.004993590 45.655998230 0.2353700101 2.3090207577 4.7300000191 52.561000824 77.984008789 1.5080000162 62.930004120 2.1040000916 2.1040000916
 2989.2712402 5.0000000000 8.1890001297 -0.000980769 47.219001770 0.2364200056 2.3220593929 4.5700001717 53.403999329 79.385833740 1.6019999981 62.680000305 2.1270000935 2.1270000935
 2989.4235840 5.0000000000 8.1960000992 0.0110272439 48.030998230 0.2342900038 2.3590881824 4.6950001717 51.782001495 80.811775208 1.7029999495 62.569999695 2.3010001183 2.3010001183
 2989.5761719 5.0000000000 8.2080001831 0.0280128010 49.780998230 0.2258799970 2.4141247272 4.6449999809 52.416999817 82.465270996 1.7760000229 62.384998322 2.7960000038 2.7960000038
 2989.7285156 2.0000000000 8.2170000076 0.0319951922 50.937999725 0.1985500008 2.4530065060 4.7189998627 52.796001434 84.004989624 1.8070000410 62.546001434 3.6089999676 3.6089999676
 2989.8808594 2.0000000000 8.2189998627 0.0289919861 52.062999725 0.1872100085 2.4569535255 4.6799998283 54.408000946 85.150375366 1.7869999409 62.436000824 4.3029999733 4.3029999733
 2990.0332031 2.0000000000 8.2189998627 0.0239919871 53.625000000 0.1861700118 2.4279358387 4.8200001717 56.452999115 85.791351318 1.7410000563 62.540000916 4.0949997902 4.0949997902
 2990.1855469 2.0000000000 8.2189998627 0.0189983975 53.000000000 0.2035600096 2.3879375458 4.9879999161 51.791000366 86.300796509 1.7000000477 62.292999268 3.3269999027 3.3269999027
 2990.3381348 2.0000000000 8.2200002670 0.0179743990 50.125000000 0.2150200009 2.3488943577 4.8400001526 48.118999481 86.575584412 1.6540000439 62.161998749 2.5390000343 2.5390000343
 2990.4904785 2.0000000000 8.2250003815 0.0099903848 47.000000000 0.2238200009 2.3159983158 4.6719999313 41.848999023 86.106971741 1.6160000563 62.150001526 2.0050001144 2.0050001144
 2990.6428223 2.0000000000 8.2250003815 0.0040016025 44.562999725 0.2332399935 2.3150546551 4.4730000496 41.076000214 84.939956665 1.5870000124 62.150001526 1.8029999733 1.8029999733
 2990.7951660 2.0000000000 8.2209997177 0.0050240383 45.562999725 0.2358399928 2.3490960598 4.7620000839 41.978000641 81.768989563 1.5440000296 62.150001526 1.9420000315 1.9420000315
 2990.9477539 2.0000000000 8.2220001221 0.0200447999 49.312999725 0.2340800166 2.4091215134 5.2659997940 48.118999481 76.656295776 1.5169999599 62.173999786 2.6159999371 2.6159999371
 2991.1000977 2.0000000000 8.2329998016 0.0339984000 52.687999725 0.2186399996 2.4469742775 5.4140000343 54.227001190 73.079193115 1.5319999456 62.363998413 3.7609999180 3.7609999180
 2991.2524414 2.0000000000 8.2530002594 0.0329711549 53.500000000 0.2125400007 2.4309198856 5.2540001869 52.520999908 71.826492310 1.6009999514 62.298999786 4.0430002213 4.0430002213
 2991.4047852 2.0000000000 8.2659997940 0.0149823716 51.750000000 0.2204700112 2.3809440136 5.0349998474 45.666000366 73.675415039 1.7189999819 62.347000122 3.3299999237 3.3299999237
 2991.5573730 2.0000000000 8.2370004654 0.0040064002 48.312999725 0.2310100049 2.3460192680 4.9840002060 38.304000854 78.119529724 1.8580000401 62.009998322 2.8699998856 2.8699998856
 2991.7097168 2.0000000000 8.2189998627 0.0060064103 48.625000000 0.2300200015 2.3520431519 5.0079998970 38.841999054 81.352500916 1.9739999771 61.965000153 2.8519999981 2.8519999981
 2991.8620605 2.0000000000 8.2189998627 0.0099999998 46.500000000 0.2193799913 2.3790416718 5.3439998627 38.792999268 83.950721741 2.0810000896 61.546001434 3.1180000305 3.1180000305
 2992.0144043 2.0000000000 8.2239999771 0.0100064101 44.812999725 0.2168700099 2.4050335884 5.1799998283 40.909000397 85.664337158 2.2179999352 61.722000122 3.6019999981 3.6019999981
 2992.1667480 2.0000000000 8.2460002899 0.0140128210 41.155998230 0.2078199983 2.4260320663 5.0510001183 40.979000092 84.676040649 2.4330000877 61.583999634 4.2319998741 4.2319998741
 2992.3193359 2.0000000000 8.2670001984 0.0219903998 41.655998230 0.1882900000 2.4460513592 4.6680002213 46.918998718 81.759811401 2.7929999828 61.847000122 4.8639998436 4.8639998436
 2992.4716797 2.0000000000 8.2760000229 0.0189855769 43.530998230 0.1656199992 2.4620304108 4.6129999161 48.931999207 79.117637634 3.3759999275 61.742000580 5.3020000458 5.3020000458
 2992.6240234 2.0000000000 8.2849998474 0.0099951923 45.905998230 0.1581299901 2.4810431004 4.1170001030 49.707000732 78.280876160 4.0809998512 61.832000732 6.1319999695 6.1319999695
 2992.7763672 16.000000000 8.2959995270 0.0070208334 46.125000000 0.1556099951 2.5080351830 4.1170001030 45.244998932 79.324089050 4.7080001831 61.935001373 8.7580003738 8.7580003738
 2992.9289551 16.000000000 8.3179998398 0.0200255997 44.905998230 0.1372199953 2.5299711227 4.0819997787 42.144001007 81.433250427 4.8579998016 62.301998138 13.218000412 13.218000412
 2993.0812988 16.000000000 8.3269996643 0.0279967953 44.500000000 0.1152599975 2.5209581852 5.0549998283 42.851001740 82.458091736 4.8530001640 62.423999786 11.767999649 11.767999649
 2993.2336426 5.0000000000 8.3129997253 0.0259983987 45.500000000 0.1171000004 2.4949741364 5.1840000153 44.327999115 81.234329224 4.3499999046 62.717994690 7.0199999809 7.0199999809
 2993.3859863 5.0000000000 8.2709999084 0.0249951929 49.905998230 0.1415099949 2.4789471626 5.1719999313 49.702999115 79.183677673 3.6819999218 63.033996582 4.9549999237 4.9549999237
 2993.5385742 5.0000000000 8.2270002365 0.0219679996 53.000000000 0.1727399975 2.4458177090 4.5390000343 49.838001251 76.945755005 3.0629999638 62.930004120 4.1750001907 4.1750001907
 2993.6909180 5.0000000000 8.2010002136 0.0119839748 53.344001770 0.1992099881 2.3889086246 4.4609999657 52.727001190 75.212577820 2.6449999809 63.013000488 3.3980000019 3.3980000019
 2993.8432617 5.0000000000 8.1949996948 0.0019967949 52.280998230 0.2260800004 2.3319694996 4.4609999657 48.293998718 73.838699341 2.2260000706 63.049003601 2.5999999046 2.5999999046
 2993.9956055 5.0000000000 8.1949996948 0.0000096154 49.125000000 0.2380999923 2.3130257130 4.5269999504 49.199001312 71.103187561 1.9980000257 63.233001709 2.1870000362 2.1870000362
 2994.1479492 5.0000000000 8.1949996948 0.0060112178 47.344001770 0.2344899923 2.3290319443 4.5859999657 46.286998749 67.264068604 1.8389999866 63.116996765 2.1600000858 2.1600000858
 2994.3005371 5.0000000000 8.1940002441 0.0129936002 47.062999725 0.2218800038 2.3490095139 4.4450001717 49.735000610 63.744449615 1.7500000000 63.183002472 2.4509999752 2.4509999752
 2994.4528809 5.0000000000 8.1909999847 0.0109919868 47.750000000 0.2125000060 2.3519968987 4.4609999657 49.518001556 63.141696930 1.7029999495 63.049003601 2.7699999809 2.7699999809
 2994.6052246 5.0000000000 8.1969995499 0.0060016024 49.219001770 0.2104499936 2.3500256538 4.5199999809 49.855998993 65.700744629 1.7749999762 63.040004730 2.8919999599 2.8919999599
 2994.7575684 5.0000000000 8.2139997482 0.0070096157 49.155998230 0.2065899968 2.3660352230 4.6370000839 49.327999115 69.312042236 1.7819999456 62.684997559 3.1470000744 3.1470000744
 2994.9101563 5.0000000000 8.2290000916 0.0130000003 51.687999725 0.2078899890 2.3880031109 4.7420001030 48.373001099 73.125343323 1.7840000391 62.563999176 3.9010000229 3.9010000229
 2995.0625000 2.0000000000 8.2379999161 0.0129871797 52.875000000 0.2033600062 2.3889629841 4.6129999161 47.754001617 77.038780212 1.7630000114 62.286998749 4.0390000343 4.0390000343
 2995.2148438 2.0000000000 8.2229995728 0.0049903844 51.875000000 0.2036300153 2.3659710884 4.6170001030 43.736000061 81.332168579 1.7130000591 62.092998505 3.1670000553 3.1670000553
 2995.3671875 2.0000000000 8.2010002136 -0.000993590 49.219001770 0.2077499926 2.3480000496 4.7030000687 39.375999451 84.831138611 1.6100000143 61.926998138 2.3949999809 2.3949999809
 2995.5197754 2.0000000000 8.1999998093 0.0030256000 46.780998230 0.2132000029 2.3480160236 4.7340002060 40.986000061 85.759674072 1.5269999504 61.504001617 2.1419999599 2.1419999599
