# LAS format log file from PETREL
# Project units are specified as depth units
#==================================================================
~Version information
VERS.   2.0:
WRAP.   NO:
#==================================================================
~Well
STRT .m      416.08499146 :
STOP .m      2599.3679199 :
STEP .m     0.00000000 :
NULL .        -999.250000 :
COMP.           : COMPANY
WELL.  31/2-2 R   : WELL
FLD.            : FIELD
LOC.            : LOCATION
SRVC.           : SERVICE COMPANY
DATE.  2018-09-11 14:48:33   : Log Export Date {yyyy-MM-dd HH:mm:ss}
PROV.           : PROVINCE
UWI.   31/2-2 R   : UNIQUE WELL ID
API.            : API NUMBER
#==================================================================
~Curve
DEPT .m                   : DEPTH
Lithology_geolink ._      : Lithology_geolink
CALI .in                  : CALI
DRHO .g/cm3               : DRHO
NPHI .m3/m3               : NPHI
RHOB .g/cm3               : RHOB
GR .gAPI                  : GR
DTC .us/ft                : DTC
RDEP .ohm.m               : RDEP
SP .mV                    : SP
RSHA .ohm.m               : RSHA
RMED .ohm.m               : RMED
~Parameter
#==================================================================
~Ascii
# ...
 563.76062012  -999.250000 22.187999725 0.0820000023 0.4111299813 1.8409999609 58.240112305 175.77999878 3.3569889069 3.1860010624  -999.250000 2.6251218319
 563.91302490  -999.250000 22.187999725 0.0500000007 0.3823199868 1.7100000381 61.556365967 175.77801514 3.3909592628 3.0991034508  -999.250000 2.6150119305
 564.06542969  -999.250000 22.187999725 0.0540000014 0.3623000085 1.6569999456 61.188751221 175.77600098 3.3999893665 4.4803380966  -999.250000 2.6679363251
 564.21783447  -999.250000 22.187999725 0.0460000001 0.3530300260 1.6900000572 58.785816193 175.77499390 3.4079904556 3.6160416603  -999.250000 2.6110684872
 564.37023926  -999.250000 22.187999725 0.0829999968 0.3569300175 1.7999999523 58.032501221 175.77297974 3.3770372868 4.8395271301  -999.250000 2.5980157852
 564.52264404  -999.250000 22.187999725 0.0759999976 0.3647499979 1.8459999561 54.163757324 175.77099609 3.3770000935 3.3817553520  -999.250000 2.7927656174
 564.67498779  -999.250000 21.812999725 0.0860000029 0.3789099753 1.8980000019 51.412605286 175.76899719 3.3500430584 3.7623865604  -999.250000 2.6092946529
 564.82739258  -999.250000 22.141002655 0.0960000008 0.3847700059 1.9400000572 46.854965210 175.76698303 3.3200480938 5.2376337051  -999.250000 2.3873558044
 564.97979736  -999.250000 22.031000137 0.1400000006 0.3950199783 1.9859999418 47.218101501 175.76602173 3.3459582329 3.7184414864  -999.250000 2.5737004280
 565.13220215  -999.250000 22.187999725 0.1239999980 0.4101599753 1.9459999800 48.840095520 175.76400757 3.3569824696 4.2231860161  -999.250000 2.5839841366
 565.28460693  -999.250000 21.750000000 0.1019999981 0.3906300068 1.9440000057 53.457889557 175.76199341 3.2561619282 4.3567867279  -999.250000 2.7337596416
 565.43701172  -999.250000 22.187999725 0.1070000008 0.3916000128 1.9320000410 56.929664612 175.75999451 3.1481730938 4.1153874397  -999.250000 2.5722594261
 565.58941650  -999.250000 22.187999725 0.1220000014 0.3803699911 1.9299999475 56.688598633 175.75799561 2.9103813171 3.2094528675  -999.250000 2.4432067871
 565.74182129  -999.250000 22.172000885 0.1190000027 0.4257799983 1.8589999676 55.502380371 175.75599670 2.6623971462 3.5823991299  -999.250000 2.3791024685
 565.89422607  -999.250000 22.187999725 0.0820000023 0.4414099753 1.7640000582 55.874248505 175.75498962 2.5292131901 3.0838007927  -999.250000 2.1893043518
 566.04663086  -999.250000 22.187999725 0.0520000011 0.4926800132 1.7120000124 53.567630768 175.75300598 2.4341142178 2.4587512016  -999.250000 2.0082173347
 566.19903564  -999.250000 22.187999725 0.0219999999 0.4956099987 1.6710000038 51.753631592 175.75100708 2.3890540600 2.7076995373  -999.250000 1.6114768982
 566.35144043  -999.250000 22.187999725 0.0439999998 0.5024399757 1.6879999638 50.283939362 175.74899292 2.3959915638 2.5831501484  -999.250000 1.5171128511
 566.50384521  -999.250000 22.187999725 0.0529999994 0.4853500128 1.6740000248 52.401744843 175.74699402 2.3790204525 2.4581501484  -999.250000 1.5769279003
 566.65625000  -999.250000 22.187999725 0.1059999987 0.4653300047 1.7350000143 52.499813080 175.74499512 2.3340542316 1.5840512514  -999.250000 1.7927404642
 566.80859375  -999.250000 22.187999725 0.0769999996 0.4643599987 1.6599999666 54.588970184 175.74400330 2.3180258274 4.8277940750  -999.250000 1.8768653870
 566.96099854  -999.250000 22.187999725 0.1019999981 0.4277299941 1.6510000229 53.253231049 175.74200439 2.3589344025 6.3385844231  -999.250000 1.9878221750
 567.11340332  -999.250000 22.187999725 0.0810000002 0.4282199740 1.5909999609 51.504203796 175.74000549 2.4428656101 4.1025915146  -999.250000 2.2575674057
 567.26580811  -999.250000 22.187999725 0.0970000029 0.4272499979 1.6200000048 50.814651489 175.73800659 2.6037421227 3.4829885960  -999.250000 2.3518493176
 567.41821289  -999.250000 22.187999725 0.0759999976 0.4628900290 1.5889999866 55.582511902 175.73599243 2.7457726002 4.3635854721  -999.250000 2.1213700771
 567.57061768  -999.250000 22.187999725 0.0560000017 0.4814499915 1.5349999666 57.713893890 175.73399353 2.8198814392 3.5842525959  -999.250000 2.0371344090
 567.72302246  -999.250000 22.187999725 0.0289999992 0.5302699804 1.5039999485 54.662132263 175.73300171 2.8828990459 2.4598021507  -999.250000 2.1777741909
 567.87542725  -999.250000 22.187999725 0.0070000002 0.5166000128 1.5349999666 48.169013977 175.73100281 2.8790063858 5.8275938034  -999.250000 2.0512034893
 568.02783203  -999.250000 22.187999725 0.0120000001 0.5009800196 1.6510000229 48.249813080 175.72900391 2.8380656242 4.4602026939  -999.250000 2.1308717728
 568.18023682  -999.250000 22.187999725 0.0340000018 0.4697299898 1.7480000257 51.025428772 175.72700500 2.8649675846 6.2138872147  -999.250000 2.1839363575
 568.33264160  -999.250000 22.187999725 0.0610000007 0.4658200145 1.7819999456 56.582862854 175.72500610 2.8849759102 3.7269940376  -999.250000 2.3008594513
 568.48504639  -999.250000 22.187999725 0.0509999990 0.4848600030 1.7799999714 52.788635254 175.72399902 2.9039771557 3.9816901684  -999.250000 2.2460660934
 568.63745117  -999.250000 22.187999725 0.0769999996 0.4560500085 1.8109999895 50.754066467 175.72200012 2.9629292488 3.7402906418  -999.250000 2.3069267273
 568.78979492  -999.250000 22.187999725 0.0540000014 0.4687500000 1.7949999571 47.757209778 175.71998596 3.0308909416 2.7096531391  -999.250000 2.3708975315
 568.94219971  -999.250000 22.187999725 0.0509999990 0.4736299813 1.7879999876 50.711868286 175.71800232 3.1288430691 3.1762487888  -999.250000 2.2711601257
 569.09460449  -999.250000 20.655998230 0.0089999996 0.4804700017 1.7999999523 49.939876556 175.71600342 3.1329934597 5.0799469948  -999.250000 2.0633332729
 569.24700928  -999.250000 22.187999725 0.0500000007 0.4931600094 1.8400000334 47.162681580 175.71398926 3.0571217537 5.5821990967  -999.250000 2.1967854500
 569.39941406  -999.250000 22.218999863 0.1000000015 0.5127000213 1.8370000124 45.285503387 175.71299744 2.9182226658 3.5862038136  -999.250000 2.3158092499
 569.55181885  -999.250000 22.218999863 0.0810000002 0.5375999808 1.6239999533 43.129318237 175.71099854 2.8570978642 2.5846018791  -999.250000 2.3769023418
 569.70422363  -999.250000 22.187999725 0.0280000009 0.5722700357 1.4620000124 42.282688141 175.70899963 2.8180625439 2.6768493652  -999.250000 2.1333906651
 569.85662842  -999.250000 22.187999725 0.0030000000 0.5522499681 1.3899999857 40.659252167 175.70700073 2.8519456387 2.5522003174  -999.250000 2.0740942955
 570.00903320  -999.250000 22.218999863 0.0189999994 0.5766599774 1.4670000076 41.436435699 175.70500183 2.9488444328 2.4272003174  -999.250000 1.8773155212
 570.16143799  -999.250000 22.187999725 0.0329999998 0.5473600030 1.4769999981 41.468940735 175.70300293 2.8591082096 3.2070612907  -999.250000 1.7661334276
 570.31384277  -999.250000 22.187999725 0.0000000000 0.5708000064 1.3580000401 42.528873444 175.70199585 2.6822125912 3.3328497410  -999.250000 2.0446648598
 570.46624756  -999.250000 22.187999725 -0.020000000 0.5869100094 1.2400000095 40.691688538 175.69999695 2.5371742249 3.2081501484  -999.250000 2.0959386826
 570.61865234  -999.250000 22.187999725 -0.030999999 0.5752000213 1.2239999771 38.940803528 175.69799805 2.4920542240 2.7086007595  -999.250000 2.0180935860
 570.77105713  -999.250000 22.000000000 -0.020000000 0.5903300047 1.3120000362 39.155647278 175.69599915 2.5199663639 2.0837509632  -999.250000 1.7932703495
 570.92340088  -999.250000 22.218999863 -0.007000000 0.5336899757 1.3609999418 37.971378326 175.69400024 2.6068606377 3.4557971954  -999.250000 1.7910032272
 571.07580566  -999.250000 22.218999863 -0.005000000 0.5659199953 1.3380000591 39.684558868 175.69200134 2.7188205719 2.4596018791  -999.250000 1.7620464563
 571.22821045  -999.250000 22.218999863 -0.013000000 0.5678699613 1.2699999809 37.254882813 175.69100952 2.7868909836 3.2067985535  -999.250000 1.7629984617
 571.38061523  -999.250000 22.218999863 -0.017999999 0.5971699953 1.2640000582 40.493492126 175.68899536 2.7250993252 3.9567985535  -999.250000 1.8947885036
