# LAS format log file from PETREL
# Project units are specified as depth units
#==================================================================
~Version information
VERS.   2.0:
WRAP.   NO:
#==================================================================
~Well
STRT .m      1309.8798828 :
STOP .m      4086.9138184 :
STEP .m     0.00000000 :
NULL .        -999.250000 :
COMP.           : COMPANY
WELL.  31/2-19 S   : WELL
FLD.            : FIELD
LOC.            : LOCATION
SRVC.           : SERVICE COMPANY
DATE.  2018-09-11 14:48:33   : Log Export Date {yyyy-MM-dd HH:mm:ss}
PROV.           : PROVINCE
UWI.   31/2-19 S   : UNIQUE WELL ID
API.            : API NUMBER
#==================================================================
~Curve
DEPT .m                   : DEPTH
Lithology_geolink ._      : Lithology_geolink
CALI .in                  : CALI
BS .in                    : BS
DRHO .g/cm3               : DRHO
NPHI .m3/m3               : NPHI
RHOB .g/cm3               : RHOB
GR .gAPI                  : GR
DTC .us/ft                : DTC
DTS .us/ft                : DTS
RDEP .ohm.m               : RDEP
SP .mV                    : SP
RSHA .ohm.m               : RSHA
RMIC .ohm.m               : RMIC
RMED .ohm.m               : RMED
~Parameter
#==================================================================
~Ascii
# ...
 3896.7187500 3.0000000000 8.6020002365 8.5000000000 0.0109512107 0.1221019998 2.6779646873 56.449001312 73.750000000  -999.250000 10.940999985 98.938003540 11.913999557 12.779196739 11.912089348
 3896.8710938 3.0000000000 8.6110000610 8.5000000000 0.0078974599 0.1439760029 2.6669888496 70.193000793 76.000000000  -999.250000 10.989000320 123.43800354 11.616000175 13.232125282 11.617750168
 3897.0234375 3.0000000000 8.5920000076 8.5000000000 0.0050652744 0.1771689951 2.6599872112 89.040000916 76.000000000  -999.250000 10.793999672 87.813003540 11.888999939 12.635730743 11.886292458
 3897.1757813 3.0000000000 8.5939998627 8.5000000000 0.0027490945 0.2188190073 2.6520094872 125.08899689 76.300003052  -999.250000 10.694000244 71.563003540 11.465999603 13.538807869 11.464407921
 3897.3281250 7.0000000000 8.5889997482 8.5000000000 0.0059254039 0.2299409956 2.6579999924 145.47700500 76.100006104  -999.250000 10.619000435 70.750000000 11.135000229 13.924625397 11.135822296
 3897.4807129 7.0000000000 8.6020002365 8.5000000000 0.0074215056 0.2373439968 2.6580319405 145.81300354 75.900001526  -999.250000 10.482000351 152.93800354 11.305999756 13.258942604 11.305775642
 3897.6330566 7.0000000000 8.5799999237 8.5000000000 0.0069513703 0.2394610047 2.6679871082 147.61000061 75.900001526  -999.250000 10.359999657 153.37500000 11.270999908 12.425221443 11.269923210
 3897.7854004 7.0000000000 8.5329999924 8.5000000000 0.0040642899 0.2343659997 2.6600048542 146.76100159 75.849998474  -999.250000 10.250000000 148.18800354 11.102999687 12.039721489 11.101758003
 3897.9377441 7.0000000000 8.5000000000 8.5000000000 0.0023682066 0.2381290048 2.6629858017 150.92199707 76.500000000  -999.250000 10.126999855 131.56300354 10.909000397 12.434251785 10.909990311
 3898.0903320 7.0000000000 8.4779996872 8.5000000000 -0.002492018 0.2320210040 2.6540064812 148.08999634 76.050003052  -999.250000 10.067000389 140.00000000 11.114999771 13.595077515 11.113409996
 3898.2426758 7.0000000000 8.4700002670 8.5000000000 -0.004057840 0.2362190038 2.6559870243 140.02299500 76.100006104  -999.250000 9.8319997787 147.37500000 10.866999626 13.605999947 10.864999771
 3898.3950195 7.0000000000 8.4610004425 8.5000000000 -0.005827206 0.2274979949 2.6480064392 144.43600464 76.400009155  -999.250000 9.7220001221 149.50000000 10.555000305 13.898442268 10.555524826
 3898.5473633 7.0000000000 8.4600000381 8.5000000000 -0.005956846 0.2422820032 2.6520030499 146.57000732 76.199996948  -999.250000 9.6300001144 85.438003540 10.637000084 12.189191818 10.636293411
 3898.6999512 7.0000000000 8.4499998093 8.5000000000 -0.006474496 0.2397419959 2.6540479660 146.45899963 76.100006104  -999.250000 9.4700002670 56.750000000 10.489999771 11.818056107 10.490871429
 3898.8522949 7.0000000000 8.4619998932 8.5000000000 -0.003510856 0.2494049966 2.6690030098 143.85600281 76.250000000  -999.250000 9.5279998779 49.687999725 10.626000404 13.669154167 10.623397827
 3899.0046387 7.0000000000 8.4549999237 8.5000000000 -0.001547288 0.2414080054 2.6710016727 147.94999695 75.599998474  -999.250000 9.6099996567 47.687999725 10.220000267 12.880692482 10.222054482
 3899.1569824 7.0000000000 8.4230003357 8.5000000000 0.0013924439 0.2321950048 2.6719918251 150.37500000 75.349998474  -999.250000 9.7180004120 49.062999725 10.541000366 14.916221619 10.541433334
 3899.3093262 7.0000000000 8.4180002213 8.5000000000 0.0041687628 0.2259729952 2.6669824123 152.29400635 75.199989319  -999.250000 10.081000328 68.063003540 10.630999565 15.654883385 10.630542755
 3899.4619141 7.0000000000 8.3579998016 8.5000000000 0.0089978771 0.2228139937 2.6559295654 151.63099670 75.300003052  -999.250000 10.234999657 123.56300354 10.536000252 15.136076927 10.537057877
 3899.6142578 7.0000000000 8.3100004196 8.5000000000 0.0067763831 0.2281340063 2.6339743137 147.32699585 75.300003052  -999.250000 10.557000160 137.12500000 10.701000214 16.059364319 10.700481415
 3899.7666016 7.0000000000 8.3129997253 8.5000000000 0.0051374855 0.2198120058 2.6179742813 145.07699585 74.800003052  -999.250000 10.845999718 115.93800354 10.619999886 14.866518974 10.624499321
 3899.9189453 7.0000000000 8.3100004196 8.5000000000 -0.000170208 0.2240779996 2.6020047665 146.57400513 73.400001526  -999.250000 11.244999886 83.750000000 11.322999954 15.427176476 11.313485146
 3900.0715332 7.0000000000 8.3120002747 8.5000000000 -0.002178603 0.2313580066 2.6049776077 149.20500183 72.900001526  -999.250000 9.5069999695 77.625000000 9.3439998627 14.592412949 9.3246860504
 3900.2238770 7.0000000000 8.3079996109 8.5000000000 -0.005169005 0.2293909937 2.5980081558 151.68099976 72.699996948  -999.250000 6.5929999352 111.81300354 6.3309998512 11.662327766 6.3119611740
 3900.3762207 7.0000000000 8.3129997253 8.5000000000 -0.004554782 0.2016980052 2.6029982567 137.35499573 73.699996948  -999.250000 3.8599998951 140.68800354 3.3610000610 2.5146155357 3.3525264263
 3900.5285645 3.0000000000 8.3129997253 8.5000000000 -0.008160735 0.1740929931 2.6019856930 105.62500000 75.099998474  -999.250000 2.1150000095 146.56300354 2.0369999409 1.0336538553 2.0350768566
 3900.6811523 3.0000000000 8.2720003128 8.5000000000 -0.010489062 0.1636459976 2.5929679871 71.654998779 76.900001526  -999.250000 1.7610000372 138.43800354 1.6369999647 1.1018399000 1.6364294291
 3900.8334961 3.0000000000 8.1940002441 8.5000000000 -0.010827431 0.1698019952 2.5828990936 47.546001434 77.199996948  -999.250000 1.6540000439 135.00000000 1.5479999781 1.1749327183 1.5479679108
 3900.9858398 3.0000000000 8.1560001373 8.5000000000 -0.015465220 0.1832119972 2.5199246407 49.854999542 77.199996948  -999.250000 1.6339999437 124.87500000 1.5429999828 1.0648077726 1.5424623489
 3901.1381836 3.0000000000 8.1579999924 8.5000000000 -0.020587930 0.2007970065 2.4729342461 47.587001801 76.949996948  -999.250000 1.6870000362 95.625000000 1.4589999914 1.0437884331 1.4599086046
 3901.2905273 3.0000000000 8.1540002823 8.5000000000 -0.021159343 0.1982080042 2.4319870472 44.280998230 76.900001526  -999.250000 1.6729999781 136.25000000 1.6480000019 0.9184144139 1.6475239992
 3901.4431152 3.0000000000 8.1569995880 8.5000000000 -0.015758827 0.1946800053 2.4239871502 42.659000397 76.550003052  -999.250000 1.6059999466 162.56300354 1.5490000248 0.8673172593 1.5484744310
 3901.5954590 3.0000000000 8.1560001373 8.5000000000 -0.013220454 0.1833979934 2.4199743271 42.333999634 77.150001526  -999.250000 1.5870000124 164.00000000 1.4670000076 1.8196153641 1.4672307968
 3901.7478027 3.0000000000 8.1540002823 8.5000000000 -0.017864829 0.1835000068 2.4039905071 43.955001831 77.599998474  -999.250000 1.5909999609 166.06300354 1.5030000210 1.0583076477 1.5037040710
 3901.9001465 3.0000000000 8.1549997330 8.5000000000 -0.018379532 0.1691029966 2.3980031013 44.886001587 74.850006104  -999.250000 1.6380000114 163.93800354 1.6130000353 0.9844560027 1.6133124828
 3902.0527344 3.0000000000 8.1579999924 8.5000000000 -0.017443309 0.1607200056 2.4000673294 44.062999725 76.500000000  -999.250000 1.7730000019 165.12500000 1.6779999733 0.7220095992 1.6779935360
 3902.2050781 3.0000000000 8.1479997635 8.5000000000 -0.010997816 0.1659650058 2.4210112095 41.453998566 79.900001526  -999.250000 1.7999999523 163.68800354 1.6770000458 0.7235577106 1.6757564545
 3902.3574219 3.0000000000 8.1560001373 8.5000000000 -0.010889094 0.1791750044 2.4280111790 42.422000885 79.599998474  -999.250000 1.5779999495 165.37500000 1.4830000401 0.7806923389 1.4798256159
 3902.5097656 3.0000000000 8.1549997330 8.5000000000 -0.014692488 0.1862259954 2.4349839687 45.226001740 75.449996948  -999.250000 1.2439999580 165.43800354 0.9867169857 0.7492884994 0.9876250029
 3902.6623535 3.0000000000 8.1579999924 8.5000000000 -0.018742066 0.1937990040 2.4249935150 44.633998871 72.000000000  -999.250000 1.1820000410 166.75000000 1.1169199944 0.7848575711 1.1168397665
 3902.8146973 3.0000000000 8.1579999924 8.5000000000 -0.020956419 0.2037999928 2.4229424000 43.140998840 71.800003052  -999.250000 1.3193862438 162.93800354 1.0923910141 1.3075770140 1.0935641527
