# LAS format log file from PETREL
# Project units are specified as depth units
#==================================================================
~Version information
VERS.   2.0:
WRAP.   NO:
#==================================================================
~Well
STRT .m      399.05941772 :
STOP .m      2436.9521484 :
STEP .m     0.00000000 :
NULL .        -999.250000 :
COMP.           : COMPANY
WELL.  31/2-1   : WELL
FLD.            : FIELD
LOC.            : LOCATION
SRVC.           : SERVICE COMPANY
DATE.  2018-09-11 14:48:32   : Log Export Date {yyyy-MM-dd HH:mm:ss}
PROV.           : PROVINCE
UWI.   31/2-1   : UNIQUE WELL ID
API.            : API NUMBER
#==================================================================
~Curve
DEPT .m                   : DEPTH
Lithology_geolink ._      : Lithology_geolink
CALI .in                  : CALI
BS .in                    : BS
DRHO .g/cm3               : DRHO
NPHI .m3/m3               : NPHI
RHOB .g/cm3               : RHOB
GR .gAPI                  : GR
DTC .us/ft                : DTC
DTE .us/ft                : DTE
RDEP .ohm.m               : RDEP
SP .mV                    : SP
RSHA .ohm.m               : RSHA
RMED .ohm.m               : RMED
~Parameter
#==================================================================
~Ascii
# ...
 1217.1425781 19.000000000 17.976230621 17.500000000 -0.006154648 0.5970103145 2.0108051300 23.662412643 151.90109253 151.55418396 1.0340082645 37.519058228 0.9974081516 0.9974081516
 1217.2949219 19.000000000 18.007879257 17.500000000 -0.006844676 0.6079028249 2.0197968483 23.680463791 151.01582336 150.94247437 1.0252240896 37.905689240 1.0056933165 1.0056933165
 1217.4473877 19.000000000 17.969879150 17.500000000 -0.004463943 0.6133980155 2.0280032158 24.255357742 149.94415283 151.26458740 1.0419845581 36.910633087 1.0221678019 1.0221678019
 1217.5997314 19.000000000 17.952610016 17.500000000 0.0002233787 0.6110978723 2.0391948223 25.368146896 153.79641724 153.38580322 1.0587785244 35.747463226 1.0184069872 1.0184069872
 1217.7521973 19.000000000 17.969219208 17.500000000 0.0026907052 0.6062961221 2.0473999977 25.885829926 155.66299438 154.54615784 1.0786069632 36.294300079 1.0197060108 1.0197060108
 1217.9045410 19.000000000 17.998720169 17.500000000 0.0021553244 0.6014999151 2.0474009514 25.685520172 153.62252808 152.91842651 1.1112549305 37.273315430 1.0288896561 1.0288896561
 1218.0570068 19.000000000 18.060209274 17.500000000 -0.000536058 0.6011962891 2.0504069328 25.081319809 149.39849854 148.96429443 1.1439939737 36.584796906 1.0433009863 1.0433009863
 1218.2093506 19.000000000 18.071590424 17.500000000 -0.004381410 0.5962982178 2.0593998432 24.067792892 143.84045410 144.79754639 1.1788491011 36.022090912 1.0628752708 1.0628752708
 1218.3618164 19.000000000 18.046880722 17.500000000 -0.005845476 0.5905932188 2.0825159550 24.021610260 142.00079346 141.66754150 1.2136859894 35.428920746 1.0959919691 1.0959919691
 1218.5141602 19.000000000 18.021390915 17.500000000 -0.001773237 0.5807986856 2.1053845882 23.975885391 138.61302185 138.64344788 1.2429555655 35.387535095 1.1311519146 1.1311519146
 1218.6666260 19.000000000 17.969259262 17.500000000 -0.002690953 0.5758951902 2.1183140278 23.609170914 135.53280640 135.53993225 1.2713769674 35.258201599 1.1877989769 1.1877989769
 1218.8189697 19.000000000 17.908800125 17.500000000 -0.004690705 0.5682947040 2.1409909725 23.319791794 132.49632263 133.42196655 1.2786911726 34.461212158 1.2773782015 1.2773782015
 1218.9714355 19.000000000 17.907510757 17.500000000 0.0068366691 0.5630037785 2.1498711109 22.697639465 132.91690063 133.87756348 1.2827919722 33.901664734 1.3155119419 1.3155119419
 1219.1237793 19.000000000 17.928699493 17.500000000 0.0132267633 0.5697066188 2.0991036892 21.865217209 136.56997681 136.46432495 1.2761673927 33.813903809 1.2283918858 1.2283918858
 1219.2761230 19.000000000 17.928489685 17.500000000 0.0072425944 0.5767031908 2.0597245693 21.791818619 139.52912903 139.64453125 1.2294673920 34.501903534 1.1626037359 1.1626037359
 1219.4285889 19.000000000 17.909290314 17.500000000 0.0000825320 0.5830957294 2.0453073978 22.171785355 142.99612427 142.56570435 1.1995319128 35.531414032 1.1362230778 1.1362230778
 1219.5809326 19.000000000 17.893199921 17.500000000 -0.005223379 0.5781959295 2.0407035351 23.383359909 144.83273315 143.91436768 1.1759309769 36.234333038 1.1099381447 1.1099381447
 1219.7333984 19.000000000 17.892700195 17.500000000 -0.002618590 0.5689926147 2.0415968895 24.999090195 143.45429993 144.02278137 1.1524209976 36.376262665 1.0906070471 1.0906070471
 1219.8857422 19.000000000 17.892299652 17.500000000 0.0005340272 0.5597987175 2.0385003090 26.314264297 144.51445007 144.51457214 1.1499040127 36.189620972 1.0764243603 1.0764243603
 1220.0382080 19.000000000 17.891899109 17.500000000 0.0018453527 0.5562052131 2.0320971012 27.657859802 145.35670471 144.97737122 1.1496130228 36.143733978 1.0742139816 1.0742139816
 1220.1905518 19.000000000 17.891500473 17.500000000 0.0045340271 0.5630980730 2.0276055336 29.348226547 144.84321594 144.72184753 1.1671749353 36.203426361 1.0901812315 1.0901812315
 1220.3430176 19.000000000 17.891099930 17.500000000 0.0033092948 0.5573006272 2.0340080261 30.410390854 144.04249573 144.05670166 1.1864939928 36.458381653 1.1207929850 1.1207929850
 1220.4953613 19.000000000 17.890699387 17.500000000 0.0030000000 0.5582026839 2.0460891724 30.597469330 143.35354614 143.81382751 1.2057714462 35.928432465 1.1547478437 1.1547478437
 1220.6478271 19.000000000 17.876480103 17.500000000 -0.001227382 0.5691090226 2.0422000885 30.622270584 144.38270569 144.35237122 1.2270929813 35.714733124 1.1889020205 1.1889020205
 1220.8001709 19.000000000 17.840589523 17.500000000 -0.005381410 0.5836027265 2.0421009064 30.300006866 145.15309143 144.71273804 1.2497638464 35.534278870 1.2475949526 1.2475949526
 1220.9526367 19.000000000 17.797489166 17.500000000 -0.006000000 0.5980936885 2.0491020679 29.406030655 144.34359741 143.64762878 1.2724930048 35.147773743 1.2466880083 1.2466880083
 1221.1049805 19.000000000 17.785150528 17.500000000 -0.006845353 0.5867922902 2.0531966686 28.609689713 141.14846802 141.04713440 1.2999799252 35.129806519 1.2238003016 1.2238003016
 1221.2574463 19.000000000 17.840339661 17.500000000 -0.005309047 0.5785024762 2.0535979271 28.683099747 137.84739685 138.40377808 1.3308839798 35.563442230 1.1815359592 1.1815359592
 1221.4097900 19.000000000 17.909940720 17.500000000 -0.003309295 0.5835106969 2.0504026413 28.837926865 136.65036011 136.93305969 1.3591673374 35.974803925 1.1701351404 1.1701351404
 1221.5621338 19.000000000 17.956319809 17.500000000 -0.001310649 0.5957974792 2.0507006645 28.951547623 136.32125854 136.14520264 1.3801711798 36.027744293 1.1869904995 1.1869904995
 1221.7145996 19.000000000 17.997940063 17.500000000 0.0006907051 0.5899937749 2.0530002117 28.847114563 135.28611755 135.83039856 1.3991817236 35.342178345 1.2348746061 1.2348746061
 1221.8669434 19.000000000 18.042310715 17.500000000 0.0018446759 0.5823066235 2.0554990768 28.014997482 136.35664368 136.50112915 1.4185744524 34.868156433 1.3110870123 1.3110870123
 1222.0194092 19.000000000 18.070209503 17.500000000 0.0053814105 0.5998967290 2.0523939133 27.258699417 137.77520752 137.83619690 1.4417949915 34.539409637 1.3735719919 1.3735719919
 1222.1717529 19.000000000 18.084100723 17.500000000 0.0051553240 0.5953990221 2.0436999798 26.392133713 139.39979553 138.91934204 1.4650614262 34.226615906 1.4179234505 1.4179234505
 1222.3242188 19.000000000 18.085899353 17.500000000 0.0024639424 0.5922033787 2.0448989868 25.406450272 139.24560547 138.88865662 1.4752750397 33.825820923 1.4274649620 1.4274649620
 1222.4765625 19.000000000 18.076290131 17.500000000 0.0003092949 0.5971987844 2.0435009003 24.058759689 137.97300720 137.93460083 1.4533334970 33.069992065 1.3905556202 1.3905556202
 1222.6290283 19.000000000 18.053079605 17.500000000 -0.000845476 0.5926957726 2.0469028950 23.900810242 136.69869995 137.28480530 1.4314119816 32.438922882 1.3515169621 1.3515169621
 1222.7813721 19.000000000 18.024499893 17.500000000 -0.001845353 0.5858998895 2.0511009693 24.321352005 137.61650085 137.66488647 1.4163240194 33.721649170 1.3177540302 1.3177540302
 1222.9338379 19.000000000 18.004299164 17.500000000 0.0005364292 0.5853003860 2.0580968857 24.860719681 138.51950073 138.19252014 1.4029059410 35.216430664 1.2854230404 1.2854230404
 1223.0861816 19.000000000 18.003900528 17.500000000 0.0035360579 0.5858904123 2.0532000065 25.482021332 138.23699951 137.90916443 1.3895167112 35.315048218 1.2696536779 1.2696536779
 1223.2386475 19.000000000 18.000789642 17.500000000 0.0014635710 0.5753951073 2.0535008907 26.591079712 136.88330078 136.47529602 1.3819040060 35.242000580 1.2979860306 1.2979860306
 1223.3909912 19.000000000 17.982269287 17.500000000 -0.008298878 0.5654100180 2.0564069748 26.932447433 134.15660095 134.10023499 1.3756200075 36.823387146 1.3264991045 1.3264991045
 1223.5433350 19.000000000 17.949289322 17.500000000 -0.010000000 0.5770087838 2.0648059845 26.764005661 131.38479614 131.62794495 1.3859896660 37.873481750 1.3862180710 1.3862180710
 1223.6958008 19.000000000 17.927600861 17.500000000 -0.006618590 0.5975164175 2.0801100731 26.765827179 129.54350281 130.14585876 1.4048838615 38.043632507 1.4440017939 1.4440017939
