# LAS format log file from PETREL
# Project units are specified as depth units
#==================================================================
~Version information
VERS.   2.0:
WRAP.   NO:
#==================================================================
~Well
STRT .m      447.54394531 :
STOP .m      3384.4443359 :
STEP .m     0.00000000 :
NULL .        -999.250000 :
COMP.           : COMPANY
WELL.  31/2-8   : WELL
FLD.            : FIELD
LOC.            : LOCATION
SRVC.           : SERVICE COMPANY
DATE.  2018-09-11 14:48:34   : Log Export Date {yyyy-MM-dd HH:mm:ss}
PROV.           : PROVINCE
UWI.   31/2-8   : UNIQUE WELL ID
API.            : API NUMBER
#==================================================================
~Curve
DEPT .m                   : DEPTH
Lithology_geolink ._      : Lithology_geolink
CALI .in                  : CALI
DRHO .g/cm3               : DRHO
SGR .gAPI                 : SGR
NPHI .m3/m3               : NPHI
RHOB .g/cm3               : RHOB
PEF .b/e                  : PEF
GR .gAPI                  : GR
DTC .us/ft                : DTC
RDEP .ohm.m               : RDEP
SP .mV                    : SP
RSHA .ohm.m               : RSHA
RMED .ohm.m               : RMED
~Parameter
#==================================================================
~Ascii
# ...
 2009.9487305 5.0000000000 12.007999420 -0.008000000 81.066207886 0.3631800115 2.3350000381 4.5348315239 69.667221069 97.452667236 1.9090321064 70.038116455 2.3191812038 2.3191812038
 2010.1010742 5.0000000000 12.007999420 -0.003000000 80.190101624 0.3476900160 2.3320000172 4.7145676613 70.565124512 97.403984070 1.8820648193 69.817703247 2.3419446945 2.3419446945
 2010.2535400 5.0000000000 12.007999420 0.0040000002 81.935195923 0.3387099802 2.3310000896 4.7539377213 68.624687195 97.508605957 1.8630304337 68.761543274 2.3919198513 2.3919198513
 2010.4058838 6.0000000000 12.007999420 0.0189999994 83.497497559 0.3403500021 2.3380000591 4.7809567451 72.162620544 97.400405884 1.8689903021 66.927879333 2.4229505062 2.4229505062
 2010.5582275 6.0000000000 12.007999420 0.0270000007 82.627098083 0.3599100113 2.3469998837 4.5236196518 72.782043457 97.643188477 1.9079062939 69.354179382 2.4389615059 2.4389615059
 2010.7106934 6.0000000000 12.008999825 0.0160000008 79.629806519 0.3640300035 2.3480000496 4.5389742851 73.604682922 97.021492004 1.9808830023 71.606391907 2.4499824047 2.4499824047
 2010.8630371 5.0000000000 12.020000458 0.0030000000 79.064353943 0.3589300215 2.3529999256 4.4731583595 68.943222046 95.794448853 2.0877430439 70.102630615 2.5018751621 2.5018751621
 2011.0155029 5.0000000000 12.050000191 -0.005000000 76.816612244 0.3486500084 2.3689999580 4.5898127556 66.815391541 94.573646545 2.2207868099 66.857200623 2.7216472626 2.7216472626
 2011.1678467 5.0000000000 12.126999855 -0.005000000 73.072013855 0.3473199904 2.4019999504 4.7885222435 65.996963501 92.620590210 2.3766252995 65.696784973 3.1190438271 3.1190438271
 2011.3203125 5.0000000000 12.276000023 -0.004000000 70.004905701 0.3393700123 2.4619998932 5.0385994911 64.599243164 89.619323730 2.5786762238 68.730125427 3.7040624619 3.7040624619
 2011.4726563 5.0000000000 12.376999855 -0.003000000 67.693557739 0.3345299959 2.5320000648 5.1168127060 65.861953735 84.477279663 2.8443610668 66.868492126 4.4162874222 4.4162874222
 2011.6251221 5.0000000000 12.454999924 0.0030000000 68.811203003 0.3237999976 2.5850000381 5.2378058434 62.025165558 77.323181152 3.1085767746 66.613403320 5.3934340477 5.3934340477
 2011.7774658 16.000000000 12.510999680 0.0140000004 68.126655579 0.2966400087 2.5759999752 5.1761488914 61.109188080 72.908348083 3.3035314083 70.089630127 6.8026113510 6.8026113510
 2011.9299316 16.000000000 12.487999916 0.0230000000 71.494590759 0.2602100074 2.5169999599 5.4176125526 59.192073822 73.830642700 3.3708927631 70.446441650 8.3904561996 8.3904561996
 2012.0822754 16.000000000 12.407000542 0.0219999999 76.924942017 0.2579299808 2.4479999542 5.4060287476 64.596977234 79.210418701 3.3011682034 70.538780212 7.6747293472 7.6747293472
 2012.2347412 5.0000000000 12.233000755 0.0130000003 81.367889404 0.2854500115 2.3919999599 5.1564006805 73.606559753 86.614524841 3.1682131290 69.279022217 5.3317580223 5.3317580223
 2012.3870850 5.0000000000 12.090999603 0.0049999999 85.992591858 0.3128199875 2.3680000305 5.0741314888 79.517532349 92.047973633 2.9932804108 72.267204285 3.7305641174 3.7305641174
 2012.5394287 6.0000000000 12.050000191 0.0049999999 86.561653137 0.3250899911 2.3680000305 4.9223651886 82.174621582 94.314033508 2.7505836487 68.871185303 3.0735757351 3.0735757351
 2012.6918945 6.0000000000 12.046999931 0.0030000000 85.751304626 0.3352199793 2.3670001030 5.1755928993 80.728332520 95.231803894 2.5073893070 68.194076538 2.9242372513 2.9242372513
 2012.8442383 6.0000000000 12.045000076 0.0080000004 85.375900269 0.3397800028 2.3699998856 5.3545699120 78.318801880 95.606369019 2.3064827919 65.900512695 2.9449493885 2.9449493885
 2012.9967041 6.0000000000 12.042000771 0.0109999999 83.815505981 0.3368200064 2.3589999676 5.2811188698 73.515701294 96.030319214 2.1452579498 69.300537109 2.9809422493 2.9809422493
 2013.1490479 5.0000000000 12.039000511 0.0149999997 84.436500549 0.3301800191 2.3510000706 5.3199067116 71.155662537 96.882194519 2.0312736034 70.627815247 2.9909758568 2.9909758568
 2013.3015137 5.0000000000 12.022000313 0.0049999999 81.442810059 0.3372499943 2.3329999447 5.3010306358 69.433753967 97.848999023 1.9671025276 72.190498352 2.8961522579 2.8961522579
 2013.4538574 5.0000000000 12.022000313 0.0000000000 80.939201355 0.3373099864 2.3320000172 5.7020344734 68.457344055 98.512565613 1.9380695820 70.734512329 2.5897374153 2.5897374153
 2013.6063232 5.0000000000 12.039000511 0.0020000001 82.871894836 0.3366400003 2.3380000591 5.8827114105 66.045867920 98.586280823 1.9160352945 67.129783630 2.3294167519 2.3294167519
 2013.7586670 5.0000000000 12.042000771 0.0070000002 83.561347961 0.3295399845 2.3429999352 5.8829998970 71.098823547 98.153694153 1.8940528631 69.227935791 2.3190240860 2.3190240860
 2013.9111328 5.0000000000 12.043999672 0.0020000001 83.812599182 0.3364899755 2.3359999657 5.9568810463 72.642539978 97.454605103 1.8820191622 70.599800110 2.5166826248 2.5166826248
 2014.0634766 5.0000000000 12.041000366 -0.001000000 80.258560181 0.3452500105 2.3369998932 5.7734417915 75.939064026 97.139083862 1.9049447775 70.938194275 2.6446924210 2.6446924210
 2014.2159424 5.0000000000 12.039000511 -0.002000000 82.995590210 0.3520799875 2.3450000286 5.8159308434 71.285484314 97.099693298 1.9858701229 67.708190918 2.6230351925 2.6230351925
 2014.3682861 5.0000000000 12.039000511 0.0020000001 84.372795105 0.3501400054 2.3550000191 6.2103667259 71.331916809 96.943252563 2.0828444958 67.839775085 2.6589422226 2.6589422226
 2014.5207520 5.0000000000 12.053000450 0.0089999996 87.869392395 0.3538999856 2.3599998951 6.7411499023 73.742134094 96.690315247 2.1758511066 69.466392517 2.8117549419 2.8117549419
 2014.6730957 5.0000000000 12.104999542 0.0109999999 85.566711426 0.3587599993 2.3589999676 6.7769436836 75.998382568 96.581886292 2.2508797646 66.944053650 3.0206649303 3.0206649303
 2014.8254395 5.0000000000 12.140000343 0.0099999998 87.932296753 0.3668799996 2.3570001125 6.3450398445 78.994796753 96.561477661 2.2948944569 67.328071594 3.1975748539 3.1975748539
 2014.9779053 5.0000000000 12.119999886 0.0099999998 85.691612244 0.3604999781 2.3610000610 6.1053829193 75.913955688 96.630378723 2.3069806099 67.500724792 3.2519135475 3.2519135475
 2015.1302490 6.0000000000 12.069001198 0.0160000008 86.311500549 0.3456900120 2.3750000000 5.9733171463 77.949089050 96.551437378 2.3179736137 67.682563782 3.2220718861 3.2220718861
 2015.2827148 6.0000000000 12.019000053 0.0209999997 84.815406799 0.3391999900 2.3800001144 5.6994390488 82.543632507 96.533615112 2.3239903450 69.666816711 3.1301474571 3.1301474571
 2015.4350586 6.0000000000 12.001999855 0.0109999999 85.685905457 0.3285399973 2.3629999161 5.5862712860 80.044036865 96.800727844 2.3249976635 67.066268921 3.0162737370 3.0162737370
 2015.5875244 6.0000000000 12.003000259 0.0060000001 84.127502441 0.3292699754 2.3599998951 5.7457432747 81.351890564 97.069656372 2.3110225201 66.501892090 2.8642437458 2.8642437458
 2015.7398682 6.0000000000 12.012000084 0.0030000000 83.002700806 0.3198100030 2.3640000820 5.8397746086 77.064331055 96.889030457 2.2980313301 68.215873718 2.7901778221 2.7901778221
 2015.8923340 6.0000000000 12.013999939 0.0040000002 81.315704346 0.3245600164 2.3759999275 5.8519811630 82.274620056 96.101844788 2.2840223312 70.427459717 2.8479070663 2.8479070663
 2016.0446777 6.0000000000 12.010999680 0.0010000000 82.247749329 0.3228600025 2.3740000725 5.7233099937 78.545997620 95.117889404 2.2720289230 69.753631592 3.0644788742 3.0644788742
 2016.1971436 6.0000000000 12.012000084 0.0000000000 80.627601624 0.3253699839 2.3750000000 5.4923701286 78.606887817 94.570587158 2.2640128136 68.786552429 3.3525383472 3.3525383472
 2016.3494873 6.0000000000 12.008999825 0.0060000001 81.186653137 0.3197699785 2.3810000420 5.3523364067 79.159675598 94.526481628 2.2759711742 69.820503235 3.4747068882 3.4747068882
 2016.5019531 6.0000000000 12.007999420 0.0089999996 82.497894287 0.3197000027 2.3840000629 5.2621440887 80.174377441 95.112800598 2.3129405975 69.542449951 3.3581874371 3.3581874371
