# LAS format log file from PETREL
# Project units are specified as depth units
#==================================================================
~Version information
VERS.   2.0:
WRAP.   NO:
#==================================================================
~Well
STRT .m      439.56304932 :
STOP .m      1665.9261475 :
STEP .m     0.00000000 :
NULL .        -999.250000 :
COMP.           : COMPANY
WELL.  31/2-7   : WELL
FLD.            : FIELD
LOC.            : LOCATION
SRVC.           : SERVICE COMPANY
DATE.  2018-09-11 14:48:34   : Log Export Date {yyyy-MM-dd HH:mm:ss}
PROV.           : PROVINCE
UWI.   31/2-7   : UNIQUE WELL ID
API.            : API NUMBER
#==================================================================
~Curve
DEPT .m                   : DEPTH
Lithology_geolink ._      : Lithology_geolink
CALI .in                  : CALI
DRHO .g/cm3               : DRHO
SGR .gAPI                 : SGR
NPHI .m3/m3               : NPHI
RHOB .g/cm3               : RHOB
PEF .b/e                  : PEF
GR .gAPI                  : GR
DTC .us/ft                : DTC
DTE .us/ft                : DTE
RDEP .ohm.m               : RDEP
SP .mV                    : SP
RSHA .ohm.m               : RSHA
RMED .ohm.m               : RMED
~Parameter
#==================================================================
~Ascii
# ...
 1008.1676025  -999.250000 19.702999115 0.0219999999  -999.250000 0.4604499936 2.0739998817  -999.250000 74.693008423 145.63026428 142.19927979 1.4898878336 54.024749756 1.3230240345 1.3230240345
 1008.3200073  -999.250000 18.233999252 0.0000000000  -999.250000 0.4809600115 2.0859999657  -999.250000 77.681999207 143.59523010 140.12956238 1.4820159674 54.399250031 1.3010441065 1.3010441065
 1008.4724121  -999.250000 18.077999115 0.0000000000  -999.250000 0.4936500192 2.0739998817  -999.250000 74.319763184 141.96496582 138.52162170 1.4740159512 53.402004242 1.3139740229 1.3139740229
 1008.6248169  -999.250000 18.250000000 0.0120000001  -999.250000 0.5102500319 2.1089999676  -999.250000 77.556495667 141.94509888 138.52723694 1.4959559441 53.899002075 1.3499279022 1.3499279022
 1008.7772217  -999.250000 18.141000748 0.0199999996  -999.250000 0.5039100051 2.1150000095  -999.250000 75.442260742 141.18678284 137.74772644 1.5069779158 53.525753021 1.3739519119 1.3739519119
 1008.9296265  -999.250000 18.077999115 0.0280000009  -999.250000 0.4550800025 2.1389999390  -999.250000 75.998870850 143.53446960 140.13105774 1.5379378796 53.150753021 1.3700079918 1.3700079918
 1009.0820313  -999.250000 18.077999115 0.0359999985  -999.250000 0.4213899970 2.1349999905  -999.250000 76.811698914 144.77737427 141.40902710 1.5859230757 54.273197174 1.3640096188 1.3640096188
 1009.2344360  -999.250000 18.141000748 0.0340000018  -999.250000 0.3950199783 2.1229999065  -999.250000 78.746894836 141.96386719 138.48373413 1.5939871073 53.027004242 1.3819711208 1.3819711208
 1009.3867798  -999.250000 18.233999252 0.0390000008  -999.250000 0.4194300175 2.1250000000  -999.250000 80.684120178 141.11181641 137.70237732 1.5989899635 53.773498535 1.4079478979 1.4079478979
 1009.5391846  -999.250000 18.187999725 0.0320000015  -999.250000 0.4458000064 2.1089999676  -999.250000 82.371620178 141.46159363 138.01553345 1.5820341110 54.024501801 1.4329499006 1.4329499006
 1009.6915894  -999.250000 18.108999252 0.0599999987  -999.250000 0.4282199740 2.1349999905  -999.250000 83.497749329 143.39648438 139.92268372 1.5550540686 54.524002075 1.4329999685 1.4329999685
 1009.8439941  -999.250000 18.266000748 0.0560000017  -999.250000 0.4077099860 2.1170001030  -999.250000 82.127754211 144.62280273 141.12332153 1.5440220833 54.525001526 1.4050559998 1.4050559998
 1009.9963989  -999.250000 18.937999725 0.0560000017  -999.250000 0.4165000021 2.1189999580  -999.250000 81.189880371 143.23315430 139.78131104 1.5390100479 54.400253296 1.3860380650 1.3860380650
 1010.1488037  -999.250000 18.718999863 0.0240000002  -999.250000 0.4394499958 2.0780000687  -999.250000 83.869621277 142.69749451 139.26055908 1.4920940399 55.148498535 1.4019678831 1.4019678831
 1010.3012085  -999.250000 18.297000885 0.0390000008  -999.250000 0.4384799898 2.0780000687  -999.250000 81.817131042 143.73320007 140.31755066 1.4021801949 55.025253296 1.4010020494 1.4010020494
 1010.4536133  -999.250000 18.483999252 0.0520000011  -999.250000 0.4379900098 2.0799999237  -999.250000 77.758132935 143.16804504 139.80838013 1.3550940752 55.648750305 1.3520981073 1.3520981073
 1010.6060181  -999.250000 18.468999863 0.0680000037  -999.250000 0.4506800175 2.1019999981  -999.250000 74.381759644 145.93629456 142.45433044 1.3569959402 56.523250580 1.2671701908 1.2671701908
 1010.7584229  -999.250000 18.781000137 0.0469999984  -999.250000 0.4599599838 2.0920000076  -999.250000 73.376998901 147.02565002 143.53750610 1.3320500851 55.527004242 1.2180981636 1.2180981636
 1010.9108276  -999.250000 19.593999863 0.0379999988  -999.250000 0.4497100115 2.0980000496  -999.250000 78.489738464 146.05326843 142.59698486 1.3040560484 55.899250031 1.2180000544 1.2180000544
 1011.0632324  -999.250000 18.781000137 0.0299999993  -999.250000 0.4174800217 2.0820000172  -999.250000 75.630760193 144.78834534 141.29968262 1.2870340347 56.523750305 1.2399559021 1.2399559021
 1011.2156372  -999.250000 18.656000137 0.0469999984  -999.250000 0.4536100030 2.1089999676  -999.250000 80.679893494 144.18351746 140.69015503 1.2810096741 56.899398804 1.2390015125 1.2390015125
 1011.3679810  -999.250000 19.047000885 0.0509999990  -999.250000 0.4990200102 2.1150000095  -999.250000 81.062255859 144.13803101 140.66708374 1.3039540052 56.900001526 1.2360059023 1.2360059023
 1011.5203857  -999.250000 19.047000885 0.0680000037  -999.250000 0.5317400098 2.1449999809  -999.250000 88.423233032 144.62385559 141.18106079 1.3379319906 57.149501801 1.2330060005 1.2330060005
 1011.6727905  -999.250000 19.125000000 0.0399999991  -999.250000 0.4873000085 2.1129999161  -999.250000 88.812255859 144.49476624 141.09864807 1.3988778591 55.403507233 1.2439779043 1.2439779043
 1011.8251953  -999.250000 19.047000885 0.0170000009  -999.250000 0.4648400247 2.0999999046  -999.250000 93.864860535 143.47158813 140.02903748 1.4608758688 56.647499084 1.2589699030 1.2589699030
 1011.9776001  -999.250000 18.968999863 0.0020000001  -999.250000 0.4213899970 2.1070001125  -999.250000 93.625503540 142.13575745 138.68540955 1.4729759693 57.024250031 1.2809559107 1.2809559107
 1012.1300049  -999.250000 18.500000000 0.0179999992  -999.250000 0.4506800175 2.1310000420  -999.250000 96.557121277 140.65255737 137.18984985 1.4400660992 56.775501251 1.3478659391 1.3478659391
 1012.2824097  -999.250000 18.547000885 0.0520000011  -999.250000 0.4409199953 2.1640000343  -999.250000 87.705772400 139.52455139 136.03298950 1.3960881233 56.400753021 1.4378197193 1.4378197193
 1012.4348145  -999.250000 18.843999863 0.0610000007  -999.250000 0.4770500064 2.1600000858  -999.250000 87.189002991 138.98588562 135.56059265 1.4029859304 57.023750305 1.5288177729 1.5288177729
 1012.5872192  -999.250000 18.483999252 0.0540000014  -999.250000 0.4760699868 2.1519999504  -999.250000 88.310752869 140.57089233 137.13717651 1.4429198503 57.025001526 1.4890800714 1.4890800714
 1012.7396240  -999.250000 18.875000000 0.0250000004  -999.250000 0.4458000064 2.1229999065  -999.250000 95.049484253 140.93844604 137.46450806 1.4729399681 56.650753021 1.4580620527 1.4580620527
 1012.8920288  -999.250000 18.483999252 0.0230000000  -999.250000 0.4570299983 2.1289999485  -999.250000 93.067008972 142.04774475 138.62301636 1.4420621395 56.774749756 1.4330500364 1.4330500364
 1013.0444336  -999.250000 18.483999252 0.0320000015  -999.250000 0.4589799941 2.1170001030  -999.250000 87.885391235 142.38548279 138.97799683 1.3062722683 55.652256012 1.4100459814 1.4100459814
 1013.1968384  -999.250000 18.687999725 0.0209999997  -999.250000 0.4985400140 2.0920000076  -999.250000 81.073921204 142.06762695 138.59155273 1.2680609226 56.273998260 1.3371169567 1.3371169567
 1013.3492432  -999.250000 18.468999863 0.0130000003  -999.250000 0.4809600115 2.0610001087  -999.250000 79.752105713 144.02676392 140.58718872 1.2580159903 56.150199890 1.3739407063 1.3739407063
 1013.5015869  -999.250000 19.233999252 -0.001000000  -999.250000 0.5219699740 2.0699999332  -999.250000 81.745994568 143.28564453 139.80691528 1.2749658823 56.274749756 1.3071341515 1.3071341515
 1013.6539917  -999.250000 18.500000000 0.0010000000  -999.250000 0.4975599945 2.0880000591  -999.250000 80.751998901 144.55987549 141.09657288 1.2949599028 55.776000977 1.3978177309 1.3978177309
 1013.8063965  -999.250000 18.577999115 0.0040000002  -999.250000 0.4936500192 2.1129999161  -999.250000 80.688125610 144.76533508 141.29924011 1.3379139900 55.899749756 1.3201562166 1.3201562166
 1013.9588013  -999.250000 18.172000885 -0.001000000  -999.250000 0.4345700145 2.1089999676  -999.250000 79.627128601 144.27326965 140.82466125 1.3170421124 57.022747040 1.3798798323 1.3798798323
 1014.1112061  -999.250000 18.327999115 0.0099999998  -999.250000 0.4340800047 2.1310000420  -999.250000 83.305618286 142.54888916 139.14184570 1.3130079508 56.900253296 1.4159278870 1.4159278870
 1014.2636108  -999.250000 18.375000000 0.0170000009  -999.250000 0.4453099966 2.1410000324  -999.250000 86.306999207 139.90203857 136.55084229 1.2491281033 57.399002075 1.4120079279 1.4120079279
