# LAS format log file from PETREL
# Project units are specified as depth units
#==================================================================
~Version information
VERS.   2.0:
WRAP.   NO:
#==================================================================
~Well
STRT .m      439.56304932 :
STOP .m      1665.9261475 :
STEP .m     0.00000000 :
NULL .        -999.250000 :
COMP.           : COMPANY
WELL.  31/2-7   : WELL
FLD.            : FIELD
LOC.            : LOCATION
SRVC.           : SERVICE COMPANY
DATE.  2018-09-11 14:48:34   : Log Export Date {yyyy-MM-dd HH:mm:ss}
PROV.           : PROVINCE
UWI.   31/2-7   : UNIQUE WELL ID
API.            : API NUMBER
#==================================================================
~Curve
DEPT .m                   : DEPTH
Lithology_geolink ._      : Lithology_geolink
CALI .in                  : CALI
DRHO .g/cm3               : DRHO
SGR .gAPI                 : SGR
NPHI .m3/m3               : NPHI
RHOB .g/cm3               : RHOB
PEF .b/e                  : PEF
GR .gAPI                  : GR
DTC .us/ft                : DTC
DTE .us/ft                : DTE
RDEP .ohm.m               : RDEP
SP .mV                    : SP
RSHA .ohm.m               : RSHA
RMED .ohm.m               : RMED
~Parameter
#==================================================================
~Ascii
# ...
 1414.3137207 6.0000000000 17.983999252 0.0379999988  -999.250000 0.4526399970 2.0980000496  -999.250000 77.056793213 138.85716248 133.10665894 0.6969776154 69.900199890 0.7540609241 0.7540609241
 1414.4660645 6.0000000000 18.327999115 0.0089999996  -999.250000 0.4360400140 2.0980000496  -999.250000 74.007354736 134.36605835 128.60830688 0.7019880414 69.276504517 0.7569928169 0.7569928169
 1414.6185303 5.0000000000 18.233999252 0.0320000015  -999.250000 0.3945299983 2.1579999924  -999.250000 73.126403809 123.69863129 117.93063354 0.6920160055 69.150199890 0.7530064583 0.7530064583
 1414.7708740 16.000000000 18.483999252 0.0340000018  -999.250000 0.3608399928 2.1719999313  -999.250000 67.696716309 118.21794128 112.45889282 0.6670400500 70.397994995 0.8188942075 0.8188942075
 1414.9232178 16.000000000 18.266000748 0.0570000000  -999.250000 0.4111299813 2.1559998989  -999.250000 69.932601929 120.53552246 114.77185822 0.6410624385 69.153007507 0.8958150744 0.8958150744
 1415.0756836 5.0000000000 18.250000000 0.0199999996  -999.250000 0.5190399885 2.1129999161  -999.250000 66.505508423 122.43849945 116.69322205 0.6130448580 69.898796082 0.7911682725 0.7911682725
 1415.2280273 5.0000000000 18.250000000 0.0000000000  -999.250000 0.5644500256 2.0959999561  -999.250000 65.814651489 133.66708374 128.00741577 0.6040216088 71.396400452 0.7411201000 0.7411201000
 1415.3804932 5.0000000000 18.093999863 0.0170000009  -999.250000 0.5297899842 2.1019999981  -999.250000 63.317005157 144.40142822 138.67689514 0.6020032167 71.150405884 0.6641233563 0.6641233563
 1415.5328369 5.0000000000 18.593999863 0.0240000002  -999.250000 0.4321300089 2.0880000591  -999.250000 66.555198669 146.65606689 140.89379883 0.5820480585 72.895797729 0.6390600204 0.6390600204
 1415.6853027 5.0000000000 18.156000137 0.0390000008  -999.250000 0.4316400290 2.1070001125  -999.250000 66.624900818 147.67169189 141.92651367 0.6179422736 70.653610229 0.7108846307 0.7108846307
 1415.8376465 5.0000000000 18.202999115 0.0099999998  -999.250000 0.4726599753 2.1150000095  -999.250000 70.864791870 147.14836121 141.44844055 0.6499230862 70.400604248 0.7389327884 0.7389327884
 1415.9901123 5.0000000000 18.468999863 0.0080000004  -999.250000 0.4497100115 2.1519999504  -999.250000 67.318710327 143.99760437 138.24588013 0.6839455366 71.523200989 0.8647980690 0.8647980690
 1416.1424561 5.0000000000 18.077999115 0.0120000001  -999.250000 0.4018599987 2.1719999313  -999.250000 65.941307068 136.91798401 131.23045349 0.6999615431 70.278007507 0.8231008649 0.8231008649
 1416.2949219 5.0000000000 17.922000885 0.0350000001  -999.250000 0.3437500000 2.2070000172  -999.250000 59.884716034 138.26933289 132.56625366 0.7049919963 71.647796631 0.8888942003 0.8888942003
 1416.4472656 5.0000000000 17.875000000 0.0359999985  -999.250000 0.3456999958 2.2130000591  -999.250000 64.364189148 135.82116699 130.07658386 0.7608654499 71.275901794 0.9368847013 0.9368847013
 1416.5997314 5.0000000000 17.827999115 0.0399999991  -999.250000 0.3720700145 2.2170000076  -999.250000 64.313102722 135.75340271 130.02436829 0.7530128360 71.524597168 0.9959054589 0.9959054589
 1416.7520752 5.0000000000 17.843999863 0.0280000009  -999.250000 0.3818399906 2.1889998913  -999.250000 66.309799194 139.07493591 133.38233948 0.7539983988 70.277008057 0.9171265960 0.9171265960
 1416.9044189 5.0000000000 17.843999863 0.0250000004  -999.250000 0.4223600030 2.1800000668  -999.250000 63.444904327 142.27566528 136.56512451 0.7689639926 71.272598267 0.7803290486 0.7803290486
 1417.0568848 5.0000000000 18.172000885 0.0179999992  -999.250000 0.4326200187 2.1659998894  -999.250000 61.066806793 143.71189880 138.02108765 0.7580176592 71.025405884 0.7240897417 0.7240897417
 1417.2092285 5.0000000000 17.983999252 0.0340000018  -999.250000 0.4150400162 2.1760001183  -999.250000 59.409976959 144.67607117 138.92285156 0.6971465349 71.025001526 0.7579183578 0.7579183578
 1417.3616943 5.0000000000 17.983999252 0.0469999984  -999.250000 0.4096699953 2.1719999313  -999.250000 59.250251770 145.29756165 139.57611084 0.6620560884 73.021797180 0.8129118681 0.8129118681
 1417.5140381 5.0000000000 18.125000000 0.0659999996  -999.250000 0.4165000021 2.1600000858  -999.250000 69.101280212 145.92985535 140.21690369 0.6320720911 70.406303406 0.8558967113 0.8558967113
 1417.6665039 6.0000000000 18.141000748 0.0529999994  -999.250000 0.4824199975 2.1370000839  -999.250000 76.113784790 146.81414795 141.08743286 0.6230144501 69.776000977 0.8150656819 0.8150656819
 1417.8188477 6.0000000000 19.266000748 0.0390000008  -999.250000 0.4951200187 2.1089999676  -999.250000 77.122596741 149.18777466 143.44876099 0.6469423771 69.276199341 0.7531489134 0.7531489134
 1417.9713135 5.0000000000 19.452999115 0.0260000005  -999.250000 0.4956099987 2.1070001125  -999.250000 73.755409241 150.04496765 144.37242126 0.6579823494 71.396598816 0.6831122041 0.6831122041
 1418.1236572 5.0000000000 19.202999115 0.0149999997  -999.250000 0.4731400013 2.1189999580  -999.250000 72.191757202 148.64279175 143.00288391 0.6669783592 71.524703979 0.7059447169 0.7059447169
 1418.2761230 5.0000000000 18.843999863 0.0040000002  -999.250000 0.4619100094 2.1449999809  -999.250000 72.873901367 147.44180298 141.75190735 0.6729903817 71.525001526 0.7708958387 0.7708958387
 1418.4284668 5.0000000000 19.093999863 0.0109999999  -999.250000 0.4257799983 2.1579999924  -999.250000 71.503303528 146.46890259 140.73362732 0.6759927869 71.649703979 0.8637766242 0.8637766242
 1418.5809326 6.0000000000 18.593999863 0.0350000001  -999.250000 0.4326200187 2.1640000343  -999.250000 72.623199463 146.23316956 140.52528381 0.6809920073 72.398796082 0.8989439011 0.8989439011
 1418.7332764 6.0000000000 18.358999252 0.0439999998  -999.250000 0.4106400013 2.1370000839  -999.250000 74.185501099 148.98350525 143.28327942 0.7029647231 72.275199890 0.8600625396 0.8600625396
 1418.8857422 6.0000000000 18.516000748 0.0590000004  -999.250000 0.4706999958 2.1480000019  -999.250000 75.747497559 148.87567139 143.18182373 0.7479279637 73.023803711 0.8080832958 0.8080832958
 1419.0380859 6.0000000000 18.327999115 0.0410000011  -999.250000 0.4824199975 2.1459999084  -999.250000 73.441711426 148.98126221 143.24684143 0.7809471488 72.775405884 0.7580801249 0.7580801249
 1419.1904297 6.0000000000 18.641000748 0.0489999987  -999.250000 0.4912099838 2.1889998913  -999.250000 72.626953125 146.63108826 140.94572449 0.8069375157 72.775001526 0.7450312376 0.7450312376
 1419.3428955 5.0000000000 17.952999115 0.0140000004  -999.250000 0.4550800025 2.1889998913  -999.250000 70.815910339 143.81103516 138.11793518 0.8109935522 74.022994995 0.7689615488 0.7689615488
 1419.4952393 5.0000000000 17.875000000 0.0080000004  -999.250000 0.4399400055 2.2090001106  -999.250000 70.750152588 143.84494019 138.09757996 0.8179832101 73.650901794 0.8398294449 0.8398294449
 1419.6477051 5.0000000000 17.906000137 0.0040000002  -999.250000 0.4902299941 2.2290000916  -999.250000 68.878005981 142.60763550 136.83442688 0.8539422750 74.897994995 0.9238654375 0.9238654375
 1419.8000488 5.0000000000 17.922000885 0.0140000004  -999.250000 0.5112299919 2.2269999981  -999.250000 68.813156128 142.12347412 136.36270142 0.9128582478 76.146995544 0.9848535061 0.9848535061
 1419.9525146 5.0000000000 17.875000000 0.0179999992  -999.250000 0.5219699740 2.2209999561  -999.250000 66.753303528 141.75772095 136.03660583 0.9758990407 74.527603149 1.0079631805 1.0079631805
 1420.1048584 5.0000000000 17.781000137 0.0149999997  -999.250000 0.4497100115 2.2030000687  -999.250000 70.615692139 140.64591980 134.90841675 1.0268774033 74.026199341 1.0249590874 1.0249590874
 1420.2573242 5.0000000000 17.781000137 0.0080000004  -999.250000 0.4252899885 2.1779999733  -999.250000 69.939102173 139.59310913 133.88302612 1.0319919586 74.274597168 1.0449678898 1.0449678898
 1420.4096680 5.0000000000 17.781000137 0.0160000008  -999.250000 0.4160200059 2.1679999828  -999.250000 70.312103271 138.35499573 132.65679932 0.9791272879 73.900901794 1.0499879122 1.0499879122
