# LAS format log file from PETREL
# Project units are specified as depth units
#==================================================================
~Version information
VERS.   2.0:
WRAP.   NO:
#==================================================================
~Well
STRT .m      399.05941772 :
STOP .m      2436.9521484 :
STEP .m     0.00000000 :
NULL .        -999.250000 :
COMP.           : COMPANY
WELL.  31/2-1   : WELL
FLD.            : FIELD
LOC.            : LOCATION
SRVC.           : SERVICE COMPANY
DATE.  2018-09-11 14:48:32   : Log Export Date {yyyy-MM-dd HH:mm:ss}
PROV.           : PROVINCE
UWI.   31/2-1   : UNIQUE WELL ID
API.            : API NUMBER
#==================================================================
~Curve
DEPT .m                   : DEPTH
Lithology_geolink ._      : Lithology_geolink
CALI .in                  : CALI
BS .in                    : BS
DRHO .g/cm3               : DRHO
NPHI .m3/m3               : NPHI
RHOB .g/cm3               : RHOB
GR .gAPI                  : GR
DTC .us/ft                : DTC
DTE .us/ft                : DTE
RDEP .ohm.m               : RDEP
SP .mV                    : SP
RSHA .ohm.m               : RSHA
RMED .ohm.m               : RMED
~Parameter
#==================================================================
~Ascii
# ...
 1619.4785156 2.0000000000 12.169639587 12.250000954 -0.013222757 0.1510306001 2.5599839687 41.684452057 82.751602173 84.542282104 16.489494324 25.065498352 219.77539063 26.931272507
 1619.6309814 2.0000000000 12.199579239 12.250000954 -0.012310648 0.1736290008 2.5480530262 42.530780792 71.749076843 72.281082153 15.412973404 24.796831131 170.50997925 22.044067383
 1619.7833252 16.000000000 12.179960251 12.250000954 -0.008621795 0.2050407976 2.4971339703 42.552925110 62.219783783 64.170326233 15.404462814 24.765098572 118.31185913 19.900211334
 1619.9357910 16.000000000 12.150380135 12.250000954 -0.005465973 0.2366259992 2.4463570118 42.088863373 59.928146362 62.005306244 14.682349205 24.777948380 71.402153015 19.212648392
 1620.0881348 16.000000000 12.129961014 12.250000954 -0.006689103 0.2668470144 2.3959279060 45.313625336 64.759384155 64.789314270 12.196733475 25.175493240 26.542903900 15.434109688
 1620.2406006 5.0000000000 12.100399971 12.250000954 -0.013757406 0.3050679862 2.3370959759 48.102249146 69.048797607 68.034477234 9.3234214783 26.626070023 5.2188429832 11.243105888
 1620.3929443 5.0000000000 12.099999428 12.250000954 -0.009932692 0.3476369977 2.2721540928 49.187770844 69.591545105 70.393318176 6.4492840767 27.541191101 3.0557417870 6.9135112762
 1620.5454102 5.0000000000 12.099968910 12.250000954 -0.004773237 0.3793143034 2.2324481010 50.173622131 73.457603455 74.613059998 3.5756516457 28.024597168 2.6488616467 3.0821931362
 1620.6977539 5.0000000000 12.079970360 12.250000954 -0.007378703 0.3885836899 2.1983718872 50.657699585 81.304191589 82.279510498 1.3991194963 27.721752167 2.7484958172 1.6485443115
 1620.8502197 5.0000000000 12.050299644 12.250000954 -0.012226763 0.3737986982 2.1729230881 52.318347931 92.367904663 91.638084412 1.2425330877 26.787956238 2.9091701508 1.4799960852
 1621.0025635 5.0000000000 12.050000191 12.250000954 -0.014689351 0.3729093969 2.1886351109 55.320312500 100.33422089 100.02735901 1.2517794371 26.793453217 2.7219631672 1.5069622993
 1621.1549072 5.0000000000 12.050000191 12.250000954 0.0010464746 0.3819130957 2.2219190598 57.331218719 107.33997345 105.74615479 1.2574858665 26.967187881 2.7648410797 1.5435253382
 1621.3073730 5.0000000000 12.050000191 12.250000954 0.0031553244 0.3912088871 2.2351989746 59.222446442 108.44112396 108.04312134 1.2619993687 26.892099380 2.9060337543 1.5834320784
 1621.4597168 6.0000000000 12.050000191 12.250000954 -0.007979167 0.4003041983 2.2346041203 60.701522827 108.57658386 108.80036163 1.2739988565 26.756877899 3.0350103378 1.6268594265
 1621.6121826 6.0000000000 12.050000191 12.250000954 -0.012534027 0.4033918083 2.2375028133 61.359603882 109.64194489 109.27906799 1.3051240444 26.653312683 3.0123593807 1.6372578144
 1621.7645264 6.0000000000 12.049970627 12.250000954 -0.010466346 0.3943861127 2.2410070896 61.694114685 109.28536987 109.19634247 1.3161673546 26.570682526 2.9007339478 1.6226104498
 1621.9169922 6.0000000000 12.029970169 12.250000954 -0.005776621 0.3836058080 2.2465009689 61.852584839 108.74454498 108.89414978 1.3209801912 26.291038513 2.9285745621 1.5901639462
 1622.0693359 6.0000000000 12.000299454 12.250000954 0.0000673078 0.3904168904 2.2480120659 62.337131500 108.80099487 108.86693573 1.3133740425 25.825311661 2.9906780720 1.5610473156
 1622.2218018 6.0000000000 11.999999046 12.250000954 0.0035340274 0.4043110013 2.2576959133 61.824802399 109.07059479 109.07392883 1.2756731510 25.702365875 2.9500176907 1.5342514515
 1622.3741455 6.0000000000 11.999999046 12.250000954 0.0006217949 0.4182108045 2.2526021004 60.918190002 109.35150146 109.31562042 1.2372417450 25.823587418 2.9564507008 1.5065381527
 1622.5266113 6.0000000000 11.999999046 12.250000954 -0.004223379 0.4274843931 2.2545926571 60.388504028 109.51559448 109.47469330 1.1836009026 26.880472183 3.0163471699 1.4735394716
 1622.6789551 6.0000000000 11.999999046 12.250000954 -0.009222756 0.4172712862 2.2496860027 60.615898132 109.55629730 109.53636932 1.1534261703 27.300355911 2.8962314129 1.4402617216
 1622.8314209 6.0000000000 11.999999046 12.250000954 -0.015917469 0.3910861909 2.2364859581 60.734024048 109.55300903 109.53371429 1.1931421757 27.457532883 2.8059382439 1.4128409624
 1622.9837646 6.0000000000 11.999999046 12.250000954 -0.016155325 0.3817141950 2.2270948887 60.695381165 109.50160217 109.47522736 1.2292940617 27.581659317 2.7320442200 1.3894606829
 1623.1362305 6.0000000000 12.000140190 12.250000954 -0.016000001 0.3953931034 2.2220890522 61.346817017 109.37659454 109.39335632 1.2232508659 26.359674454 2.5819911957 1.3855991364
 1623.2885742 6.0000000000 12.027690887 12.250000954 -0.016844677 0.3905003071 2.2141880989 61.786449432 109.34110260 109.34644318 1.1771789789 25.805299759 2.3625359535 1.3772836924
 1623.4409180 6.0000000000 12.022170067 12.250000954 -0.020378206 0.3908114135 2.2015109062 61.739856720 109.33769989 109.33313751 1.1281335354 25.486667633 2.3935508728 1.3379830122
 1623.5933838 6.0000000000 11.999999046 12.250000954 -0.019310648 0.3992896080 2.2101140022 61.059314728 109.33451080 109.34841156 1.0979101658 25.468318939 2.4410679340 1.2963762283
 1623.7457275 6.0000000000 11.999999046 12.250000954 -0.014777244 0.3877832890 2.2258069515 59.342323303 109.40180969 109.14759064 1.1280646324 25.853504181 2.4393827915 1.2547527552
 1623.8981934 6.0000000000 11.999999046 12.250000954 -0.013155324 0.3746905029 2.2315940857 60.042205811 108.53630829 108.77648926 1.1858836412 26.990316391 2.4209277630 1.2583910227
 1624.0505371 6.0000000000 12.000128746 12.250000954 -0.021445513 0.3634104133 2.2249081135 60.462570190 108.67130280 108.77352905 1.2377508879 26.783569336 2.3938972950 1.3842362165
 1624.2030029 6.0000000000 12.027721405 12.250000954 -0.016242594 0.3720153868 2.2311971188 59.773212433 109.11810303 108.97990417 1.2669256926 26.062757492 2.3948013783 1.4562454224
 1624.3553467 6.0000000000 12.049869537 12.250000954 -0.014155449 0.3917219043 2.2270860672 57.616989136 109.04070282 109.00437164 1.2747837305 26.064853668 2.5307710171 1.5125708580
 1624.5078125 6.0000000000 12.022210121 12.250000954 -0.017378703 0.4107081890 2.2150049210 58.512252808 108.89390564 108.83288574 1.2795932293 26.895620346 2.8497433662 1.5352458954
 1624.6601563 6.0000000000 12.028321266 12.250000954 -0.022222755 0.4161007106 2.2181038857 59.653736115 108.54709625 108.52790070 1.2840764523 28.087060928 3.0006351471 1.5404927731
 1624.8126221 6.0000000000 12.049970627 12.250000954 -0.025536058 0.4166873097 2.2214150429 60.645526886 108.16929626 108.33944702 1.2739020586 27.219367981 3.3400630951 1.5473065376
 1624.9649658 6.0000000000 12.029089928 12.250000954 -0.026844677 0.4079903960 2.2314319611 60.891521454 108.44989777 108.47284698 1.2562581301 25.957220078 3.7764961720 1.5645681620
 1625.1174316 6.0000000000 12.021438599 12.250000954 -0.023618590 0.3985944092 2.2626249790 60.306148529 108.77549744 108.53482819 1.2654685974 25.543094635 3.9770555496 1.5803383589
 1625.2697754 6.0000000000 12.049798965 12.250000954 -0.019621296 0.3945876062 2.2802178860 59.680469513 108.21929932 108.15607452 1.3344817162 25.439048767 4.0547709465 1.6397752762
 1625.4221191 6.0000000000 12.050000191 12.250000954 -0.015621794 0.3816660941 2.2993021011 58.486686707 107.52839661 107.43823242 1.4119268656 25.740821838 4.1433787346 1.7912101746
 1625.5745850 6.0000000000 12.050000191 12.250000954 -0.011621297 0.3561845124 2.3008921146 57.907260895 106.53579712 106.36029053 1.4907399416 26.127593994 4.0653586388 1.8289887905
 1625.7269287 6.0000000000 12.049970627 12.250000954 -0.011000000 0.3389075100 2.2914850712 59.102039337 104.94249725 104.95664978 1.3406687975 26.536527634 3.8940486908 1.6121777296
 1625.8793945 6.0000000000 12.027179718 12.250000954 -0.014378702 0.3448157012 2.2797799110 60.290081024 103.48350525 103.98495483 1.0813838243 27.054233551 3.6931598186 1.3289757967
 1626.0317383 6.0000000000 12.000100136 12.250000954 -0.018378204 0.3636085093 2.2563409805 61.304706573 103.90879822 104.38660431 0.9356713295 27.253440857 3.1492400169 1.1062748432
