# LAS format log file from PETREL
# Project units are specified as depth units
#==================================================================
~Version information
VERS.   2.0:
WRAP.   NO:
#==================================================================
~Well
STRT .m      443.33587646 :
STOP .m      1778.0548096 :
STEP .m     0.00000000 :
NULL .        -999.250000 :
COMP.           : COMPANY
WELL.  31/2-9   : WELL
FLD.            : FIELD
LOC.            : LOCATION
SRVC.           : SERVICE COMPANY
DATE.  2018-09-11 14:48:35   : Log Export Date {yyyy-MM-dd HH:mm:ss}
PROV.           : PROVINCE
UWI.   31/2-9   : UNIQUE WELL ID
API.            : API NUMBER
#==================================================================
~Curve
DEPT .m                   : DEPTH
Lithology_geolink ._      : Lithology_geolink
CALI .in                  : CALI
DRHO .g/cm3               : DRHO
SGR .gAPI                 : SGR
NPHI .m3/m3               : NPHI
RHOB .g/cm3               : RHOB
PEF .b/e                  : PEF
GR .gAPI                  : GR
DTC .us/ft                : DTC
RDEP .ohm.m               : RDEP
SP .mV                    : SP
RSHA .ohm.m               : RSHA
RMED .ohm.m               : RMED
~Parameter
#==================================================================
~Ascii
# ...
 885.90533447  -999.250000 19.194999695 -0.014006408  -999.250000 0.5260691643 1.7490031719 4.4973239899 68.438003540 160.00000000 0.9779999852 75.808906555 0.8650000095 0.8650000095
 886.05773926  -999.250000 19.013000488 -0.014998398  -999.250000 0.5345763564 1.7450064421 4.4161295891 70.875000000 159.75000000 0.9850000143 76.491905212 0.8690000176 0.8690000176
 886.21014404  -999.250000 18.882999420 -0.015998399  -999.250000 0.5428267717 1.7410064936 4.4968705177 75.063003540 160.12500000 1.0130000114 77.174911499 0.8740000129 0.8740000129
 886.36254883  -999.250000 18.830999374 -0.014003204  -999.250000 0.5401942134 1.7459920645 4.6577420235 75.000000000 160.00000000 1.0509999990 77.567375183 0.8750000000 0.8750000000
 886.51495361  -999.250000 18.815999985 -0.011004806  -999.250000 0.5332311392 1.7549855709 4.8447003365 75.625000000 160.00000000 1.0829999447 77.955383301 0.8830000162 0.8830000162
 886.66735840  -999.250000 18.812999725 -0.011998398  -999.250000 0.5258118510 1.7599920034 4.9438409805 73.125000000 159.50000000 1.1059999466 78.343383789 0.8889999986 0.8889999986
 886.81976318  -999.250000 18.805999756 -0.015993593  -999.250000 0.5261095166 1.7580032349 5.0618109703 67.563003540 159.12500000 1.1119999886 77.828826904 0.8949999809 0.8949999809
 886.97216797  -999.250000 18.792999268 -0.020993991  -999.250000 0.5261099935 1.7520071268 5.2278008461 67.688003540 159.37500000 1.1019999981 76.941070557 0.8999999762 0.8999999762
 887.12457275  -999.250000 18.833999634 -0.022997597  -999.250000 0.5084612370 1.7500023842 5.4407439232 66.188003540 159.00000000 1.0800000429 76.053070068 0.9010000229 0.9010000229
 887.27697754  -999.250000 18.860000610 -0.023000000  -999.250000 0.4658112824 1.7509988546 5.5718426704 71.250000000 158.49998474 1.0609999895 75.585563660 0.8949999809 0.8949999809
 887.42938232  -999.250000 18.766000748 -0.021002403  -999.250000 0.4488203824 1.7579915524 5.6239376068 69.813003540 159.00000000 1.0529999733 75.681884766 0.8840000033 0.8840000033
 887.58172607  -999.250000 19.180000305 -0.020001601  -999.250000 0.4570267797 1.7629920244 5.8406524658 72.125000000 159.50000000 1.0549999475 75.779838562 0.8759999871 0.8759999871
 887.73413086  -999.250000 19.939998627 -0.015008009  -999.250000 0.4889987111 1.7669935226 5.9747853279 71.688003540 160.12500000 1.0679999590 75.792976379 0.8669999838 0.8669999838
 887.88653564  -999.250000 20.319999695 -0.009009611  -999.250000 0.5178238153 1.7729903460 5.6065912247 73.625000000 160.50000000 1.0839999914 75.319763184 0.8700000048 0.8700000048
 888.03894043  -999.250000 20.419000626 -0.007003204  -999.250000 0.5445072651 1.7769935131 4.8631916046 73.563003540 160.00000000 1.0759999752 74.844764709 0.8809999824 0.8809999824
 888.19134521  -999.250000 20.328998566 -0.009995194  -999.250000 0.5784556270 1.7779984474 4.5534949303 75.188003540 158.75001526 1.0540000200 74.369766235 0.8989999890 0.8989999890
 888.34375000  -999.250000 20.038999557 -0.018985583  -999.250000 0.5829828382 1.7750047445 4.5919375420 73.375000000 158.37500000 1.0490000248 74.735412598 0.9139999747 0.9139999747
 888.49615479  -999.250000 20.084999084 -0.023991991  -999.250000 0.5489146709 1.7749999762 4.7956733704 79.313003540 158.00000000 1.0509999990 75.232208252 0.9160000086 0.9160000086
 888.64855957  -999.250000 20.371000290 -0.024000000  -999.250000 0.5080055594 1.7799919844 4.6432452202 79.000000000 158.37500000 1.0650000572 75.729209900 0.9129999876 0.9129999876
 888.80096436  -999.250000 20.523000717 -0.024000000  -999.250000 0.4733055830 1.7809984684 4.5491504669 84.123344421 158.75001526 1.0979996920 75.593223572 0.9089975953 0.9089975953
 888.95336914  -999.250000 20.547000885 -0.019006008  -999.250000 0.4826287031 1.7859940529 4.4301428795 79.999427795 158.74990845 1.0969928503 75.007705688 0.9029999971 0.9029999971
 889.10577393  -999.250000 20.547000885 -0.017002404  -999.250000 0.4956543744 1.7869987488 4.3301200867 78.563705444 158.49993896 1.0789976120 74.421699524 0.9029999971 0.9029999971
 889.25817871  -999.250000 20.547000885 -0.013004806  -999.250000 0.4972680807 1.7929928303 4.1212511063 80.312500000 158.37500000 1.0729935169 73.982528687 0.9030032158 0.9030032158
 889.41058350  -999.250000 20.544000626 -0.011002403  -999.250000 0.4932648242 1.7969952822 3.9771730900 79.688102722 158.37469482 1.0649985075 73.883125305 0.9070023894 0.9070023894
 889.56298828  -999.250000 20.537000656 -0.007004806  -999.250000 0.5079123378 1.8069880009 3.7872281075 79.808143616 158.00000000 1.0630111694 73.784118652 0.9100064635 0.9100064635
 889.71533203  -999.250000 20.544000626 -0.004004806  -999.250000 0.5374825597 1.8129903078 3.7061297894 73.749702454 158.00004578 1.0770056248 73.689155579 0.9179999828 0.9179999828
 889.86773682  -999.250000 20.528999329 -0.001004806  -999.250000 0.5561401248 1.8120015860 3.6870305538 73.000373840 158.12495422 1.0909996033 73.783843994 0.9179999828 0.9179999828
 890.02014160  -999.250000 20.447000504 -0.005991990  -999.250000 0.5359523892 1.8020160198 3.8687083721 73.937828064 158.00015259 1.0899964571 73.879844666 0.9180007577 0.9180007577
 890.17254639  -999.250000 20.127000809 -0.008995194  -999.250000 0.5009561181 1.7970080376 4.0287432671 73.501304626 158.37500000 1.0809984207 73.975845337 0.9200028181 0.9200028181
 890.32495117  -999.250000 19.201000214 -0.011995194  -999.250000 0.4762894809 1.7970000505 4.0100307465 76.749450684 158.37500000 1.0770008564 73.912101746 0.9270051718 0.9270051718
 890.47735596  -999.250000 18.392999649 -0.009004805  -999.250000 0.4719269574 1.7960015535 3.9620769024 75.376098633 158.37504578 1.0790040493 73.793190002 0.9400051832 0.9400051832
 890.62976074  -999.250000 18.208999634 -0.005006407  -999.250000 0.4782797992 1.7960000038 4.4052886963 78.123519897 158.50022888 1.0890100002 73.674194336 0.9530016184 0.9530016184
 890.78216553  -999.250000 18.292999268 0.0019887867  -999.250000 0.4695440233 1.8009920120 5.5501642227 74.438652039 159.12510681 1.1140140295 74.221122742 0.9569979906 0.9569979906
 890.93457031  -999.250000 18.475000381 0.0039967964  -999.250000 0.4606941938 1.8109840155 7.1214818954 76.060951233 159.37504578 1.1490092278 75.545875549 0.9519932270 0.9519932270
 891.08697510  -999.250000 18.680000305 -0.001992789  -999.250000 0.5061153769 1.8189903498 6.5197272301 70.938980103 159.49984741 1.1720029116 76.872406006 0.9349979758 0.9349979758
 891.23937988  -999.250000 18.944000244 -0.010989187  -999.250000 0.5448534489 1.8219964504 5.3793706894 73.374198914 159.12460327 1.1789947748 77.788902283 0.9300011992 0.9300011992
 891.39178467  -999.250000 19.010999680 -0.018990388  -999.250000 0.5606610775 1.8170059919 4.3282628059 71.372848511 158.12489319 1.1659871340 76.846138000 0.9330136180 0.9330136180
 891.54418945  -999.250000 18.558000565 -0.018999999  -999.250000 0.5614989996 1.8100084066 4.1072640419 68.686454773 157.99929810 1.1499943733 75.902137756 0.9500144124 0.9500144124
 891.69659424  -999.250000 18.291999817 -0.017002404  -999.250000 0.5661144257 1.8040071726 4.1479506493 66.748596191 157.12570190 1.1429952383 74.957138062 0.9680088162 0.9680088162
 891.84893799  -999.250000 18.274999619 -0.012008009  -999.250000 0.5659403205 1.8040000200 4.4245562553 65.001373291 158.00004578 1.1369955540 74.582603455 0.9789999723 0.9789999723
 892.00134277  -999.250000 18.343000412 -0.008006408  -999.250000 0.5450634956 1.8049983978 4.7045512199 68.438705444 158.12500000 1.1259920597 74.271499634 0.9789999723 0.9789999723
 892.15374756  -999.250000 18.441999435 -0.002009612  -999.250000 0.5295448303 1.8059984446 4.8966922760 70.188003540 158.12510681 1.1059935093 73.960494995 0.9789995551 0.9789995551
 892.30615234  -999.250000 18.493000031 -0.002000000  -999.250000 0.5478705764 1.7980128527 5.2903685570 70.187950134 158.37515259 1.0899947882 73.749336243 0.9779959917 0.9779959917
 892.45855713  -999.250000 18.572999954 -0.003996796  -999.250000 0.5772328973 1.7860192060 5.6414380074 70.063606262 158.75025940 1.0769959688 73.600234985 0.9679943919 0.9679943919
