# LAS format log file from PETREL
# Project units are specified as depth units
#==================================================================
~Version information
VERS.   2.0:
WRAP.   NO:
#==================================================================
~Well
STRT .m      326.13598633 :
STOP .m      1938.6804199 :
STEP .m     0.00000000 :
NULL .        -999.250000 :
COMP.           : COMPANY
WELL.  31/2-17 A   : WELL
FLD.            : FIELD
LOC.            : LOCATION
SRVC.           : SERVICE COMPANY
DATE.  2018-09-11 14:48:33   : Log Export Date {yyyy-MM-dd HH:mm:ss}
PROV.           : PROVINCE
UWI.   31/2-17 A   : UNIQUE WELL ID
API.            : API NUMBER
#==================================================================
~Curve
DEPT .m                   : DEPTH
Lithology_geolink ._      : Lithology_geolink
CALI .in                  : CALI
DRHO .g/cm3               : DRHO
RHOB .g/cm3               : RHOB
GR .gAPI                  : GR
DTC .us/ft                : DTC
RDEP .ohm.m               : RDEP
RMED .ohm.m               : RMED
~Parameter
#==================================================================
~Ascii
# ...
 1289.9136963  -999.250000  -999.250000  -999.250000 2.2200000286 42.916099548 152.25840759 1.8730000257  -999.250000
 1290.0660400  -999.250000  -999.250000  -999.250000 2.2200000286 40.681400299 152.25840759 1.0092999935  -999.250000
 1290.2185059  -999.250000  -999.250000  -999.250000 2.2200000286 41.541698456 152.25840759 1.0371999741  -999.250000
 1290.3708496  -999.250000  -999.250000  -999.250000 2.2200000286 43.179100037 152.25840759 0.8772000074  -999.250000
 1290.5231934  -999.250000  -999.250000  -999.250000 2.2200000286 46.396400452 152.25840759 0.7857999802  -999.250000
 1290.6756592  -999.250000  -999.250000  -999.250000 2.2200000286 44.763401031 152.25840759 0.7847999930  -999.250000
 1290.8280029  -999.250000  -999.250000  -999.250000 2.2200000286 41.776000977 152.25840759 0.8539999723  -999.250000
 1290.9804688  -999.250000  -999.250000  -999.250000 2.2200000286 35.530498505 152.25840759 0.9369000196  -999.250000
 1291.1328125  -999.250000  -999.250000  -999.250000 2.2200000286 35.665798187 152.25840759 1.0147000551  -999.250000
 1291.2852783  -999.250000  -999.250000  -999.250000 2.2200000286 37.232398987 152.25840759 1.0879000425  -999.250000
 1291.4376221  -999.250000  -999.250000  -999.250000 2.2200000286 41.614398956 152.25840759 1.1598999500  -999.250000
 1291.5900879  -999.250000  -999.250000  -999.250000 2.2200000286 42.532699585 152.25840759 1.4113999605  -999.250000
 1291.7424316  -999.250000  -999.250000  -999.250000 2.2200000286 45.196701050 152.25840759 1.2305999994  -999.250000
 1291.8948975  -999.250000  -999.250000  -999.250000 2.2200000286 42.263500214 152.25840759 1.0685000420  -999.250000
 1292.0472412  -999.250000  -999.250000  -999.250000 2.2200000286 44.187900543 152.25840759 0.9765999913  -999.250000
 1292.1997070  -999.250000  -999.250000  -999.250000 2.2200000286 43.054298401 152.25840759 0.9585999846  -999.250000
 1292.3520508  -999.250000  -999.250000  -999.250000 2.2200000286 43.864200592 152.25840759 0.9921000004  -999.250000
 1292.5043945  -999.250000  -999.250000  -999.250000 2.2200000286 42.345798492 152.25840759 1.0051000118  -999.250000
 1292.6568604  -999.250000  -999.250000  -999.250000 2.2200000286 43.646999359 152.25840759 0.9351000190  -999.250000
 1292.8092041  -999.250000  -999.250000  -999.250000 2.2200000286 43.339801788 152.25840759 0.8328999877  -999.250000
 1292.9616699  -999.250000  -999.250000  -999.250000 2.2200000286 40.442501068 152.25840759 0.7519000173  -999.250000
 1293.1140137  -999.250000  -999.250000  -999.250000 2.2200000286 41.943298340 152.25840759 0.8177999854  -999.250000
 1293.2664795  -999.250000  -999.250000  -999.250000 2.2200000286 40.901000977 152.25840759 0.9409999847  -999.250000
 1293.4188232  -999.250000  -999.250000  -999.250000 2.2200000286 42.062801361 152.25840759 1.2903000116  -999.250000
 1293.5712891  -999.250000  -999.250000  -999.250000 2.2200000286 40.553199768 152.25840759 1.2237000465  -999.250000
 1293.7236328  -999.250000  -999.250000  -999.250000 2.2200000286 43.994499207 152.25840759 1.2167999744  -999.250000
 1293.8760986  -999.250000  -999.250000  -999.250000 2.2200000286 42.561199188 152.25840759 1.1498999596  -999.250000
 1294.0284424  -999.250000  -999.250000  -999.250000 2.2200000286 40.082401276 152.25840759 1.0665999651  -999.250000
 1294.1809082  -999.250000  -999.250000  -999.250000 2.2200000286 38.471401215 152.25840759 0.9876000285  -999.250000
 1294.3332520  -999.250000  -999.250000  -999.250000 2.2200000286 40.895099640 152.25840759 0.8968999982  -999.250000
 1294.4857178  -999.250000  -999.250000  -999.250000 2.2200000286 43.122100830 152.25840759 0.8978000283  -999.250000
 1294.6380615  -999.250000  -999.250000  -999.250000 2.2200000286 38.255798340 152.25840759 0.9059000015  -999.250000
 1294.7904053  -999.250000  -999.250000  -999.250000 2.2200000286 34.729698181 152.25840759 0.9071999788  -999.250000
 1294.9428711  -999.250000  -999.250000  -999.250000 2.2200000286 34.794101715 152.25840759 0.8952000141  -999.250000
 1295.0952148  -999.250000  -999.250000  -999.250000 2.2200000286 38.804000854 152.25840759 0.8676999807  -999.250000
 1295.2476807  -999.250000  -999.250000  -999.250000 2.2200000286 39.547798157 152.25840759 0.8450999856  -999.250000
 1295.4000244  -999.250000  -999.250000  -999.250000 2.2200000286 40.071998596 152.25840759 0.8320000172  -999.250000
 1295.5524902  -999.250000  -999.250000  -999.250000 2.2200000286 40.453800201 152.25840759 0.8370000124  -999.250000
 1295.7048340  -999.250000  -999.250000  -999.250000 2.2200000286 39.877101898 152.25840759 0.8449000120  -999.250000
 1295.8572998  -999.250000  -999.250000  -999.250000 2.2200000286 37.652198792 152.25840759 0.8453000188  -999.250000
 1296.0096436  -999.250000  -999.250000  -999.250000 2.2200000286 37.580398560 152.25840759 0.8320999742  -999.250000
 1296.1621094  -999.250000  -999.250000  -999.250000 2.2200000286 39.474899292 152.25840759 0.8105000257  -999.250000
 1296.3144531  -999.250000  -999.250000  -999.250000 2.2200000286 36.127700806 152.25840759 0.7908999920  -999.250000
 1296.4669189  -999.250000  -999.250000  -999.250000 2.2200000286 33.004798889 152.25840759 0.6929000020  -999.250000
 1296.6192627  -999.250000  -999.250000  -999.250000 2.2200000286 34.404899597 152.25840759 0.7519999743  -999.250000
 1296.7716064  -999.250000  -999.250000  -999.250000 2.2200000286 38.081001282 152.25840759 0.7434999943  -999.250000
 1296.9240723  -999.250000  -999.250000  -999.250000 2.2200000286 40.604801178 152.25840759 0.7279999852  -999.250000
 1297.0764160  -999.250000  -999.250000  -999.250000 2.2200000286 39.751098633 152.25840759 0.7127000093  -999.250000
 1297.2288818  -999.250000  -999.250000  -999.250000 2.2200000286 40.758800507 152.25840759 0.6974999905  -999.250000
 1297.3812256  -999.250000  -999.250000  -999.250000 2.2200000286 38.795200348 152.25840759 0.6855000257  -999.250000
 1297.5336914  -999.250000  -999.250000  -999.250000 2.2200000286 38.330101013 152.25840759 0.6917999983  -999.250000
 1297.6860352  -999.250000  -999.250000  -999.250000 2.2200000286 34.280399323 152.25840759 0.9146000147  -999.250000
 1297.8385010  -999.250000  -999.250000  -999.250000 2.2200000286 33.058998108 152.25840759 0.8467000127  -999.250000
 1297.9908447  -999.250000  -999.250000  -999.250000 2.2200000286 31.361200333 152.25840759 0.8701999784  -999.250000
 1298.1433105  -999.250000  -999.250000  -999.250000 2.2200000286 35.674900055 152.25840759 0.8349000216  -999.250000
 1298.2956543  -999.250000  -999.250000  -999.250000 2.2200000286 40.031200409 152.25840759 0.8101999760  -999.250000
 1298.4481201  -999.250000  -999.250000  -999.250000 2.2200000286 42.663398743 152.25840759 0.8022999763  -999.250000
 1298.6004639  -999.250000  -999.250000  -999.250000 2.2200000286 40.487400055 152.25840759 0.8059999943  -999.250000
 1298.7528076  -999.250000  -999.250000  -999.250000 2.2200000286 38.806701660 152.25840759 0.7052999735  -999.250000
 1298.9052734  -999.250000  -999.250000  -999.250000 2.2200000286 37.499401093 152.25840759 0.8061000109  -999.250000
 1299.0576172  -999.250000  -999.250000  -999.250000 2.2200000286 34.926101685 152.25840759 0.8165000081  -999.250000
 1299.2100830  -999.250000  -999.250000  -999.250000 2.2200000286 34.655998230 152.25840759 0.8119999766  -999.250000
 1299.3624268  -999.250000  -999.250000  -999.250000 2.2200000286 33.298801422 152.25840759 0.8044000268  -999.250000
 1299.5148926  -999.250000  -999.250000  -999.250000 2.2200000286 33.901100159 152.25840759 0.7953000069  -999.250000
 1299.6672363  -999.250000  -999.250000  -999.250000 2.2200000286 32.411598206 152.25840759 0.7853000164  -999.250000
 1299.8197021  -999.250000  -999.250000  -999.250000 2.2200000286 33.992198944 152.25840759 0.7724000216  -999.250000
 1299.9720459  -999.250000  -999.250000  -999.250000 2.2200000286 36.103298187 152.25840759 0.7523000240  -999.250000
 1300.1245117  -999.250000  -999.250000  -999.250000 2.2200000286 36.698501587 152.25840759 0.7215999961  -999.250000
