# LAS format log file from PETREL
# Project units are specified as depth units
#==================================================================
~Version information
VERS.   2.0:
WRAP.   NO:
#==================================================================
~Well
STRT .m      447.54394531 :
STOP .m      3384.4443359 :
STEP .m     0.00000000 :
NULL .        -999.250000 :
COMP.           : COMPANY
WELL.  31/2-8   : WELL
FLD.            : FIELD
LOC.            : LOCATION
SRVC.           : SERVICE COMPANY
DATE.  2018-09-11 14:48:34   : Log Export Date {yyyy-MM-dd HH:mm:ss}
PROV.           : PROVINCE
UWI.   31/2-8   : UNIQUE WELL ID
API.            : API NUMBER
#==================================================================
~Curve
DEPT .m                   : DEPTH
Lithology_geolink ._      : Lithology_geolink
CALI .in                  : CALI
DRHO .g/cm3               : DRHO
SGR .gAPI                 : SGR
NPHI .m3/m3               : NPHI
RHOB .g/cm3               : RHOB
PEF .b/e                  : PEF
GR .gAPI                  : GR
DTC .us/ft                : DTC
RDEP .ohm.m               : RDEP
SP .mV                    : SP
RSHA .ohm.m               : RSHA
RMED .ohm.m               : RMED
~Parameter
#==================================================================
~Ascii
# ...
 2593.3359375 6.0000000000 12.184000015 0.0140000004 99.307197571 0.3581499755 2.5350000858 3.3005833626 84.034355164 86.198837280 3.5090241432 80.110969543 4.3109469414 4.3109469414
 2593.4882813 6.0000000000 12.250000954 0.0070000002 96.629310608 0.3566600084 2.5260000229 3.4707274437 88.170372009 87.290336609 3.4970192909 78.707252502 4.3199858665 4.3199858665
 2593.6406250 6.0000000000 12.269000053 0.0030000000 98.871391296 0.3625500202 2.5120000839 3.7455594540 84.840354919 87.663566589 3.5099792480 77.251335144 4.3269886971 4.3269886971
 2593.7929688 6.0000000000 12.220999718 -0.002000000 98.127403259 0.3924399912 2.4990000725 3.5356752872 79.844024658 88.046409607 3.4272656441 81.161445618 4.3210191727 4.3210191727
 2593.9455566 6.0000000000 12.244000435 0.0010000000 97.625801086 0.4057700038 2.4869999886 3.2624375820 76.381530762 88.595573425 3.3361458778 81.632270813 4.2331409454 4.2331409454
 2594.0979004 6.0000000000 12.342000961 0.0179999992 92.071914673 0.3993600011 2.4779999256 2.9225447178 77.066894531 88.916526794 3.3340032101 82.157157898 3.9953813553 3.9953813553
 2594.2502441 6.0000000000 12.366999626 0.0410000011 89.379310608 0.3546699882 2.4449999332 2.7542691231 75.764091492 89.055992126 3.3599581718 81.193550110 3.7523894310 3.7523894310
 2594.4025879 6.0000000000 12.324000359 0.0419999994 89.437805176 0.3362699747 2.3740000725 2.5107808113 75.326393127 89.383605957 3.3859167099 77.585578918 3.4978160858 3.4978160858
 2594.5551758 6.0000000000 12.338998795 0.0160000008 92.932395935 0.3754099905 2.3129999638 2.4790496826 75.698394775 91.128120422 3.3889951706 77.825592041 3.6797068119 3.6797068119
 2594.7075195 6.0000000000 12.366999626 -0.003000000 92.314002991 0.3960300088 2.3210000992 2.4220912457 80.426406860 94.710502625 3.4089679718 76.959388733 3.8147838116 3.8147838116
 2594.8598633 6.0000000000 12.338000298 -0.004000000 91.314605713 0.3859999776 2.3929998875 2.5348188877 80.617698669 98.015365601 3.4409487247 78.464584351 3.9457900524 3.9457900524
 2595.0122070 6.0000000000 12.326999664 0.0040000002 91.562599182 0.3381600082 2.4739999771 2.5080430508 78.741012573 97.776679993 3.4859280586 81.395301819 4.2165656090 4.2165656090
 2595.1645508 6.0000000000 12.390999794 0.0020000001 96.297805786 0.3202399909 2.5220000744 2.8309631348 82.112167358 93.858665466 3.4979615211 82.136634827 4.5050754547 4.5050754547
 2595.3171387 6.0000000000 12.519001007 -0.004000000 98.933799744 0.3082300127 2.5380001068 3.7285609245 84.993392944 88.566780090 3.4660513401 82.335685730 4.5928606987 4.5928606987
 2595.4694824 6.0000000000 12.588999748 0.0049999999 99.748695374 0.2963300049 2.5329999924 4.4049167633 93.639129639 84.595664978 3.4180769920 82.634521484 4.5161232948 4.5161232948
 2595.6218262 6.0000000000 12.588000298 0.0289999992 96.443313599 0.2920500040 2.4900000095 4.1294441223 87.680587769 82.843490601 3.3311395645 81.658561707 4.6298174858 4.6298174858
 2595.7741699 18.000000000 12.591000557 0.0579999983 95.441200256 0.3128899932 2.4279999733 3.7452318668 90.345413208 82.280136108 3.2363040447 81.413780212 4.5532464981 4.5532464981
 2595.9267578 18.000000000 12.605999947 0.0659999996 96.311599731 0.3430199921 2.3340001106 2.8684055805 87.551498413 82.635223389 3.2330048084 81.175384521 4.1825947762 4.1825947762
 2596.0791016 18.000000000 12.651999474 0.0529999994 93.754104614 0.3926699758 2.2390000820 2.2160449028 89.431968689 84.883598328 3.3587980270 80.972328186 3.5989358425 3.5989358425
 2596.2314453 18.000000000 12.689000130 0.0329999998 85.762817383 0.4782600105 2.2269999981 1.7846907377 81.441833496 90.461891174 3.4478573799 81.150711060 3.2285928726 3.2285928726
 2596.3837891 6.0000000000 12.664999962 0.0149999997 79.333602905 0.5127399564 2.2990000248 1.8218784332 73.338973999 98.307189941 3.5137887001 81.186882019 3.2668752670 3.2668752670
 2596.5363770 6.0000000000 12.545999527 0.0120000001 76.005310059 0.4742599726 2.4379999638 2.4230353832 71.130500793 104.10694885 3.5429534912 81.204971313 4.1615643501 4.1615643501
 2596.6887207 6.0000000000 12.449999809 0.0099999998 76.562103271 0.3504999876 2.4979999065 2.8902516365 69.876007080 104.73238373 3.5210351944 80.343383789 5.5557646751 5.5557646751
 2596.8410645 5.0000000000 12.385000229 0.0060000001 72.444610596 0.2615099847 2.4979999065 3.1615655422 65.752616882 99.670364380 3.5379729271 78.737579346 6.1610321999 6.1610321999
 2596.9934082 5.0000000000 12.358999252 0.0199999996 68.444412231 0.2238499969 2.4979999065 3.4076056480 59.603858948 91.798164368 3.7227034569 77.670707703 5.2764215469 5.2764215469
 2597.1457520 5.0000000000 12.319000244 0.0370000005 66.693603516 0.2170100063 2.5030000210 3.5076799393 57.810726166 84.977088928 3.9981169701 77.803565979 4.5024800301 4.5024800301
 2597.2983398 5.0000000000 12.217000008 0.0410000011 64.192008972 0.2316900045 2.5150001049 3.4281282425 63.574737549 82.435546875 4.1407723427 78.948158264 4.2144584656 4.2144584656
 2597.4506836 5.0000000000 12.081999779 0.0160000008 62.346958160 0.2548699975 2.5130000114 3.3501248360 63.264511108 82.893188477 4.2238669395 78.017494202 4.2838878632 4.2838878632
 2597.6030273 5.0000000000 12.086001396 0.0000000000 62.188251495 0.2613700032 2.5230000019 3.3669729233 64.310317993 82.664093018 4.1760768890 74.644409180 4.5186233521 4.5186233521
 2597.7553711 5.0000000000 12.168001175 0.0000000000 66.175201416 0.2587800026 2.5390000343 3.5673568249 63.640155792 80.858070374 4.1191825867 73.406951904 4.7961101532 4.7961101532
 2597.9079590 5.0000000000 12.201000214 0.0109999999 71.055191040 0.2508000135 2.5529999733 3.4651648998 67.741416931 78.942878723 4.1090164185 77.142997742 5.0276298523 5.0276298523
 2598.0603027 6.0000000000 12.187999725 0.0109999999 79.549385071 0.2800199986 2.5490000248 3.2293782234 69.666915894 77.610832214 4.1419472694 78.107460022 5.0879034996 5.0879034996
 2598.2126465 6.0000000000 12.171998978 0.0030000000 83.182197571 0.3174299896 2.5339999199 3.1211731434 74.786781311 76.712066650 4.2168798447 79.125366211 5.0490622520 5.0490622520
 2598.3649902 6.0000000000 12.170000076 0.0040000002 86.738601685 0.3527700007 2.5369999409 3.1887822151 80.387046814 77.130615234 4.2449102402 79.796852112 5.0280671120 5.0280671120
 2598.5175781 6.0000000000 12.149999619 0.0120000001 86.750000000 0.3659500182 2.5469999313 3.1949903965 86.888595581 79.289443970 4.2549839020 80.412017822 5.1148605347 5.1148605347
 2598.6699219 6.0000000000 12.131000519 0.0309999995 88.122795105 0.3777299821 2.5499999523 3.2029871941 84.549766541 81.179847717 4.2160625458 80.853286743 5.2358059883 5.2358059883
 2598.8222656 6.0000000000 12.144000053 0.0460000001 89.747398376 0.3730500042 2.5099999905 3.2708909512 79.795623779 82.565040588 4.2499456406 80.747169495 5.3987388611 5.3987388611
 2598.9746094 6.0000000000 12.173000336 0.0649999976 88.315307617 0.3731399775 2.4279999733 3.6753511429 74.377685547 82.886627197 4.3708057404 81.103424072 5.4159727097 5.4159727097
 2599.1269531 18.000000000 12.144000053 0.0939999968 90.306602478 0.3790700138 2.3059999943 3.2613310814 74.933189392 82.829231262 4.6411328316 81.055160522 4.9744176865 4.9744176865
 2599.2795410 18.000000000 12.102999687 0.1010000035 87.504508972 0.4251599908 2.0899999142 1.8292964697 74.341957092 84.560264587 4.9624853134 81.446372986 4.5906138420 4.5906138420
 2599.4318848 18.000000000 12.145000458 0.0560000017 83.256813049 0.4550299942 1.8049999475 1.3827130795 70.345413208 88.544586182 5.1576876640 77.774894714 4.6788573265 4.6788573265
 2599.5842285 18.000000000 12.161999702 0.0049999999 70.520431519 0.4813899994 1.6009999514 1.1933028698 59.318687439 95.681739807 5.1759715080 80.900970459 5.4048352242 5.4048352242
 2599.7365723 18.000000000 11.994001389 -0.026000001 60.033599854 0.4823800027 1.5590000153 1.3544815779 48.393020630 106.38499451 5.0683455467 78.181739807 6.4576239586 6.4576239586
 2599.8891602 18.000000000 11.932999611 -0.029999999 57.317306519 0.5054500103 1.6900000572 2.4692115784 46.595825195 116.36017609 4.8453569412 80.696945190 7.6151475906 7.6151475906
