# LAS format log file from PETREL
# Project units are specified as depth units
#==================================================================
~Version information
VERS.   2.0:
WRAP.   NO:
#==================================================================
~Well
STRT .m      445.17501831 :
STOP .m      1838.8730469 :
STEP .m     0.00000000 :
NULL .        -999.250000 :
COMP.           : COMPANY
WELL.  31/2-10   : WELL
FLD.            : FIELD
LOC.            : LOCATION
SRVC.           : SERVICE COMPANY
DATE.  2018-09-11 14:48:32   : Log Export Date {yyyy-MM-dd HH:mm:ss}
PROV.           : PROVINCE
UWI.   31/2-10   : UNIQUE WELL ID
API.            : API NUMBER
#==================================================================
~Curve
DEPT .m                   : DEPTH
Lithology_geolink ._      : Lithology_geolink
CALI .in                  : CALI
DRHO .g/cm3               : DRHO
NPHI .m3/m3               : NPHI
RHOB .g/cm3               : RHOB
PEF .b/e                  : PEF
GR .gAPI                  : GR
DTC .us/ft                : DTC
RDEP .ohm.m               : RDEP
SP .mV                    : SP
RSHA .ohm.m               : RSHA
RMED .ohm.m               : RMED
~Parameter
#==================================================================
~Ascii
# ...
 1374.2054443 5.0000000000 17.920999527 0.0099999998 0.4739699960 2.0789999962 3.8389999866 61.338993073 141.54238892 0.7359807491 71.158569336  -999.250000 0.8251169920
 1374.3579102 5.0000000000 18.047000885 0.0089999996 0.4676900208 2.0910000801 3.7100000381 58.230861664 138.89959717 0.7240816355 70.895874023  -999.250000 0.8980456591
 1374.5102539 5.0000000000 18.107000351 0.0070000002 0.4927000105 2.1080000401 3.5069999695 63.153244019 139.19711304 0.7580304742 71.674575806  -999.250000 0.9170705080
 1374.6625977 5.0000000000 17.992000580 -0.003000000 0.5367100239 2.1029999256 3.5420000553 61.441005707 139.12582397 0.7770160437 71.410552979  -999.250000 0.9610032439
 1374.8150635 5.0000000000 18.034000397 -0.010000000 0.5265100002 2.0889999866 3.7899999619 63.300838470 138.10031128 0.7870672345 72.375556946  -999.250000 0.9629976153
 1374.9674072 5.0000000000 17.968999863 -0.010000000 0.4480699897 2.0780000687 3.9760000706 58.251354218 136.24287415 0.8150560856 71.363174438  -999.250000 0.9619935751
 1375.1198730 5.0000000000 17.809999466 -0.004000000 0.4119299948 2.0789999962 4.1669998169 59.101055145 135.71235657 0.8500240445 72.098197937  -999.250000 0.9579951763
 1375.2722168 5.0000000000 17.754999161 0.0000000000 0.4105600119 2.0829999447 3.8380000591 62.039764404 137.20533752 0.8600224257 72.596221924  -999.250000 0.9559951425
 1375.4246826 5.0000000000 17.736999512 -0.001000000 0.4595600069 2.0869998932 3.6989998817 67.495948792 136.94961548 0.8740408421 72.111923218  -999.250000 0.9530216455
 1375.5770264 5.0000000000 17.798999786 -0.010000000 0.4598799944 2.0940001011 3.7079999447 65.801734924 137.10375977 0.8909983635 72.079376221  -999.250000 0.9620064497
 1375.7294922 5.0000000000 17.798999786 -0.015000000 0.4828300178 2.1050000191 3.9809999466 58.774845123 136.07354736 0.8900240064 71.069007874  -999.250000 0.9660312533
 1375.8818359 5.0000000000 17.770999908 -0.011000000 0.4621500075 2.1110000610 3.6349999905 56.224258423 134.71844482 0.8999999762 72.316802979  -999.250000 0.9789759517
 1376.0343018 5.0000000000 17.739999771 -0.004000000 0.4529600143 2.0999999046 3.5529999733 59.519515991 135.31571960 0.9000191689 72.814125061  -999.250000 0.9639951587
 1376.1866455 6.0000000000 17.733999252 0.0010000000 0.4354600012 2.0980000496 3.5230000019 67.634216309 135.61833191 0.9079983830 72.034797668  -999.250000 0.9620000124
 1376.3391113 6.0000000000 17.733999252 -0.001000000 0.4549199939 2.0980000496 3.8239998817 73.379951477 137.07951355 0.9070023894 72.530990601  -999.250000 0.9620264173
 1376.4914551 6.0000000000 17.733999252 -0.002000000 0.4309799969 2.1029999256 3.8910000324 75.438705444 137.30638123 0.9079951644 71.285224915  -999.250000 0.9730192423
 1376.6437988 6.0000000000 17.798999786 -0.002000000 0.4106400013 2.0969998837 3.8440001011 75.883804321 136.95706177 0.9049935937 72.050003052  -999.250000 0.9850128293
 1376.7962646 6.0000000000 17.839000702 -0.001000000 0.4121900201 2.0959999561 3.6740000248 81.377403259 136.95352173 0.9010000229 72.050003052  -999.250000 0.9930336475
 1376.9486084 6.0000000000 17.909000397 -0.002000000 0.4497100115 2.0940001011 3.5899999142 82.873100281 136.35676575 0.9009872079 72.047950745  -999.250000 1.0140529871
 1377.1010742 6.0000000000 17.934999466 -0.002000000 0.4602899849 2.0969998837 3.7019999027 81.670135498 135.39112854 0.8930191994 70.769599915  -999.250000 1.0470577478
 1377.2534180 6.0000000000 17.910999298 -0.004000000 0.4784299731 2.0910000801 3.8599998951 74.249496460 134.62316895 0.9010144472 71.019371033  -999.250000 1.0709646940
 1377.4058838 6.0000000000 17.906000137 0.0030000000 0.4750199914 2.0899999142 4.1050000191 73.943405151 134.15792847 0.9099736214 71.252510071  -999.250000 1.0489039421
 1377.5582275 6.0000000000 17.983999252 0.0060000001 0.4972299933 2.0829999447 4.1090002060 76.183898926 133.56987000 0.8989920020 71.050407410  -999.250000 1.0089695454
 1377.7106934 6.0000000000 18.000000000 0.0120000001 0.4909700155 2.0899999142 4.2870001793 73.618392944 133.89324951 0.8939519525 71.300079346  -999.250000 0.9899736047
 1377.8630371 6.0000000000 18.000000000 0.0080000004 0.4814400077 2.0920000076 4.1479997635 70.868690491 134.60525513 0.8739439249 71.331024170  -999.250000 0.9789983630
 1378.0155029 5.0000000000 17.934999466 0.0010000000 0.4441699982 2.0869998932 4.1950001717 66.946708679 134.74304199 0.8389351368 71.348197937  -999.250000 0.9780216217
 1378.1678467 5.0000000000 17.882999420 -0.006000000 0.4077099860 2.0629999638 4.6310000420 70.559700012 134.73135376 0.8119855523 71.845771790  -999.250000 0.9869278669
 1378.3203125 5.0000000000 17.836000443 -0.005000000 0.4014500082 2.0520000458 4.4120001793 68.499397278 135.39657593 0.8029519320 71.084007263  -999.250000 0.9418342113
 1378.4726563 5.0000000000 17.867000580 -0.004000000 0.4135800302 2.0490000248 4.0180001259 68.241485596 137.20147705 0.7829903960 72.331024170  -999.250000 0.8729776144
 1378.6251221 5.0000000000 18.447999954 -0.002000000 0.4587399960 2.0750000477 3.4159998894 62.947307587 136.38024902 0.7770696878 72.347602844  -999.250000 0.8590769172
 1378.7774658 5.0000000000 18.132999420 -0.002000000 0.4733900130 2.0950000286 3.4969999790 66.814208984 136.50289917 0.8060192466 72.597023010  -999.250000 0.8910496235
 1378.9298096 5.0000000000 17.839000702 -0.001000000 0.4497900009 2.1089999676 3.8350000381 67.572418213 135.05477905 0.8180528879 72.612022400  -999.250000 0.9219983816
 1379.0822754 6.0000000000 17.849000931 0.0010000000 0.4114499986 2.1229999065 4.4899997711 73.433952332 132.61491394 0.8512714505 72.629196167  -999.250000 0.9209399819
 1379.2346191 6.0000000000 18.041999817 0.0080000004 0.3909500241 2.1900000572 5.5440001488 71.744689941 130.57566833 0.9641121626 73.127174377  -999.250000 0.8961875439
 1379.3870850 6.0000000000 18.129999161 0.0070000002 0.4394599795 2.3039999008 5.5710000992 68.421852112 122.13442993 1.0340312719 72.612564087  -999.250000 1.0138822794
 1379.5394287 16.000000000 18.062999725 0.0040000002 0.4155300260 2.4140000343 4.5329999924 61.693534851 106.01826477 1.0470336676 72.847000122  -999.250000 1.3824567795
 1379.6918945 5.0000000000 17.930000305 -0.004000000 0.3553900123 2.3800001144 3.8110001087 51.116691589 96.216720581 1.0610480309 72.849449158  -999.250000 2.4015932083
 1379.8442383 5.0000000000 17.931999207 0.0010000000 0.2934499979 2.2569999695 3.4110000134 48.553611755 95.622459412 1.0759326220 73.613243103  -999.250000 2.2730288506
 1379.9967041 5.0000000000 18.041999817 0.0049999999 0.2933799922 2.1530001163 3.1949999332 57.978263855 104.97549438 1.0482083559 74.126449585  -999.250000 1.4536346197
 1380.1490479 6.0000000000 18.205999374 0.0040000002 0.3316600025 2.0910000801 3.1270000935 70.530426025 121.45695496 1.1128911972 73.643898010  -999.250000 1.0287983418
 1380.3015137 6.0000000000 18.181999207 0.0000000000 0.3482300043 2.0659999847 3.2070000172 79.990989685 131.45375061 1.0786057711 73.612854004  -999.250000 0.9659743905
 1380.4538574 6.0000000000 18.145999908 0.0000000000 0.3647600114 2.0559999943 3.2650001049 77.173591614 134.39427185 0.9557213187 73.876342773  -999.250000 0.9580288529
 1380.6063232 6.0000000000 18.023000717 0.0070000002 0.3668600023 2.0610001087 3.3859999180 72.688407898 135.22735596 0.8688173294 73.364456177  -999.250000 0.9668878317
 1380.7586670 6.0000000000 17.986999512 0.0089999996 0.3654800057 2.0639998913 3.3719999790 72.806999207 135.35984802 0.8118494749 74.126396179  -999.250000 0.9320160151
 1380.9110107 5.0000000000 17.996999741 0.0099999998 0.3400000036 2.0559999943 3.2709999084 70.937248230 135.62213135 0.7650144100 73.628036499  -999.250000 0.9370239973
 1381.0634766 5.0000000000 18.052000046 0.0020000001 0.3276300132 2.0299999714 3.0999999046 70.612388611 136.72294617 0.7710769176 73.643241882  -999.250000 0.9469808340
 1381.2158203 5.0000000000 18.076000214 -0.004000000 0.3249499798 2.0090000629 3.0650000572 66.690406799 137.90202332 0.7950336933 73.410163879  -999.250000 0.9408990145
 1381.3682861 6.0000000000 18.077999115 -0.010000000 0.3361099958 2.0109999180 3.2009999752 67.688804626 138.55210876 0.8090288639 73.893943787  -999.250000 0.8990191817
