# LAS format log file from PETREL
# Project units are specified as depth units
#==================================================================
~Version information
VERS.   2.0:
WRAP.   NO:
#==================================================================
~Well
STRT .m      443.33587646 :
STOP .m      1778.0548096 :
STEP .m     0.00000000 :
NULL .        -999.250000 :
COMP.           : COMPANY
WELL.  31/2-9   : WELL
FLD.            : FIELD
LOC.            : LOCATION
SRVC.           : SERVICE COMPANY
DATE.  2018-09-11 14:48:35   : Log Export Date {yyyy-MM-dd HH:mm:ss}
PROV.           : PROVINCE
UWI.   31/2-9   : UNIQUE WELL ID
API.            : API NUMBER
#==================================================================
~Curve
DEPT .m                   : DEPTH
Lithology_geolink ._      : Lithology_geolink
CALI .in                  : CALI
DRHO .g/cm3               : DRHO
SGR .gAPI                 : SGR
NPHI .m3/m3               : NPHI
RHOB .g/cm3               : RHOB
PEF .b/e                  : PEF
GR .gAPI                  : GR
DTC .us/ft                : DTC
RDEP .ohm.m               : RDEP
SP .mV                    : SP
RSHA .ohm.m               : RSHA
RMED .ohm.m               : RMED
~Parameter
#==================================================================
~Ascii
# ...
 1415.6475830 5.0000000000 17.718999863 -0.012016025  -999.250000 0.5066636205 2.1179487705 3.1666314602 66.125000000 143.37500000 0.6060000062 67.039192200 0.7929999828 0.7929999828
 1415.8000488 5.0000000000 17.718999863 -0.009007211  -999.250000 0.4831164181 2.1110169888 3.4064230919 65.688003540 142.75000000 0.6320000291 67.289398193 0.8659999967 0.8659999967
 1415.9523926 5.0000000000 17.718999863 -0.004016013  -999.250000 0.4790728092 2.1050193310 3.5186414719 69.438003540 144.12500000 0.6570000052 67.330871582 0.8679999709 0.8679999709
 1416.1048584 5.0000000000 17.715999603 -0.004000000  -999.250000 0.4834893048 2.0920312405 3.6397092342 72.688003540 145.75000000 0.6840000153 67.371902466 0.8009999990 0.8009999990
 1416.2572021 6.0000000000 17.705999374 -0.004996798  -999.250000 0.4885936379 2.0979807377 3.3917975426 75.750000000 146.12500000 0.7099999785 67.413864136 0.7419999838 0.7419999838
 1416.4096680 6.0000000000 17.705999374 -0.008990385  -999.250000 0.4821156263 2.1029880047 3.1785120964 75.875000000 146.50000000 0.7120000124 67.559646606 0.7559999824 0.7559999824
 1416.5620117 6.0000000000 17.707000732 -0.010993595  -999.250000 0.4663206935 2.1109745502 3.1620512009 77.063003540 144.37500000 0.6909999847 67.746406555 0.7919999957 0.7919999957
 1416.7144775 6.0000000000 17.684000015 -0.010002404  -999.250000 0.4601746798 2.1119976044 3.2707378864 76.938003540 145.00000000 0.6629999876 67.932548523 0.8379999995 0.8379999995
 1416.8668213 6.0000000000 17.684000015 -0.008006405  -999.250000 0.4797072113 2.1010353565 3.3955996037 78.000000000 148.00000000 0.6380000114 67.913063049 0.8330000043 0.8330000043
 1417.0191650 6.0000000000 17.690000534 -0.004012821  -999.250000 0.4924791157 2.0920288563 3.4707596302 78.125000000 147.37500000 0.6259999871 67.633903503 0.7720000148 0.7720000148
 1417.1716309 6.0000000000 17.700000763 -0.001009608  -999.250000 0.4831999540 2.0870158672 3.5557277203 79.625000000 147.50000000 0.6280000210 67.353897095 0.7300000191 0.7300000191
 1417.3239746 6.0000000000 17.700000763 -0.000003205  -999.250000 0.4642308950 2.0860030651 3.6078333855 82.438003540 147.75000000 0.6190000176 67.161621094 0.6959999800 0.6959999800
 1417.4764404 5.0000000000 17.690000534 0.0009967975  -999.250000 0.4610599875 2.0919806957 3.5352339745 78.688003540 146.50000000 0.6259999871 67.422157288 0.6959999800 0.6959999800
 1417.6287842 5.0000000000 17.705999374 -0.001990385  -999.250000 0.4679378569 2.0999741554 3.8001475334 72.250000000 144.37500000 0.6320000291 67.684158325 0.7170000076 0.7170000076
 1417.7812500 5.0000000000 17.760000229 -0.002000000  -999.250000 0.4875428081 2.1458892822 3.6892690659 65.875000000 135.75000000 0.6320000291 67.946365356 0.7639999986 0.7639999986
 1417.9335938 5.0000000000 17.768999100 -0.006983988  -999.250000 0.5029506683 2.1898591518 3.4547526836 69.063003540 130.37500000 0.6159999967 67.349914551 0.8339999914 0.8339999914
 1418.0860596 5.0000000000 17.756999969 -0.007997597  -999.250000 0.5009349585 2.1880047321 2.9691681862 70.875000000 130.75000000 0.6110000014 66.635719299 0.8949999809 0.8949999809
 1418.2384033 5.0000000000 17.728000641 -0.011987190  -999.250000 0.4766580164 2.1391568184 2.7636566162 73.750000000 131.75000000 0.6169999838 65.922286987 0.8730000257 0.8730000257
 1418.3908691 5.0000000000 17.718999863 -0.011002404  -999.250000 0.4534257948 2.1000936031 2.7280840874 72.938003540 139.00000000 0.6280000210 65.586799622 0.7879999876 0.7879999876
 1418.5432129 5.0000000000 17.728000641 -0.011000000  -999.250000 0.4559417665 2.0980064869 2.8276798725 69.750000000 144.12500000 0.6420000196 65.504257202 0.7039999962 0.7039999962
 1418.6956787 5.0000000000 17.811000824 -0.012995193  -999.250000 0.4792937636 2.1049830914 2.9706561565 68.000000000 143.50000000 0.6430000067 65.423194885 0.6949999928 0.6949999928
 1418.8480225 5.0000000000 17.938999176 -0.015990393  -999.250000 0.4934845865 2.1069936752 3.1314842701 71.750000000 142.50000000 0.6219999790 65.381134033 0.7310000062 0.7310000062
 1419.0004883 6.0000000000 17.808000565 -0.018992787  -999.250000 0.5024983287 2.0960264206 3.3245360851 75.625000000 142.75000000 0.6029999852 65.423896790 0.7979999781 0.7979999781
 1419.1528320 6.0000000000 17.715000153 -0.016009608  -999.250000 0.5022209287 2.0800511837 3.2960929871 80.188003540 146.37500000 0.5939999819 65.466865540 0.8059999943 0.8059999943
 1419.3051758 6.0000000000 17.721000671 -0.014006411  -999.250000 0.4964485765 2.0750160217 3.1105959415 75.375000000 148.00000000 0.5989999771 65.518829346 0.7519999743 0.7519999743
 1419.4576416 5.0000000000 17.767000198 -0.011009607  -999.250000 0.4791754186 2.0869615078 2.9465253353 74.875000000 147.12500000 0.6060000062 65.814056396 0.6949999928 0.6949999928
 1419.6099854 5.0000000000 17.749000549 -0.014987179  -999.250000 0.4760099947 2.0989615917 3.1503429413 64.000000000 147.12500000 0.6100000143 66.109054565 0.7149999738 0.7149999738
 1419.7624512 5.0000000000 17.746999741 -0.016995193  -999.250000 0.5004012585 2.0830383301 3.8772499561 66.500000000 143.00000000 0.5960000157 66.404289246 0.7500000000 0.7500000000
 1419.9147949 5.0000000000 17.756000519 0.0029359488  -999.250000 0.5194988847 2.0690448284 4.3126068115 64.563003540 145.00000000 0.5960000157 66.698059082 0.7770000100 0.7770000100
 1420.0672607 5.0000000000 17.781000137 0.0229519233  -999.250000 0.5280594826 2.0680024624 4.0655984879 66.250000000 149.37500000 0.6019999981 66.992286682 0.7879999876 0.7879999876
 1420.2196045 5.0000000000 17.775999069 0.0289807841  -999.250000 0.5019440055 2.0889327526 3.3203923702 71.688003540 150.37500000 0.6050000191 67.286064148 0.7649999857 0.7649999857
 1420.3720703 5.0000000000 17.694999695 0.0060552885  -999.250000 0.4753339291 2.0989758968 3.0067501068 74.063003540 150.37500000 0.6240000129 67.230140686 0.7620000243 0.7620000243
 1420.5244141 5.0000000000 17.694000244 -0.003967975  -999.250000 0.4599691927 2.1209294796 2.9412081242 77.438003540 145.50000000 0.6269999743 66.790412903 0.7279999852 0.7279999852
 1420.6768799 5.0000000000 17.705999374 -0.006992789  -999.250000 0.4535353780 2.1379592419 2.9070818424 70.000000000 141.75000000 0.6110000014 66.350059509 0.7379999757 0.7379999757
 1420.8292236 5.0000000000 17.725000381 -0.007000000  -999.250000 0.4532508850 2.1519551277 2.8332369328 66.750000000 140.75000000 0.6119999886 66.002113342 0.7659999728 0.7659999728
 1420.9816895 5.0000000000 17.753999710 -0.009992789  -999.250000 0.4699198008 2.1500048637 2.7671585083 69.813003540 140.37500000 0.6230000257 66.025939941 0.7950000167 0.7950000167
 1421.1340332 5.0000000000 17.753000259 -0.007009608  -999.250000 0.4917400181 2.1460127831 2.7779648304 70.563003540 140.12500000 0.6290000081 66.051918030 0.8029999733 0.8029999733
 1421.2863770 5.0000000000 17.750000000 -0.008993589  -999.250000 0.5049577355 2.1320447922 3.0590960979 73.188003540 142.37500000 0.6380000114 66.076919556 0.7960000038 0.7960000038
 1421.4388428 6.0000000000 17.750000000 -0.003019215  -999.250000 0.4957098663 2.1270160675 3.3520615101 80.188003540 144.00000000 0.6499999762 65.441047668 0.7860000134 0.7860000134
 1421.5911865 6.0000000000 17.753000259 -0.000009615  -999.250000 0.4687466025 2.1240096092 3.4327437878 76.875000000 142.75000000 0.6330000162 64.743232727 0.7789999843 0.7789999843
 1421.7436523 6.0000000000 17.774999619 0.0029903923  -999.250000 0.4495514035 2.1220064163 3.2286565304 78.000000000 145.00000000 0.6209999919 64.044235229 0.7649999857 0.7649999857
 1421.8959961 6.0000000000 17.785999298 0.0010064103  -999.250000 0.4488321245 2.1110353470 3.1412789822 78.625000000 147.12500000 0.6060000062 63.720039368 0.7659999728 0.7659999728
 1422.0484619 6.0000000000 17.714000702 0.0010000000  -999.250000 0.4433432221 2.1090047359 3.2866489887 82.438003540 148.12500000 0.6010000110 63.611259460 0.7250000238 0.7250000238
 1422.2008057 6.0000000000 17.725000381 0.0000032026  -999.250000 0.4242612422 2.1179711819 3.1504387856 87.500000000 148.50000000 0.5950000286 63.503345490 0.6990000010 0.6990000010
