# LAS format log file from PETREL
# Project units are specified as depth units
#==================================================================
~Version information
VERS.   2.0:
WRAP.   NO:
#==================================================================
~Well
STRT .m      439.56304932 :
STOP .m      1665.9261475 :
STEP .m     0.00000000 :
NULL .        -999.250000 :
COMP.           : COMPANY
WELL.  31/2-7   : WELL
FLD.            : FIELD
LOC.            : LOCATION
SRVC.           : SERVICE COMPANY
DATE.  2018-09-11 14:48:34   : Log Export Date {yyyy-MM-dd HH:mm:ss}
PROV.           : PROVINCE
UWI.   31/2-7   : UNIQUE WELL ID
API.            : API NUMBER
#==================================================================
~Curve
DEPT .m                   : DEPTH
Lithology_geolink ._      : Lithology_geolink
CALI .in                  : CALI
DRHO .g/cm3               : DRHO
SGR .gAPI                 : SGR
NPHI .m3/m3               : NPHI
RHOB .g/cm3               : RHOB
PEF .b/e                  : PEF
GR .gAPI                  : GR
DTC .us/ft                : DTC
DTE .us/ft                : DTE
RDEP .ohm.m               : RDEP
SP .mV                    : SP
RSHA .ohm.m               : RSHA
RMED .ohm.m               : RMED
~Parameter
#==================================================================
~Ascii
# ...
 926.93841553  -999.250000 19.483999252 -0.004000000  -999.250000 0.4614300132 1.8600000143  -999.250000 76.377304077 160.89991760 157.08720398 1.1259952784 59.275001526 1.0630064011 1.0630064011
 927.09082031  -999.250000 19.516000748 -0.008000000  -999.250000 0.4555699825 1.8559999466  -999.250000 77.561103821 160.72552490 156.87055969 1.1230047941 59.025402069 1.0520176888 1.0520176888
 927.24316406  -999.250000 19.562999725 -0.003000000  -999.250000 0.5170900226 1.8639999628  -999.250000 78.935249329 160.47825623 156.56221008 1.1160141230 59.399250031 1.0559920073 1.0559920073
 927.39556885  -999.250000 19.750000000 0.0010000000  -999.250000 0.5595700145 1.8799999952  -999.250000 76.193511963 160.51470947 156.65226746 1.1229859591 57.778255463 1.0719679594 1.0719679594
 927.54797363  -999.250000 19.937999725 0.0020000001  -999.250000 0.5864300132 1.8869999647  -999.250000 78.370620728 160.33149719 156.41279602 1.1359740496 58.523498535 1.0849740505 1.0849740505
 927.70037842  -999.250000 19.983999252 0.0000000000  -999.250000 0.5161100030 1.8890000582  -999.250000 75.818130493 160.44186401 156.63188171 1.1419879198 57.277503967 1.0830039978 1.0830039978
 927.85278320  -999.250000 19.968999863 -0.002000000  -999.250000 0.5039100051 1.8860000372  -999.250000 75.189254761 160.83589172 157.00000000 1.1519799232 57.898750305 1.0810040236 1.0810040236
 928.00518799  -999.250000 19.968999863 -0.003000000  -999.250000 0.5029299855 1.8830000162  -999.250000 77.620117188 160.89991760 157.00000000 1.1420199871 58.897998810 1.0790040493 1.0790040493
 928.15759277  -999.250000 19.968999863 -0.003000000  -999.250000 0.5292999744 1.8880000114  -999.250000 83.426361084 160.83589172 156.99018860 1.1419999599 58.401000977 1.0859858990 1.0859858990
 928.30999756  -999.250000 19.968999863 0.0000000000  -999.250000 0.5063499808 1.8919999599  -999.250000 87.928993225 160.66636658 156.74322510 1.1429979801 58.899002075 1.0919879675 1.0919879675
 928.46240234  -999.250000 19.983999252 -0.002000000  -999.250000 0.5205099583 1.8940000534  -999.250000 83.134635925 160.00534058 156.20510864 1.1380100250 59.648498535 1.1009819508 1.1009819508
 928.61480713  -999.250000 19.952999115 -0.002000000  -999.250000 0.5083000064 1.8860000372  -999.250000 77.948387146 160.82705688 156.94781494 1.1220320463 59.899501801 1.1039940119 1.1039940119
 928.76721191  -999.250000 19.983999252 -0.005000000  -999.250000 0.5151399970 1.8700000048  -999.250000 75.942008972 161.28509521 157.50000000 1.1080280542 60.274250031 1.1039999723 1.1039999723
 928.91961670  -999.250000 20.031000137 -0.007000000  -999.250000 0.5483400226 1.8489999771  -999.250000 82.050735474 161.31268311 157.49633789 1.0980200768 60.524501801 1.0960159302 1.0960159302
 929.07202148  -999.250000 20.093999863 -0.007000000  -999.250000 0.5419900417 1.8309999704  -999.250000 83.685401917 161.29393005 157.40106201 1.0980000496 61.897796631 1.0780287981 1.0780287981
 929.22436523  -999.250000 20.047000885 0.0060000001  -999.250000 0.6162099838 1.8370000124  -999.250000 82.315757751 160.95504761 157.12135315 1.0940079689 60.652503967 1.0530500412 1.0530500412
 929.37677002  -999.250000 20.016000748 0.0070000002  -999.250000 0.5234400034 1.8370000124  -999.250000 77.198265076 160.93647766 157.02859497 1.1109658480 60.774749756 1.0280500650 1.0280500650
 929.52917480  -999.250000 20.093999863 0.0060000001  -999.250000 0.5131800175 1.8409999609  -999.250000 71.386642456 160.65267944 156.81712341 1.1179859638 62.147247314 1.0170220137 1.0170220137
 929.68157959  -999.250000 19.968999863 -0.005000000  -999.250000 0.4638700187 1.8329999447  -999.250000 71.562629700 160.92750549 157.02561951 1.1359640360 60.029254913 1.0169999599 1.0169999599
 929.83398438  -999.250000 19.891000748 -0.002000000  -999.250000 0.4443399906 1.8539999723  -999.250000 78.923233032 160.73432922 156.91851807 1.1499719620 60.524002075 1.0299739838 1.0299739838
 929.98638916  -999.250000 18.452999115 0.0120000001  -999.250000 0.4658200145 1.8910000324  -999.250000 82.867118835 159.95503235 156.15254211 1.1889219284 62.146747589 1.0549498796 1.0549498796
 930.13879395  -999.250000 18.422000885 0.0109999999  -999.250000 0.4418900013 1.9129999876  -999.250000 84.247245789 159.64981079 155.71157837 1.1840100288 55.288768768 1.0819458961 1.0819458961
 930.29119873  -999.250000 18.250000000 0.0120000001  -999.250000 0.4960900247 1.9279999733  -999.250000 79.135261536 159.72842407 155.84130859 1.1680320501 58.393745422 1.1418797970 1.1418797970
 930.44360352  -999.250000 18.141000748 -0.004000000  -999.250000 0.4936500192 1.9199999571  -999.250000 82.867492676 158.13934326 154.20280457 1.1739879847 57.277256012 1.2068698406 1.2068698406
 930.59600830  -999.250000 18.312999725 -0.008000000  -999.250000 0.5166000128 1.9179999828  -999.250000 76.326141357 157.45173645 153.56913757 1.1879719496 58.272998810 1.2489159107 1.2489159107
 930.74841309  -999.250000 18.343999863 -0.006000000  -999.250000 0.5336899757 1.9249999523  -999.250000 73.693260193 157.32482910 153.44216919 1.1979799271 58.150253296 1.2779419422 1.2779419422
 930.90081787  -999.250000 18.422000885 -0.022000000  -999.250000 0.5361300111 1.9390000105  -999.250000 72.876625061 158.01028442 154.22850037 1.2209539413 58.150001526 1.2630300522 1.2630300522
 931.05322266  -999.250000 18.516000748 -0.028999999  -999.250000 0.5571300387 1.9700000286  -999.250000 81.610977173 156.80163574 152.92097473 1.2499535084 57.900402069 1.2150769234 1.2150769234
 931.20562744  -999.250000 19.047000885 -0.023000000  -999.250000 0.5273399949 1.9950000048  -999.250000 86.929489136 157.46166992 153.53137207 1.2430112362 59.397598267 1.1900401115 1.1900401115
 931.35797119  -999.250000 19.593999863 0.0010000000  -999.250000 0.5117200017 1.9689999819  -999.250000 84.318260193 157.66276550 153.77551270 1.2290279865 58.152503967 1.1939920187 1.1939920187
 931.51037598  -999.250000 19.702999115 0.0219999999  -999.250000 0.5463899970 1.9359999895  -999.250000 78.636390686 157.22326660 153.30570984 1.1940701008 59.272747040 1.1770341396 1.1770341396
 931.66278076  -999.250000 19.750000000 0.0270000007  -999.250000 0.5034199953 1.9040000439  -999.250000 76.317634583 157.94842529 154.17498779 1.1690500975 59.025501251 1.1440660954 1.1440660954
 931.81518555  -999.250000 19.688001633 0.0170000009  -999.250000 0.5532199740 1.8910000324  -999.250000 74.317008972 159.11181641 155.28343201 1.1250880957 59.399250031 1.1400079727 1.1400079727
 931.96759033  -999.250000 19.483999252 0.0060000001  -999.250000 0.4746099710 1.8780000210  -999.250000 74.624374390 159.15815735 155.20541382 1.1060379744 59.524749756 1.1390020847 1.1390020847
 932.11999512  -999.250000 19.297000885 -0.003000000  -999.250000 0.4931600094 1.8630000353  -999.250000 73.939376831 159.79663086 155.95046997 1.1299519539 59.774501801 1.1010760069 1.1010760069
 932.27239990  -999.250000 18.483999252 -0.001000000  -999.250000 0.4804700017 1.8609999418  -999.250000 74.374122620 160.43603516 156.55619812 1.1419758797 59.650253296 1.0860300064 1.0860300064
 932.42480469  -999.250000 18.483999252 -0.001000000  -999.250000 0.4643599987 1.8619999886  -999.250000 78.741241455 160.34913635 156.48373413 1.1439960003 59.774749756 1.0800120831 1.0800120831
 932.57720947  -999.250000 18.702999115 0.0000000000  -999.250000 0.4877899885 1.8739999533  -999.250000 76.941635132 159.53341675 155.67431641 1.1190500259 59.525501251 1.0919759274 1.0919759274
 932.72961426  -999.250000 18.968999863 -0.003000000  -999.250000 0.4672900140 1.8799999952  -999.250000 81.615615845 159.03784180 155.23497009 1.0790801048 59.400253296 1.0840159655 1.0840159655
 932.88201904  -999.250000 19.702999115 -0.002000000  -999.250000 0.5278300047 1.8880000114  -999.250000 79.567131042 158.30490112 154.47071838 1.0300980806 60.273250580 1.0640400648 1.0640400648
 933.03442383  -999.250000 19.875000000 -0.008000000  -999.250000 0.5302699804 1.8830000162  -999.250000 80.062004089 158.38769531 154.49090576 0.9860880971 60.524501801 1.0540200472 1.0540200472
