# LAS format log file from PETREL
# Project units are specified as depth units
#==================================================================
~Version information
VERS.   2.0:
WRAP.   NO:
#==================================================================
~Well
STRT .m      399.05941772 :
STOP .m      2436.9521484 :
STEP .m     0.00000000 :
NULL .        -999.250000 :
COMP.           : COMPANY
WELL.  31/2-1   : WELL
FLD.            : FIELD
LOC.            : LOCATION
SRVC.           : SERVICE COMPANY
DATE.  2018-09-11 14:48:32   : Log Export Date {yyyy-MM-dd HH:mm:ss}
PROV.           : PROVINCE
UWI.   31/2-1   : UNIQUE WELL ID
API.            : API NUMBER
#==================================================================
~Curve
DEPT .m                   : DEPTH
Lithology_geolink ._      : Lithology_geolink
CALI .in                  : CALI
BS .in                    : BS
DRHO .g/cm3               : DRHO
NPHI .m3/m3               : NPHI
RHOB .g/cm3               : RHOB
GR .gAPI                  : GR
DTC .us/ft                : DTC
DTE .us/ft                : DTE
RDEP .ohm.m               : RDEP
SP .mV                    : SP
RSHA .ohm.m               : RSHA
RMED .ohm.m               : RMED
~Parameter
#==================================================================
~Ascii
# ...
 405.76504517  -999.250000 27.446489334 36.000000000 0.0000000000  -999.250000  -999.250000  -999.250000 57.805637360 166.00650024  -999.250000  -999.250000  -999.250000  -999.250000
 405.91741943  -999.250000 27.413589478 36.000000000 0.0000000000  -999.250000  -999.250000  -999.250000 57.805637360 166.00650024  -999.250000  -999.250000  -999.250000  -999.250000
 406.06982422  -999.250000 27.355590820 36.000000000 0.0000000000  -999.250000  -999.250000  -999.250000 57.805637360 166.00650024  -999.250000  -999.250000  -999.250000  -999.250000
 406.22222900  -999.250000 27.311700821 36.000000000 -0.000846216  -999.250000  -999.250000  -999.250000 57.805637360 166.00650024  -999.250000  -999.250000  -999.250000  -999.250000
 406.37463379  -999.250000 27.296007156 36.000000000 -0.001000000  -999.250000  -999.250000  -999.250000 57.805637360 166.00650024  -999.250000  -999.250000  -999.250000  -999.250000
 406.52703857  -999.250000 27.318319321 36.000000000 -0.001000000  -999.250000  -999.250000  -999.250000 57.805637360 166.00650024  -999.250000  -999.250000 0.9631000757 0.9631000757
 406.67944336  -999.250000 27.368610382 36.000000000 -0.001000000  -999.250000  -999.250000  -999.250000 57.805637360 166.00650024 0.9589014053  -999.250000 0.9632999301 0.9632999301
 406.83181763  -999.250000 27.394699097 36.000000000 -0.001000000  -999.250000  -999.250000  -999.250000 57.805637360 166.00650024 0.9654000401  -999.250000 0.9635000825 0.9635000825
 406.98422241  -999.250000 27.384199142 36.000000000 -0.001000000  -999.250000  -999.250000  -999.250000 57.805637360 166.00650024 0.9718961120  -999.250000 0.9637000561 0.9637000561
 407.13662720  -999.250000 27.362199783 36.000000000 -0.001000000  -999.250000  -999.250000  -999.250000 57.805637360 166.00650024 0.9668985605  -999.250000 0.9639000893 0.9639000893
 407.28903198  -999.250000 27.355998993 36.000000000 -0.001000000  -999.250000  -999.250000  -999.250000 57.805637360 166.00650024 0.9604989886  -999.250000 0.9641000628 0.9641000628
 407.44143677  -999.250000 27.369609833 36.000000000 -0.001000000  -999.250000  -999.250000  -999.250000 57.805637360 166.00650024 0.9540979266  -999.250000 0.9643000364 0.9643000364
 407.59384155  -999.250000 27.386812210 36.000000000 -0.001000000  -999.250000  -999.250000  -999.250000 57.805637360 166.00650024 0.9476981759  -999.250000 0.9645000696 0.9645000696
 407.74624634  -999.250000 27.405101776 36.000000000 -0.001846216  -999.250000  -999.250000  -999.250000 57.805637360 166.00650024 0.9412992597  -999.250000 0.9647000432 0.9647000432
 407.89862061  -999.250000 27.398689270 36.000000000 -0.002000000  -999.250000  -999.250000  -999.250000 57.805637360 166.00650024 0.9381003380  -999.250000 0.9649000764 0.9649000764
 408.05102539  -999.250000 27.370491028 36.000000000 -0.002000000  -999.250000  -999.250000  -999.250000 57.805637360 166.00650024 0.9371999502  -999.250000 0.9652000666 0.9652000666
 408.20343018  -999.250000 27.344999313 36.000000000 -0.002000000  -999.250000  -999.250000  -999.250000 57.805637360 166.00650024 0.9363998175  -999.250000 0.9654000401 0.9654000401
 408.35583496  -999.250000 27.339002609 36.000000000 -0.000307569  -999.250000  -999.250000  -999.250000 57.805637360 166.00650024 0.9354999065  -999.250000 0.9656000733 0.9656000733
 408.50823975  -999.250000 27.351610184 36.000000000 0.0008462155  -999.250000  -999.250000  -999.250000 57.805637360 166.00650024 0.9346997142  -999.250000 0.9658000469 0.9658000469
 408.66064453  -999.250000 27.373311996 36.000000000 0.0010000000  -999.250000  -999.250000  -999.250000 57.805637360 166.00650024 0.9337997437  -999.250000 0.9660000801 0.9660000801
 408.81298828  -999.250000 27.398502350 36.000000000 0.0010000000  -999.250000  -999.250000  -999.250000 57.805637360 166.00650024 0.9329000115  -999.250000 0.9662001133 0.9662001133
 408.96539307  -999.250000 27.411199570 36.000000000 0.0010000000  -999.250000  -999.250000  -999.250000 57.805637360 166.00650024 0.9321004152  -999.250000 0.9668002129 0.9668002129
 409.11779785  -999.250000 27.417299271 36.000000000 0.0010000000  -999.250000  -999.250000  -999.250000 57.805637360 166.00650024 0.9328004122  -999.250000 0.9678999186 0.9678999186
 409.27020264  -999.250000 27.423400879 36.000000000 0.0010000000  -999.250000  -999.250000  -999.250000 57.805637360 166.00650024 0.9351999164  -999.250000 0.9689999223 0.9689999223
 409.42260742  -999.250000 27.428699493 36.000000000 0.0010000000  -999.250000  -999.250000  -999.250000 57.805637360 166.00650024 0.9376996756  -999.250000 0.9700999260 0.9700999260
 409.57501221  -999.250000 27.425500870 36.000000000 0.0010000000  -999.250000  -999.250000  -999.250000 57.805637360 166.00650024 0.9401001930  -999.250000 0.9713001251 0.9713001251
 409.72738647  -999.250000 27.414501190 36.000000000 0.0010000000  -999.250000  -999.250000  -999.250000 57.805637360 166.00650024 0.9426000714  -999.250000 0.9724000096 0.9724000096
 409.87979126  -999.250000 27.403501511 36.000000000 0.0010000000  -999.250000  -999.250000  -999.250000 57.805637360 166.00650024 0.9450001121  -999.250000 0.9735000134 0.9735000134
 410.03219604  -999.250000 27.392498016 36.000000000 0.0010000000  -999.250000  -999.250000  -999.250000 57.805637360 166.00650024 0.9474998713 -2.620553017 0.9746000171 0.9746000171
 410.18460083  -999.250000 27.386697769 36.000000000 0.0010000000  -999.250000  -999.250000  -999.250000 57.805637360 166.00650024 0.9498999119 -2.348657131 0.9757000208 0.9757000208
 410.33700562  -999.250000 27.392097473 36.000000000 0.0010000000  -999.250000  -999.250000  -999.250000 57.805637360 166.00650024 0.9523997903 -2.301789999 0.9767999053 0.9767999053
 410.48941040  -999.250000 27.403799057 36.000000000 0.0001539848  -999.250000  -999.250000  -999.250000 57.805637360 166.00650024 0.9547997117 -2.297631979 0.9778999090 0.9778999090
 410.64181519  -999.250000 27.411102295 36.000000000 0.0008460152  -999.250000  -999.250000  -999.250000 57.805637360 166.00650024 0.9573001266 -2.456171989 0.9790999889 0.9790999889
 410.79418945  -999.250000 27.411199570 36.000000000 0.0001541850  -999.250000  -999.250000  -999.250000 57.805637360 166.00650024 0.9596995115 -2.637561798 0.9801999927 0.9801999927
 410.94659424  -999.250000 27.408790588 36.000000000 0.0000000000  -999.250000  -999.250000  -999.250000 57.805637360 166.00650024 0.9602000117 -2.372138262 0.9812998772 0.9812998772
 411.09899902  -999.250000 27.371780396 36.000000000 0.0000000000  -999.250000  -999.250000  -999.250000 57.805637360 166.00650024 0.9603999853 -2.377624750 0.9823998809 0.9823998809
 411.25140381  -999.250000 27.290990829 36.000000000 0.0000000000  -999.250000  -999.250000  -999.250000 57.805637360 166.00650024 0.9606000185 -2.486673355 0.9834998846 0.9834998846
 411.40380859  -999.250000 27.215990067 36.000000000 0.0000000000  -999.250000  -999.250000  -999.250000 57.805637360 166.00650024 0.9607999921 -2.602673292 0.9845998883 0.9845998883
 411.55621338  -999.250000 27.167989731 36.000000000 0.0000000000  -999.250000  -999.250000  -999.250000 57.805637360 166.00650024 0.9610999823 -2.392815113 0.9857000709 0.9857000709
 411.70861816  -999.250000 27.134500504 36.000000000 0.0000000000  -999.250000  -999.250000  -999.250000 57.805637360 166.00650024 0.9613000154 -1.896907687 0.9868000746 0.9868000746
 411.86099243  -999.250000 27.134010315 36.000000000 0.0000000000  -999.250000  -999.250000  -999.250000 57.805637360 166.00650024 0.9614999890 -1.374154687 0.9879996181 0.9879996181
 412.01339722  -999.250000 27.167110443 36.000000000 0.0000000000  -999.250000  -999.250000  -999.250000 57.805637360 166.00650024 0.9617000222 -1.126965880 0.9877998233 0.9877998233
 412.16580200  -999.250000 27.200107574 36.000000000 0.0000000000  -999.250000  -999.250000  -999.250000 57.805637360 166.00650024 0.9618999958 -0.947806180 0.9868000746 0.9868000746
 412.31820679  -999.250000 27.233200073 36.000000000 0.0000000000  -999.250000  -999.250000  -999.250000 57.805637360 166.00650024 0.9621000290 -0.413109720 0.9858000875 0.9858000875
