# LAS format log file from PETREL
# Project units are specified as depth units
#==================================================================
~Version information
VERS.   2.0:
WRAP.   NO:
#==================================================================
~Well
STRT .m      452.86209106 :
STOP .m      2603.6831055 :
STEP .m     0.00000000 :
NULL .        -999.250000 :
COMP.           : COMPANY
WELL.  31/2-3   : WELL
FLD.            : FIELD
LOC.            : LOCATION
SRVC.           : SERVICE COMPANY
DATE.  2018-09-11 14:48:34   : Log Export Date {yyyy-MM-dd HH:mm:ss}
PROV.           : PROVINCE
UWI.   31/2-3   : UNIQUE WELL ID
API.            : API NUMBER
#==================================================================
~Curve
DEPT .m                   : DEPTH
Lithology_geolink ._      : Lithology_geolink
CALI .in                  : CALI
DRHO .g/cm3               : DRHO
NPHI .m3/m3               : NPHI
RHOB .g/cm3               : RHOB
GR .gAPI                  : GR
DTC .us/ft                : DTC
DTE .us/ft                : DTE
RDEP .ohm.m               : RDEP
SP .mV                    : SP
RSHA .ohm.m               : RSHA
RMED .ohm.m               : RMED
~Parameter
#==================================================================
~Ascii
# ...
 2025.6298828 6.0000000000 8.5000000000 0.0070000002 0.3251206875 2.3450281620 79.502998352 100.56978607 97.264839172 1.5290000439 58.361000061  -999.250000 2.8702859879
 2025.7822266 5.0000000000 8.5000000000 0.0010192154 0.3291470706 2.3220920563 77.822998047 100.76742554 97.449127197 1.5329999924 58.511001587  -999.250000 2.7772977352
 2025.9346924 5.0000000000 8.5000000000 -0.002990385 0.3313446939 2.3130288124 76.272003174 100.65285492 97.351173401 1.5249999762 58.582000732  -999.250000 2.7859783173
 2026.0870361 5.0000000000 8.5000000000 0.0009871898 0.3334333003 2.3309280872 76.525001526 100.15670776 96.857864380 1.5119999647 58.682998657  -999.250000 2.8976414204
 2026.2395020 5.0000000000 8.5000000000 0.0129711544 0.3360337317 2.3509359360 76.718002319 99.443519592 96.067756653 1.5069999695 58.478000641  -999.250000 3.0127236843
 2026.3918457 5.0000000000 8.5000000000 0.0179839861 0.3327007294 2.3559799194 74.610000610 98.568534851 95.251396179 1.5160000324 58.228000641  -999.250000 3.0429039001
 2026.5441895 5.0000000000 8.5000000000 0.0170032065 0.3254731894 2.3470358849 72.848999023 98.145507813 94.818634033 1.5290000439 58.119998932  -999.250000 2.9612627029
 2026.6966553 5.0000000000 8.5000000000 0.0060352283 0.3266062737 2.3320600986 72.436996460 98.380760193 95.064353943 1.5249999762 58.414001465  -999.250000 2.9181377888
 2026.8489990 5.0000000000 8.5069999695 0.0020128207 0.3349930346 2.3260240555 72.710998535 99.131996155 95.848548889 1.5110000372 58.826999664  -999.250000 3.0037243366
 2027.0014648 5.0000000000 8.5240001678 0.0039951927 0.3437789083 2.3329718113 73.466003418 99.989059448 96.663993835 1.4980000257 58.949001312  -999.250000 3.1217162609
 2027.1538086 5.0000000000 8.5129995346 0.0069903927 0.3450160921 2.3389759064 73.608001709 100.17493439 96.913414001 1.4919999838 58.571998596  -999.250000 3.0552146435
 2027.3062744 5.0000000000 8.5010004044 0.0089951921 0.3348444998 2.3340201378 73.711997986 99.622016907 96.355621338 1.4839999676 57.852001190  -999.250000 2.8794231415
 2027.4586182 5.0000000000 8.5000000000 0.0070064054 0.3269353509 2.3330039978 74.899002075 98.748634338 95.466072083 1.4720000029 57.346000671  -999.250000 2.7464261055
 2027.6110840 5.0000000000 8.5000000000 0.0040072119 0.3248449862 2.3329999447 77.123001099 98.264701843 94.997093201 1.4579999447 57.298999786  -999.250000 2.7589688301
 2027.7634277 5.0000000000 8.5000000000 0.0089839865 0.3241123259 2.3349919319 78.439002991 98.499954224 95.170417786 1.4759999514 57.215999603  -999.250000 2.7450447083
 2027.9158936 5.0000000000 8.5010004044 0.0099975960 0.3254866898 2.3220417500 77.929000854 98.957550049 95.687820435 1.5249999762 57.221000671  -999.250000 2.5674278736
 2028.0682373 5.0000000000 8.5100002289 0.0060128104 0.3245031536 2.3060641289 76.402999878 99.492668152 96.219734192 1.5670000315 57.881000519  -999.250000 2.4972240925
 2028.2207031 6.0000000000 8.5430002213 0.0030072115 0.3297074437 2.3219487667 76.067001343 99.697273254 96.429237366 1.6219999790 58.696998596  -999.250000 2.7424087524
 2028.3730469 6.0000000000 8.5900001526 0.0059903925 0.3397976458 2.3528757095 77.583999634 99.223617554 95.970504761 1.6430000067 59.034999847  -999.250000 3.0569913387
 2028.5253906 6.0000000000 8.6330003738 0.0109839747 0.3322244883 2.3689358234 79.073997498 98.194305420 94.840354919 1.6189999580 58.730998993  -999.250000 3.2733075619
 2028.6778564 6.0000000000 8.6359996796 0.0129935956 0.3217436075 2.3759717941 78.834999084 96.646141052 93.374023438 1.5620000362 57.551998138  -999.250000 3.1484034061
 2028.8302002 6.0000000000 8.6000003815 0.0120032048 0.3183209002 2.3819758892 78.266998291 95.268890381 91.996734619 1.4759999514 55.877998352  -999.250000 2.7961313725
 2028.9826660 6.0000000000 8.5620002747 0.0110032028 0.3176919818 2.3690519333 75.476997375 94.570655823 91.252738953 1.3839999437 54.137001038  -999.250000 2.4231944084
 2029.1350098 6.0000000000 8.5469999313 0.0100032045 0.3166633248 2.3431041241 69.912002563 94.741653442 91.474662781 1.2960000038 52.761001587  -999.250000 2.0521891117
 2029.2874756 2.0000000000 8.5469999313 0.0040144231 0.3188547194 2.3121242523 65.500000000 95.633674622 92.352272034 1.1779999733 51.476001740  -999.250000 1.8006032705
 2029.4398193 2.0000000000 8.5469999313 0.0040000002 0.3227175772 2.2930760384 64.103996277 96.648063660 93.404411316 1.0620000362 50.659999847  -999.250000 1.7481665611
 2029.5922852 2.0000000000 8.5469999313 0.0059951926 0.3271593153 2.2929999828 64.360000610 97.759094238 94.464309692 0.9789999723 49.980998993  -999.250000 1.7360287905
 2029.7446289 2.0000000000 8.5469999313 0.0050032022 0.3357324898 2.2900118828 64.634002686 98.795722961 95.466278076 0.9150000215 49.460998535  -999.250000 1.7021088600
 2029.8968506 2.0000000000 8.5469999313 -0.001971955 0.3384790421 2.2691178322 64.057922363 99.551536560 96.242103577 0.8670768738 48.959804535  -999.250000 1.6243124008
 2030.0493164 2.0000000000 8.5469999313 -0.006979984 0.3317072690 2.2520818710 62.551208496 99.973098755 96.618385315 0.8270320892 48.537338257  -999.250000 1.5831640959
 2030.2016602 2.0000000000 8.5469999313 -0.001024039 0.3230148852 2.2609567642 61.345932007 99.994857788 96.683250427 0.7850672603 48.191555023  -999.250000 1.5829999447
 2030.3541260 2.0000000000 8.5469999313 0.0099559650 0.3183187544 2.2689616680 60.329811096 100.28661346 96.966865540 0.7400360703 47.702392578  -999.250000 1.5172641277
 2030.5064697 2.0000000000 8.5469999313 0.0099999998 0.3152124286 2.2650194168 60.251060486 101.29518890 97.970726013 0.7040288448 47.284336090  -999.250000 1.4064447880
 2030.6589355 2.0000000000 8.5469999313 0.0010360288 0.3099311888 2.2540528774 59.478618622 102.90108490 99.589538574 0.6410503983 47.023208618  -999.250000 1.2954443693
 2030.8112793 2.0000000000 8.5469999313 -0.000991987 0.3109757006 2.2500193119 57.679443359 104.73265076 101.38472748 0.5660600662 46.687271118  -999.250000 1.1834486723
 2030.9637451 2.0000000000 8.5469999313 0.0039799842 0.3163384497 2.2460193634 56.143226624 106.30326080 103.00151062 0.5210360289 46.194393158  -999.250000 1.0654724836
 2031.1160889 2.0000000000 8.5469999313 0.0059919874 0.3239594102 2.2191298008 56.188961029 107.55786896 104.24018097 0.4910240471 45.956192017  -999.250000 0.9385088086
 2031.2685547 2.0000000000 8.5469999313 0.0040064105 0.3256546557 2.1881489754 55.904228210 108.32232666 105.01026154 0.4620232284 46.657440186  -999.250000 0.8183846474
 2031.4208984 2.0000000000 8.5469999313 0.0030040033 0.3183692992 2.1770529747 55.130622864 108.57919312 105.26512909 0.4380192161 47.758117676  -999.250000 0.7911080718
 2031.5733643 2.0000000000 8.5469999313 -0.001983974 0.3191474080 2.1779952049 54.132797241 108.75733185 105.39183044 0.4290072024 47.518196106  -999.250000 0.9843782187
 2031.7257080 2.0000000000 8.5530004501 -0.004987990 0.3155444860 2.1740193367 53.742313385 109.27389526 105.97966003 0.4250032306 46.724636078  -999.250000 1.1871873140
 2031.8780518 2.0000000000 8.5699996948 -0.003008013 0.3102711439 2.1690280437 52.880382538 110.09270477 106.83222198 0.4269967973 46.957626343  -999.250000 1.2019438744
 2032.0305176 2.0000000000 8.5649995804 -0.003000000 0.3109273016 2.1719856262 51.817852020 110.13662720 106.88277435 0.4349935949 47.116874695  -999.250000 1.0446325541
 2032.1828613 2.0000000000 8.5790004730 -0.004991987 0.3192863762 2.1749856472 52.318195343 108.42174530 105.14688873 0.4659503400 47.195873260  -999.250000 0.8736851215
 2032.3353271 2.0000000000 8.5869998932 -0.005995997 0.3332241178 2.1968944073 52.683704376 105.01729584 101.67298889 0.5189575553 47.428813934  -999.250000 0.8062682152
 2032.4876709 2.0000000000 8.5710000992 -0.006995994 0.3278916478 2.2248651981 52.004089355 101.03813171 97.758369446 0.5809006691 47.682590485  -999.250000 0.8289078474
 2032.6401367 2.0000000000 8.5749998093 -0.012975981 0.3109778762 2.2498998642 52.122905731 97.690216064 94.445411682 0.6669310927 47.936798096  -999.250000 0.8837798238
 2032.7924805 2.0000000000 8.5609998703 -0.001048077 0.2928924859 2.2858557701 52.340824127 94.535957336 91.270103455 0.7659206390 48.267734528  -999.250000 1.1738340855
