# LAS format log file from PETREL
# Project units are specified as depth units
#==================================================================
~Version information
VERS.   2.0:
WRAP.   NO:
#==================================================================
~Well
STRT .m      1999.6403809 :
STOP .m      3191.7131348 :
STEP .m     0.00000000 :
NULL .        -999.250000 :
COMP.           : COMPANY
WELL.  31/2-21 S   : WELL
FLD.            : FIELD
LOC.            : LOCATION
SRVC.           : SERVICE COMPANY
DATE.  2018-09-11 14:48:34   : Log Export Date {yyyy-MM-dd HH:mm:ss}
PROV.           : PROVINCE
UWI.   31/2-21 S   : UNIQUE WELL ID
API.            : API NUMBER
#==================================================================
~Curve
DEPT .m                   : DEPTH
Lithology_geolink ._      : Lithology_geolink
CALI .in                  : CALI
BS .in                    : BS
ROP .m/h                  : ROP
DRHO .g/cm3               : DRHO
NPHI .m3/m3               : NPHI
RHOB .g/cm3               : RHOB
PEF .b/e                  : PEF
GR .gAPI                  : GR
DTC .us/ft                : DTC
DTS .us/ft                : DTS
RDEP .ohm.m               : RDEP
RMED .ohm.m               : RMED
~Parameter
#==================================================================
~Ascii
# ...
 2314.8037109 6.0000000000 8.5336999893 8.5000000000 86.273948669 0.0557999983 0.3143000007 2.4279000759 3.3059000969 91.576797485 87.336502075 160.85780334 3.5515000820 3.3299000263
 2314.9560547 6.0000000000 8.5166997910 8.5000000000 81.151077271 0.0498999991 0.3140000105 2.4212999344 3.1310000420 102.54779816 86.992202759 161.35101318 3.6305999756 3.4126999378
 2315.1083984 6.0000000000 8.5079002380 8.5000000000 71.833488464 0.0474999994 0.3070000112 2.4275999069 3.1935999393 96.883499146 86.588500977 160.24740601 3.6408998966 3.4344999790
 2315.2607422 6.0000000000 8.4933996201 8.5000000000 63.945209503 0.0529000014 0.3113000095 2.4335999489 3.4110000134 101.30549622 87.171401978 158.38929749 3.6208000183 3.4375000000
 2315.4133301 6.0000000000 8.4673004150 8.5000000000 60.999046326 0.0461999997 0.3154999912 2.4275000095 3.2311000824 105.08249664 86.279800415 159.31608582 3.6236999035 3.4426999092
 2315.5656738 6.0000000000 8.4609003067 8.5000000000 68.607192993 0.0485000014 0.3093000054 2.4217998981 3.1417999268 105.64510345 86.418991089 159.52830505 3.6013000011 3.4446001053
 2315.7180176 7.0000000000 8.4692001343 8.5000000000 84.095039368 0.0445000008 0.3043000102 2.4203999043 3.0276000500 103.64679718 86.791900635 162.39630127 3.5675001144 3.4302999973
 2315.8703613 7.0000000000 8.4795999527 8.5000000000 90.783134460 0.0458999984 0.2908000052 2.4219000340 2.8868999481 109.28910065 85.419601440 162.95980835 3.5613999367 3.4323000908
 2316.0227051 7.0000000000 8.4914999008 8.5000000000 86.009841919 0.0458000004 0.3088000119 2.4163000584 3.2346999645 108.14929962 84.687591553 164.81889343 3.4867999554 3.3768999577
 2316.1752930 7.0000000000 8.5045003891 8.5000000000 73.724784851 0.0491999984 0.3129999936 2.4133000374 3.6056001186 107.71309662 85.797203064 166.01280212 3.2862999439 3.1379001141
 2316.3276367 7.0000000000 8.4976997375 8.5000000000 64.553749084 0.0524000004 0.3172000051 2.4079999924 3.7855999470 110.72750092 86.747100830 166.39649963 3.0817999840 2.8457000256
 2316.4799805 7.0000000000 8.5006999969 8.5000000000 62.674213409 0.0571999997 0.3267999887 2.4342000484 3.8015999794 101.57389832 86.951400757 167.24549866 2.9830000401 2.6814999580
 2316.6323242 6.0000000000 8.4905996323 8.5000000000 66.730316162 0.0518999994 0.3204999864 2.4274001122 3.6415998936 99.874603271 86.566902161 166.44290161 3.2158000469 2.9539999962
 2316.7849121 6.0000000000 8.5051002502 8.5000000000 69.588348389 0.0511999987 0.3258999884 2.4163999557 3.5383000374 103.37529755 85.450996399 165.35020447 3.3785998821 3.1333999634
 2316.9372559 6.0000000000 8.5101003647 8.5000000000 81.570526123 0.0480000004 0.3294000030 2.4196999073 3.2578999996 106.62570190 87.891098022 163.41859436 3.4124999046 3.2040998936
 2317.0895996 6.0000000000 8.4968996048 8.5000000000 125.46470642 0.0379000008 0.3246000111 2.4077999592 2.7692000866 107.86849976 88.908599854 162.41290283 3.2925999165 3.0943000317
 2317.2419434 6.0000000000 8.4892997742 8.5000000000 98.325134277 0.0370000005 0.3197999895 2.4100999832 2.6271998882 99.379600525 88.395500183 163.31428528 3.2077000141 3.0866999626
 2317.3945313 6.0000000000 8.5038995743 8.5000000000 74.310897827 0.0405000001 0.3107999861 2.4126999378 2.8475000858 97.554496765 88.158897400 163.83900452 3.0857000351 3.0309000015
 2317.5468750 6.0000000000 8.5185003281 8.5000000000 68.929870605 0.0439999998 0.3122999966 2.4154000282 3.0678000450 101.08499908 87.432502747 162.70520020 2.8822999001 2.7765998840
 2317.6992188 6.0000000000 8.5313997269 8.5000000000 73.067848206 0.0414000005 0.3233000040 2.4191000462 3.1238000393 94.424797058 87.394798279 162.97790527 2.6582000256 2.4779999256
 2317.8515625 6.0000000000 8.5218000412 8.5000000000 71.794952393 0.0489000008 0.3325999975 2.4251000881 3.8043999672 99.698898315 85.524398804 165.18278503 2.5608999729 2.3317000866
 2318.0039063 6.0000000000 8.5146999359 8.5000000000 65.667320251 0.0505000018 0.3445000052 2.4119999409 4.4189000130 108.10189819 82.147796631 163.66058350 2.9084000587 2.6921999454
 2318.1564941 6.0000000000 8.5046997070 8.5000000000 60.076942444 0.0461999997 0.3330999911 2.4142999649 3.4017999172 108.64029694 80.441307068 161.63529968 3.1201000214 2.9400000572
 2318.3088379 7.0000000000 8.5003995895 8.5000000000 54.043395996 0.0474999994 0.3217000067 2.4177000523 3.2197999954 112.60430145 81.682991028 161.85581970 3.1184999943 2.9783999920
 2318.4611816 7.0000000000 8.4941997528 8.5000000000 48.776573181 0.0461000018 0.3233999908 2.4233999252 3.0889000893 109.23899841 82.964408875 162.96730042 3.0455000401 2.9377999306
 2318.6135254 7.0000000000 8.4802999496 8.5000000000 38.145343781 0.0421999991 0.3131000102 2.4140999317 2.8643000126 104.29290009 84.721496582 162.88659668 2.8617000580 2.7565999031
 2318.7661133 7.0000000000 8.4681997299 8.5000000000 46.782062531 0.0383000001 0.3201999962 2.4077999592 2.7516999245 109.23310089 87.609504700 163.52748108 2.5790998936 2.4365999699
 2318.9184570 7.0000000000 8.4724998474 8.5000000000 101.51856232 0.0344999991 0.3129000068 2.3947999477 2.8942999840 106.33180237 87.154510498 163.71040344 2.6382000446 2.4453999996
 2319.0708008 7.0000000000 8.4870004654 8.5000000000 109.98665619 0.0368999988 0.3124000132 2.3889000416 3.4784998894 104.87439728 85.639602661 162.84588623 2.9117999077 2.7121999264
 2319.2231445 7.0000000000 8.4993000031 8.5000000000 89.579727173 0.0445000008 0.3118999898 2.4154000282 4.1343998909 109.45259857 88.210197449 160.98579407 3.1308000088 2.9533998966
 2319.3757324 7.0000000000 8.5181999207 8.5000000000 83.740859985 0.0395999998 0.3039999902 2.4070999622 3.0253999233 102.21640015 88.878791809 160.30311584 3.2485001087 3.0731000900
 2319.5280762 7.0000000000 8.4840002060 8.5000000000 88.672973633 0.0381999984 0.2901999950 2.4096999168 2.7672998905 110.39129639 90.954200745 162.80819702 3.2657001019 3.1136999130
 2319.6804199 7.0000000000 8.4877004623 8.5000000000 86.446205139 0.0390999988 0.2725000083 2.4093000889 2.9841001034 110.57599640 89.027099609 161.22648621 3.2021000385 3.1384999752
 2319.8327637 7.0000000000 8.4857997894 8.5000000000 71.914695740 0.0384999998 0.2698999941 2.4156999588 2.8656001091 116.32299805 87.401184082 160.48240662 3.0659000874 3.0606999397
 2319.9851074 7.0000000000 8.4919996262 8.5000000000 63.229656219 0.0436999984 0.2712999880 2.4240999222 3.0797998905 100.11789703 87.392402649 160.24798584 2.9038000107 2.9022998810
 2320.1376953 6.0000000000 8.4816999435 8.5000000000 71.462066650 0.0487000011 0.2725999951 2.4354000092 3.0906000137 101.22290039 87.328697205 159.64688110 2.8132998943 2.8008000851
 2320.2900391 6.0000000000 8.4739999771 8.5000000000 89.120964050 0.0355999991 0.2651000023 2.4103000164 2.5943000317 96.422203064 87.965400696 159.29339600 2.7397000790 2.6364998817
 2320.4423828 6.0000000000 8.4857997894 8.5000000000 92.131889343 0.0434000008 0.2723000050 2.4103999138 3.0689001083 103.21679688 87.434402466 158.79978943 2.7664999962 2.6073000431
 2320.5947266 6.0000000000 8.5094003677 8.5000000000 81.530189514 0.0405000001 0.2703000009 2.4068999290 3.0141000748 91.779998779 85.616096497 156.46598816 2.8257999420 2.5899999142
 2320.7473145 6.0000000000 8.5424995422 8.5000000000 70.141296387 0.0406999998 0.2472999990 2.4093000889 2.5868999958 98.261901855 83.167602539 152.99389648 3.0592000484 2.7021999359
 2320.8996582 6.0000000000 8.5356998444 8.5000000000 63.738319397 0.0465999991 0.2354999930 2.4219999313 2.8166999817 93.628898621 78.322998047 148.83250427 3.4523999691 3.0051000118
 2321.0520020 16.000000000 8.6066999435 8.5000000000 63.813495636 0.0505999997 0.2236000001 2.4426000118 2.9170999527 90.550796509 72.687400818 145.50520325 4.4225001335 4.2135000229
 2321.2043457 16.000000000 8.6533002853 8.5000000000 60.031494141 0.0472999997 0.1966000050 2.5385000706 3.2390000820 83.930297852 69.561302185 145.72230530 5.4759998322 5.8102998734
 2321.3569336 6.0000000000 8.6492004395 8.5000000000 59.000091553 0.0227000006 0.1721999943 2.4939000607 3.6760001183 71.940803528 70.681396484 142.49119568 5.2743000984 5.9618000984
