# LAS format log file from PETREL
# Project units are specified as depth units
#==================================================================
~Version information
VERS.   2.0:
WRAP.   NO:
#==================================================================
~Well
STRT .m      452.86209106 :
STOP .m      2603.6831055 :
STEP .m     0.00000000 :
NULL .        -999.250000 :
COMP.           : COMPANY
WELL.  31/2-3   : WELL
FLD.            : FIELD
LOC.            : LOCATION
SRVC.           : SERVICE COMPANY
DATE.  2018-09-11 14:48:34   : Log Export Date {yyyy-MM-dd HH:mm:ss}
PROV.           : PROVINCE
UWI.   31/2-3   : UNIQUE WELL ID
API.            : API NUMBER
#==================================================================
~Curve
DEPT .m                   : DEPTH
Lithology_geolink ._      : Lithology_geolink
CALI .in                  : CALI
DRHO .g/cm3               : DRHO
NPHI .m3/m3               : NPHI
RHOB .g/cm3               : RHOB
GR .gAPI                  : GR
DTC .us/ft                : DTC
DTE .us/ft                : DTE
RDEP .ohm.m               : RDEP
SP .mV                    : SP
RSHA .ohm.m               : RSHA
RMED .ohm.m               : RMED
~Parameter
#==================================================================
~Ascii
# ...
 1879.3258057 2.0000000000 8.5000000000 0.0129871797 0.2993119061 2.1589479446 60.167999268 100.77764893 97.400421143 0.5500000119 43.069000244  -999.250000 1.2944550514
 1879.4782715 5.0000000000 8.5000000000 0.0100072110 0.2982225716 2.1749358177 63.229999542 99.584617615 96.302780151 0.5600000024 43.219001770  -999.250000 1.3947596550
 1879.6306152 5.0000000000 8.5000000000 0.0010288231 0.2982299626 2.1899399757 64.960998535 99.019325256 95.759170532 0.5680000186 43.051998138  -999.250000 1.4039711952
 1879.7830811 5.0000000000 8.5000000000 -0.007978366 0.2985692024 2.1989638805 63.160999298 99.432456970 96.150352478 0.5830000043 42.847999573  -999.250000 1.3132187128
 1879.9354248 5.0000000000 8.5000000000 -0.006006405 0.2994471788 2.2049758434 61.715999603 100.38423920 97.078987122 0.5839999914 42.780998230  -999.250000 1.1804258823
 1880.0878906 5.0000000000 8.5000000000 -0.004004808 0.3019938767 2.2139639854 61.259998322 101.34131622 98.045135498 0.5830000043 42.601001740  -999.250000 1.0443269014
 1880.2402344 2.0000000000 8.5000000000 -0.003003203 0.3007340431 2.2120079994 60.610000610 102.11647034 98.849449158 0.5820000172 42.604999542  -999.250000 0.9642561674
 1880.3927002 2.0000000000 8.5000000000 0.0029855769 0.3051593304 2.2010352612 59.849998474 102.75634003 99.390327454 0.5780000091 42.786998749  -999.250000 1.0228581429
 1880.5450439 2.0000000000 8.5000000000 0.0059903925 0.3163939416 2.1840679646 58.261001587 102.83978271 99.551139832 0.5740000010 42.863998413  -999.250000 1.1007502079
 1880.6975098 2.0000000000 8.5000000000 0.0089927884 0.3217870891 2.1730353832 56.159999847 102.36425781 99.105415344 0.5780000091 43.044998169  -999.250000 1.1688365936
 1880.8498535 2.0000000000 8.5000000000 0.0109935952 0.3188893497 2.1789758205 54.305000305 101.53244019 98.228324890 0.5889999866 43.032001495  -999.250000 1.2228270769
 1881.0021973 2.0000000000 8.5000000000 0.0169807710 0.3187304735 2.1869680882 52.826000214 100.63574219 97.347686768 0.5920000076 42.855998993  -999.250000 1.2628718615
 1881.1546631 2.0000000000 8.5000000000 0.0120160133 0.3146829903 2.1870000362 52.285999298 100.09587097 96.786781311 0.5839999914 42.783000946  -999.250000 1.2639968395
 1881.3070068 2.0000000000 8.5000000000 0.0010352564 0.3114104867 2.1879959106 53.700000763 100.15023804 96.895347595 0.5720000267 42.606998444  -999.250000 1.1922308207
 1881.4594727 2.0000000000 8.5000000000 -0.008975961 0.3115496635 2.1979598999 55.513000488 100.80330658 97.557746887 0.5600000024 42.588001251  -999.250000 1.0852572918
 1881.6118164 2.0000000000 8.5000000000 -0.013983987 0.3088088036 2.1999919415 55.602001190 101.52127075 98.284156799 0.5479999781 42.590999603  -999.250000 1.0182145834
 1881.7642822 2.0000000000 8.5000000000 -0.010009615 0.3038419485 2.1930282116 55.808998108 101.88203430 98.602561951 0.5360000134 42.592998505  -999.250000 0.9960528612
 1881.9166260 2.0000000000 8.5000000000 -0.001028823 0.3040792048 2.1910080910 55.574001312 101.82544708 98.466316223 0.5299999714 42.596000671  -999.250000 1.0259039402
 1882.0690918 2.0000000000 8.5000000000 0.0009951923 0.3032021224 2.2019557953 53.456001282 101.74418640 98.469696045 0.5400000215 42.597999573  -999.250000 1.0708918571
 1882.2214355 2.0000000000 8.5000000000 -0.002987190 0.3059212863 2.2069799900 51.224998474 102.05844879 98.815086365 0.5509999990 42.601001740  -999.250000 1.1038942337
 1882.3739014 2.0000000000 8.5000000000 -0.002002404 0.3128832579 2.2089936733 49.931999207 102.30088806 99.067977905 0.5619999766 42.603000641  -999.250000 1.0940240622
 1882.5262451 2.0000000000 8.5000000000 -0.002996797 0.3136276901 2.2000360489 49.573001862 102.18276215 98.912452698 0.5740000010 42.605998993  -999.250000 1.0770545006
 1882.6787109 2.0000000000 8.5000000000 -0.003000000 0.3055394888 2.1830546856 49.645999908 101.88558197 98.507392883 0.5849999785 42.609001160  -999.250000 1.0620360374
 1882.8310547 2.0000000000 8.5000000000 0.0029807847 0.3015228212 2.1830000877 50.073001862 101.42869568 98.118774414 0.5960000157 42.652999878  -999.250000 1.0390737057
 1882.9833984 2.0000000000 8.5000000000 0.0079839751 0.3079293370 2.2009279728 51.013999939 101.24493408 97.946044922 0.5979999900 42.833000183  -999.250000 1.0350128412
 1883.1358643 2.0000000000 8.5000000000 0.0060064052 0.3119272292 2.2079718113 51.763000488 101.34599304 98.026649475 0.5910000205 42.866001129  -999.250000 1.0519455671
 1883.2882080 2.0000000000 8.5000000000 0.0050032050 0.3108036518 2.2050118446 51.855998993 101.52299500 98.218643188 0.5799999833 42.868000031  -999.250000 1.0819038153
 1883.4406738 2.0000000000 8.5000000000 0.0040032025 0.3057562113 2.1900601387 51.879001617 101.88035583 98.521926880 0.5669999719 42.826000214  -999.250000 1.1398142576
 1883.5930176 2.0000000000 8.5000000000 -0.000983974 0.3063480258 2.1790440083 52.612998962 102.17994690 98.874053955 0.5540000200 42.655998230  -999.250000 1.1838589907
 1883.7454834 2.0000000000 8.5000000000 0.0069807693 0.3035068512 2.1859831810 52.811000824 102.41802216 99.114952087 0.5400000215 42.597000122  -999.250000 1.1580624580
 1883.8978271 2.0000000000 8.5000000000 0.0129807852 0.3096402586 2.1889903545 51.821998596 102.53952026 99.256515503 0.5270000100 42.411998749  -999.250000 1.0742690563
 1884.0502930 2.0000000000 8.5000000000 0.0090096146 0.3194663525 2.1680505276 50.708000183 102.63851929 99.377082825 0.5130000114 42.380001068  -999.250000 0.9991803169
 1884.2026367 2.0000000000 8.5000000000 0.0080032032 0.3144362271 2.1590287685 51.325000763 102.77760315 99.449676514 0.4990000129 42.382999420  -999.250000 0.9431793690
 1884.3551025 2.0000000000 8.5000000000 0.0080000004 0.3034963310 2.1580023766 53.835998535 102.71920013 99.471084595 0.4860000014 42.384998322  -999.250000 0.9070865512
 1884.5074463 2.0000000000 8.5000000000 0.0050096074 0.3053240478 2.1480319500 56.085998535 102.71714020 99.489707947 0.4769999981 42.388000488  -999.250000 0.8880608678
 1884.6599121 2.0000000000 8.5000000000 0.0000120192 0.3119640350 2.1470024586 56.401000977 102.83702087 99.561599731 0.4699999988 42.389999390  -999.250000 0.9099471569
 1884.8122559 2.0000000000 8.5000000000 0.0019935949 0.3174723685 2.1589615345 54.812000275 103.01457214 99.690246582 0.4629999995 42.375999451  -999.250000 0.9538590908
 1884.9645996 2.0000000000 8.5000000000 0.0039935899 0.3207196593 2.1689679623 53.004001617 103.19485474 99.821571350 0.4600000083 42.188999176  -999.250000 0.9888878465
 1885.1170654 2.0000000000 8.5000000000 0.0010096077 0.3136228323 2.1590318680 54.291999817 103.19601440 99.898445129 0.4670000076 42.162998199  -999.250000 0.9800288677
 1885.2694092 2.0000000000 8.5000000000 0.0059839743 0.3079481721 2.1580030918 56.289001465 103.19485474 99.918533325 0.4709999859 42.358001709  -999.250000 0.9461089373
 1885.4218750 2.0000000000 8.5000000000 0.0079935957 0.3077505529 2.1729521751 57.293998718 103.19601440 99.927345276 0.4709999859 42.402999878  -999.250000 0.9430096149
 1885.5742188 2.0000000000 8.5000000000 0.0070032054 0.3110294640 2.1739969254 56.794998169 103.19485474 99.935585022 0.4709999859 42.405998230  -999.250000 0.9709102511
 1885.7266846 2.0000000000 8.5000000000 0.0060024038 0.3139429986 2.1740000248 56.665000916 103.19601440 99.954246521 0.4709999859 42.408000946  -999.250000 1.0248701572
 1885.8790283 2.0000000000 8.5000000000 0.0040064054 0.3134515882 2.1730031967 57.403999329 103.31248474 100.05780029 0.4709999859 42.366001129  -999.250000 1.0499198437
 1886.0314941 2.0000000000 8.5000000000 0.0030024038 0.3173805177 2.1700072289 58.106998444 103.71114349 100.36711884 0.4729999900 42.158000946  -999.250000 1.0320432186
 1886.1838379 2.0000000000 8.5000000000 0.0049935947 0.3207990527 2.1640193462 56.305000305 104.08828735 100.82299805 0.4779999852 41.953998566  -999.250000 0.9871441126
 1886.3363037 2.0000000000 8.5000000000 0.0010096155 0.3276235759 2.1580142975 52.902000427 104.52172852 101.29328918 0.4850000143 41.918998718  -999.250000 0.9351249933
 1886.4886475 2.0000000000 8.5000000000 0.0000032026 0.3242907822 2.1629841328 49.466999054 104.94127655 101.70100403 0.4920000136 41.965999603  -999.250000 0.8771857023
