# LAS format log file from PETREL
# Project units are specified as depth units
#==================================================================
~Version information
VERS.   2.0:
WRAP.   NO:
#==================================================================
~Well
STRT .m      447.54394531 :
STOP .m      3384.4443359 :
STEP .m     0.00000000 :
NULL .        -999.250000 :
COMP.           : COMPANY
WELL.  31/2-8   : WELL
FLD.            : FIELD
LOC.            : LOCATION
SRVC.           : SERVICE COMPANY
DATE.  2018-09-11 14:48:34   : Log Export Date {yyyy-MM-dd HH:mm:ss}
PROV.           : PROVINCE
UWI.   31/2-8   : UNIQUE WELL ID
API.            : API NUMBER
#==================================================================
~Curve
DEPT .m                   : DEPTH
Lithology_geolink ._      : Lithology_geolink
CALI .in                  : CALI
DRHO .g/cm3               : DRHO
SGR .gAPI                 : SGR
NPHI .m3/m3               : NPHI
RHOB .g/cm3               : RHOB
PEF .b/e                  : PEF
GR .gAPI                  : GR
DTC .us/ft                : DTC
RDEP .ohm.m               : RDEP
SP .mV                    : SP
RSHA .ohm.m               : RSHA
RMED .ohm.m               : RMED
~Parameter
#==================================================================
~Ascii
# ...
 1621.0240479 6.0000000000 20.574001312 0.0530272201  -999.250000 0.4661399722 2.3260288239  -999.250000 86.142181396 131.32649231 1.0020736456 58.233737946 1.1679470539 1.1679470539
 1621.1763916 6.0000000000 19.669000626 0.0699975938  -999.250000 0.4693599939 2.3439977169  -999.250000 86.327545166 131.64405823 0.9820480347 58.073387146 1.1330840588 1.1330840588
 1621.3288574 6.0000000000 19.312999725 0.0669759810  -999.250000 0.4801999927 2.3409857750  -999.250000 84.896293640 132.46101379 0.9750112295 58.173839569 1.1230159998 1.1230159998
 1621.4812012 6.0000000000 19.304000854 0.0519887842  -999.250000 0.4606499970 2.3319976330  -999.250000 86.621231079 133.00230408 0.9680112004 58.370681763 1.1170096397 1.1170096397
 1621.6335449 6.0000000000 18.961000443 0.0379927941  -999.250000 0.4697900116 2.3289952278  -999.250000 85.693244934 133.16633606 0.9759808183 58.290195465 1.1080216169 1.1080216169
 1621.7860107 6.0000000000 18.827999115 0.0290016010  -999.250000 0.4549399912 2.3229968548  -999.250000 89.106513977 133.43951416 0.9760000110 58.659408569 1.1189823151 1.1189823151
 1621.9383545 6.0000000000 18.708000183 0.0310088061  -999.250000 0.4634999931 2.3190007210  -999.250000 88.867584229 133.06059265 0.9710119963 58.632068634 1.1160072088 1.1160072088
 1622.0908203 6.0000000000 18.402000427 0.0420056097  -999.250000 0.4716199934 2.3199717999  -999.250000 92.546096802 131.85147095 0.9690032005 59.307914734 1.1229888201 1.1229888201
 1622.2431641 6.0000000000 18.340000153 0.0489967950  -999.250000 0.4521400034 2.2849447727  -999.250000 90.800216675 129.89378357 0.9630144238 59.706043243 1.1399590969 1.1399590969
 1622.3956299 6.0000000000 18.159999847 0.0449863784  -999.250000 0.4222100079 2.2159366608  -999.250000 90.974708557 128.99761963 0.9639983773 59.906681061 1.1280192137 1.1280192137
 1622.5479736 6.0000000000 18.143999100 0.0279847756  -999.250000 0.4026800096 2.1369729042  -999.250000 84.397842407 129.40551758 0.9939279556 59.977828979 1.1080480814 1.1080480814
 1622.7004395 6.0000000000 18.278999329 0.0089951959  -999.250000 0.4131900072 2.1030430794  -999.250000 80.554138184 130.16374207 1.0359326601 59.573650360 1.0930241346 1.0930241346
 1622.8527832 6.0000000000 18.643999100 0.0060168272  -999.250000 0.4178900123 2.1300537586  -999.250000 76.330154419 131.17259216 1.0369975567 59.359516144 1.1598390341 1.1598390341
 1623.0052490 6.0000000000 18.955999374 0.0270416345  -999.250000 0.4086999893 2.1970930099  -999.250000 74.577796936 130.97726440 1.0350031853 58.802890778 1.2538492680 1.2538492680
 1623.1575928 6.0000000000 18.399000168 0.0530104153  -999.250000 0.4147499800 2.2550218105  -999.250000 72.666595459 129.71754456 1.0300120115 58.797012329 1.2949014902 1.2949014902
 1623.3100586 6.0000000000 18.076000214 0.0659919903  -999.250000 0.4286399782 2.2820031643  -999.250000 74.909393311 128.97924805 1.0100320578 58.436580658 1.2111345530 1.2111345530
 1623.4624023 6.0000000000 18.129999161 0.0609983988  -999.250000 0.4491100013 2.2839910984  -999.250000 79.602470398 128.46952820 0.9700641036 58.219348907 1.1401137114 1.1401137114
 1623.6147461 6.0000000000 18.100000381 0.0589975975  -999.250000 0.4664500058 2.2729823589  -999.250000 84.291732788 128.55628967 0.9580288529 57.969600677 1.1030889750 1.1030889750
 1623.7672119 6.0000000000 18.065000534 0.0559943914  -999.250000 0.4854399860 2.2509822845  -999.250000 83.595138550 130.15975952 0.9480160475 57.704421997 1.0920176506 1.0920176506
 1623.9195557 6.0000000000 17.982000351 0.0489967950  -999.250000 0.4824300110 2.2290065289  -999.250000 81.856178284 131.92398071 0.9679519534 57.663097382 1.0820239782 1.0820239782
 1624.0720215 6.0000000000 17.920999527 0.0449927896  -999.250000 0.4477399886 2.2370095253  -999.250000 79.059486389 132.94377136 0.9969534874 56.767436981 1.0780063868 1.0780063868
 1624.2243652 6.0000000000 17.945999146 0.0360032022  -999.250000 0.4341400266 2.2490143776  -999.250000 78.438484192 133.44902039 1.0019879341 57.138103485 1.1119183302 1.1119183302
 1624.3768311 6.0000000000 18.552999496 0.0400064103  -999.250000 0.4332400262 2.2669928074  -999.250000 80.264068604 132.42837524 0.9900192618 57.415557861 1.1509375572 1.1509375572
 1624.5291748 6.0000000000 19.297000885 0.0479975976  -999.250000 0.4605099857 2.2579703331  -999.250000 82.821853638 131.00877380 0.9730408192 57.240425110 1.1529952288 1.1529952288
 1624.6816406 6.0000000000 19.406000137 0.0449951924  -999.250000 0.4617100060 2.2209680080  -999.250000 83.664657593 131.37222290 0.9280720949 57.572467804 1.1110672951 1.1110672951
 1624.8339844 6.0000000000 18.329000473 0.0389911868  -999.250000 0.4569500089 2.1809639931  -999.250000 81.854362488 131.87211609 0.9319903851 57.308635712 1.0681031942 1.0681031942
 1624.9864502 6.0000000000 18.260000229 0.0279679745  -999.250000 0.4266899824 2.1358749866  -999.250000 82.851387024 131.40592957 0.9629503489 57.596538544 1.0500288010 1.0500288010
 1625.1387939 6.0000000000 18.693000793 0.0079807695  -999.250000 0.4185499847 2.0579640865  -999.250000 86.033340454 131.92823792 0.9929279089 57.478286743 1.0350359678 1.0350359678
 1625.2912598 6.0000000000 18.444000244 -0.016025621  -999.250000 0.4129000008 2.0130689144  -999.250000 92.309936523 130.53555298 1.0608910322 57.837425232 1.0549678802 1.0549678802
 1625.4436035 6.0000000000 18.556999207 -0.031979170  -999.250000 0.4529699981 2.0561225414  -999.250000 93.060806274 122.67066956 1.1838028431 58.114559174 1.1039214134 1.1039214134
 1625.5959473 6.0000000000 18.705999374 -0.005961569  -999.250000 0.4648099840 2.2090880871  -999.250000 86.923774719 112.84799957 1.2338799238 58.040180206 1.2526421547 1.2526421547
 1625.7484131 6.0000000000 18.927999496 0.0420224369  -999.250000 0.4481499791 2.3189969063  -999.250000 76.932014465 106.94726563 1.2220191956 58.397426605 1.6393797398 1.6393797398
 1625.9007568 6.0000000000 18.156999588 0.0699887946  -999.250000 0.4139199853 2.3149607182  -999.250000 70.087440491 106.68186188 1.1561585665 58.240379333 2.2515275478 2.2515275478
 1626.0532227 16.000000000 17.943000793 0.0559927896  -999.250000 0.3961600065 2.2660031319  -999.250000 72.553016663 114.83435822 1.1599935293 58.578456879 2.0862677097 2.0862677097
 1626.2055664 6.0000000000 18.016000748 0.0469999984  -999.250000 0.4220199883 2.2700176239  -999.250000 79.783599854 127.31021118 1.1879327297 58.311645508 1.4345684052 1.4345684052
 1626.3580322 6.0000000000 18.152000427 0.0470048077  -999.250000 0.4545399845 2.2920024395  -999.250000 88.281387329 132.73487854 1.2369214296 58.162239075 1.1344791651 1.1344791651
 1626.5103760 6.0000000000 18.034999847 0.0530040041  -999.250000 0.4762499928 2.2949776649  -999.250000 94.844230652 130.02899170 1.2020840645 58.014354706 1.0950937271 1.0950937271
 1626.6628418 6.0000000000 18.000000000 0.0579991974  -999.250000 0.4772299826 2.2669880390  -999.250000 94.696258545 127.10414886 1.1151394844 57.710487366 1.1509102583 1.1509102583
 1626.8151855 6.0000000000 17.990999222 0.0569935888  -999.250000 0.4650400281 2.2520089149  -999.250000 92.925262451 125.89476776 1.0541465282 57.733943939 1.2377910614 1.2377910614
 1626.9676514 6.0000000000 18.097999573 0.0489983968  -999.250000 0.4525099993 2.2630689144  -999.250000 88.469146729 127.00566864 1.0130656958 57.386558533 1.2479840517 1.2479840517
 1627.1199951 6.0000000000 18.358999252 0.0479983985  -999.250000 0.4495700002 2.3060159683  -999.250000 89.258087158 130.09373474 0.9691056609 57.276264191 1.2360287905 1.2360287905
 1627.2724609 6.0000000000 18.020000458 0.0460000001  -999.250000 0.4665700197 2.3259952068  -999.250000 87.690521240 131.86085510 0.9440400600 57.106269836 1.2200256586 1.2200256586
 1627.4248047 6.0000000000 17.853000641 0.0460048094  -999.250000 0.4931600094 2.3229918480  -999.250000 89.838554382 131.83677673 0.9449983835 56.993179321 1.2190015316 1.2190015316
 1627.5772705 6.0000000000 17.871999741 0.0520096086  -999.250000 0.5139799714 2.3129982948  -999.250000 87.688453674 130.79351807 0.9519888163 56.990005493 1.1670832634 1.1670832634
