# LAS format log file from PETREL
# Project units are specified as depth units
#==================================================================
~Version information
VERS.   2.0:
WRAP.   NO:
#==================================================================
~Well
STRT .m      326.13598633 :
STOP .m      1938.6804199 :
STEP .m     0.00000000 :
NULL .        -999.250000 :
COMP.           : COMPANY
WELL.  31/2-17 A   : WELL
FLD.            : FIELD
LOC.            : LOCATION
SRVC.           : SERVICE COMPANY
DATE.  2018-09-11 14:48:33   : Log Export Date {yyyy-MM-dd HH:mm:ss}
PROV.           : PROVINCE
UWI.   31/2-17 A   : UNIQUE WELL ID
API.            : API NUMBER
#==================================================================
~Curve
DEPT .m                   : DEPTH
Lithology_geolink ._      : Lithology_geolink
CALI .in                  : CALI
DRHO .g/cm3               : DRHO
RHOB .g/cm3               : RHOB
GR .gAPI                  : GR
DTC .us/ft                : DTC
RDEP .ohm.m               : RDEP
RMED .ohm.m               : RMED
~Parameter
#==================================================================
~Ascii
# ...
 1393.5455322  -999.250000  -999.250000  -999.250000 2.2200000286 32.411499023 152.25840759 1.0429999828  -999.250000
 1393.6979980  -999.250000  -999.250000  -999.250000 2.2200000286 34.791999817 152.25840759 1.0216000080  -999.250000
 1393.8503418  -999.250000  -999.250000  -999.250000 2.2200000286 35.161098480 152.25840759 1.0002000332  -999.250000
 1394.0028076  -999.250000  -999.250000  -999.250000 2.2200000286 38.243099213 152.25840759 0.9789000154  -999.250000
 1394.1551514  -999.250000  -999.250000  -999.250000 2.2200000286 34.805900574 152.25840759 0.9631000161  -999.250000
 1394.3076172  -999.250000  -999.250000  -999.250000 2.2200000286 32.359500885 152.25840759 0.9578999877  -999.250000
 1394.4599609  -999.250000  -999.250000  -999.250000 2.2200000286 29.656600952 152.25840759 0.9735000134  -999.250000
 1394.6123047  -999.250000  -999.250000  -999.250000 2.2200000286 31.073499680 152.25840759 1.0149999857  -999.250000
 1394.7647705  -999.250000  -999.250000  -999.250000 2.2200000286 35.542900085 152.25840759 1.0714000463  -999.250000
 1394.9171143  -999.250000  -999.250000  -999.250000 2.2200000286 37.446098328 152.25840759 1.1280000210  -999.250000
 1395.0695801  -999.250000  -999.250000  -999.250000 2.2200000286 35.667701721 152.25840759 1.1230000257  -999.250000
 1395.2219238  -999.250000  -999.250000  -999.250000 2.2200000286 31.349100113 152.25840759 1.0831999779  -999.250000
 1395.3743896  -999.250000  -999.250000  -999.250000 2.2200000286 29.287200928 152.25840759 1.0382000208  -999.250000
 1395.5267334  -999.250000  -999.250000  -999.250000 2.2200000286 32.283599854 152.25840759 1.0655000210  -999.250000
 1395.6791992  -999.250000  -999.250000  -999.250000 2.2200000286 34.659599304 152.25840759 1.0247000456  -999.250000
 1395.8315430  -999.250000  -999.250000  -999.250000 2.2200000286 35.864299774 152.25840759 1.0012999773  -999.250000
 1395.9840088  -999.250000  -999.250000  -999.250000 2.2200000286 34.820701599 152.25840759 0.9635000229  -999.250000
 1396.1363525  -999.250000  -999.250000  -999.250000 2.2200000286 31.677700043 152.25840759 0.9713000059  -999.250000
 1396.2888184  -999.250000  -999.250000  -999.250000 2.2200000286 31.348300934 152.25840759 1.0058000088  -999.250000
 1396.4411621  -999.250000  -999.250000  -999.250000 2.2200000286 33.871601105 152.25840759 1.0533000231  -999.250000
 1396.5935059  -999.250000  -999.250000  -999.250000 2.2200000286 38.326000214 152.25840759 1.1013000011  -999.250000
 1396.7459717  -999.250000  -999.250000  -999.250000 2.2200000286 40.417800903 152.25840759 1.1433000565  -999.250000
 1396.8983154  -999.250000  -999.250000  -999.250000 2.2200000286 43.110801697 152.25840759 1.1772999763  -999.250000
 1397.0507813  -999.250000  -999.250000  -999.250000 2.2200000286 43.752601624 152.25840759 1.2012000084  -999.250000
 1397.2031250  -999.250000  -999.250000  -999.250000 2.2200000286 44.593898773 152.25840759 1.2164000273  -999.250000
 1397.3555908  -999.250000  -999.250000  -999.250000 2.2200000286 41.256000519 152.25840759 1.2361999750  -999.250000
 1397.5079346  -999.250000  -999.250000  -999.250000 2.2200000286 40.869899750 152.25840759 1.2613999844  -999.250000
 1397.6604004  -999.250000  -999.250000  -999.250000 2.2200000286 40.510501862 152.25840759 1.2623000145  -999.250000
 1397.8127441  -999.250000  -999.250000  -999.250000 2.2200000286 40.767200470 152.25840759 1.2094000578  -999.250000
 1397.9652100  -999.250000  -999.250000  -999.250000 2.2200000286 40.847400665 152.25840759 1.1707999706  -999.250000
 1398.1175537  -999.250000  -999.250000  -999.250000 2.2200000286 40.954799652 152.25840759 1.1045000553  -999.250000
 1398.2700195  -999.250000  -999.250000  -999.250000 2.2200000286 42.644901276 152.25840759 1.1141999960  -999.250000
 1398.4223633  -999.250000  -999.250000  -999.250000 2.2200000286 41.109600067 152.25840759 1.1403000355  -999.250000
 1398.5748291  -999.250000  -999.250000  -999.250000 2.2200000286 42.853698730 152.25840759 1.1538000107  -999.250000
 1398.7271729  -999.250000  -999.250000  -999.250000 2.2200000286 46.879299164 152.25840759 1.1225999594  -999.250000
 1398.8795166  -999.250000  -999.250000  -999.250000 2.2200000286 46.945301056 152.25840759 1.0789999962  -999.250000
 1399.0319824  -999.250000  -999.250000  -999.250000 2.2200000286 39.491798401 152.25840759 1.0449999571  -999.250000
 1399.1843262  -999.250000  -999.250000  -999.250000 2.2200000286 29.848400116 152.25840759 1.0700999498  -999.250000
 1399.3367920  -999.250000  -999.250000  -999.250000 2.2200000286 28.291299820 152.25840759 1.1059000492  -999.250000
 1399.4891357  -999.250000  -999.250000  -999.250000 2.2200000286 28.132799149 152.25840759 0.9962000251  -999.250000
 1399.6416016  -999.250000  -999.250000  -999.250000 2.2200000286 28.456600189 152.25840759 0.8111000061  -999.250000
 1399.7939453  -999.250000  -999.250000  -999.250000 2.2200000286 28.036699295 152.25840759 0.8349999785  -999.250000
 1399.9464111  -999.250000  -999.250000  -999.250000 2.2200000286 29.358200073 152.25840759 0.9961000085  -999.250000
 1400.0987549  -999.250000  -999.250000  -999.250000 2.2200000286 28.678199768 152.25840759 0.9706000090  -999.250000
 1400.2512207  -999.250000  -999.250000  -999.250000 2.2200000286 28.460800171 152.25840759 0.9519000053  -999.250000
 1400.4035645  -999.250000  -999.250000  -999.250000 2.2200000286 28.753299713 152.25840759 0.9462000132  -999.250000
 1400.5560303  -999.250000  -999.250000  -999.250000 2.2200000286 30.015899658 152.25840759 1.0226999521  -999.250000
 1400.7083740  -999.250000  -999.250000  -999.250000 2.2200000286 30.768100739 152.25840759 0.9550999999  -999.250000
 1400.8607178  -999.250000  -999.250000  -999.250000 2.2200000286 28.459999084 152.25840759 0.9420999885  -999.250000
 1401.0131836  -999.250000  -999.250000  -999.250000 2.2200000286 24.868499756 152.25840759 0.9322999716  -999.250000
 1401.1655273  -999.250000  -999.250000  -999.250000 2.2200000286 24.343599319 152.25840759 0.9214000106  -999.250000
 1401.3179932  -999.250000  -999.250000  -999.250000 2.2200000286 24.943700790 152.25840759 0.9106000066  -999.250000
 1401.4703369  -999.250000  -999.250000  -999.250000 2.2200000286 25.778600693 152.25840759 0.9010999799  -999.250000
 1401.6228027  -999.250000  -999.250000  -999.250000 2.2200000286 24.455799103 152.25840759 0.8934000134  -999.250000
 1401.7751465  -999.250000  -999.250000  -999.250000 2.2200000286 26.212400436 152.25840759 0.8884000182  -999.250000
 1401.9276123  -999.250000  -999.250000  -999.250000 2.2200000286 31.846900940 152.25840759 0.8795999885  -999.250000
 1402.0799561  -999.250000  -999.250000  -999.250000 2.2200000286 34.483100891 152.25840759 0.8643000126  -999.250000
 1402.2324219  -999.250000  -999.250000  -999.250000 2.2200000286 36.030399323 152.25840759 0.8331000209  -999.250000
 1402.3847656  -999.250000  -999.250000  -999.250000 2.2200000286 34.477699280 152.25840759 0.8385000229  -999.250000
 1402.5372314  -999.250000  -999.250000  -999.250000 2.2200000286 32.530601501 152.25840759 0.8705000281  -999.250000
 1402.6895752  -999.250000  -999.250000  -999.250000 2.2200000286 32.410400391 152.25840759 0.9247000217  -999.250000
 1402.8419189  -999.250000  -999.250000  -999.250000 2.2200000286 30.695699692 152.25840759 0.9488999844  -999.250000
 1402.9943848  -999.250000  -999.250000  -999.250000 2.2200000286 33.763999939 152.25840759 1.0325000286  -999.250000
 1403.1467285  -999.250000  -999.250000  -999.250000 2.2200000286 32.825298309 152.25840759 1.0824999809  -999.250000
 1403.2991943  -999.250000  -999.250000  -999.250000 2.2200000286 34.653999329 152.25840759 1.3889000416  -999.250000
 1403.4515381  -999.250000  -999.250000  -999.250000 2.2200000286 34.516601563 152.25840759 1.1756000519  -999.250000
 1403.6040039  -999.250000  -999.250000  -999.250000 2.2200000286 37.624401093 152.25840759 1.1927000284  -999.250000
 1403.7563477  -999.250000  -999.250000  -999.250000 2.2200000286 38.511299133 152.25840759 1.2210999727  -999.250000
