# LAS format log file from PETREL
# Project units are specified as depth units
#==================================================================
~Version information
VERS.   2.0:
WRAP.   NO:
#==================================================================
~Well
STRT .m      326.13598633 :
STOP .m      1938.6804199 :
STEP .m     0.00000000 :
NULL .        -999.250000 :
COMP.           : COMPANY
WELL.  31/2-17 A   : WELL
FLD.            : FIELD
LOC.            : LOCATION
SRVC.           : SERVICE COMPANY
DATE.  2018-09-11 14:48:33   : Log Export Date {yyyy-MM-dd HH:mm:ss}
PROV.           : PROVINCE
UWI.   31/2-17 A   : UNIQUE WELL ID
API.            : API NUMBER
#==================================================================
~Curve
DEPT .m                   : DEPTH
Lithology_geolink ._      : Lithology_geolink
CALI .in                  : CALI
DRHO .g/cm3               : DRHO
RHOB .g/cm3               : RHOB
GR .gAPI                  : GR
DTC .us/ft                : DTC
RDEP .ohm.m               : RDEP
RMED .ohm.m               : RMED
~Parameter
#==================================================================
~Ascii
# ...
 1828.7999268 6.0000000000 8.5234003067 -0.003200000 2.2200000286 92.379096985 152.25840759 2.1658000946 2.2476878166
 1828.9523926 6.0000000000 8.5234003067 -0.000700000 2.2200000286 95.644096375 152.25840759 2.1677999496 2.2536952496
 1829.1047363 6.0000000000 8.5234003067 -0.002600000 2.2200000286 92.393600464 152.25840759 2.1642000675 2.2537000179
 1829.2570801 6.0000000000 8.5234003067 -0.002100000 2.2200000286 88.471900940 152.25840759 2.1638000011 2.2479093075
 1829.4095459 6.0000000000 8.5234003067 -0.000800000 2.2200000286 82.939201355 152.25840759 2.1561000347 2.2383077145
 1829.5618896 6.0000000000 8.5234003067 -0.003800000 2.2200000286 81.963798523 152.25840759 2.1447999477 2.2284157276
 1829.7143555 6.0000000000 8.5234003067 -0.005500000 2.2200000286 88.237098694 152.25840759 2.1405000687 2.2150106430
 1829.8666992 6.0000000000 8.5234003067 -0.003300000 2.2200000286 90.604598999 152.25840759 2.1328001022 2.2073123455
 1830.0191650 6.0000000000 8.5234003067 -0.000400000 2.2200000286 91.769203186 152.25840759 2.1250998974 2.2069001198
 1830.1715088 6.0000000000 8.5234003067 -0.000100000 2.2200000286 87.788696289 152.25840759 2.1189999580 2.2030031681
 1830.3239746 6.0000000000 8.5000000000 0.0055999998 2.2200000286 87.179702759 152.25840759 2.1096000671 2.1954061985
 1830.4763184 6.0000000000 8.4921998978 0.0078999996 2.2200000286 86.772201538 152.25840759 2.1054999828 2.1895048618
 1830.6287842 6.0000000000 8.5000000000 0.0059000002 2.2200000286 89.015701294 152.25840759 2.1033999920 2.1855030060
 1830.7811279 6.0000000000 8.5234003067 0.0020999999 2.2200000286 85.546699524 152.25840759 2.0977001190 2.1816031933
 1830.9335938 6.0000000000 8.6171998978 0.0012000001 2.2200000286 83.426498413 152.25840759 2.0938000679 2.1758046150
 1831.0859375 6.0000000000 8.5625000000 -0.001900000 2.2200000286 82.358596802 152.25840759 2.0917000771 2.1719031334
 1831.2382813 6.0000000000 8.5234003067 -0.001300000 2.2200000286 86.097900391 152.25840759 2.0880999565 2.1682059765
 1831.3907471 6.0000000000 8.5234003067 -0.000600000 2.2200000286 90.622703552 152.25840759 2.0897998810 2.1698985100
 1831.5430908 6.0000000000 8.4218997955 0.0038000001 2.2200000286 95.020401001 152.25840759 2.0897998810 2.1718969345
 1831.6955566 6.0000000000 8.4140996933 0.0041999999 2.2200000286 92.416702271 152.25840759 2.0896999836 2.1736986637
 1831.8479004 6.0000000000 8.5000000000 0.0027999999 2.2200000286 90.367897034 152.25840759 2.0859000683 2.1717031002
 1832.0003662 6.0000000000 8.4921998978 -0.000600000 2.2200000286 84.910697937 152.25840759 2.0799999237 2.1640062332
 1832.1527100 6.0000000000 8.5000000000 -0.000500000 2.2200000286 88.249900818 152.25840759 2.0722000599 2.1544077396
 1832.3051758 6.0000000000 8.4609003067 -0.002700000 2.2200000286 89.775199890 152.25840759 2.0625998974 2.1483047009
 1832.4575195 6.0000000000 8.3828001022 -0.003100000 2.2200000286 89.899597168 152.25840759 2.0566000938 2.1367092133
 1832.6099854 6.0000000000 8.3828001022 0.0020999999 2.2200000286 86.796997070 152.25840759 2.0506999493 2.1234107018
 1832.7623291 5.0000000000 8.3828001022 0.0060000001 2.2200000286 84.292198181 152.25840759 2.0411000252 2.1191034317
 1832.9147949 5.0000000000 8.4062004089 0.0087000001 2.2200000286 82.861602783 152.25840759 2.0353000164 2.1152031422
 1833.0671387 5.0000000000 8.4218997955 0.0093999999 2.2200000286 83.891700745 152.25840759 2.0352001190 2.1098043919
 1833.2196045 5.0000000000 8.5234003067 0.0080000004 2.2200000286 84.489997864 152.25840759 2.0348999500 2.1172940731
 1833.3719482 5.0000000000 8.5234003067 0.0071999999 2.2200000286 87.927497864 152.25840759 2.0269999504 2.1282911301
 1833.5242920 6.0000000000 8.5234003067 0.0060999999 2.2200000286 87.152603149 152.25840759 2.0099000931 2.1207120419
 1833.6767578 6.0000000000 8.5234003067 0.0033000000 2.2200000286 89.793502808 152.25840759 1.9959000349 2.0994172096
 1833.8291016 6.0000000000 8.5234003067 0.0015000000 2.2200000286 89.314498901 152.25840759 1.9766000509 2.0697474480
 1833.9815674 6.0000000000 8.5234003067 -0.000600000 2.2200000286 89.108001709 152.25840759 1.9573999643 2.0237369537
 1834.1339111 6.0000000000 8.5234003067 -0.003600000 2.2200000286 87.466300964 152.25840759 1.9493000507 1.9874582291
 1834.2863770 6.0000000000 8.5234003067 -0.004000000 2.2200000286 86.753799438 152.25840759 1.9441000223 1.9831035137
 1834.4387207 6.0000000000 8.5234003067 -0.000100000 2.2200000286 85.306900024 152.25840759 1.9335000515 1.9995868206
 1834.5911865 5.0000000000 8.5234003067 0.0034000000 2.2200000286 82.267898560 152.25840759 1.9189000130 2.0036966801
 1834.7435303 5.0000000000 8.5234003067 0.0080000004 2.2200000286 78.904197693 152.25840759 1.9027999640 2.0020015240
 1834.8959961 5.0000000000 8.5234003067 0.0068999999 2.2200000286 78.144500732 152.25840759 1.9010000229 2.0020000935
 1835.0483398 5.0000000000 8.5234003067 0.0074000000 2.2200000286 81.720298767 152.25840759 1.9180999994 2.0039982796
 1835.2008057 5.0000000000 8.5234003067 0.0055000000 2.2200000286 80.780601501 152.25840759 1.9377000332 2.0100951195
 1835.3531494 5.0000000000 8.5234003067 0.0059000002 2.2200000286 83.304000854 152.25840759 1.9349000454 2.0246882439
 1835.5054932 6.0000000000 8.5234003067 0.0044000000 2.2200000286 85.093597412 152.25840759 1.9129999876 2.0186097622
 1835.6579590 6.0000000000 8.5234003067 0.0093999999 2.2200000286 90.328697205 152.25840759 1.8602000475 1.9840277433
 1835.8103027 6.0000000000 8.5234003067 0.0082000000 2.2200000286 89.723999023 152.25840759 1.8023999929 1.9382733107
 1835.9627686 6.0000000000 8.5234003067 0.0055999998 2.2200000286 86.828598022 152.25840759 1.7924000025 1.8845430613
 1836.1151123 6.0000000000 8.5234003067 0.0022000000 2.2200000286 82.717498779 152.25840759 1.7950999737 1.8226990700
 1836.2675781 6.0000000000 8.4453001022 -0.000100000 2.2200000286 80.886802673 152.25840759 1.8037999868 1.8008174896
 1836.4199219 6.0000000000 8.2734003067 -0.001100000 2.2200000286 77.348999023 152.25840759 1.8163000345 1.8381700516
 1836.5723877 6.0000000000 8.5000000000 -0.000600000 2.2200000286 80.461799622 152.25840759 1.8295999765 1.8865612745
 1836.7247314 5.0000000000 8.4843997955 0.0006000000 2.2200000286 80.739799500 152.25840759 1.9155000448 1.9631385803
 1836.8771973 5.0000000000 8.5234003067 0.0033000000 2.2200000286 83.777099609 152.25840759 2.0441999435 2.1051862240
 1837.0295410 5.0000000000 8.5234003067 0.0105999997 2.2200000286 79.889999390 152.25840759 2.1530001163 2.2422900200
 1837.1820068 5.0000000000 8.5234003067 0.0081000002 2.2200000286 79.001800537 152.25840759 2.2228999138 2.3260331154
 1837.3343506 5.0000000000 8.5234003067 0.0049999999 2.2200000286 74.633697510 152.25840759 2.3536999226 2.4101326466
 1837.4866943 5.0000000000 8.4765996933 0.0110999998 2.2200000286 74.975799561 152.25840759 2.4289000034 2.6098797321
 1837.6391602 5.0000000000 8.4140996933 0.0116999997 2.2200000286 77.683700562 152.25840759 2.4209001064 2.7722699642
 1837.7915039 5.0000000000 8.3828001022 0.0063000000 2.2200000286 82.763702393 152.25840759 2.3826999664 2.7272725105
 1837.9439697 5.0000000000 8.3828001022 0.0022000000 2.2200000286 85.200698853 152.25840759 2.3394000530 2.5803177357
 1838.0963135 6.0000000000 8.3828001022 0.0027999999 2.2200000286 86.089797974 152.25840759 2.2787001133 2.3761272430
 1838.2487793 6.0000000000 8.3828001022 -0.000600000 2.2200000286 84.073699951 152.25840759 2.0855998993 2.1920473576
 1838.4011230 6.0000000000 8.3593997955 0.0013000000 2.2200000286 84.224998474 152.25840759 1.8271000385 1.9666806459
 1838.5535889 6.0000000000 8.3515996933 -0.000600000 2.2200000286 85.361503601 152.25840759 1.7352000475 1.7365841866
 1838.7059326 6.0000000000 8.2421998978 -0.001800000 2.2200000286 89.558898926 152.25840759 1.7017999887 1.6848413944
 1838.8583984 6.0000000000 8.2968997955 -0.000200000 2.2200000286 91.544296265 152.25840759 1.6599999666 1.7307631969
 1839.0107422 6.0000000000 8.3906002045 0.0033000000 2.2200000286 92.685897827 152.25840759 1.6140999794 1.7610757351
