# LAS format log file from PETREL
# Project units are specified as depth units
#==================================================================
~Version information
VERS.   2.0:
WRAP.   NO:
#==================================================================
~Well
STRT .m      445.17501831 :
STOP .m      1838.8730469 :
STEP .m     0.00000000 :
NULL .        -999.250000 :
COMP.           : COMPANY
WELL.  31/2-10   : WELL
FLD.            : FIELD
LOC.            : LOCATION
SRVC.           : SERVICE COMPANY
DATE.  2018-09-11 14:48:32   : Log Export Date {yyyy-MM-dd HH:mm:ss}
PROV.           : PROVINCE
UWI.   31/2-10   : UNIQUE WELL ID
API.            : API NUMBER
#==================================================================
~Curve
DEPT .m                   : DEPTH
Lithology_geolink ._      : Lithology_geolink
CALI .in                  : CALI
DRHO .g/cm3               : DRHO
NPHI .m3/m3               : NPHI
RHOB .g/cm3               : RHOB
PEF .b/e                  : PEF
GR .gAPI                  : GR
DTC .us/ft                : DTC
RDEP .ohm.m               : RDEP
SP .mV                    : SP
RSHA .ohm.m               : RSHA
RMED .ohm.m               : RMED
~Parameter
#==================================================================
~Ascii
# ...
 1461.9879150 6.0000000000 17.547000885 0.0109999999 0.4809600115 2.1189999580 5.6090002060 76.600578308 142.93551636 0.7679615617 79.361221313  -999.250000 0.8529103398
 1462.1402588 5.0000000000 17.437000275 0.0070000002 0.4508399963 2.0880000591 5.8759999275 68.987983704 142.82037354 0.7559735179 79.120643616  -999.250000 0.8249567151
 1462.2927246 5.0000000000 17.302000046 0.0179999992 0.4395299852 2.0710000992 6.1329998970 64.007209778 143.20196533 0.7449807525 79.386726379  -999.250000 0.8069294691
 1462.4450684 5.0000000000 17.385000229 0.0270000007 0.4791699946 2.0590000153 5.9800000191 66.265213013 144.46992493 0.7389551997 79.612022400  -999.250000 0.7850224376
 1462.5975342 6.0000000000 17.562999725 0.0370000005 0.5035800338 2.0680000782 5.8080000877 71.000602722 145.87310791 0.7250224352 79.620056152  -999.250000 0.7919647098
 1462.7498779 6.0000000000 17.541999817 0.0299999993 0.4986999929 2.0720000267 5.4229998589 71.196006775 146.59381104 0.7319903970 79.635253906  -999.250000 0.7810736895
 1462.9023438 6.0000000000 17.388000488 0.0260000005 0.4413200021 2.0840001106 5.2410001755 73.693214417 145.99255371 0.7290064096 79.402046204  -999.250000 0.8039455414
 1463.0546875 6.0000000000 17.541999817 0.0299999993 0.4342499971 2.1010000706 5.2740001678 75.317207336 144.61157227 0.7310000062 79.415351868  -999.250000 0.7870640755
 1463.2070313 6.0000000000 17.461000443 0.0189999994 0.4415700138 2.1040000916 5.6729998589 76.621246338 143.67401123 0.7310000062 78.903839111  -999.250000 0.8070360422
 1463.3594971 6.0000000000 17.410999298 0.0140000004 0.4733599722 2.1040000916 6.2480001450 75.049789429 143.38725281 0.7310256362 79.666152954  -999.250000 0.8220704794
 1463.5118408 5.0000000000 17.327999115 0.0099999998 0.5002399683 2.0789999962 7.2170000076 70.929435730 143.10157776 0.7390192747 79.401359558  -999.250000 0.8439663053
 1463.6643066 5.0000000000 17.378000259 0.0280000009 0.5442699790 2.0690000057 7.4590001106 67.373397827 143.05409241 0.7470415831 79.138328552  -999.250000 0.8299391270
 1463.8166504 5.0000000000 17.520999908 0.0399999991 0.5375999808 2.0569999218 7.9580001831 66.875755310 144.49072266 0.7600120306 79.859542847  -999.250000 0.8109495044
 1463.9691162 5.0000000000 17.326000214 0.0410000011 0.5053699613 2.0810000896 7.5830001831 67.194412231 145.99739075 0.7649871707 78.840621948  -999.250000 0.7899391651
 1464.1214600 5.0000000000 16.995000839 0.0320000015 0.4864799976 2.1229999065 7.5830001831 69.184844971 146.42414856 0.7609951496 79.346420288  -999.250000 0.7710865736
 1464.2739258 5.0000000000 17.211000443 0.0260000005 0.5042300224 2.1779999733 6.9800000191 67.870590210 144.12242126 0.7589904070 79.105049133  -999.250000 0.8071057796
 1464.4262695 5.0000000000 17.538999557 0.0140000004 0.5221499801 2.1649999619 6.0339999199 66.501403809 136.71517944 0.7560160160 79.122329712  -999.250000 0.8400063515
 1464.5787354 5.0000000000 17.672000885 0.0040000002 0.4972299933 2.1240000725 5.7600002289 66.932395935 132.76107788 0.7610384226 79.846923828  -999.250000 0.8418236971
 1464.7310791 5.0000000000 17.673999786 0.0000000000 0.4896599948 2.0880000591 5.8520002365 65.192604065 132.56060791 0.7730256319 79.825523376  -999.250000 0.7869967818
 1464.8835449 5.0000000000 17.620000839 0.0049999999 0.4681000113 2.0899999142 6.3600001335 66.637420654 135.83514404 0.7809935808 80.610420227  -999.250000 0.7860865593
 1465.0358887 5.0000000000 17.556999207 0.0070000002 0.4536800086 2.0899999142 6.6259999275 70.500801086 142.76496887 0.7789551616 80.121528625  -999.250000 0.8130769134
 1465.1882324 6.0000000000 17.586000443 0.0089999996 0.4479999840 2.0929999352 5.9759998322 70.755111694 145.05670166 0.7649879456 80.597038269  -999.250000 0.8370168209
 1465.3406982 6.0000000000 17.476999283 0.0089999996 0.4492999911 2.0969998837 5.4590001106 72.878807068 144.70791626 0.7600095868 80.611221313  -999.250000 0.8439839482
 1465.4930420 6.0000000000 17.349000931 0.0060000001 0.4448199868 2.0989999771 5.1389999390 74.075775146 143.31884766 0.7629951835 80.370643616  -999.250000 0.8389855623
 1465.6455078 6.0000000000 17.444999695 0.0000000000 0.4320500195 2.0950000286 5.4930000305 79.395614624 142.15547180 0.7609807849 80.635925293  -999.250000 0.8330128193
 1465.7978516 6.0000000000 17.391000748 -0.003000000 0.4435200095 2.0889999866 6.0139999390 85.802787781 142.10740662 0.7549903989 80.612640381  -999.250000 0.8370000124
 1465.9503174 6.0000000000 17.205999374 0.0010000000 0.4694800079 2.0810000896 6.1669998169 81.549591064 140.94493103 0.7510223985 80.877220154  -999.250000 0.8369455934
 1466.1026611 5.0000000000 17.224000931 0.0040000002 0.4672000110 2.0620000362 6.5120000839 77.356521606 140.94290161 0.7580072284 80.634841919  -999.250000 0.8199399114
 1466.2551270 5.0000000000 17.378000259 0.0030000000 0.4662300050 2.0439999104 6.2490000725 69.684402466 143.17285156 0.7610256076 80.151145935  -999.250000 0.7949359417
 1466.4074707 5.0000000000 17.367000580 0.0030000000 0.4483900070 2.0539999008 6.7800002098 68.562400818 146.69392395 0.7690095901 79.884140015  -999.250000 0.7750048041
 1466.5599365 6.0000000000 17.215999603 0.0040000002 0.4948799908 2.0920000076 6.5469999313 68.330429077 149.92530823 0.7730352879 79.114456177  -999.250000 0.7771602869
 1466.7122803 6.0000000000 17.187999725 0.0120000001 0.4910300076 2.1389999390 5.9000000954 73.754005432 147.30554199 0.7840288281 79.877250671  -999.250000 0.8272145987
 1466.8647461 6.0000000000 17.382999420 0.0160000008 0.4964199960 2.1530001163 5.2579998970 74.996192932 141.24992371 0.7930640578 79.643119812  -999.250000 0.8940256238
 1467.0170898 6.0000000000 17.538999557 0.0109999999 0.4442800283 2.1380000114 5.2500000000 73.795387268 135.91557312 0.8129711747 79.370056152  -999.250000 0.9018751383
 1467.1694336 5.0000000000 17.836000443 0.0030000000 0.4327799976 2.1150000095 6.1710000038 68.315704346 132.13932800 0.8040601015 79.384742737  -999.250000 0.8629278541
 1467.3218994 5.0000000000 17.773000717 0.0070000002 0.4566199780 2.1110000610 6.7849998474 69.454414368 135.10986328 0.8289679885 78.865127563  -999.250000 0.8331024647
 1467.4742432 6.0000000000 17.607000351 0.0120000001 0.4764799774 2.1080000401 6.9130001068 74.561950684 139.61169434 0.8189687729 79.839614868  -999.250000 0.8649904132
 1467.6267090 6.0000000000 17.604000092 0.0140000004 0.5291299820 2.0989999771 6.6160001755 74.126197815 140.87561035 0.8059999943 80.097724915  -999.250000 0.8609839678
 1467.7789307 6.0000000000 17.440000534 0.0130000003 0.5207499862 2.0829999447 6.5380001068 74.495590210 142.72969055 0.8059967756 80.322998047  -999.250000 0.8559631705
 1467.9313965 6.0000000000 17.496999741 0.0140000004 0.4995900095 2.0820000172 6.6389999390 71.763359070 144.18798828 0.8039687872 80.323020935  -999.250000 0.8330384493
 1468.0837402 6.0000000000 17.358999252 0.0179999992 0.4537400007 2.0969998837 6.5329999924 77.311203003 144.85211182 0.7909888029 80.331878662  -999.250000 0.8490352631
 1468.2362061 6.0000000000 17.589000702 0.0160000008 0.4481600225 2.1129999161 6.0100002289 76.187705994 144.63639832 0.7839927673 80.877342224  -999.250000 0.8710095882
 1468.3885498 6.0000000000 17.718999863 0.0099999998 0.4389599860 2.1180000305 5.4340000153 76.055389404 143.69583130 0.7809872031 80.605415344  -999.250000 0.8749663234
 1468.5408936 6.0000000000 17.787000656 0.0099999998 0.4492300153 2.1210000515 5.1380000114 71.320312500 143.49746704 0.7729759812 80.861221313  -999.250000 0.8539695144
 1468.6933594 6.0000000000 17.861999512 0.0109999999 0.4329200089 2.1210000515 5.0029997826 75.877250671 141.94750977 0.7579663992 80.379219055  -999.250000 0.8349615335
 1468.8457031 6.0000000000 17.732000351 0.0289999992 0.4328599870 2.1419999599 5.0040001869 76.811500549 141.97317505 0.7440016270 80.886024475  -999.250000 0.8189839721
 1468.9981689 6.0000000000 17.663999557 0.0359999985 0.4291099906 2.1480000019 5.1350002289 75.864341736 141.92633057 0.7450168133 80.902053833  -999.250000 0.8089951873
 1469.1505127 6.0000000000 17.604000092 0.0260000005 0.4286299944 2.1289999485 5.3130002022 71.445816040 141.43345642 0.7520272136 80.925430298  -999.250000 0.8070032001
