# LAS format log file from PETREL
# Project units are specified as depth units
#==================================================================
~Version information
VERS.   2.0:
WRAP.   NO:
#==================================================================
~Well
STRT .m      399.05941772 :
STOP .m      2436.9521484 :
STEP .m     0.00000000 :
NULL .        -999.250000 :
COMP.           : COMPANY
WELL.  31/2-1   : WELL
FLD.            : FIELD
LOC.            : LOCATION
SRVC.           : SERVICE COMPANY
DATE.  2018-09-11 14:48:32   : Log Export Date {yyyy-MM-dd HH:mm:ss}
PROV.           : PROVINCE
UWI.   31/2-1   : UNIQUE WELL ID
API.            : API NUMBER
#==================================================================
~Curve
DEPT .m                   : DEPTH
Lithology_geolink ._      : Lithology_geolink
CALI .in                  : CALI
BS .in                    : BS
DRHO .g/cm3               : DRHO
NPHI .m3/m3               : NPHI
RHOB .g/cm3               : RHOB
GR .gAPI                  : GR
DTC .us/ft                : DTC
DTE .us/ft                : DTE
RDEP .ohm.m               : RDEP
SP .mV                    : SP
RSHA .ohm.m               : RSHA
RMED .ohm.m               : RMED
~Parameter
#==================================================================
~Ascii
# ...
 2430.8562012  -999.250000 7.6695756912 8.5000000000 0.0530208312 0.4527018964 2.4683349133 37.341400146 91.125686646  -999.250000 2.0922501087 71.917312622 2.1738979816 2.1738979816
 2431.0085449  -999.250000 7.8419518471 8.5000000000 0.0358223990 0.4539001882 2.4274346828 37.333602905 91.123756409  -999.250000 1.9208467007 71.782958984 2.1607213020 2.1607213020
 2431.1608887  -999.250000 8.0718231201 8.5000000000 0.0262564104 0.4539999068 2.4114325047 37.370708466 91.121818542  -999.250000 1.8389520645 71.557640076 2.1475372314 2.1475372314
 2431.3132324  -999.250000 8.1031103134 8.5000000000 0.0258429497 0.4538995028 2.4214737415 37.426757813 91.119911194  -999.250000 1.7861865759 71.560180664 2.1343321800 2.1343321800
 2431.4658203  -999.250000 8.0212774277 8.5000000000 0.0167099349 0.4534007013 2.4124009609 37.482978821 91.117973328  -999.250000 1.7855080366 71.640335083 2.1213300228 2.1213300228
 2431.6181641  -999.250000 8.0052585602 8.5000000000 0.0242900643 0.4539004862 2.4131908417 37.538997650 91.116050720  -999.250000 1.7903921604 71.726379395 2.1245946884 2.1245946884
 2431.7705078  -999.250000 7.6017284393 8.5000000000 0.0276864003 0.4542002082 2.4089000225 37.595027924 91.114128113  -999.250000 1.7952851057 71.895652771 2.1278908253 2.1278908253
 2431.9228516  -999.250000 7.6484451294 8.5000000000 0.0254711546 0.4545004964 2.3978018761 37.651149750 91.112167358  -999.250000 1.8000872135 72.084014893 2.1311917305 2.1311917305
 2432.0754395  -999.250000 7.5909147263 8.5000000000 0.0292227566 0.4550007880 2.3807768822 37.707908630 91.110260010  -999.250000 1.8049969673 72.284278870 2.1345980167 2.1345980167
 2432.2277832  -999.250000 7.3039884567 8.5000000000 0.0223990381 0.4555994868  -999.250000 38.170021057 91.109626770  -999.250000 1.8098989725 72.385017395 2.1378989220 2.1378989220
 2432.3801270  -999.250000 7.0051579475 8.5000000000 0.0066656000 0.4553022981  -999.250000 40.048759460 91.110298157  -999.250000 1.8146933317 72.308815002 2.1411957741 2.1411957741
 2432.5324707  -999.250000 6.8409337997 8.5000000000 0.0149583342 0.4563913941  -999.250000 42.993198395 91.110977173  -999.250000 1.8195850849 71.566757202 2.1444907188 2.1444907188
 2432.6850586  -999.250000 6.7634057999 8.5000000000 0.0127772437 0.4462003112  -999.250000 42.984748840 91.111656189  -999.250000 1.8228950500 70.534782410 2.1477971077 2.1477971077
 2432.8374023  -999.250000 6.6858048439 8.5000000000 0.0136891026 0.4464038014  -999.250000 42.909030914 91.112342834  -999.250000 1.8238999844 69.496101379 2.1508960724 2.1508960724
 2432.9897461  -999.250000 6.6257162094 8.5000000000 0.0199024007 0.4487935901  -999.250000 42.833221436 91.113006592  -999.250000 1.8248984814 68.124671936 2.1519982815 2.1519982815
 2433.1420898  -999.250000 6.5824689865  -999.250000 0.0201570503 0.4454993010  -999.250000 42.757411957 91.113677979  -999.250000 1.8257975578 65.881134033 2.1530973911 2.1530973911
 2433.2944336  -999.250000 6.5392532349  -999.250000 0.0140993595 0.4444937110  -999.250000 42.681491852 91.114372253  -999.250000 1.8267974854 66.498832703 2.1542971134 2.1542971134
 2433.4470215  -999.250000 6.4959373474  -999.250000 0.0062435898 0.4387013018  -999.250000 42.605678558 91.115051270  -999.250000 1.8276879787 67.659767151 2.1554000378 2.1554000378
 2433.5993652  -999.250000 6.4527206421  -999.250000 0.0041554486 0.4395988882  -999.250000 42.630031586 91.115730286  -999.250000 1.8207761049 68.111152649 2.1564984322 2.1564984322
 2433.7517090  -999.250000 6.4095940590  -999.250000 0.0031568001 0.4389994144  -999.250000 43.676219940 91.116401672  -999.250000 1.7944781780 68.239402771 2.1575963497 2.1575963497
 2433.9040527  -999.250000 6.3986258507  -999.250000 0.0021570513 0.4379988909  -999.250000 42.929981232 91.117088318  -999.250000 1.7679684162 68.358322144 2.1587970257 2.1587970257
 2434.0566406  -999.250000 6.4254360199  -999.250000 0.0020000001 0.4368934035  -999.250000 43.346321106 91.117759705  -999.250000 1.7415159941 68.637626648 2.1598989964 2.1598989964
 2434.2089844  -999.250000 6.4523148537  -999.250000 0.0053782053 0.4320057929  -999.250000 42.038299561 91.118423462  -999.250000 1.7150059938 69.020111084 2.1610000134 2.1610000134
 2434.3613281  -999.250000 6.4613962173  -999.250000 0.0076864003 0.4354003966  -999.250000 42.874740601 91.119117737  -999.250000 1.6887042522 69.417861938 2.1621062756 2.1621062756
 2434.5136719  -999.250000 6.4531941414  -999.250000 0.0088429488 0.4363000989  -999.250000 42.090213776 91.119796753  -999.250000 1.7102502584 69.815856934 2.1846406460 2.1846406460
 2434.6662598  -999.250000 6.4450893402  -999.250000 0.0098445509 0.4364027977  -999.250000 42.218189240 91.120468140  -999.250000 1.7432760000 70.183303833 2.2105801105 2.2105801105
 2434.8186035  -999.250000 6.4369874001  -999.250000 0.0116891023 0.4387100935  -999.250000 42.586841583 91.121147156  -999.250000 1.7767930031 70.437774658 2.2364900112 2.2364900112
 2434.9709473  -999.250000 6.4287910461  -999.250000 0.0212751999 0.4451124966  -999.250000 42.054615021 91.121818542  -999.250000 1.8144825697 70.936897278 2.2623574734 2.2623574734
 2435.1232910  -999.250000 6.4242005348  -999.250000 0.0111987172  -999.250000  -999.250000 40.219326019 91.122520447  -999.250000 1.8756259680 73.271232605 2.2882745266 2.2882745266
 2435.2758789  -999.250000 6.4239001274  -999.250000 0.0022435896  -999.250000  -999.250000 39.215240479 91.123176575  -999.250000 1.9377369881 73.548332214 2.3836359978 2.3836359978
 2435.4282227  -999.250000 6.4236998558  -999.250000 0.0035336539  -999.250000  -999.250000 39.483329773 91.123863220  -999.250000 2.2972528934 75.328285217 2.4993450642 2.4993450642
 2435.5805664  -999.250000 6.4233999252  -999.250000 0.0056864000  -999.250000  -999.250000 41.647781372 91.124526978  -999.250000 2.9670176506 78.601341248 2.7680153847 2.7680153847
 2435.7329102  -999.250000 6.4231996536  -999.250000 0.0076858979  -999.250000  -999.250000 41.759902954 91.125213623  -999.250000 3.6375033855 83.301834106 3.4900827408 3.4900827408
 2435.8852539  -999.250000 6.4229998589  -999.250000 0.0400320515  -999.250000  -999.250000 42.079189301 91.125900269  -999.250000 4.1567344666 92.180274963 4.1472902298 4.1472902298
 2436.0378418  -999.250000 6.4226994514  -999.250000 0.1076522470  -999.250000  -999.250000 42.416030884 91.126556396  -999.250000 1.0724780560 104.46133423 2.6565659046 2.6565659046
 2436.1901855  -999.250000 6.4225001335  -999.250000 0.0151201924  -999.250000  -999.250000 42.188007355 91.127250671  -999.250000 0.9514008164 134.36067200 1.0031746626 1.0031746626
 2436.3425293  -999.250000 6.4222002029  -999.250000 -0.004000000  -999.250000  -999.250000 42.238170624 91.127929688  -999.250000 0.9401395917 142.12579346 0.9905321598 0.9905321598
 2436.4948730  -999.250000 6.4220004082  -999.250000 -0.004000000  -999.250000  -999.250000 28.378326416 91.128608704  -999.250000 0.9411006570 142.72283936 0.9965841770 0.9965841770
 2436.6474609  -999.250000 6.4218001366  -999.250000 -0.004000000  -999.250000  -999.250000 0.4815522134 91.129287720  -999.250000 0.9460961223 142.69625854 1.0035949945 1.0035949945
 2436.7998047  -999.250000 6.4214997292  -999.250000 -0.003155449  -999.250000  -999.250000 0.3247851133 91.129951477  -999.250000 0.9509981275 142.63818359 1.0105969906 1.0105969906
 2436.9521484  -999.250000 6.4212999344  -999.250000 -0.003000000  -999.250000  -999.250000 0.3785133064 91.130699158  -999.250000 0.9558920264 142.58020020 1.0174889565 1.0174889565
