# LAS format log file from PETREL
# Project units are specified as depth units
#==================================================================
~Version information
VERS.   2.0:
WRAP.   NO:
#==================================================================
~Well
STRT .m      326.13598633 :
STOP .m      1938.6804199 :
STEP .m     0.00000000 :
NULL .        -999.250000 :
COMP.           : COMPANY
WELL.  31/2-17 A   : WELL
FLD.            : FIELD
LOC.            : LOCATION
SRVC.           : SERVICE COMPANY
DATE.  2018-09-11 14:48:33   : Log Export Date {yyyy-MM-dd HH:mm:ss}
PROV.           : PROVINCE
UWI.   31/2-17 A   : UNIQUE WELL ID
API.            : API NUMBER
#==================================================================
~Curve
DEPT .m                   : DEPTH
Lithology_geolink ._      : Lithology_geolink
CALI .in                  : CALI
DRHO .g/cm3               : DRHO
RHOB .g/cm3               : RHOB
GR .gAPI                  : GR
DTC .us/ft                : DTC
RDEP .ohm.m               : RDEP
RMED .ohm.m               : RMED
~Parameter
#==================================================================
~Ascii
# ...
 1714.8048096 1.0000000000 8.3828001022 -0.019500000 2.2200000286 45.168598175 152.25840759 168.12480164 206.82159424
 1714.9571533 1.0000000000 8.3828001022 -0.024000000 2.2200000286 50.306999207 152.25840759 161.17219543 210.10110474
 1715.1096191 1.0000000000 8.3828001022 -0.028500000 2.2200000286 48.637901306 152.25840759 155.78030396 213.00610352
 1715.2619629 1.0000000000 8.3828001022 -0.028400000 2.2200000286 48.278499603 152.25840759 158.56739807 195.24659729
 1715.4144287 1.0000000000 8.3828001022 -0.025200000 2.2200000286 45.334201813 152.25840759 163.47059631 199.30700684
 1715.5667725 1.0000000000 8.3828001022 -0.023100000 2.2200000286 46.981201172 152.25840759 164.08729553 218.66799927
 1715.7192383 1.0000000000 8.3828001022 -0.019300001 2.2200000286 48.772300720 152.25840759 167.40960693 195.68530273
 1715.8715820 1.0000000000 8.3828001022 -0.018999999 2.2200000286 49.899501801 152.25840759 178.50360107 173.82209778
 1716.0240479 1.0000000000 8.3828001022 -0.020400001 2.2200000286 54.551399231 152.25840759 175.23770142 176.23789978
 1716.1763916 1.0000000000 8.3828001022 -0.020500001 2.2200000286 55.212001801 152.25840759 171.12510681 179.12089539
 1716.3288574 1.0000000000 8.3828001022 -0.018700000 2.2200000286 55.110500336 152.25840759 167.26820374 181.09449768
 1716.4812012 1.0000000000 8.3828001022 -0.024100000 2.2200000286 54.824298859 152.25840759 170.94230652 161.12539673
 1716.6336670 1.0000000000 8.3828001022 -0.024000000 2.2200000286 55.755199432 152.25840759 169.47839355 155.38710022
 1716.7860107 1.0000000000 8.3828001022 -0.024400000 2.2200000286 53.592300415 152.25840759 167.17050171 157.66059875
 1716.9383545 2.0000000000 8.3828001022 -0.019600000 2.2200000286 49.875400543 152.25840759 162.66709900 153.50999451
 1717.0908203 2.0000000000 8.3828001022 -0.019400002 2.2200000286 51.132400513 152.25840759 162.59750366 138.90310669
 1717.2431641 2.0000000000 8.3906002045 -0.019500000 2.2200000286 53.735000610 152.25840759 151.04589844 138.90269470
 1717.3956299 2.0000000000 8.3828001022 -0.018600000 2.2200000286 55.236900330 152.25840759 136.61540222 132.28129578
 1717.5479736 2.0000000000 8.3828001022 -0.011700000 2.2200000286 56.272300720 152.25840759 118.27629852 108.74870300
 1717.7004395 2.0000000000 8.3906002045 -0.007100000 2.2200000286 57.795898438 152.25840759 101.18199921 95.360397339
 1717.8527832 2.0000000000 8.3906002045 -0.009000000 2.2200000286 58.391399384 152.25840759 102.24099731 75.599800110
 1718.0052490 2.0000000000 8.3984003067 -0.017600000 2.2200000286 56.484199524 152.25840759 112.41390228 80.710502625
 1718.1575928 2.0000000000 8.3828001022 -0.025900001 2.2200000286 53.657001495 152.25840759 109.62509918 89.464103699
 1718.3100586 2.0000000000 8.3828001022 -0.026500000 2.2200000286 50.993598938 152.25840759 106.84239960 108.08529663
 1718.4624023 2.0000000000 8.3828001022 -0.027500000 2.2200000286 50.134799957 152.25840759 118.34200287 121.11360168
 1718.6148682 1.0000000000 8.3828001022 -0.028500000 2.2200000286 49.421100616 152.25840759 155.09719849 152.59840393
 1718.7672119 1.0000000000 8.3828001022 -0.027799999 2.2200000286 48.513500214 152.25840759 191.53709412 201.58189392
 1718.9195557 1.0000000000 8.3828001022 -0.032299999 2.2200000286 44.278999329 152.25840759 243.40879822 227.30090332
 1719.0720215 1.0000000000 8.3828001022 -0.032099999 2.2200000286 46.515098572 152.25840759 283.27938843 239.22790527
 1719.2243652 1.0000000000 8.3828001022 -0.032600001 2.2200000286 49.296298981 152.25840759 280.36520386 257.22570801
 1719.3768311 1.0000000000 8.3828001022 -0.027600000 2.2200000286 47.341201782 152.25840759 272.42248535 273.55520630
 1719.5291748 1.0000000000 8.3828001022 -0.026000001 2.2200000286 44.268398285 152.25840759 276.32528687 255.75050354
 1719.6816406 1.0000000000 8.4531002045 -0.019600000 2.2200000286 42.430400848 152.25840759 275.93899536 245.68580627
 1719.8339844 1.0000000000 8.5234003067 -0.026500000 2.2200000286 45.544300079 152.25840759 287.12658691 279.23709106
 1719.9864502 1.0000000000 8.5234003067 -0.027100001 2.2200000286 45.798099518 152.25840759 274.25170898 268.79031372
 1720.1387939 1.0000000000 8.5234003067 -0.033500001 2.2200000286 44.419300079 152.25840759 295.69781494 232.02900696
 1720.2912598 1.0000000000 8.5234003067 -0.029700000 2.2200000286 44.442100525 152.25840759 295.30279541 275.49508667
 1720.4436035 1.0000000000 8.5234003067 -0.030500000 2.2200000286 44.965400696 152.25840759 309.66641235 299.57901001
 1720.5960693 1.0000000000 8.5234003067 -0.023399999 2.2200000286 41.757099152 152.25840759 313.56658936 308.13449097
 1720.7484131 1.0000000000 8.5234003067 -0.021400001 2.2200000286 39.482700348 152.25840759 283.76168823 248.90519714
 1720.9008789 1.0000000000 8.5234003067 -0.021700000 2.2200000286 37.922500610 152.25840759 276.31369019 256.70590210
 1721.0532227 1.0000000000 8.5234003067 -0.023000000 2.2200000286 41.903099060 152.25840759 298.58999634 224.48800659
 1721.2055664 1.0000000000 8.5234003067 -0.024599999 2.2200000286 41.965198517 152.25840759 255.45179749 278.29989624
 1721.3580322 1.0000000000 8.5234003067 -0.024200000 2.2200000286 39.841098785 152.25840759 291.93798828 277.20520020
 1721.5103760 1.0000000000 8.5234003067 -0.025699999 2.2200000286 39.133800507 152.25840759 292.92849731 258.60360718
 1721.6628418 1.0000000000 8.5234003067 -0.018300001 2.2200000286 38.476699829 152.25840759 275.61129761 242.67439270
 1721.8151855 1.0000000000 8.5234003067 -0.017800000 2.2200000286 40.721599579 152.25840759 255.13160706 232.00230408
 1721.9676514 1.0000000000 8.5234003067 -0.018900000 2.2200000286 37.016899109 152.25840759 274.33990479 226.59539795
 1722.1199951 1.0000000000 8.5234003067 -0.022399999 2.2200000286 37.895099640 152.25840759 268.99618530 258.73709106
 1722.2724609 1.0000000000 8.5234003067 -0.023600001 2.2200000286 37.099201202 152.25840759 269.64230347 255.70719910
 1722.4248047 1.0000000000 8.5234003067 -0.030700000 2.2200000286 38.252799988 152.25840759 260.76629639 271.01919556
 1722.5772705 1.0000000000 8.5234003067 -0.032000002 2.2200000286 37.144001007 152.25840759 266.08020020 266.28588867
 1722.7296143 1.0000000000 8.5234003067 -0.032299999 2.2200000286 37.231800079 152.25840759 252.59489441 281.89941406
 1722.8820801 1.0000000000 8.5234003067 -0.032200001 2.2200000286 39.820598602 152.25840759 241.87330627 236.75720215
 1723.0344238 1.0000000000 8.5234003067 -0.028700000 2.2200000286 41.082599640 152.25840759 248.62519836 201.46859741
 1723.1867676 1.0000000000 8.5234003067 -0.021600001 2.2200000286 43.561500549 152.25840759 228.21090698 189.15519714
 1723.3392334 1.0000000000 8.5234003067 -0.024400000 2.2200000286 46.583599091 152.25840759 234.42999268 231.62919617
 1723.4915771 1.0000000000 8.5234003067 -0.027700000 2.2200000286 49.831199646 152.25840759 221.33959961 214.52029419
 1723.6440430 1.0000000000 8.5234003067 -0.027000001 2.2200000286 49.807399750 152.25840759 199.60820007 181.79899597
 1723.7963867 1.0000000000 8.5234003067 -0.026699999 2.2200000286 48.700698853 152.25840759 191.55969238 167.87330627
 1723.9488525 1.0000000000 8.3984003067 -0.028400000 2.2200000286 47.741100311 152.25840759 184.98559570 151.67539978
 1724.1011963 1.0000000000 8.3828001022 -0.024700001 2.2200000286 49.737300873 152.25840759 157.59620667 157.74749756
 1724.2536621 1.0000000000 8.3828001022 -0.020199999 2.2200000286 51.277099609 152.25840759 161.38819885 146.35530090
 1724.4060059 1.0000000000 8.3828001022 -0.019099999 2.2200000286 50.688301086 152.25840759 155.61880493 141.92500305
 1724.5584717 1.0000000000 8.3828001022 -0.021199999 2.2200000286 47.814399719 152.25840759 145.72279358 156.16209412
 1724.7108154 1.0000000000 8.3828001022 -0.020000000 2.2200000286 47.171798706 152.25840759 138.72599792 128.02609253
 1724.8632813 1.0000000000 8.3828001022 -0.020600000 2.2200000286 50.786201477 152.25840759 130.71249390 101.90249634
 1725.0156250 1.0000000000 8.3828001022 -0.021100000 2.2200000286 54.144500732 152.25840759 110.32669830 99.964401245
