# LAS format log file from PETREL
# Project units are specified as depth units
#==================================================================
~Version information
VERS.   2.0:
WRAP.   NO:
#==================================================================
~Well
STRT .m      443.33587646 :
STOP .m      1778.0548096 :
STEP .m     0.00000000 :
NULL .        -999.250000 :
COMP.           : COMPANY
WELL.  31/2-9   : WELL
FLD.            : FIELD
LOC.            : LOCATION
SRVC.           : SERVICE COMPANY
DATE.  2018-09-11 14:48:35   : Log Export Date {yyyy-MM-dd HH:mm:ss}
PROV.           : PROVINCE
UWI.   31/2-9   : UNIQUE WELL ID
API.            : API NUMBER
#==================================================================
~Curve
DEPT .m                   : DEPTH
Lithology_geolink ._      : Lithology_geolink
CALI .in                  : CALI
DRHO .g/cm3               : DRHO
SGR .gAPI                 : SGR
NPHI .m3/m3               : NPHI
RHOB .g/cm3               : RHOB
PEF .b/e                  : PEF
GR .gAPI                  : GR
DTC .us/ft                : DTC
RDEP .ohm.m               : RDEP
SP .mV                    : SP
RSHA .ohm.m               : RSHA
RMED .ohm.m               : RMED
~Parameter
#==================================================================
~Ascii
# ...
 711.55987549  -999.250000 15.407999992 0.0220072083  -999.250000 0.4379962385 2.1990015507 24.148027420 40.717548370 121.56416321 3.1330118179 74.396949768 2.4180247784 2.4180247784
 711.71228027  -999.250000 14.899999619 0.0110044051  -999.250000 0.4172183275 2.2009992599 13.527252197 38.905921936 123.00319672 3.1480159760 74.529945374 2.4490487576 2.4490487576
 711.86462402  -999.250000 14.866000175 0.0219911896  -999.250000 0.3966165185 2.2399687767 10.369527817 38.815101624 126.99949646 3.1680083275 74.628921509 2.5100040436 2.5100040436
 712.01702881  -999.250000 14.890000343 0.0419839807  -999.250000 0.3782747090 2.2889606953 11.038461685 44.063148499 125.74792480 3.1890006065 74.673965454 2.5199952126 2.5199952126
 712.16943359  -999.250000 14.791999817 0.0639823824  -999.250000 0.3764514625 2.3219735622 9.1265335083 44.440002441 120.56325531 3.1910016537 74.718963623 2.5079779625 2.5079779625
 712.32183838  -999.250000 15.037999153 0.0450076126  -999.250000 0.3831472993 2.2770180702 8.0704221725 49.436260223 121.18712616 3.1950016022 74.789970398 2.4529983997 2.4529983997
 712.47424316  -999.250000 15.050000191 0.0340044089  -999.250000 0.3868185282 2.2230217457 8.8746776581 45.094913483 118.99949646 3.1989958286 75.067886353 2.4490079880 2.4490079880
 712.62664795  -999.250000 15.029999733 0.0320008025  -999.250000 0.3874297738 2.1740195751 12.818419456 47.373535156 117.75144958 3.1889994144 75.344886780 2.4689984322 2.4689984322
 712.77905273  -999.250000 15.220999718 0.0499927923  -999.250000 0.4085715413 2.1799976826 15.304004669 43.718299866 121.37467194 3.1880059242 75.622886658 2.4649975300 2.4649975300
 712.93145752  -999.250000 15.288000107 0.0450020060  -999.250000 0.4473644495 2.1760017872 10.985731125 41.968502045 120.56253052 3.2030041218 75.508049011 2.4589920044 2.4589920044
 713.08386230  -999.250000 15.290000916 0.0420012027  -999.250000 0.4577658176 2.1969916821 10.664127350 40.718124390 119.37555695 3.2130017281 75.313079834 2.4390063286 2.4390063286
 713.23626709  -999.250000 15.225999832 0.0210084096  -999.250000 0.4562106133 2.1820058823 7.8561248779 38.532363892 120.74904633 3.2169983387 75.117073059 2.4550039768 2.4550039768
 713.38867188  -999.250000 15.319000244 0.0140028037  -999.250000 0.4459840655 2.1879975796 7.7500419617 41.938274384 118.37419891 3.2130031586 74.811119080 2.4650199413 2.4650199413
 713.54107666  -999.250000 15.182999611 0.0259951949  -999.250000 0.4223794341 2.1989955902 7.5820670128 42.278495789 117.37289429 3.2169983387 74.415161133 2.4899735451 2.4899735451
 713.69348145  -999.250000 15.122999191 0.0429931916  -999.250000 0.3999190032 2.2189919949 11.623380661 39.156650543 114.75064850 3.2150080204 74.018157959 2.4570441246 2.4570441246
 713.84582520  -999.250000 15.100999832 0.0539911911  -999.250000 0.4028476477 2.2170016766 12.007693291 39.970417023 115.56398010 3.2249999046 73.853126526 2.5120093822 2.5120093822
 713.99822998  -999.250000 15.072999954 0.0450072102  -999.250000 0.4097744524 2.2170000076 6.1686806679 43.502326965 117.99934387 3.2250015736 74.317626953 2.5350124836 2.5350124836
 714.15063477  -999.250000 15.057999611 0.0140248304  -999.250000 0.4044243097 2.1970160007 4.5243139267 49.311599731 116.37605286 3.2290000916 74.782623291 2.5659947395 2.5659947395
 714.30303955  -999.250000 14.817000389 0.0100016026  -999.250000 0.3947139084 2.2069959641 4.0781784058 45.810882568 118.99829865 3.2290012836 75.248817444 2.5529770851 2.5529770851
 714.45544434  -999.250000 14.694000244 0.0080008013  -999.250000 0.3918011785 2.2050006390 5.2375354767 40.530097961 114.75119781 3.2320001125 75.187019348 2.4959983826 2.4959983826
 714.60784912  -999.250000 14.767999649 0.0199951939  -999.250000 0.3981074691 2.2169952393 4.7032141685 38.281398773 117.75072479 3.2319989204 75.119033813 2.4920041561 2.4920041561
 714.76025391  -999.250000 14.833001137 0.0130028035  -999.250000 0.4029280543 2.2070040703 4.8589377403 39.283138275 119.56237793 3.2289960384 75.050033569 2.5020117760 2.5020117760
 714.91265869  -999.250000 14.937999725 0.0130000003  -999.250000 0.4002810717 2.2109982967 4.0083408356 44.625686646 117.99926758 3.2189960480 74.865074158 2.5309998989 2.5309998989
 715.06506348  -999.250000 14.942001343 0.0090016015  -999.250000 0.4040784836 2.2050023079 4.2189154625 46.344825745 116.18872833 3.2089960575 74.631088257 2.5309867859 2.5309867859
 715.21746826  -999.250000 14.990000725 0.0089999996  -999.250000 0.4098676741 2.2069993019 3.4693005085 48.404045105 117.99989319 3.1990015507 74.396095276 2.4979927540 2.4979927540
 715.36987305  -999.250000 15.088000298 0.0099995993  -999.250000 0.4103398323 2.2050006390 3.3670408726 43.530471802 117.75025177 3.2030000687 74.259056091 2.4799916744 2.4799916744
 715.52227783  -999.250000 15.149999619 0.0080008013  -999.250000 0.3993244171 2.2049999237 3.2150607109 42.221179962 118.37755585 3.2030017376 74.250999451 2.4590129852 2.4590129852
 715.67468262  -999.250000 15.345000267 0.0129979979  -999.250000 0.3860953152 2.2209935188 3.1890103817 44.939151764 121.56191254 3.2049999237 74.244003296 2.4749934673 2.4749934673
 715.82696533  -999.250000 15.237999916 0.0070072087  -999.250000 0.3859501779 2.2289905548 3.3178451061 46.375000000 120.18799591 3.2049999237 74.282951355 2.4670000076 2.4670000076
 715.97937012  -999.250000 15.265000343 0.0070000002  -999.250000 0.3968369365 2.2359917164 3.8154015541 47.719001770 120.00000000 3.1989998817 74.594627380 2.4839999676 2.4839999676
 716.13177490  -999.250000 15.479000092 0.0060012015  -999.250000 0.4096645713 2.2340023518 5.2482771873 46.405998230 116.18800354 3.1879999638 74.906623840 2.5079998970 2.5079998970
 716.28417969  -999.250000 15.340000153 0.0109939929  -999.250000 0.4153731167 2.2320024967 6.0650196075 48.655998230 118.18800354 3.1860001087 75.218627930 2.5269999504 2.5269999504
 716.43658447  -999.250000 15.157999992 0.0219911858  -999.250000 0.4101741612 2.2379951477 6.0510120392 50.000000000 119.00000000 3.1779999733 75.512763977 2.5269999504 2.5269999504
 716.58898926  -999.250000 15.286000252 0.0239983983  -999.250000 0.4081915915 2.2360017300 4.8919286728 48.312999725 119.56300354 3.1779999733 75.803764343 2.4939999580 2.4939999580
 716.74139404  -999.250000 15.598999977 0.0200032033  -999.250000 0.4184018075 2.2290058136 6.0930361748 48.312999725 120.56300354 3.1800000668 76.094764709 2.4920001030 2.4920001030
 716.89379883  -999.250000 15.102998734 0.0140048061  -999.250000 0.4303703904 2.2230048180 5.8092284203 45.219001770 119.18800354 3.1719999313 75.930130005 2.4769999981 2.4769999981
 717.04620361  -999.250000 15.059000015 0.0010104126  -999.250000 0.4402220845 2.2030160427 7.2018833160 48.655998230 117.75000000 3.1619999409 75.437393188 2.4709999561 2.4709999561
 717.19860840  -999.250000 15.104999542 0.0049967961  -999.250000 0.4341148734 2.1970047951 6.1178698540 44.562999725 119.00000000 3.1449999809 74.944396973 2.4549999237 2.4549999237
 717.35101318  -999.250000 15.064000130 0.0010032039  -999.250000 0.4135964811 2.1800136566 7.8306260109 45.000000000 119.37500763 3.1329998970 74.659225464 2.4470000267 2.4470000267
 717.50341797  -999.250000 15.013998985 0.0139895882  -999.250000 0.3932063282 2.1929895878 5.9894766808 43.280998230 119.18800354 3.1070001125 74.850845337 2.4509999752 2.4509999752
 717.65576172  -999.250000 14.908000946 0.0110036042  -999.250000 0.3744724989 2.2029881477 5.2898397446 45.155998230 121.74999237 3.0859999657 75.043769836 2.4489998817 2.4489998817
 717.80816650  -999.250000 14.878999710 0.0139963962  -999.250000 0.3706745505 2.2189807892 4.9384217262 49.155998230 123.75000000 3.0739998817 75.222785950 2.4179999828 2.4179999828
 717.96057129  -999.250000 15.012999535 0.0120024029  -999.250000 0.4051485360 2.2229952812 6.7478227615 46.969001770 125.56300354 3.0739998817 74.775543213 2.3949999809 2.3949999809
 718.11297607  -999.250000 15.250000000 0.0189915895  -999.250000 0.4468099475 2.2150094509 11.150706291 49.062999725 124.56300354 3.0780000687 74.327545166 2.3770000935 2.3770000935
