# LAS format log file from PETREL
# Project units are specified as depth units
#==================================================================
~Version information
VERS.   2.0:
WRAP.   NO:
#==================================================================
~Well
STRT .m      447.54394531 :
STOP .m      3384.4443359 :
STEP .m     0.00000000 :
NULL .        -999.250000 :
COMP.           : COMPANY
WELL.  31/2-8   : WELL
FLD.            : FIELD
LOC.            : LOCATION
SRVC.           : SERVICE COMPANY
DATE.  2018-09-11 14:48:34   : Log Export Date {yyyy-MM-dd HH:mm:ss}
PROV.           : PROVINCE
UWI.   31/2-8   : UNIQUE WELL ID
API.            : API NUMBER
#==================================================================
~Curve
DEPT .m                   : DEPTH
Lithology_geolink ._      : Lithology_geolink
CALI .in                  : CALI
DRHO .g/cm3               : DRHO
SGR .gAPI                 : SGR
NPHI .m3/m3               : NPHI
RHOB .g/cm3               : RHOB
PEF .b/e                  : PEF
GR .gAPI                  : GR
DTC .us/ft                : DTC
RDEP .ohm.m               : RDEP
SP .mV                    : SP
RSHA .ohm.m               : RSHA
RMED .ohm.m               : RMED
~Parameter
#==================================================================
~Ascii
 447.54394531  -999.250000 22.141002655 0.0209999997  -999.250000 0.5942400098 1.4800000191  -999.250000 19.256690979 172.98719788 18.360139847 -11.66257381 0.1640000045 0.1640000045
 447.69635010  -999.250000 22.141002655 0.0199999996  -999.250000 0.6308599710 1.4809999466  -999.250000 19.686363220 172.98719788 26.046655655 -6.542505741 0.1630038023 0.1630038023
 447.84875488  -999.250000 22.141002655 0.0230000000  -999.250000 0.5771499872 1.4819999933  -999.250000 20.567815781 172.98719788 66.836524963 -2.689868689 0.1620036066 0.1620036066
 448.00115967  -999.250000 22.141002655 0.0370000005  -999.250000 0.6406300068 1.4969999790  -999.250000 19.407209396 172.98719788 152.62420654 -0.028576693 0.1620000005 0.1620000005
 448.15356445  -999.250000 22.141002655 0.0430000015  -999.250000 0.6352500319 1.4980000257  -999.250000 18.811140060 172.98719788 155.64019775 1.6370096207 0.1620000005 0.1620000005
 448.30596924  -999.250000 22.141002655 0.0410000011  -999.250000 0.6396499872 1.4960000515  -999.250000 18.284896851 172.98719788 60.156436920 2.3564193249 0.1629963964 0.1629963964
 448.45837402  -999.250000 22.141002655 0.0390000008  -999.250000 0.6372100115 1.4930000305  -999.250000 19.152853012 172.98719788 71.961044312 3.8535935879 0.1630000025 0.1630000025
 448.61074829  -999.250000 22.141002655 0.0379999988  -999.250000 0.5605499744 1.4919999838  -999.250000 20.255800247 172.98719788 812.29870605 5.4459395409 0.1630000025 0.1630000025
 448.76315308  -999.250000 22.141002655 0.0410000011  -999.250000 0.5961899757 1.4919999838  -999.250000 20.497093201 172.98719788 1995.4920654 7.4732804298 0.1639962047 0.1639962047
 448.91555786  -999.250000 22.141002655 0.0379999988  -999.250000 0.5356400013 1.4869999886  -999.250000 20.615573883 172.98719788 2000.0000000 9.3223381042 0.1640000045 0.1640000045
 449.06796265  -999.250000 22.141002655 0.0390000008  -999.250000 0.5805699825 1.4839999676  -999.250000 20.200502396 172.98719788 2000.0000000 9.9836320877 0.1620072126 0.1620072126
 449.22036743  -999.250000 22.141002655 0.0340000018  -999.250000 0.5581099987 1.4789999723  -999.250000 20.073453903 172.98719788 2000.0000000 10.020874023 0.1629963964 0.1629963964
 449.37277222  -999.250000 22.141002655 0.0379999988  -999.250000 0.5639600158 1.4830000401  -999.250000 19.086568832 172.98719788 2000.0000000 8.9947128296 0.1639963984 0.1639963984
 449.52517700  -999.250000 22.141002655 0.0289999992  -999.250000 0.4960900247 1.4789999723  -999.250000 19.017238617 172.98719788 1997.0297852 8.3313865662 0.1630036086 0.1630036086
 449.67755127  -999.250000 22.141002655 0.0370000005  -999.250000 0.4936500192 1.4910000563  -999.250000 18.174219131 172.98719788 1994.9887695 9.1697893143 0.1630000025 0.1630000025
 449.82995605  -999.250000 22.141002655 0.0320000015  -999.250000 0.5249000192 1.4869999886  -999.250000 1.8822084665 172.98719788 1999.9809570 10.447134018 0.1620038003 0.1620038003
 449.98236084  -999.250000 22.141002655 0.0350000001  -999.250000 0.6220700145 1.4869999886  -999.250000 -24.20982170 172.98719788 2000.0000000 12.010361671 0.1620000005 0.1620000005
 450.13473511  -999.250000 22.141002655 0.0270000007  -999.250000 0.5834999681 1.4720000029  -999.250000 -23.30182838 172.98719788 2000.0000000 13.074955940 0.1620000005 0.1620000005
 450.28713989  -999.250000 22.141002655 0.0219999999  -999.250000 0.6044900417 1.4670000076  -999.250000 -5.957225800 172.98719788 2000.0000000 13.826147079 0.1629962027 0.1629962027
 450.43951416  -999.250000 22.141002655 0.0170000009  -999.250000 0.5585899949 1.4630000591  -999.250000 20.920194626 172.98719788 2000.0000000 14.112858772 0.1639959961 0.1639959961
 450.59191895  -999.250000 22.141002655 0.0179999992  -999.250000 0.5922899842 1.4609999657  -999.250000 20.231204987 172.98719788 2000.0000000 12.687734604 0.1659919769 0.1659919769
 450.74432373  -999.250000 22.141002655 0.0179999992  -999.250000 0.5805699825 1.4579999447  -999.250000 18.001951218 172.98719788 2000.0000000 10.714909554 0.1659999937 0.1659999937
 450.89672852  -999.250000 22.141002655 0.0199999996  -999.250000 0.6557599902 1.4559999704  -999.250000 16.204193115 172.98719788 2000.0000000 10.643256187 0.1659999937 0.1659999937
 451.04913330  -999.250000 22.141002655 0.0260000005  -999.250000 0.6767600179 1.4630000591  -999.250000 17.612592697 172.98719788 2000.0000000 10.614110947 0.1659999937 0.1659999937
 451.20153809  -999.250000 22.141002655 0.0340000018  -999.250000 0.6708999872 1.4720000029  -999.250000 20.213088989 172.98719788 2000.0000000 10.208548546 0.1659999937 0.1659999937
 451.35394287  -999.250000 22.141002655 0.0379999988  -999.250000 0.6015599966 1.4769999981  -999.250000 22.261215210 172.98719788 2000.0000000 10.235889435 0.1659999937 0.1659999937
 451.50631714  -999.250000 22.141002655 0.0340000018  -999.250000 0.6083999872 1.4720000029  -999.250000 20.329797745 172.98719788 2000.0000000 10.733997345 0.1659999937 0.1659999937
 451.65872192  -999.250000 22.141002655 0.0209999997  -999.250000 0.5922899842 1.4570000172  -999.250000 18.613868713 172.98719788 2000.0000000 10.956114769 0.1659999937 0.1659999937
 451.81112671  -999.250000 22.141002655 0.0189999994  -999.250000 0.5683599710 1.4490000010  -999.250000 17.486505508 172.98719788 2000.0000000 10.893256187 0.1659999937 0.1659999937
 451.96353149  -999.250000 22.148998260 0.0189999994  -999.250000 0.5268599987 1.4500000477  -999.250000 18.005998611 172.98719788 2000.0000000 11.606275558 0.1669961959 0.1669961959
 452.11593628  -999.250000 22.163000107 0.0280000009  -999.250000 0.5278300047 1.4579999447  -999.250000 18.647556305 172.98719788 2000.0000000 12.175835609 0.1679961979 0.1679961979
 452.26834106  -999.250000 22.141002655 0.0299999993  -999.250000 0.5849599838 1.4630000591  -999.250000 19.653167725 172.98719788 2000.0000000 11.737681389 0.1679999977 0.1679999977
 452.42074585  -999.250000 22.141002655 0.0270000007  -999.250000 0.5903300047 1.4579999447  -999.250000 19.764589310 172.98719788 2000.0000000 12.048805237 0.1670037955 0.1670037955
 452.57312012  -999.250000 22.148998260 0.0179999992  -999.250000 0.5839799643 1.4479999542  -999.250000 19.674364090 172.98719788 2000.0000000 12.327882767 0.1660040021 0.1660040021
 452.72552490  -999.250000 22.163000107 0.0170000009  -999.250000 0.5493199825 1.4459999800  -999.250000 18.214866638 172.98719788 2000.0000000 12.890741348 0.1650040150 0.1650040150
 452.87792969  -999.250000 22.148998260 0.0260000005  -999.250000 0.5722700357 1.4509999752  -999.250000 18.182107925 172.98719788 2000.0000000 13.141998291 0.1650000066 0.1650000066
 453.03033447  -999.250000 22.172000885 0.0309999995  -999.250000 0.5615199804 1.4539999962  -999.250000 18.747838974 172.98719788 2000.0000000 13.392047882 0.1650000066 0.1650000066
 453.18273926  -999.250000 22.172000885 0.0260000005  -999.250000 0.5576199889 1.4479999542  -999.250000 19.711328506 172.98719788 2000.0000000 13.642048836 0.1650000066 0.1650000066
 453.33514404  -999.250000 22.172000885 0.0130000003  -999.250000 0.5205099583 1.4340000153  -999.250000 21.623710632 172.98719788 2000.0000000 14.448922157 0.1650000066 0.1650000066
 453.48754883  -999.250000 22.163000107 0.0109999999  -999.250000 0.5161100030 1.4279999733  -999.250000 20.656721115 172.98719788 2000.0000000 15.917405128 0.1659961939 0.1659961939
 453.63992310  -999.250000 22.148998260 0.0179999992  -999.250000 0.5522499681 1.4309999943  -999.250000 20.072334290 172.98719788 2000.0000000 16.917999268 0.1659999937 0.1659999937
 453.79232788  -999.250000 22.172000885 0.0309999995  -999.250000 0.5966799855 1.4420000315  -999.250000 19.101892471 172.98719788 2000.0000000 18.196872711 0.1669959873 0.1669959873
 453.94473267  -999.250000 22.172000885 0.0309999995  -999.250000 0.5927699804 1.4420000315  -999.250000 20.950551987 172.98719788 2000.0000000 19.295602798 0.1660040021 0.1660040021
 454.09713745  -999.250000 22.172000885 0.0230000000  -999.250000 0.5727500319 1.4349999428  -999.250000 21.838634491 172.98719788 2000.0000000 19.392644882 0.1650038064 0.1650038064
