# LAS format log file from PETREL
# Project units are specified as depth units
#==================================================================
~Version information
VERS.   2.0:
WRAP.   NO:
#==================================================================
~Well
STRT .m      416.08499146 :
STOP .m      2599.3679199 :
STEP .m     0.00000000 :
NULL .        -999.250000 :
COMP.           : COMPANY
WELL.  31/2-2 R   : WELL
FLD.            : FIELD
LOC.            : LOCATION
SRVC.           : SERVICE COMPANY
DATE.  2018-09-11 14:48:33   : Log Export Date {yyyy-MM-dd HH:mm:ss}
PROV.           : PROVINCE
UWI.   31/2-2 R   : UNIQUE WELL ID
API.            : API NUMBER
#==================================================================
~Curve
DEPT .m                   : DEPTH
Lithology_geolink ._      : Lithology_geolink
CALI .in                  : CALI
DRHO .g/cm3               : DRHO
NPHI .m3/m3               : NPHI
RHOB .g/cm3               : RHOB
GR .gAPI                  : GR
DTC .us/ft                : DTC
RDEP .ohm.m               : RDEP
SP .mV                    : SP
RSHA .ohm.m               : RSHA
RMED .ohm.m               : RMED
~Parameter
#==================================================================
~Ascii
# ...
 2304.7785645 5.0000000000 8.0329999924 -0.018999999 0.2711700201 2.3680000305 57.925979614 82.750000000 1.6660000086 44.962001801  -999.250000 1.6380000114
 2304.9311523 16.000000000 8.0389995575 -0.006000000 0.2175799906 2.4570000172 54.200599670 73.563003540 1.5959999561 45.025001526  -999.250000 2.5780000687
 2305.0834961 16.000000000 8.0389995575 0.0209999997 0.2090200037 2.4839999676 56.803581238 71.375000000 1.4789999723 44.712001801  -999.250000 2.7829999924
 2305.2358398 5.0000000000 8.0329999924 0.0399999991 0.2511900067 2.4210000038 53.868591309 73.563003540 1.3680000305 44.837001801  -999.250000 1.8830000162
 2305.3881836 5.0000000000 8.0000000000 0.0160000008 0.3070700169 2.2969999313 51.853969574 83.750000000 1.2569999695 44.275001526  -999.250000 1.1369999647
 2305.5407715 2.0000000000 8.0010004044 -0.001000000 0.3270199895 2.2260000706 45.307437897 93.750000000 1.1160000563 44.212001801  -999.250000 0.8909999728
 2305.6931152 2.0000000000 8.0089998245 -0.014000000 0.3105300069 2.2039999962 44.151649475 95.187995911 0.9350000024 44.462001801  -999.250000 0.8270000219
 2305.8454590 2.0000000000 8.0179996490 -0.004000000 0.3059400022 2.2260000706 43.253204346 93.563003540 0.7699999809 44.900001526  -999.250000 0.8220000267
 2305.9978027 2.0000000000 8.0299997330 -0.003000000 0.2978599966 2.2219998837 44.247497559 93.375000000 0.6539999843 45.337001801  -999.250000 0.8659999967
 2306.1503906 2.0000000000 8.0229997635 0.0020000001 0.3018099964 2.2119998932 43.472457886 93.188003540 0.5970000029 45.650001526  -999.250000 0.8610000014
 2306.3027344 2.0000000000 8.0229997635 -0.006000000 0.3039000034 2.1919999123 44.195045471 93.188003540 0.5749999881 45.462001801  -999.250000 0.8640000224
 2306.4550781 2.0000000000 8.0229997635 -0.004000000 0.3202500045 2.2000000477 45.652595520 94.563003540 0.5730000138 44.900001526  -999.250000 0.8790000081
 2306.6074219 2.0000000000 8.0240001678 -0.007000000 0.3287400007 2.2130000591 44.590297699 94.000000000 0.5640000105 44.400001526  -999.250000 0.9060000181
 2306.7597656 2.0000000000 8.0310001373 -0.002000000 0.3183000088 2.2339999676 43.429485321 94.000000000 0.5649999976 44.775001526  -999.250000 0.9190000296
 2306.9123535 2.0000000000 8.0229997635 -0.008000000 0.3104099929 2.2260000706 40.780700684 93.563003540 0.5609999895 45.462001801  -999.250000 0.9250000119
 2307.0646973 2.0000000000 8.0229997635 -0.007000000 0.3015099764 2.2149999142 40.722206116 93.563003540 0.5619999766 44.962001801  -999.250000 0.9039999843
 2307.2170410 2.0000000000 8.0229997635 -0.002000000 0.3051899970 2.2219998837 41.713294983 93.188003540 0.5609999895 44.962001801  -999.250000 0.8820000291
 2307.3693848 2.0000000000 8.0229997635 0.0120000001 0.2956399918 2.2400000095 39.938697815 93.375000000 0.5559999943 43.900001526  -999.250000 0.8740000129
 2307.5219727 2.0000000000 8.0229997635 0.0099999998 0.3018000126 2.2430000305 40.155849457 93.563003540 0.5509999990 44.087001801  -999.250000 0.8709999919
 2307.6743164 2.0000000000 8.0229997635 -0.004000000 0.3032400012 2.2149999142 40.129650116 93.375000000 0.5440000296 43.525001526  -999.250000 0.8610000014
 2307.8266602 2.0000000000 8.0229997635 -0.008000000 0.3042100072 2.2090001106 41.087291718 93.375000000 0.5400000215 44.150001526  -999.250000 0.8510000110
 2307.9790039 2.0000000000 8.0229997635 -0.006000000 0.3051600158 2.2190001011 38.995193481 93.563003540 0.5360000134 44.087001801  -999.250000 0.8410000205
 2308.1315918 2.0000000000 8.0229997635 -0.007000000 0.3007999957 2.2190001011 37.509315491 93.188003540 0.5379999876 44.025001526  -999.250000 0.8370000124
 2308.2839355 2.0000000000 8.0159997940 -0.004000000 0.2916100025 2.2109999657 39.445346832 93.375000000 0.5460000038 43.775001526  -999.250000 0.8149999976
 2308.4362793 2.0000000000 8.0159997940 -0.013000000 0.2895900011 2.1940000057 40.973709106 93.188003540 0.5559999943 44.025001526  -999.250000 0.7919999957
 2308.5886230 2.0000000000 8.0159997940 -0.017000001 0.3028100133 2.1860001087 42.433292389 93.375000000 0.5740000010 44.462001801  -999.250000 0.7910000086
 2308.7412109 2.0000000000 8.0159997940 -0.018999999 0.3187199831 2.1949999332 40.978767395 93.563003540 0.5929999948 44.837001801  -999.250000 0.7950000167
 2308.8935547 2.0000000000 8.0159997940 -0.016000001 0.3267999887 2.2009999752 43.001350403 93.750000000 0.6209999919 44.337001801  -999.250000 0.8009999990
 2309.0458984 2.0000000000 8.0159997940 -0.008000000 0.3114399910 2.2249999046 43.285606384 94.188003540 0.6460000277 44.587001801  -999.250000 0.8009999990
 2309.1982422 2.0000000000 8.0159997940 -0.013000000 0.2991000116 2.2100000381 44.722908020 94.375007629 0.6809999943 44.712001801  -999.250000 0.8109999895
 2309.3505859 2.0000000000 8.0159997940 -0.014000000 0.2938100100 2.2109999657 45.941101074 94.750000000 0.7229999900 44.650001526  -999.250000 0.8050000072
 2309.5031738 2.0000000000 8.0159997940 -0.014000000 0.2997500002 2.2109999657 46.918319702 94.375007629 0.7459999919 44.712001801  -999.250000 0.8270000219
 2309.6555176 2.0000000000 8.0159997940 -0.007000000 0.3087599874 2.2309999466 49.460151672 94.750000000 0.7599999905 44.212001801  -999.250000 0.8920000196
 2309.8078613 2.0000000000 8.0159997940 -0.005000000 0.3223799765 2.2320001125 47.619693756 95.375000000 0.7630000114 44.525001526  -999.250000 0.9240000248
 2309.9602051 2.0000000000 8.0159997940 -0.017000001 0.3342200220 2.2079999447 45.970703125 95.563003540 0.7559999824 45.025001526  -999.250000 0.8980000019
 2310.1127930 2.0000000000 8.0159997940 -0.017000001 0.3376200199 2.2019999027 46.501350403 96.000000000 0.7480000257 46.087001801  -999.250000 0.8460000157
 2310.2651367 2.0000000000 8.0220003128 -0.017999999 0.3228699863 2.1960000992 46.766300201 95.750000000 0.7319999933 43.587001801  -999.250000 0.8450000286
 2310.4174805 2.0000000000 8.0170001984 -0.003000000 0.3118700087 2.2109999657 43.712192535 95.187995911 0.7110000253 43.337001801  -999.250000 0.8619999886
 2310.5698242 2.0000000000 8.0159997940 -0.002000000 0.3143300116 2.2100000381 41.586891174 94.750000000 0.6869999766 43.712001801  -999.250000 0.8830000162
 2310.7224121 2.0000000000 8.0220003128 -0.003000000 0.3153599799 2.2060000896 39.393333435 95.000000000 0.6669999957 44.087001801  -999.250000 0.8840000033
 2310.8747559 2.0000000000 8.0229997635 -0.014000000 0.3141900003 2.2019999027 43.185150146 95.187995911 0.6489999890 44.150001526  -999.250000 0.8669999838
 2311.0270996 2.0000000000 8.0229997635 -0.018999999 0.3037399948 2.2000000477 42.601715088 95.375000000 0.6349999905 43.775001526  -999.250000 0.8399999738
 2311.1794434 2.0000000000 8.0229997635 -0.018999999 0.3013499975 2.2019999027 44.999599457 95.000000000 0.6219999790 43.837001801  -999.250000 0.8289999962
 2311.3317871 2.0000000000 8.0229997635 -0.014000000 0.3040699959 2.2019999027 44.870292664 94.750000000 0.6050000191 44.337001801  -999.250000 0.8320000172
 2311.4843750 2.0000000000 8.0229997635 -0.009000000 0.3094500005 2.2079999447 43.399238586 94.375007629 0.5939999819 44.150001526  -999.250000 0.8339999914
 2311.6367188 2.0000000000 8.0229997635 -0.006000000 0.3215499818 2.2139999866 41.993400574 94.000000000 0.5780000091 44.150001526  -999.250000 0.8429999948
 2311.7890625 2.0000000000 8.0299997330 -0.010000000 0.3222800195 2.2100000381 40.633914948 94.000000000 0.5749999881 44.775001526  -999.250000 0.8550000191
 2311.9414063 2.0000000000 8.0310001373 -0.011000000 0.3156400025 2.2030000687 43.404098511 93.563003540 0.5699999928 43.900001526  -999.250000 0.8450000286
 2312.0939941 2.0000000000 8.0249996185 -0.013000000 0.3040800095 2.1909999847 42.804134369 93.375000000 0.5720000267 44.837001801  -999.250000 0.8199999928
 2312.2463379 2.0000000000 8.0229997635 -0.011000000 0.2910999954 2.1919999123 40.966899872 93.375000000 0.5669999719 43.650001526  -999.250000 0.8220000267
 2312.3986816 2.0000000000 8.0290002823 -0.011000000 0.2854799926 2.1989998817 40.533802032 92.999992371 0.5669999719 43.650001526  -999.250000 0.8439999819
