# LAS format log file from PETREL
# Project units are specified as depth units
#==================================================================
~Version information
VERS.   2.0:
WRAP.   NO:
#==================================================================
~Well
STRT .m      326.13598633 :
STOP .m      1938.6804199 :
STEP .m     0.00000000 :
NULL .        -999.250000 :
COMP.           : COMPANY
WELL.  31/2-17 A   : WELL
FLD.            : FIELD
LOC.            : LOCATION
SRVC.           : SERVICE COMPANY
DATE.  2018-09-11 14:48:33   : Log Export Date {yyyy-MM-dd HH:mm:ss}
PROV.           : PROVINCE
UWI.   31/2-17 A   : UNIQUE WELL ID
API.            : API NUMBER
#==================================================================
~Curve
DEPT .m                   : DEPTH
Lithology_geolink ._      : Lithology_geolink
CALI .in                  : CALI
DRHO .g/cm3               : DRHO
RHOB .g/cm3               : RHOB
GR .gAPI                  : GR
DTC .us/ft                : DTC
RDEP .ohm.m               : RDEP
RMED .ohm.m               : RMED
~Parameter
#==================================================================
~Ascii
# ...
 1507.5408936 19.000000000  -999.250000  -999.250000 2.2200000286 39.483200073 152.25840759 0.8421000242  -999.250000
 1507.6932373 19.000000000  -999.250000  -999.250000 2.2200000286 35.958900452 152.25840759 0.8481000066  -999.250000
 1507.8455811 19.000000000  -999.250000  -999.250000 2.2200000286 34.539901733 152.25840759 0.8515999913  -999.250000
 1507.9980469 19.000000000  -999.250000  -999.250000 2.2200000286 30.113500595 152.25840759 0.8608000278  -999.250000
 1508.1503906 19.000000000  -999.250000  -999.250000 2.2200000286 30.762500763 152.25840759 0.7806000113  -999.250000
 1508.3028564 19.000000000  -999.250000  -999.250000 2.2200000286 31.289199829 152.25840759 0.7785000205  -999.250000
 1508.4552002 19.000000000  -999.250000  -999.250000 2.2200000286 35.859199524 152.25840759 0.7767000198  -999.250000
 1508.6076660 19.000000000  -999.250000  -999.250000 2.2200000286 36.718700409 152.25840759 0.7764999866  -999.250000
 1508.7600098 19.000000000  -999.250000  -999.250000 2.2200000286 40.434299469 152.25840759 0.7778999805  -999.250000
 1508.9124756 19.000000000  -999.250000  -999.250000 2.2200000286 36.898899078 152.25840759 0.7779999971  -999.250000
 1509.0648193 19.000000000  -999.250000  -999.250000 2.2200000286 36.004501343 152.25840759 0.7943000197  -999.250000
 1509.2172852 19.000000000  -999.250000  -999.250000 2.2200000286 32.521800995 152.25840759 0.8090000153  -999.250000
 1509.3696289 19.000000000  -999.250000  -999.250000 2.2200000286 32.295501709 152.25840759 0.8234999776  -999.250000
 1509.5220947 19.000000000  -999.250000  -999.250000 2.2200000286 32.401699066 152.25840759 0.8263000250  -999.250000
 1509.6744385 19.000000000  -999.250000  -999.250000 2.2200000286 32.834300995 152.25840759 0.8558999896  -999.250000
 1509.8267822 19.000000000  -999.250000  -999.250000 2.2200000286 34.976100922 152.25840759 0.6830999851  -999.250000
 1509.9792480 19.000000000  -999.250000  -999.250000 2.2200000286 36.380500793 152.25840759 0.5810999870  -999.250000
 1510.1315918 19.000000000  -999.250000  -999.250000 2.2200000286 37.051300049 152.25840759 0.6055999994  -999.250000
 1510.2840576 19.000000000  -999.250000  -999.250000 2.2200000286 37.835201263 152.25840759 0.6187000275  -999.250000
 1510.4364014 19.000000000  -999.250000  -999.250000 2.2200000286 38.752101898 152.25840759 0.5404000282  -999.250000
 1510.5888672 19.000000000  -999.250000  -999.250000 2.2200000286 39.000598907 152.25840759 0.5277000070  -999.250000
 1510.7412109 19.000000000  -999.250000  -999.250000 2.2200000286 37.776298523 152.25840759 0.5167999864  -999.250000
 1510.8936768 19.000000000  -999.250000  -999.250000 2.2200000286 35.148998260 152.25840759 0.4950000048  -999.250000
 1511.0460205 19.000000000  -999.250000  -999.250000 2.2200000286 32.336299896 152.25840759 0.5705999732  -999.250000
 1511.1984863 19.000000000  -999.250000  -999.250000 2.2200000286 33.507499695 152.25840759 0.6201999784  -999.250000
 1511.3508301 19.000000000  -999.250000  -999.250000 2.2200000286 33.732898712 152.25840759 0.7178000212  -999.250000
 1511.5032959 19.000000000  -999.250000  -999.250000 2.2200000286 38.943401337 152.25840759 0.6061000228  -999.250000
 1511.6556396 19.000000000  -999.250000  -999.250000 2.2200000286 39.165599823 152.25840759 0.5877000093  -999.250000
 1511.8081055 19.000000000  -999.250000  -999.250000 2.2200000286 38.528900146 152.25840759 0.5831000209  -999.250000
 1511.9604492 19.000000000  -999.250000  -999.250000 2.2200000286 33.384799957 152.25840759 0.5982999802  -999.250000
 1512.1127930 19.000000000  -999.250000  -999.250000 2.2200000286 32.414199829 152.25840759 0.5831999779  -999.250000
 1512.2652588 19.000000000  -999.250000  -999.250000 2.2200000286 35.422298431 152.25840759 0.4936000109  -999.250000
 1512.4176025 19.000000000  -999.250000  -999.250000 2.2200000286 34.834701538 152.25840759 0.5902000070  -999.250000
 1512.5700684 19.000000000  -999.250000  -999.250000 2.2200000286 32.158901215 152.25840759 0.6726999879  -999.250000
 1512.7224121 19.000000000  -999.250000  -999.250000 2.2200000286 29.725999832 152.25840759 0.7817999721  -999.250000
 1512.8748779 19.000000000  -999.250000  -999.250000 2.2200000286 34.553699493 152.25840759 0.7016000152  -999.250000
 1513.0272217 19.000000000  -999.250000  -999.250000 2.2200000286 35.489200592 152.25840759 0.6248000264  -999.250000
 1513.1796875 19.000000000  -999.250000  -999.250000 2.2200000286 33.900600433 152.25840759 0.5446000099  -999.250000
 1513.3320313 19.000000000  -999.250000  -999.250000 2.2200000286 28.334100723 152.25840759 0.4864999950  -999.250000
 1513.4844971 19.000000000  -999.250000  -999.250000 2.2200000286 29.356700897 152.25840759 0.5679000020  -999.250000
 1513.6368408 19.000000000  -999.250000  -999.250000 2.2200000286 30.391099930 152.25840759 0.6437000036  -999.250000
 1513.7893066 19.000000000  -999.250000  -999.250000 2.2200000286 33.649700165 152.25840759 0.7221999764  -999.250000
 1513.9416504 19.000000000  -999.250000  -999.250000 2.2200000286 31.313400269 152.25840759 0.7473999858  -999.250000
 1514.0939941 19.000000000  -999.250000  -999.250000 2.2200000286 30.093200684 152.25840759 0.7678999901  -999.250000
 1514.2464600 19.000000000  -999.250000  -999.250000 2.2200000286 26.436899185 152.25840759 0.7792999744  -999.250000
 1514.3988037 19.000000000  -999.250000  -999.250000 2.2200000286 25.277200699 152.25840759 0.8047000170  -999.250000
 1514.5512695 19.000000000  -999.250000  -999.250000 2.2200000286 22.109199524 152.25840759 0.7567999959  -999.250000
 1514.7036133 19.000000000  -999.250000  -999.250000 2.2200000286 21.248199463 152.25840759 0.7050999999  -999.250000
 1514.8560791 19.000000000  -999.250000  -999.250000 2.2200000286 22.371200562 152.25840759 0.6625999808  -999.250000
 1515.0084229 19.000000000  -999.250000  -999.250000 2.2200000286 28.483900070 152.25840759 0.6072999835  -999.250000
 1515.1608887 19.000000000  -999.250000  -999.250000 2.2200000286 33.255798340 152.25840759 0.6266999841  -999.250000
 1515.3132324 19.000000000  -999.250000  -999.250000 2.2200000286 35.597099304 152.25840759 0.6484000087  -999.250000
 1515.4656982 19.000000000  -999.250000  -999.250000 2.2200000286 32.325500488 152.25840759 0.6680999994  -999.250000
 1515.6180420 19.000000000  -999.250000  -999.250000 2.2200000286 30.468799591 152.25840759 0.6869999766  -999.250000
 1515.7705078 19.000000000  -999.250000  -999.250000 2.2200000286 27.118299484 152.25840759 0.7070999742  -999.250000
 1515.9228516 19.000000000  -999.250000  -999.250000 2.2200000286 26.477500916 152.25840759 0.7099000216  -999.250000
 1516.0751953 19.000000000  -999.250000  -999.250000 2.2200000286 24.905300140 152.25840759 0.7012000084  -999.250000
 1516.2276611 19.000000000  -999.250000  -999.250000 2.2200000286 26.076499939 152.25840759 0.6985999942  -999.250000
 1516.3800049 19.000000000  -999.250000  -999.250000 2.2200000286 29.430400848 152.25840759 0.7053999901  -999.250000
 1516.5324707 19.000000000  -999.250000  -999.250000 2.2200000286 30.990800858 152.25840759 0.7189999819  -999.250000
 1516.6848145 19.000000000  -999.250000  -999.250000 2.2200000286 33.753299713 152.25840759 0.6891999841  -999.250000
 1516.8372803 19.000000000  -999.250000  -999.250000 2.2200000286 32.606098175 152.25840759 0.6373999715  -999.250000
 1516.9896240 19.000000000  -999.250000  -999.250000 2.2200000286 34.211101532 152.25840759 0.5860999823  -999.250000
 1517.1420898 19.000000000  -999.250000  -999.250000 2.2200000286 31.049600601 152.25840759 0.6243000031  -999.250000
 1517.2944336 19.000000000  -999.250000  -999.250000 2.2200000286 33.630901337 152.25840759 0.5945000052  -999.250000
 1517.4468994 19.000000000  -999.250000  -999.250000 2.2200000286 33.839698792 152.25840759 0.6873000264  -999.250000
 1517.5992432 19.000000000  -999.250000  -999.250000 2.2200000286 35.003398895 152.25840759 0.7437999845  -999.250000
 1517.7517090 19.000000000  -999.250000  -999.250000 2.2200000286 34.193000793 152.25840759 0.7763000131  -999.250000
