# LAS format log file from PETREL
# Project units are specified as depth units
#==================================================================
~Version information
VERS.   2.0:
WRAP.   NO:
#==================================================================
~Well
STRT .m      399.05941772 :
STOP .m      2436.9521484 :
STEP .m     0.00000000 :
NULL .        -999.250000 :
COMP.           : COMPANY
WELL.  31/2-1   : WELL
FLD.            : FIELD
LOC.            : LOCATION
SRVC.           : SERVICE COMPANY
DATE.  2018-09-11 14:48:32   : Log Export Date {yyyy-MM-dd HH:mm:ss}
PROV.           : PROVINCE
UWI.   31/2-1   : UNIQUE WELL ID
API.            : API NUMBER
#==================================================================
~Curve
DEPT .m                   : DEPTH
Lithology_geolink ._      : Lithology_geolink
CALI .in                  : CALI
BS .in                    : BS
DRHO .g/cm3               : DRHO
NPHI .m3/m3               : NPHI
RHOB .g/cm3               : RHOB
GR .gAPI                  : GR
DTC .us/ft                : DTC
DTE .us/ft                : DTE
RDEP .ohm.m               : RDEP
SP .mV                    : SP
RSHA .ohm.m               : RSHA
RMED .ohm.m               : RMED
~Parameter
#==================================================================
~Ascii
# ...
 2028.5201416 6.0000000000 11.878009796 12.250000954 0.0213122498 0.3414016068 2.4475018978 59.792873383 99.534454346 99.607086182 1.7931206226 39.824481964 2.2923119068 2.2923119068
 2028.6724854 6.0000000000 11.916199684 12.250000954 0.0125625003 0.3455007076 2.4215147495 60.217185974 98.775405884 99.068382263 1.7788394690 39.993209839 2.1175639629 2.1175639629
 2028.8249512 6.0000000000 11.916500092 12.250000954 0.0118438751 0.3464012146 2.4137072563 60.415348053 99.156333923 99.218391418 1.7977758646 40.038528442 2.0557663441 2.0557663441
 2028.9772949 6.0000000000 11.916410446 12.250000954 0.0060937498 0.3501127958 2.4164898396 61.999858856 99.741813660 99.701965332 1.8283793926 40.039474487 2.2402720451 2.2402720451
 2029.1296387 6.0000000000 11.931320190 12.250000954 -0.003430745 0.3685905933 2.4049127102 64.577331543 100.17959595 100.14324188 1.8777378798 40.037315369 2.3914327621 2.3914327621
 2029.2821045 6.0000000000 11.950281143 12.250000954 -0.010062500 0.3596966863 2.3988008499 63.727642059 100.49993896 100.38977051 1.9404348135 39.977207184 2.6116535664 2.6116535664
 2029.4344482 6.0000000000 11.916098595 12.250000954 -0.009312499 0.3544948995 2.3920109272 64.076126099 100.41613770 100.25373840 2.0150814056 39.710189819 2.6847121716 2.6847121716
 2029.5869141 6.0000000000 11.915499687 12.250000954 -0.004780625 0.3494004011 2.3923108578 63.892887115 99.740722656 99.991317749 2.0909070969 40.301189423 2.6845781803 2.6845781803
 2029.7392578 6.0000000000 11.915300369 12.250000954 -0.001468750 0.3501133025 2.4123737812 65.239097595 100.08274841 100.11374664 2.1665766239 40.848468781 2.6458599567 2.6458599567
 2029.8917236 6.0000000000 11.915201187 12.250000954 0.0015316254 0.3644028902 2.4186949730 66.719444275 100.51564789 100.48183441 2.2452020645 40.548351288 2.6037745476 2.6037745476
 2030.0440674 6.0000000000 11.915101051 12.250000954 0.0003125000 0.3700931966 2.4197931290 67.066307068 100.82965088 100.62670135 2.3294534683 39.824016571 2.6039247513 2.6039247513
 2030.1965332 6.0000000000 11.915010452 12.250000954 -0.002531625 0.3622977138 2.4123048782 66.160835266 100.38135529 100.41368866 2.4510993958 39.008754730 2.6325302124 2.6325302124
 2030.3488770 6.0000000000 11.929868698 12.250000954 0.0045937500 0.3570084870 2.4109172821 64.160362244 100.11251068 99.727951050 2.4884631634 38.188148499 2.5888819695 2.5888819695
 2030.5013428 6.0000000000 12.012589455 12.250000954 0.0211897511 0.3674888015 2.4308919907 61.067344666 98.364875793 95.966484070 2.5250477791 37.353965759 2.4733874798 2.4733874798
 2030.6536865 16.000000000 11.998150826 12.250000954 0.0256875008 0.3376705050 2.4509937763 53.475234985 87.432914734 85.845901489 2.5596883297 36.514320374 2.4258460999 2.4258460999
 2030.8061523 16.000000000 11.935019493 12.250000954 0.0158734992 0.2979995906 2.4649007320 47.339054108 70.844375610 74.025978088 2.2452039719 35.650016785 2.8045074940 2.8045074940
 2030.9584961 16.000000000 12.004079819 12.250000954 0.0013437500 0.2968060076 2.5048551559 40.770915985 66.948570251 69.913467407 1.5608736277 34.782859802 4.8518810272 4.8518810272
 2031.1108398 2.0000000000 11.976090431 12.250000954 -0.003529224 0.3056091070 2.4861249924 37.742309570 73.992523193 73.480484009 1.2413705587 33.936637878 5.3498201370 5.3498201370
 2031.2633057 2.0000000000 11.964709282 12.250000954 0.0002187500 0.3143047988 2.3861150742 35.654720306 78.545707703 79.339408875 1.1037528515 33.353294373 2.4955375195 2.4955375195
 2031.4156494 2.0000000000 11.823599815 12.250000954 0.0052187499 0.3221080899 2.2814886570 36.799442291 86.266433716 87.512329102 0.9668071866 32.933250427 1.1133242846 1.1133242846
 2031.5681152 2.0000000000 11.722599983 12.250000954 0.0085316254 0.3303048015 2.2017598152 39.133670807 98.653892517 97.266967773 0.8295605183 32.615673065 0.7459394336 0.7459394336
 2031.7204590 2.0000000000 11.720299721 12.250000954 0.0064687501 0.3390052915 2.1954159737 40.420139313 105.39630127 103.65979767 0.6925122142 32.293682098 0.7283624411 0.7283624411
 2031.8729248 2.0000000000 11.718299866 12.250000954 -0.001594876 0.3446991146 2.2022035122 41.774887085 105.63331604 105.51451111 0.5554180741 31.951459885 0.7480937243 0.7480937243
 2032.0252686 2.0000000000 11.714400291 12.250000954 -0.003000000 0.3428027034 2.2204034328 46.017868042 105.70793915 105.57828522 0.5058574080 31.738803864 0.8090476990 0.8090476990
 2032.1777344 2.0000000000 11.710400581 12.250000954 -0.005531625 0.3459034860 2.2413842678 46.859107971 105.30612183 104.95472717 0.4718686044 31.931327820 0.8767982721 0.8767982721
 2032.3300781 2.0000000000 11.706399918 12.250000954 -0.006843750 0.3539027870 2.2431945801 48.472724915 103.58807373 103.75693512 0.4911982715 32.194309235 0.9212406874 0.9212406874
 2032.4825439 5.0000000000 11.702500343 12.250000954 -0.003624500 0.3573977947 2.2378082275 49.222721100 102.60868835 102.81176758 0.5339390635 32.424640656 0.9461339116 0.9461339116
 2032.6348877 5.0000000000 11.698500633 12.250000954 0.0062812502 0.3512906134 2.2487010956 47.460952759 102.40676880 102.35182190 0.5767541528 32.559291840 0.8885796070 0.8885796070
 2032.7873535 5.0000000000 11.694500923 12.250000954 0.0071561253 0.3384976983 2.2622900009 47.888755798 101.97795105 101.80901337 0.6194350719 32.575473785 0.8579809070 0.8579809070
 2032.9396973 5.0000000000 11.690500259 12.250000954 0.0027812500 0.3310985863 2.2667205334 49.273349762 100.92742920 100.76016998 0.6564607024 32.506000519 0.9494554400 0.9494554400
 2033.0920410 5.0000000000 11.686599731 12.250000954 0.0036861491 0.3290173113 2.3023867607 51.971035004 99.282615662 99.390625000 0.6969518065 32.430740356 1.1418426037 1.1418426037
 2033.2445068 5.0000000000 11.682600021 12.250000954 0.0149687510 0.3456062973 2.3447751999 54.566402435 98.110115051 98.417037964 0.7530261874 32.417316437 1.2834516764 1.2834516764
 2033.3968506 5.0000000000 11.678590775 12.250000954 0.0195312500 0.3559095860 2.3587815762 55.078861237 98.130874634 98.314971924 0.7966244221 33.060726166 1.2890082598 1.2890082598
 2033.5493164 6.0000000000 11.674589157 12.250000954 0.0225316249 0.3612977862 2.3612821102 54.341102600 98.832107544 98.831962585 0.8425441384 34.632175446 1.1958966255 1.1958966255
 2033.7016602 6.0000000000 11.670689583 12.250000954 0.0128750000 0.3596935868 2.3493022919 56.816947937 99.516960144 99.399208069 0.8965602517 35.574653625 1.2247136831 1.2247136831
 2033.8541260 6.0000000000 11.666700363 12.250000954 0.0017173738 0.3560174108 2.3392081261 58.377853394 99.760086060 99.727020264 1.0557374954 36.327556610 1.2346011400 1.2346011400
 2034.0064697 6.0000000000 11.662919044 12.250000954 0.0042187497 0.3695088029 2.3390052319 58.115360260 99.910766602 99.866394043 1.1169179678 36.765602112 1.2564884424 1.2564884424
 2034.1589355 6.0000000000 11.674228668 12.250000954 -0.002594876 0.3747831881 2.3418536186 62.518150330 99.911537170 99.901367188 1.1698266268 36.376293182 1.3500021696 1.3500021696
 2034.3112793 6.0000000000 11.686920166 12.250000954 0.0019062500 0.3665036857 2.3696317673 63.515113831 99.897811890 99.827529907 1.2059550285 36.378673553 1.6563724279 1.6563724279
 2034.4637451 6.0000000000 11.699728966 12.250000954 0.0072193760 0.3688178957 2.4033939838 65.045082092 99.630554199 99.591865540 1.2406702042 36.624904633 2.0148689747 2.0148689747
 2034.6160889 6.0000000000 11.713450432 12.250000954 0.0020937501 0.3778985143 2.4139716625 65.400474548 99.244132996 99.212921143 1.2747687101 36.977661133 2.0962610245 2.0962610245
 2034.7685547 6.0000000000 11.808399200 12.250000954 -0.000687750 0.3768759072 2.4011662006 63.412605286 98.762878418 98.845687866 1.3851505518 37.393909454 1.8999203444 1.8999203444
 2034.9208984 6.0000000000 11.809599876 12.250000954 -0.003531250 0.3641713858 2.3782134056 63.729164124 98.629096985 98.638542175 1.5256543159 37.911186218 1.7381886244 1.7381886244
 2035.0732422 6.0000000000 11.809499741 12.250000954 -0.004000000 0.3447057009 2.3744409084 64.648536682 98.537384033 98.635658264 1.6254121065 38.664028168 1.7677552700 1.7677552700
