# LAS format log file from PETREL
# Project units are specified as depth units
#==================================================================
~Version information
VERS.   2.0:
WRAP.   NO:
#==================================================================
~Well
STRT .m      416.08499146 :
STOP .m      2599.3679199 :
STEP .m     0.00000000 :
NULL .        -999.250000 :
COMP.           : COMPANY
WELL.  31/2-2 R   : WELL
FLD.            : FIELD
LOC.            : LOCATION
SRVC.           : SERVICE COMPANY
DATE.  2018-09-11 14:48:33   : Log Export Date {yyyy-MM-dd HH:mm:ss}
PROV.           : PROVINCE
UWI.   31/2-2 R   : UNIQUE WELL ID
API.            : API NUMBER
#==================================================================
~Curve
DEPT .m                   : DEPTH
Lithology_geolink ._      : Lithology_geolink
CALI .in                  : CALI
DRHO .g/cm3               : DRHO
NPHI .m3/m3               : NPHI
RHOB .g/cm3               : RHOB
GR .gAPI                  : GR
DTC .us/ft                : DTC
RDEP .ohm.m               : RDEP
SP .mV                    : SP
RSHA .ohm.m               : RSHA
RMED .ohm.m               : RMED
~Parameter
#==================================================================
~Ascii
# ...
 703.66381836  -999.250000 20.016000748 0.0149999997 0.4868199825 1.9910000563 44.530372620 167.31349182 1.3679022789 16.098987579  -999.250000 1.5007741451
 703.81622314  -999.250000 19.875000000 0.0209999997 0.5170900226 1.9550000429 45.029998779 166.36027527 1.4139263630 16.231786728  -999.250000 1.7086668015
 703.96862793  -999.250000 20.187999725 0.0189999994 0.4833999872 1.9400000572 48.368305206 166.29814148 1.4539358616 15.986392975  -999.250000 1.7279696465
 704.12103271  -999.250000 19.688001633 0.0149999997 0.5019500256 1.9700000286 46.940876007 166.23912048 1.4929375648 17.369779587  -999.250000 1.5892226696
 704.27343750  -999.250000 19.796998978 0.0199999996 0.4775400162 2.0290000439 47.717437744 166.18013000 1.5259472132 16.256788254  -999.250000 1.5061329603
 704.42584229  -999.250000 19.733999252 0.0199999996 0.5200200081 2.0469999313 46.845752716 166.12013245 1.5589472055 16.107236862  -999.250000 1.4860320091
 704.57824707  -999.250000 19.702999115 0.0230000000 0.5019500256 2.0720000267 47.841999054 166.06114197 1.5909614563 16.489540100  -999.250000 1.4800071716
 704.73065186  -999.250000 19.906002045 0.0089999996 0.4868199825 2.0699999332 49.247184753 166.00114441 1.6109758615 18.494588852  -999.250000 1.5579062700
 704.88305664  -999.250000 19.983999252 0.0450000018 0.5083000064 2.1110000610 52.337806702 165.94213867 1.6179915667 17.256490707  -999.250000 1.5759783983
 705.03546143  -999.250000 20.047000885 0.0450000018 0.4975599945 2.0569999218 54.215995789 165.88314819 1.6369771957 16.513891220  -999.250000 1.7318125963
 705.18786621  -999.250000 20.500000000 0.0500000007 0.5073199868 2.0099999905 56.309646606 165.82313538 1.6639676094 16.404130936  -999.250000 1.7539734840
 705.34020996  -999.250000 20.358999252 0.0130000003 0.4506800175 1.9529999495 58.339935303 165.76417542 1.7029374838 13.759243965  -999.250000 1.7759647369
 705.49261475  -999.250000 20.218999863 0.0170000009 0.4706999958 1.9659999609 61.119430542 165.70513916 1.7289583683 18.630178452  -999.250000 1.9537148476
 705.64501953  -999.250000 20.266000748 0.0199999996 0.4980500042 1.9789999723 62.341560364 165.64514160 1.7489678860 20.401170731  -999.250000 2.0079133511
 705.79742432  -999.250000 20.312999725 0.0329999998 0.5380899906 1.9980000257 60.753192902 165.58612061 1.7799502611 20.668575287  -999.250000 1.8462594748
 705.94982910  -999.250000 20.437997818 0.0520000011 0.5400400162 2.0179998875 64.118240356 165.52613831 1.7919808626 21.519634247  -999.250000 1.8160480261
 706.10223389  -999.250000 20.688001633 0.0590000004 0.4975599945 2.0209999084 64.562126160 165.46713257 1.7969920635 22.534374237  -999.250000 1.7810560465
 706.25463867  -999.250000 20.812997818 0.0640000030 0.4677700102 2.0250000954 70.113861084 165.40814209 1.7890129089 20.516241074  -999.250000 1.8109519482
 706.40704346  -999.250000 20.688001633 0.0340000018 0.4702099860 1.9880000353 68.004257202 165.34814453 1.7790160179 22.026571274  -999.250000 1.8369584084
 706.55944824  -999.250000 20.391000748 0.0260000005 0.4916999936 1.9769999981 70.682624817 165.28913879 1.7630256414 20.757040024  -999.250000 1.8549711704
 706.71185303  -999.250000 20.516002655 0.0080000004 0.5483400226 1.9490000010 69.939506531 165.22914124 1.7510144711 20.138742447  -999.250000 1.8979482651
 706.86425781  -999.250000 20.547000885 0.0209999997 0.5244100094 1.9600000381 72.058746338 165.17013550 1.7440084219 20.645389557  -999.250000 1.7212126255
 707.01666260  -999.250000 20.562999725 0.0199999996 0.5122100115 1.9479999542 70.378379822 165.11112976 1.7430012226 20.536130905  -999.250000 1.7939122915
 707.16906738  -999.250000 20.500000000 0.0419999994 0.4531300068 1.9689999819 68.253402710 165.05113220 1.7320132256 20.887577057  -999.250000 1.6681513786
 707.32141113  -999.250000 20.827999115 0.0579999983 0.4687500000 1.9839999676 67.439628601 164.99217224 1.7389887571 20.779174805  -999.250000 1.8387260437
 707.47381592  -999.250000 20.312999725 0.0640000030 0.4746099710 1.9769999981 64.006881714 164.93217468 1.7479856014 20.544376373  -999.250000 1.7681137323
 707.62622070  -999.250000 20.483999252 0.0500000007 0.4907199740 1.9479999542 62.222568512 164.87313843 1.7609791756 21.394634247  -999.250000 1.9137661457
 707.77862549  -999.250000 20.577997208 0.0489999987 0.4682599902 1.9340000153 60.253944397 164.81413269 1.7749775648 19.874441147  -999.250000 1.7422754765
 707.93103027  -999.250000 20.218999863 0.0450000018 0.4965800047 1.9349999428 60.687122345 164.75413513 1.7869807482 19.505586624  -999.250000 1.8498270512
 708.08343506  -999.250000 20.483999252 0.0359999985 0.5170900226 1.9349999428 61.248874664 164.69514465 1.8079663515 19.887386322  -999.250000 1.8280352354
 708.23583984  -999.250000 20.437997818 0.0230000000 0.5595700145 1.9299999475 60.033439636 164.63612366 1.8010112047 20.769584656  -999.250000 1.8819134235
 708.38824463  -999.250000 20.750000000 0.0320000015 0.5649399757 1.9270000458 62.276493073 164.57614136 1.7910159826 20.871837616  -999.250000 1.8101153374
 708.54064941  -999.250000 21.516000748 0.0719999969 0.5361300111 1.9509999752 60.877815247 164.51713562 1.7820143700 20.755186081  -999.250000 1.8399519920
 708.69305420  -999.250000 20.452999115 0.0719999969 0.5380899906 1.9299999475 61.312122345 164.45713806 1.7710132599 20.138742447  -999.250000 1.7990492582
 708.84545898  -999.250000 20.562999725 0.0579999983 0.5146499872 1.9299999475 58.443756104 164.39813232 1.7580156326 20.239877701  -999.250000 1.8739098310
 708.99786377  -999.250000 21.108999252 0.0350000001 0.5024399757 1.9079999924 57.283313751 164.33914185 1.7370252609 18.499094009  -999.250000 1.8450348377
 709.15026855  -999.250000 20.875000000 0.0419999994 0.5014600158 1.8940000534 57.405796051 164.27914429 1.6960492134 18.255289078  -999.250000 1.6622197628
 709.30267334  -999.250000 21.375000000 0.0390000008 0.4726599753 1.8329999447 56.033199310 164.22013855 1.6230877638 18.887239456  -999.250000 1.7259230614
 709.45501709  -999.250000 20.672002792 0.0350000001 0.5014600158 1.8259999752 55.033000946 164.16017151 1.5850609541 20.143983841  -999.250000 1.7349855900
 709.60742188  -999.250000 20.547000885 0.0489999987 0.4702099860 1.8580000401 54.376312256 164.10113525 1.5630352497 20.246837616  -999.250000 1.5492979288
 709.75982666  -999.250000 20.483999252 0.0689999983 0.5004900098 1.8890000582 55.061622620 164.04214478 1.5580079556 20.099237442  -999.250000 1.5480015278
 709.91223145  -999.250000 20.468999863 0.0719999969 0.5195299983 1.8769999743 59.366367340 163.97915649 1.5550047159 19.233388901  -999.250000 1.5440064669
 710.06463623  -999.250000 20.156000137 0.0579999983 0.5576199889 1.8539999723 59.749248505 163.91017151 1.5540015697 19.739185333  -999.250000 1.5719552040
 710.21704102  -999.250000 19.796998978 0.0410000011 0.5566400290 1.8650000095 62.244995117 163.84016418 1.5530015230 22.453645706  -999.250000 1.5769920349
 710.36944580  -999.250000 19.641000748 0.0579999983 0.5449200273 1.8719999790 62.936622620 163.77116394 1.5520015955 18.838808060  -999.250000 1.6219278574
 710.52185059  -999.250000 19.141000748 0.0489999987 0.5278300047 1.8600000143 60.785316467 163.70117188 1.5599870682 19.207399368  -999.250000 1.6779102087
 710.67425537  -999.250000 19.327999115 0.0529999994 0.5083000064 1.8750000000 60.469627380 163.63116455 1.5629951954 18.209602356  -999.250000 1.6710112095
 710.82666016  -999.250000 19.577999115 0.0419999994 0.5463899970 1.9049999714 61.092750549 163.56216431 1.5699915886 22.078342438  -999.250000 1.6700011492
 710.97906494  -999.250000 19.625000000 0.0289999992 0.5424799919 1.9229999781 63.089996338 163.49217224 1.5779902935 21.958150864  -999.250000 1.6989651918
 711.13146973  -999.250000 19.625000000 0.0329999998 0.5541999936 1.9299999475 62.376438141 163.42317200 1.5819952488 18.719894409  -999.250000 1.5961236954
 711.28387451  -999.250000 19.733999252 0.0379999988 0.5043900013 1.9320000410 60.128604889 163.35316467 1.5859951973 19.473091125  -999.250000 1.6828954220
