# LAS format log file from PETREL
# Project units are specified as depth units
#==================================================================
~Version information
VERS.   2.0:
WRAP.   NO:
#==================================================================
~Well
STRT .m      416.08499146 :
STOP .m      2599.3679199 :
STEP .m     0.00000000 :
NULL .        -999.250000 :
COMP.           : COMPANY
WELL.  31/2-2 R   : WELL
FLD.            : FIELD
LOC.            : LOCATION
SRVC.           : SERVICE COMPANY
DATE.  2018-09-11 14:48:33   : Log Export Date {yyyy-MM-dd HH:mm:ss}
PROV.           : PROVINCE
UWI.   31/2-2 R   : UNIQUE WELL ID
API.            : API NUMBER
#==================================================================
~Curve
DEPT .m                   : DEPTH
Lithology_geolink ._      : Lithology_geolink
CALI .in                  : CALI
DRHO .g/cm3               : DRHO
NPHI .m3/m3               : NPHI
RHOB .g/cm3               : RHOB
GR .gAPI                  : GR
DTC .us/ft                : DTC
RDEP .ohm.m               : RDEP
SP .mV                    : SP
RSHA .ohm.m               : RSHA
RMED .ohm.m               : RMED
~Parameter
#==================================================================
~Ascii
# ...
 999.01507568  -999.250000 18.047000885 0.0109999999 0.5546900034 1.9320000410 51.321735382 156.72100830 1.0920112133 6.0351376534  -999.250000 1.0800272226
 999.16748047  -999.250000 17.781000137 0.0040000002 0.5297899842 1.9249999523 52.309814453 157.96701050 1.0860096216 6.0290093422  -999.250000 1.0610303879
 999.31988525  -999.250000 17.843999863 0.0109999999 0.5561500192 1.9290000200 51.441043854 158.27526855 1.0800096989 5.8432979584  -999.250000 1.0420304537
 999.47229004  -999.250000 18.031000137 -0.001000000 0.5537099838 1.9170000553 48.518512726 158.67005920 1.0740096569 5.4905653000  -999.250000 1.0070559978
 999.62469482  -999.250000 18.172000885 -0.002000000 0.5629900098 1.9229999781 46.187801361 159.26356506 1.0690079927 5.8034968376  -999.250000 0.9920240045
 999.77709961  -999.250000 18.343999863 0.0000000000 0.4936500192 1.9370000362 44.999427795 160.15386963 1.0640079975 6.1324729919  -999.250000 0.9860095978
 999.92950439  -999.250000 18.733999252 -0.006000000 0.5004900098 1.9240000248 44.864105225 161.15759277 1.0560128689 6.3396687508  -999.250000 0.9929887652
 1000.0819092  -999.250000 18.233999252 -0.011000000 0.5063499808 1.9069999456 44.678150177 160.90162659 1.0470144749 6.3260226250  -999.250000 1.0009871721
 1000.2343140  -999.250000 18.187999725 -0.017000001 0.5327100158 1.8960000277 44.178401947 159.83856201 1.0390129089 5.9875431061  -999.250000 1.0109840631
 1000.3867188  -999.250000 18.125000000 -0.012000000 0.4975599945 1.9010000229 43.052898407 158.39688110 1.0330071449 5.6763739586  -999.250000 1.0229855776
 1000.5391235  -999.250000 18.202999115 -0.002000000 0.5019500256 1.9290000200 42.095767975 157.20339966 1.0270071030 5.6450371742  -999.250000 1.0339868069
 1000.6915283  -999.250000 18.202999115 0.0070000002 0.5278300047 1.9379999638 42.067024231 156.61418152 1.0240036249 5.6140370369  -999.250000 1.0230132341
 1000.8439331  -999.250000 17.812999725 0.0140000004 0.5522499681 1.9570000172 42.416721344 156.94146729 1.0190060139 5.5830373764  -999.250000 1.0130120516
 1000.9962769  -999.250000 18.031000137 -0.004000000 0.5249000192 1.9379999638 42.473930359 157.70246887 1.0160048008 5.5520496368  -999.250000 0.9990224242
 1001.1486816  -999.250000 17.906000137 0.0000000000 0.4975599945 1.9340000153 42.012557983 158.56925964 1.0140032768 5.5210494995  -999.250000 0.9810288548
 1001.3010864  -999.250000 17.577999115 -0.004000000 0.5292999744 1.9249999523 41.967052460 159.52807617 1.0060129166 5.5349774361  -999.250000 0.9800016284
 1001.4534912  -999.250000 17.718999863 0.0230000000 0.5209999681 1.9459999800 42.623210907 159.75854492 1.0000096560 5.6008939743  -999.250000 0.9800000191
 1001.6058960  -999.250000 17.733999252 0.0260000005 0.5463899970 1.9529999495 45.325748444 159.37377930 0.9940096140 5.6668939590  -999.250000 0.9800000191
 1001.7583008  -999.250000 18.125000000 0.0270000007 0.5078099966 1.9409999847 45.391921997 159.55563354 0.9880095720 5.7328939438  -999.250000 0.9800000191
 1001.9107056  -999.250000 18.141000748 0.0179999992 0.5502899885 1.9270000458 44.120018005 160.34841919 0.9820095897 5.7988939285  -999.250000 0.9800000191
 1002.0631104  -999.250000 18.250000000 0.0109999999 0.6025400162 1.9140000343 43.676353455 160.81706238 0.9750112295 5.8658928871  -999.250000 0.9770048261
 1002.2155151  -999.250000 18.327999115 0.0070000002 0.5874000192 1.9149999619 45.411605835 161.29306030 0.9670128226 5.9249057770  -999.250000 0.9690127969
 1002.3679199  -999.250000 18.233999252 -0.002000000 0.5927699804 1.8960000277 49.001125336 161.44171143 0.9600083828 5.7791752815  -999.250000 0.9600107670
 1002.5203247  -999.250000 18.250000000 -0.003000000 0.5268599987 1.8880000114 48.770187378 161.73342896 0.9530084133 5.7400465012  -999.250000 0.9530084133
 1002.6727295  -999.250000 18.125000000 -0.006000000 0.5380899906 1.8819999695 46.615726471 161.61923218 0.9450095892 5.8258967400  -999.250000 0.9490048289
 1002.8251343  -999.250000 18.218999863 0.0010000000 0.5175799727 1.8930000067 42.238506317 161.21066284 0.9360107780 5.9228835106  -999.250000 0.9480012059
 1002.9775391  -999.250000 18.312999725 0.0130000003 0.5043900013 1.9060000181 40.966018677 160.34039307 0.9270107746 5.9519653320  -999.250000 0.9569892287
 1003.1298828  -999.250000 18.733999252 0.0209999997 0.5380899906 1.9060000181 41.804988861 160.09150696 0.9190128446 5.9559936523  -999.250000 0.9550032020
 1003.2822876  -999.250000 18.500000000 0.0040000002 0.5366199613 1.8750000000 42.014747620 161.43829346 0.9130095840 6.0238914490  -999.250000 0.9350320697
 1003.4346924  -999.250000 18.687999725 -0.004000000 0.5507799983 1.8539999723 41.221954346 162.46493530 0.9080079794 6.1378173828  -999.250000 0.9260144234
 1003.5870972  -999.250000 18.375000000 -0.006000000 0.5161100030 1.8480000496 40.562793732 163.35920715 0.9020096064 6.0441508293  -999.250000 0.9190112352
 1003.7395020  -999.250000 18.202999115 0.0020000001 0.5302699804 1.8569999933 40.328281403 163.15043640 0.8980064392 5.8882498741  -999.250000 0.9140079618
 1003.8919067  -999.250000 18.687999725 0.0040000002 0.5209999681 1.8650000095 39.974422455 162.54222107 0.8930079937 5.7172737122  -999.250000 0.9080095887
 1004.0443115  -999.250000 18.952999115 0.0189999994 0.5434600115 1.8839999437 40.376674652 162.13381958 0.8890064359 5.5093331337  -999.250000 0.9030079842
 1004.1967163  -999.250000 18.562999725 0.0099999998 0.5502899885 1.8880000114 41.591026306 162.22979736 0.8889999986 5.3023314476  -999.250000 0.8960112333
 1004.3491211  -999.250000 18.781000137 0.0040000002 0.5888699889 1.8819999695 42.972892761 162.85075378 0.8949903846 5.4048352242  -999.250000 0.8930048347
 1004.5015259  -999.250000 19.733999252 0.0020000001 0.5615199804 1.8760000467 44.021160126 163.78411865 0.9039891958 5.8474674225  -999.250000 0.8900035620
 1004.6539307  -999.250000 18.906000137 -0.003000000 0.5224599838 1.8569999933 45.321960449 165.17420959 0.9149867892 5.9988188744  -999.250000 0.9029843807
 1004.8063354  -999.250000 18.297000885 0.0020000001 0.5024399757 1.8589999676 47.098575592 166.07119751 0.9269855618 6.0039939880  -999.250000 0.9149855971
 1004.9587402  -999.250000 18.766000748 -0.005000000 0.4858399928 1.8639999628 48.466903687 166.88569641 0.9379867911 6.0079951286  -999.250000 0.9209927917
 1005.1111450  -999.250000 18.483999252 0.0000000000 0.4858399928 1.8830000162 49.803928375 167.59486389 0.9539807439 6.0119953156  -999.250000 0.9100132585
 1005.2634888  -999.250000 19.233999252 0.0000000000 0.4633800089 1.9029999971 51.020538330 167.93432617 0.9719711542 6.0169920921  -999.250000 0.8920288682
 1005.4158936  -999.250000 18.516000748 0.0109999999 0.4472700059 1.9179999828 51.326633453 167.16854858 0.9899711609 6.0209937096  -999.250000 0.8770239949
 1005.5682983  -999.250000 18.172000885 0.0179999992 0.4545899928 1.9199999571 50.033557892 164.86660767 1.0019807816 5.9810638428  -999.250000 0.8809935451
 1005.7207031  -999.250000 18.343999863 0.0099999998 0.4648400247 1.8919999599 47.154460907 162.40692139 0.9970079660 5.9350738525  -999.250000 0.8889871836
 1005.8731079  -999.250000 18.266000748 0.0040000002 0.5053699613 1.8680000305 45.152404785 160.90600586 1.0059856176 5.8900718689  -999.250000 0.9409166574
 1006.0255127  -999.250000 18.906000137 0.0020000001 0.5561500192 1.8609999418 44.726512909 159.68844604 1.0189791918 5.8440737724  -999.250000 0.9789391160
 1006.1779175  -999.250000 18.577999115 -0.002000000 0.5497999787 1.8609999418 45.555335999 158.47244263 1.0329775810 5.9208765030  -999.250000 1.0039598942
 1006.3303223  -999.250000 18.250000000 -0.006000000 0.5532199740 1.8750000000 47.601360321 156.75444031 1.0399887562 6.0088586807  -999.250000 1.0030015707
 1006.4827271  -999.250000 18.187999725 -0.004000000 0.4931600094 1.8980000019 49.855194092 155.16320801 1.0439935923 6.0978574753  -999.250000 0.9990064502
 1006.6351318  -999.250000 18.608999252 0.0070000002 0.4873000085 1.9340000153 51.786453247 154.83065796 1.0430011749 6.1858940125  -999.250000 0.9960035682
