# LAS format log file from PETREL
# Project units are specified as depth units
#==================================================================
~Version information
VERS.   2.0:
WRAP.   NO:
#==================================================================
~Well
STRT .m      1309.8798828 :
STOP .m      4086.9138184 :
STEP .m     0.00000000 :
NULL .        -999.250000 :
COMP.           : COMPANY
WELL.  31/2-19 S   : WELL
FLD.            : FIELD
LOC.            : LOCATION
SRVC.           : SERVICE COMPANY
DATE.  2018-09-11 14:48:33   : Log Export Date {yyyy-MM-dd HH:mm:ss}
PROV.           : PROVINCE
UWI.   31/2-19 S   : UNIQUE WELL ID
API.            : API NUMBER
#==================================================================
~Curve
DEPT .m                   : DEPTH
Lithology_geolink ._      : Lithology_geolink
CALI .in                  : CALI
BS .in                    : BS
DRHO .g/cm3               : DRHO
NPHI .m3/m3               : NPHI
RHOB .g/cm3               : RHOB
GR .gAPI                  : GR
DTC .us/ft                : DTC
DTS .us/ft                : DTS
RDEP .ohm.m               : RDEP
SP .mV                    : SP
RSHA .ohm.m               : RSHA
RMIC .ohm.m               : RMIC
RMED .ohm.m               : RMED
~Parameter
#==================================================================
~Ascii
# ...
 3528.0629883 7.0000000000 9.7379999161 8.5000000000 0.0497411601 0.3020839989 2.5620288849 150.97900391 92.383003235  -999.250000 14.531000137 -190.6880035 14.149000168 0.4672275484 14.151288986
 3528.2153320 7.0000000000 9.7390003204 8.5000000000 0.0718736798 0.3298529983 2.5707323551 150.24499512 92.583007813  -999.250000 15.022999763 -188.8750000 14.505999565 0.1239679456 14.501403809
 3528.3676758 18.000000000 9.7849998474 8.5000000000 0.0504029170 0.4144609869 2.4031956196 160.25000000 97.133003235  -999.250000 14.015000343 -189.2500000 13.788999557 0.1199919879 13.775732040
 3528.5200195 18.000000000 10.074999809 8.5000000000 -0.005128368 0.5034790039 1.9015063047 153.05000305 101.13300323  -999.250000 11.845000267 -188.0630035 11.715999603 0.1190000027 11.708745003
 3528.6726074 18.000000000 10.041000366 8.5000000000 -0.025914373 0.5474470258 1.5934431553 143.40699768 100.65000153  -999.250000 9.5260000229 -188.6880035 10.206999779 0.1190000027 10.200628281
 3528.8249512 18.000000000 10.435000420 8.5000000000 -0.025094453 0.5407969952 1.4199230671 145.44900513 100.41699982  -999.250000 8.8629999161 -189.8130035 9.2130002975 0.1189839765 9.2163972855
 3528.9772949 18.000000000 10.541999817 8.5000000000 -0.024127930 0.4981600046 1.3719551563 144.00500488 96.228996277  -999.250000 9.2609996796 -189.2500000 9.7430000305 0.1169839725 9.7480173111
 3529.1296387 18.000000000 10.597001076 8.5000000000 -0.022215987 0.4776870012 1.3439599276 143.58799744 92.040000916  -999.250000 9.5690002441 -186.8750000 10.527000427 0.1149760038 10.524106026
 3529.2819824 18.000000000 10.401000023 8.5000000000 -0.022829868 0.4430760145 1.3189631701 113.04199982 87.851997375  -999.250000 9.4960002899 -188.3130035 9.9250001907 0.1121217981 9.9231204987
 3529.4345703 18.000000000 10.196000099 8.5000000000 -0.022141570 0.4369559884 1.2961632013 109.58599854 83.664009094  -999.250000 9.2629995346 -188.8750000 9.5340003967 0.1617211550 9.5341415405
 3529.5869141 18.000000000 9.9499988556 8.5000000000 -0.027631095 0.4056720138 1.3473093510 100.10900116 79.475997925  -999.250000 9.0950002670 -189.0630035 9.5559997559 4.0177164078 9.5533847809
 3529.7392578 18.000000000 10.600000381 8.5000000000 -0.037642028 0.3890889883 1.5406361818 94.115997314 75.288002014  -999.250000 8.9940004349 -189.5630035 9.1479997635 10.547341347 9.1476669312
 3529.8916016 18.000000000 11.866000175 8.5000000000 -0.027631205 0.3819530010 1.9379327297 57.583999634 71.099998474  -999.250000 8.7449998856 -188.8130035 9.0959997177 10.966135979 9.1063413620
 3530.0441895 6.0000000000 9.2659997940 8.5000000000 0.0102447001 0.3313240111 2.5194225311 66.051002502 71.050003052  -999.250000 11.036000252 -187.3750000 11.246999741 11.619345665 11.264595985
 3530.1965332 6.0000000000 9.1529998779 8.5000000000 0.0104492409 0.3139539957 2.6510047913 116.23000336 71.133003235  -999.250000 13.951000214 -189.1250000 13.991999626 13.636268616 14.024608612
 3530.3488770 6.0000000000 9.1560001373 8.5000000000 0.0018741009 0.3143199980 2.6539983749 131.69200134 71.050003052  -999.250000 18.875999451 -188.8750000 19.079000473 12.800781250 19.101573944
 3530.5012207 6.0000000000 9.1549997330 8.5000000000 0.0000638141 0.3326280117 2.6530017853 131.56300354 73.516998291  -999.250000 22.295000076 -188.6880035 22.606000900 12.523719788 22.594823837
 3530.6538086 6.0000000000 9.1510000229 8.5000000000 -0.002548451 0.3387649953 2.6539969444 121.66999817 75.483001709  -999.250000 20.236999512 -187.8130035 20.281000137 12.239854813 20.262012482
 3530.8061523 6.0000000000 9.1549997330 8.5000000000 -0.003933788 0.3338289857 2.6530017853 129.36700439 76.199996948  -999.250000 16.952999115 -190.0630035 17.319000244 12.105939865 17.303993225
 3530.9584961 6.0000000000 9.1579999924 8.5000000000 -0.003178760 0.3578119874 2.6540031433 130.89799500 76.033004761  -999.250000 14.982999802 -187.7500000 14.977999687 13.087501526 14.977353096
 3531.1108398 6.0000000000 9.1579999924 8.5000000000 -0.003027157 0.3516759872 2.6559870243 127.29199982 76.150001526  -999.250000 14.722000122 -187.0630035 14.876999855 12.900824547 14.884802818
 3531.2631836 6.0000000000 9.2440004349 8.5000000000 -0.001875497 0.3563219905 2.6479775906 141.85299683 76.000000000  -999.250000 15.859999657 -189.1250000 16.500000000 12.742647171 16.496067047
 3531.4157715 7.0000000000 9.2449998856 8.5000000000 0.0002939344 0.3426780105 2.6339073181 141.69400024 76.033004761  -999.250000 14.791000366 -188.6250000 15.682000160 10.808609009 15.676743507
 3531.5681152 7.0000000000 9.2969999313 8.5000000000 -0.003776215 0.3321079910 2.6050016880 147.10899353 76.116996765  -999.250000 14.578000069 -189.7500000 14.862000465 8.4765415192 14.862737656
 3531.7204590 7.0000000000 9.3009996414 8.5000000000 -0.003908593 0.3323659897 2.6059968472 148.00100708 77.583007813  -999.250000 14.430000305 -187.1880035 14.977000237 16.962623596 14.965256691
 3531.8728027 7.0000000000 9.2959995270 8.5000000000 -0.003032099 0.3473910093 2.6040208340 144.10099792 70.567001343  -999.250000 12.972000122 -186.7500000 13.142000198 17.039520264 13.137995720
 3532.0253906 7.0000000000 9.2989997864 8.5000000000 -0.003087159 0.3813300133 2.6170513630 143.50700378 67.817001343  -999.250000 12.185000420 -187.1250000 12.309000015 16.963941574 12.304564476
 3532.1777344 7.0000000000 9.2880001068 8.5000000000 -0.000950394 0.4012289941 2.6330111027 140.76300049 67.800003052  -999.250000 11.892000198 -186.6250000 11.616999626 16.831510544 11.617550850
 3532.3300781 6.0000000000 9.0410003662 8.5000000000 0.0025425642 0.3651379943 2.6399888992 134.82400513 67.750000000  -999.250000 11.798999786 -184.8130035 11.703000069 16.646463394 11.699557304
 3532.4824219 6.0000000000 8.8730001450 8.5000000000 0.0028898541 0.3083029985 2.6329679489 130.94700623 67.817001343  -999.250000 11.571999550 -184.4380035 11.164999962 16.579927444 11.159014702
 3532.6350098 6.0000000000 8.8109998703 8.5000000000 0.0003115056 0.2568719983 2.6130287647 125.60199738 67.750000000  -999.250000 10.505999565 -183.1250000 9.9200000763 16.569957733 9.9207496643
 3532.7873535 6.0000000000 8.8159999847 8.5000000000 0.0017186458 0.2432209998 2.6220207214 117.68399811 67.750000000  -999.250000 10.512000084 -184.9380035 10.036999702 16.440111160 10.037358284
 3532.9396973 3.0000000000 8.8210000992 8.5000000000 0.0039913910 0.2346969992 2.6350047588 103.62300110 67.333000183  -999.250000 10.727000237 -184.9380035 10.094774246 16.330898285 10.100085258
 3533.0920410 3.0000000000 8.8599996567 8.5000000000 0.0048569343 0.2336799949 2.6379969120 94.897003174 67.300003052  -999.250000 12.227000237 -183.9380035 11.205638885 16.403575897 11.216917992
 3533.2443848 3.0000000000 8.8629999161 8.5000000000 0.0041902694 0.2230210006 2.6359982491 93.304000854 67.300003052  -999.250000 16.059999466 -182.7500000 14.723764420 11.646525383 14.733293533
 3533.3969727 3.0000000000 8.8629999161 8.5000000000 0.0024818706 0.2048079967 2.6349871159 85.592002869 67.317001343  -999.250000 19.841081619 -184.0000000 17.693132401 12.818216324 17.694269180
 3533.5493164 3.0000000000 8.8900003433 8.5000000000 0.0002528990 0.1848679930 2.6309969425 89.297996521 67.266998291  -999.250000 20.489477158 -183.0630035 18.046285629 13.494256020 18.047145844
 3533.7016602 3.0000000000 8.8979997635 8.5000000000 -0.004798036 0.1785430014 2.6289823055 90.416000366 67.282997131  -999.250000 20.788099289 -181.6250000 18.225757599 17.234495163 18.227273941
 3533.8540039 3.0000000000 8.8970003128 8.5000000000 -0.007310849 0.1795569956 2.6180081367 88.986000061 67.199996948  -999.250000 21.471597672 -180.3750000 18.697074890 16.550416946 18.695226669
 3534.0065918 3.0000000000 8.9630002975 8.5000000000 -0.006575427 0.1842560023 2.6230351925 88.762001038 67.383003235  -999.250000 21.221637726 -181.4380035 18.119516373 16.313493729 18.118026733
 3534.1589355 3.0000000000 8.7519998550 8.5000000000 -0.000780989 0.1785520017 2.6340129375 85.192001343 67.682998657  -999.250000 21.419401169 -182.3130035 17.655364990 17.378341675 17.650461197
