# LAS format log file from PETREL
# Project units are specified as depth units
#==================================================================
~Version information
VERS.   2.0:
WRAP.   NO:
#==================================================================
~Well
STRT .m      443.33587646 :
STOP .m      1778.0548096 :
STEP .m     0.00000000 :
NULL .        -999.250000 :
COMP.           : COMPANY
WELL.  31/2-9   : WELL
FLD.            : FIELD
LOC.            : LOCATION
SRVC.           : SERVICE COMPANY
DATE.  2018-09-11 14:48:35   : Log Export Date {yyyy-MM-dd HH:mm:ss}
PROV.           : PROVINCE
UWI.   31/2-9   : UNIQUE WELL ID
API.            : API NUMBER
#==================================================================
~Curve
DEPT .m                   : DEPTH
Lithology_geolink ._      : Lithology_geolink
CALI .in                  : CALI
DRHO .g/cm3               : DRHO
SGR .gAPI                 : SGR
NPHI .m3/m3               : NPHI
RHOB .g/cm3               : RHOB
PEF .b/e                  : PEF
GR .gAPI                  : GR
DTC .us/ft                : DTC
RDEP .ohm.m               : RDEP
SP .mV                    : SP
RSHA .ohm.m               : RSHA
RMED .ohm.m               : RMED
~Parameter
#==================================================================
~Ascii
# ...
 1683.8715820 6.0000000000 12.251999855 0.0340240225 91.569068909 0.3570102453 2.2340440750 4.0350680351 77.625000000 103.18800354 1.7359999418 86.893478394 2.0390000343 2.0390000343
 1684.0239258 6.0000000000 12.248999596 0.0300160255 91.288909912 0.3636932671 2.2280240059 4.1365914345 76.000000000 102.99999237 1.7289999723 87.272483826 1.9730000496 1.9730000496
 1684.1763916 6.0000000000 12.211000443 0.0190440342 89.094284058 0.3676044047 2.2160480022 4.2983512878 76.188003540 102.99999237 1.7280000448 87.631568909 1.8930000067 1.8930000067
 1684.3287354 6.0000000000 12.158000946 0.0209919866 89.483734131 0.3666837513 2.2199840546 4.3238997459 73.188003540 102.18800354 1.7089999914 87.968650818 1.8919999599 1.8919999599
 1684.4812012 6.0000000000 12.116000175 0.0239879899 89.919952393 0.3632438183 2.2239840031 4.3419280052 75.875000000 102.75000000 1.6870000362 88.304656982 1.9299999475 1.9299999475
 1684.6335449 6.0000000000 12.149000168 0.0349559300 90.490165710 0.3605706990 2.2349557877 4.3888115883 74.688003540 102.18800354 1.6599999666 88.512168884 1.9980000257 1.9980000257
 1684.7860107 6.0000000000 12.168999672 0.0399799831 90.872085571 0.3577612638 2.2379879951 4.4856119156 78.438003540 101.74999237 1.6360000372 88.213203430 1.9919999838 1.9919999838
 1684.9383545 6.0000000000 12.184000015 0.0539439134 92.227653503 0.3547819555 2.2479598522 4.6503391266 76.438003540 102.00000000 1.6280000210 87.912208557 1.9880000353 1.9880000353
 1685.0908203 6.0000000000 12.203000069 0.0669583380 94.024681091 0.3551388085 2.2529840469 4.7686219215 81.750000000 101.56301117 1.6460000277 87.610961914 1.9450000525 1.9450000525
 1685.2431641 6.0000000000 12.236000061 0.0729759783 94.406784058 0.3582773805 2.2599718571 4.6952962875 78.250000000 101.56301117 1.6770000458 87.478523254 1.8569999933 1.8569999933
 1685.3955078 6.0000000000 12.255000114 0.0670240372 95.112731934 0.3585290611 2.2619919777 4.4589495659 80.688003540 101.74999237 1.7289999723 87.359474182 1.7910000086 1.7910000086
 1685.5479736 6.0000000000 12.258000374 0.0560440384 97.171394348 0.3583905697 2.2620000839 4.2807126045 81.563003540 102.56300354 1.8159999847 87.240470886 1.8669999838 1.8669999838
 1685.7003174 6.0000000000 12.273999214 0.0530120172 96.887931824 0.3619556427 2.2649881840 4.2829880714 78.938003540 102.56300354 1.9379999638 87.228042603 1.9859999418 1.9859999418
 1685.8527832 6.0000000000 12.329999924 0.0609679744 92.135269165 0.3673982024 2.2869119644 4.5877752304 79.000000000 101.37500000 2.1310000420 87.275810242 2.0350000858 2.0350000858
 1686.0051270 6.0000000000 12.355998993 0.0530320518 87.387222290 0.3587150276 2.3168797493 5.2523317337 73.563003540 97.563003540 2.3729999065 87.322807312 2.2170000076 2.2170000076
 1686.1575928 6.0000000000 12.345999718 0.0400520414 84.636589050 0.3136509955 2.3518598080 5.5587787628 71.750000000 88.375000000 2.5680000782 87.387741089 2.8770000935 2.8770000935
 1686.3099365 6.0000000000 12.296999931 0.0330280438 83.649154663 0.2808512151 2.3729157448 5.0908870697 70.250000000 83.188003540 2.6500000954 87.482620239 4.0739998817 4.0739998817
 1686.4624023 6.0000000000 12.276000023 0.0359879881 84.377235413 0.2628119886 2.3640360832 4.5222778320 74.625000000 83.563003540 2.7130000591 87.578620911 4.3439998627 4.3439998627
 1686.6147461 6.0000000000 12.315999985 0.0330120176 87.728240967 0.2654192150 2.3361122608 4.2998852730 76.500000000 85.000000000 2.7269999981 87.682579041 3.3949999809 3.3949999809
 1686.7672119 6.0000000000 12.352001190 0.0220440347 93.749519348 0.2851905823 2.3091080189 4.2382440567 75.250000000 89.000000000 2.6370000839 87.883201599 2.5980000496 2.5980000496
 1686.9195557 6.0000000000 12.352001190 0.0229959935 96.692596436 0.3031281829 2.2940599918 4.1493568420 73.375000000 92.750000000 2.4769999981 88.084190369 2.3420000076 2.3420000076
 1687.0720215 6.0000000000 12.312999725 0.0369551294 96.893539429 0.3207037151 2.2820384502 4.0832118988 75.750000000 92.999992371 2.2890000343 88.285362244 2.2190001011 2.2190001011
 1687.2243652 6.0000000000 12.241999626 0.0489519611 95.292152405 0.3312278986 2.2720401287 4.2284154892 73.688003540 94.188003540 2.0550000668 88.456314087 2.0099999905 2.0099999905
 1687.3768311 6.0000000000 12.178999901 0.0509935878 93.781623840 0.3276317120 2.2650225163 4.5160770416 74.438003540 97.750000000 1.8480000496 88.621475220 1.8899999857 1.8899999857
 1687.5291748 6.0000000000 12.163999557 0.0450240225 93.669349670 0.3232476115 2.2620120049 4.7729711533 70.688003540 97.563003540 1.6959999800 88.785346985 1.8830000162 1.8830000162
 1687.6815186 6.0000000000 12.163999557 0.0330480784 91.304595947 0.3263674080 2.2540318966 5.1933135986 72.625000000 97.750000000 1.5700000525 88.915481567 1.8990000486 1.8990000486
 1687.8339844 6.0000000000 12.163999557 0.0200520419 90.624160767 0.3366686404 2.2490200996 5.3404154778 72.938003540 97.375000000 1.4819999933 89.013610840 1.8179999590 1.8179999590
 1687.9863281 6.0000000000 12.163999557 0.0199999996 87.416305542 0.3513909280 2.2519881725 5.3250637054 74.813003540 100.37500000 1.4429999590 89.110610962 1.6529999971 1.6529999971
 1688.1387939 5.0000000000 12.163999557 0.0199999996 85.514556885 0.3710213602 2.2420401573 5.0341687202 70.188003540 101.37500000 1.4479999542 89.199638367 1.4939999580 1.4939999580
 1688.2911377 5.0000000000 12.163999557 0.0269719567 84.191230774 0.3857908845 2.2310440540 4.8537211418 64.625000000 103.37500000 1.4570000172 89.260757446 1.4900000095 1.4900000095
 1688.4436035 5.0000000000 12.163999557 0.0250080060 86.029556274 0.3875432014 2.2170560360 4.6747164726 65.375000000 104.56300354 1.4739999771 89.321754456 1.6380000114 1.6380000114
 1688.5959473 5.0000000000 12.163999557 0.0240040068 88.193061829 0.3752395511 2.2100281715 4.6670279503 69.250000000 105.00000000 1.4880000353 89.383750916 1.8660000563 1.8660000563
 1688.7484131 5.0000000000 12.163999557 0.0220080055 88.639938354 0.3653097451 2.2050199509 4.6112241745 71.313003540 105.37500000 1.5360000134 89.504516602 2.0250000954 2.0250000954
 1688.9007568 6.0000000000 12.163999557 0.0229959935 88.486495972 0.3658576310 2.1940441132 4.6289281845 72.125000000 106.74999237 1.6089999676 89.629493713 2.1150000095 2.1150000095
 1689.0532227 6.0000000000 12.163999557 0.0279839747 88.160789490 0.3761070371 2.1940000057 4.6848206520 70.438003540 106.74999237 1.6799999475 89.754592896 2.0859999657 2.0859999657
 1689.2055664 6.0000000000 12.163999557 0.0339759812 88.892639160 0.3874644935 2.1999759674 4.7397794724 69.875000000 106.18800354 1.7239999771 89.740058899 2.0099999905 2.0099999905
 1689.3580322 6.0000000000 12.163999557 0.0379871801 87.525306702 0.3883572817 2.2079741955 4.6612529755 70.938003540 106.74999237 1.7289999723 89.658256531 1.9800000191 1.9800000191
 1689.5103760 6.0000000000 12.163999557 0.0389959961 87.769203186 0.3856309652 2.2109880447 4.4707646370 72.313003540 106.56301117 1.7039999962 89.576324463 1.9750000238 1.9750000238
 1689.6627197 5.0000000000 12.163999557 0.0370080136 86.493103027 0.3817455769 2.2070159912 4.3534688950 74.313003540 107.00000000 1.6699999571 89.569030762 1.9149999619 1.9149999619
 1689.8151855 5.0000000000 12.163999557 0.0350080058 86.676399231 0.3790806532 2.2010240555 4.3231201172 68.563003540 107.18800354 1.6549999714 89.674575806 1.8250000477 1.8250000477
 1689.9675293 5.0000000000 12.163999557 0.0379879810 88.042602539 0.3762812018 2.2009999752 4.3488960266 67.813003540 107.37500000 1.6490000486 89.780570984 1.7460000515 1.7460000515
 1690.1199951 5.0000000000 12.163999557 0.0419839881 89.958389282 0.3725250363 2.2029919624 4.4137396812 71.000000000 107.56300354 1.6460000277 89.847732544 1.7300000191 1.7300000191
 1690.2723389 5.0000000000 12.163999557 0.0400080122 89.853347778 0.3681574762 2.2020039558 4.5225629807 72.625000000 107.18800354 1.6460000277 89.606971741 1.7610000372 1.7610000372
 1690.4248047 6.0000000000 12.163999557 0.0350200161 89.486885071 0.3659388423 2.1980159283 4.4881401062 74.250000000 106.74999237 1.6529999971 89.365959167 1.8179999590 1.8179999590
