# LAS format log file from PETREL
# Project units are specified as depth units
#==================================================================
~Version information
VERS.   2.0:
WRAP.   NO:
#==================================================================
~Well
STRT .m      416.08499146 :
STOP .m      2599.3679199 :
STEP .m     0.00000000 :
NULL .        -999.250000 :
COMP.           : COMPANY
WELL.  31/2-2 R   : WELL
FLD.            : FIELD
LOC.            : LOCATION
SRVC.           : SERVICE COMPANY
DATE.  2018-09-11 14:48:33   : Log Export Date {yyyy-MM-dd HH:mm:ss}
PROV.           : PROVINCE
UWI.   31/2-2 R   : UNIQUE WELL ID
API.            : API NUMBER
#==================================================================
~Curve
DEPT .m                   : DEPTH
Lithology_geolink ._      : Lithology_geolink
CALI .in                  : CALI
DRHO .g/cm3               : DRHO
NPHI .m3/m3               : NPHI
RHOB .g/cm3               : RHOB
GR .gAPI                  : GR
DTC .us/ft                : DTC
RDEP .ohm.m               : RDEP
SP .mV                    : SP
RSHA .ohm.m               : RSHA
RMED .ohm.m               : RMED
~Parameter
#==================================================================
~Ascii
# ...
 2592.3574219  -999.250000 5.6409993172 0.0670000017  -999.250000 2.4920001030 52.437999725 82.375000000 1.8940000534 77.692001343  -999.250000 2.0179998875
 2592.5097656  -999.250000 5.8830003738 0.0860000029  -999.250000 2.5179998875 52.437999725 82.375000000 1.8960000277 79.442001343  -999.250000 2.0179998875
 2592.6623535  -999.250000 6.1019997597 0.1360000074  -999.250000 2.5610001087 52.437999725 82.375000000 1.8960000277 80.192001343  -999.250000 2.0199999809
 2592.8146973  -999.250000 6.3440003395 0.1260000020  -999.250000 2.5369999409 52.437999725 82.375000000 1.8949999809 81.192001343  -999.250000 2.0199999809
 2592.9670410  -999.250000 6.5900006294 0.1289999932 0.3232400119 2.5199999809 52.437999725 82.375000000 1.8990000486 79.942001343  -999.250000 2.0160000324
 2593.1193848  -999.250000 6.7500000000 0.0930000022 0.3217800260 2.4630000591 52.437999725 82.375000000 1.8969999552 79.442001343  -999.250000 2.0179998875
 2593.2719727  -999.250000 6.7540001869 0.1420000046 0.3217800260 2.4879999161 52.437999725 82.375000000 1.8960000277 80.317001343  -999.250000 2.0139999390
 2593.4243164  -999.250000 6.6760001183 0.1369999945 0.3222700059 2.4649999142 52.437999725 82.375000000 1.9019999504 80.817001343  -999.250000 2.0160000324
 2593.5766602  -999.250000 6.6680002213 0.1650000066 0.3222700059 2.4820001125 52.437999725 82.375000000 1.9040000439 81.067001343  -999.250000 2.0179998875
 2593.7290039  -999.250000 6.6680002213 0.1539999992 0.3222700059 2.4670000076 52.437999725 82.375000000 1.9029999971 80.942001343  -999.250000 2.0160000324
 2593.8813477  -999.250000 6.5390005112 0.1420000046 0.3237300217 2.4470000267 52.437999725 82.375000000 1.9049999714 82.442001343  -999.250000 2.0139999390
 2594.0339355  -999.250000 6.4140000343 0.1379999965 0.3247100115 2.4449999332 52.437999725 82.375000000 1.9019999504 79.442001343  -999.250000 2.0139999390
 2594.1862793  -999.250000 6.3200001717 0.1250000000 0.3256800175 2.4360001087 52.437999725 82.375000000 1.9040000439 80.817001343  -999.250000 2.0139999390
 2594.3386230  -999.250000 6.2699995041 0.1270000041 0.3261699975 2.4470000267 52.437999725 82.375000000 1.9010000229 79.942001343  -999.250000 2.0139999390
 2594.4909668  -999.250000 6.2420001030 0.1019999981 0.3261699975 2.4200000763 52.437999725 82.375000000 1.9029999971 80.192001343  -999.250000 2.0120000839
 2594.6435547  -999.250000 6.2069993019 0.0979999974 0.3266600072 2.4100000858 52.437999725 82.375000000 1.9029999971 81.192001343  -999.250000 2.0139999390
 2594.7958984  -999.250000 6.2030000687 0.0909999982 0.3266600072 2.3959999084 52.437999725 82.375000000 1.9010000229 80.817001343  -999.250000 2.0079998970
 2594.9482422  -999.250000 6.1799998283 0.0979999974 0.3266600072 2.4019999504 52.437999725 82.375000000 1.9049999714 82.317001343  -999.250000 2.0120000839
 2595.1005859  -999.250000 6.1519999504 0.1120000035 0.3271499872 2.4219999313 52.437999725 82.375000000 1.9079999924 80.317001343  -999.250000 2.0120000839
 2595.2531738  -999.250000 6.1449995041 0.1400000006 0.3271499872 2.4489998817 52.437999725 82.375000000 1.9079999924 79.317001343  -999.250000 2.0120000839
 2595.4055176  -999.250000 6.1290001869 0.1659999937 0.3271499872 2.4879999161 52.437999725 82.375000000 1.9049999714 80.692001343  -999.250000 2.0079998970
 2595.5578613  -999.250000 6.1250004768 0.1669999957 0.3271499872 2.4839999676 52.437999725 82.375000000 1.9060000181 80.317001343  -999.250000 2.0020000935
 2595.7102051  -999.250000 6.1019997597 0.1480000019 0.3276399970 2.4769999981 52.437999725 82.375000000 1.9060000181 80.442001343  -999.250000 2.0039999485
 2595.8625488  -999.250000 6.0939998627 0.1280000061 0.3276399970 2.4470000267 52.437999725 82.375000000 1.9090000391 80.442001343  -999.250000 2.0060000420
 2596.0151367  -999.250000 6.0700001717 0.0890000015 0.3276399970 2.4019999504 52.437999725 82.375000000 1.9140000343 80.442001343  -999.250000 2.0020000935
 2596.1674805  -999.250000 6.0549998283 0.0829999968 0.3281300068 2.3829998970 52.437999725 82.375000000 1.9090000391 81.067001343  -999.250000 2.0020000935
 2596.3198242  -999.250000 6.0389995575 0.0780000016 0.3281300068 2.3770000935 52.437999725 82.375000000 1.9110000134 81.442001343  -999.250000 1.9989999533
 2596.4721680  -999.250000 6.0039997101 0.1369999945 0.3286100030 2.3519999981 52.437999725 82.375000000 1.9079999924 81.442001343  -999.250000 1.9980000257
 2596.6247559  -999.250000 5.9529995918 -0.015000000 0.3291000128 2.3159999847 52.437999725 82.375000000 1.9060000181 80.567001343  -999.250000 1.9919999838
 2596.7770996  -999.250000 1.5509999990 -0.071999997 0.3691400290 2.3159999847 52.437999725 82.375000000 1.9060000181 81.942001343  -999.250000 1.9830000401
 2596.9294434  -999.250000 1.5970000029 -0.241999999 0.3691400290 2.3910000324 52.437999725 82.375000000 1.9060000181 79.317001343  -999.250000 1.9830000401
 2597.0817871  -999.250000 1.5420000553 0.0189999994 0.3696300089 2.3029999733 52.437999725 82.375000000 1.9060000181 79.442001343  -999.250000 1.9830000401
 2597.2343750  -999.250000 1.5310000181 0.2500000000 0.3696300089 2.3910000324 52.437999725 82.375000000 1.9060000181 80.442001343  -999.250000 1.9830000401
 2597.3867188  -999.250000 1.5310000181 0.5040000081 0.3696300089 2.5409998894 52.437999725 82.375000000 1.9060000181 80.567001343  -999.250000 1.9830000401
 2597.5390625  -999.250000 1.5310000181 0.5040000081 0.3696300089 2.5409998894 52.437999725 82.375000000 1.9060000181 81.192001343  -999.250000 1.9830000401
 2597.6914063  -999.250000 1.5310000181 0.5040000081 0.3696300089 2.5409998894 52.437999725 82.375000000 1.9060000181 80.692001343  -999.250000 1.9830000401
 2597.8439941  -999.250000 1.5310000181 0.5040000081 0.3696300089 2.5409998894 52.437999725 82.375000000 1.9060000181 80.567001343  -999.250000 1.9830000401
 2597.9963379  -999.250000 1.5310000181 0.5040000081 0.3696300089 2.5409998894 52.437999725 82.375000000 1.9060000181 80.442001343  -999.250000 1.9830000401
 2598.1486816  -999.250000 1.5310000181 0.5040000081 0.3696300089 2.5409998894 52.437999725 82.375000000 1.9060000181 80.692001343  -999.250000 1.9830000401
 2598.3010254  -999.250000 1.5310000181 0.5040000081 0.3696300089 2.5409998894 52.437999725 82.375000000 1.9060000181 81.192001343  -999.250000 1.9830000401
 2598.4533691  -999.250000 1.5310000181 0.5040000081 0.3696300089 2.5409998894  -999.250000 82.375000000 1.9060000181 70.275001526  -999.250000 1.9830000401
 2598.6059570  -999.250000 1.5310000181 0.5040000081 0.3696300089 2.5409998894  -999.250000 82.375000000 1.9060000181 70.775001526  -999.250000 1.9830000401
 2598.7583008  -999.250000 1.5310000181 0.5040000081 0.3696300089 2.5409998894  -999.250000  -999.250000  -999.250000  -999.250000  -999.250000  -999.250000
 2598.9106445  -999.250000 1.5310000181 0.5040000081 0.3696300089 2.5409998894  -999.250000  -999.250000  -999.250000  -999.250000  -999.250000  -999.250000
 2599.0629883  -999.250000 1.5310000181 0.5040000081 0.3696300089 2.5409998894  -999.250000  -999.250000  -999.250000  -999.250000  -999.250000  -999.250000
 2599.2155762  -999.250000 1.5310000181 0.5040000081 0.3696300089 2.5409998894  -999.250000  -999.250000  -999.250000  -999.250000  -999.250000  -999.250000
 2599.3679199  -999.250000 8.5000000000 0.5040000081 0.3696300089 2.5409998894  -999.250000  -999.250000  -999.250000  -999.250000  -999.250000  -999.250000
