# LAS format log file from PETREL
# Project units are specified as depth units
#==================================================================
~Version information
VERS.   2.0:
WRAP.   NO:
#==================================================================
~Well
STRT .m      399.05941772 :
STOP .m      2436.9521484 :
STEP .m     0.00000000 :
NULL .        -999.250000 :
COMP.           : COMPANY
WELL.  31/2-1   : WELL
FLD.            : FIELD
LOC.            : LOCATION
SRVC.           : SERVICE COMPANY
DATE.  2018-09-11 14:48:32   : Log Export Date {yyyy-MM-dd HH:mm:ss}
PROV.           : PROVINCE
UWI.   31/2-1   : UNIQUE WELL ID
API.            : API NUMBER
#==================================================================
~Curve
DEPT .m                   : DEPTH
Lithology_geolink ._      : Lithology_geolink
CALI .in                  : CALI
BS .in                    : BS
DRHO .g/cm3               : DRHO
NPHI .m3/m3               : NPHI
RHOB .g/cm3               : RHOB
GR .gAPI                  : GR
DTC .us/ft                : DTC
DTE .us/ft                : DTE
RDEP .ohm.m               : RDEP
SP .mV                    : SP
RSHA .ohm.m               : RSHA
RMED .ohm.m               : RMED
~Parameter
#==================================================================
~Ascii
# ...
 539.87701416  -999.250000 17.651899338 26.000001907 0.0332307667 0.4536984861 2.1749060154 58.025108337 148.05690002 148.84704590 2.9779009819 22.857284546 2.1887040138 2.1887040138
 540.02941895  -999.250000 17.648479462 26.000001907 0.0283075701 0.4486949146 2.1958069801 55.838989258 154.97579956 153.28489685 2.9607009888 23.057443619 2.1975009441 2.1975009441
 540.18182373  -999.250000 17.576709747 26.000001907 0.0305386465 0.4304003119 2.2210080624 56.757171631 155.42849731 154.66896057 2.9472000599 23.257442474 2.2085020542 2.2085020542
 540.33422852  -999.250000 17.604009628 26.000001907 0.0394621566 0.4313996136 2.2532050610 57.550018311 153.62571716 153.56504822 2.9335010052 23.268785477 2.2276000977 2.2276000977
 540.48657227  -999.250000 17.643690109 26.000001907 0.0528414100 0.4296953082 2.2756021023 57.622940063 151.82249451 152.03695679 2.9204072952 23.225435257 2.2480030060 2.2480030060
 540.63897705  -999.250000 17.581579208 26.000001907 0.0702246651 0.4042029977 2.2866930962 56.825679779 150.85069275 150.89434814 2.9159049988 23.179277420 2.2901909351 2.2901909351
 540.79138184  -999.250000 17.480089188 26.000001907 0.0383215882 0.4243997037 2.2400979996 56.084129333 149.99969482 149.99468994 2.9260981083 23.133275986 2.2989959717 2.2989959717
 540.94378662  -999.250000 17.355390549 26.000001907 0.0277709253 0.4217992127 2.2230989933 54.835609436 149.14869690 149.15699768 2.9298000336 22.928174973 2.2827029228 2.2827029228
 541.09619141  -999.250000 17.298000336 26.000001907 0.0523744486 0.4127000868 2.2168979645 55.978240967 148.35769653 148.59967041 2.9386990070 22.587947845 2.2664029598 2.2664029598
 541.24859619  -999.250000 17.297199249 26.000001907 0.0586916320 0.4149003029 2.1839001179 59.803649902 148.49389648 150.33561707 2.9515969753 22.921600342 2.2501049042 2.2501049042
 541.40100098  -999.250000 17.343109131 26.000001907 0.0640748888 0.4263086915 2.1830070019 63.043590546 155.45710754 153.90753174 2.9568989277 23.485971451 2.2749071121 2.2749071121
 541.55340576  -999.250000 17.350759506 26.000001907 0.0692290738 0.4483976960 2.1992030144 65.032806396 156.06930542 154.55474854 2.9568998814 23.785182953 2.3085899353 2.3085899353
 541.70581055  -999.250000 17.247779846 26.000001907 0.0691541806 0.4421001971 2.2085940838 65.577346802 151.59309387 151.69154358 2.9568998814 23.704404831 2.3048000336 2.3048000336
 541.85821533  -999.250000 17.196130753 26.000001907 0.0478461534 0.4427027106 2.1895949841 65.216873169 147.95080566 150.97030640 2.9568998814 23.277738571 2.3008999825 2.3008999825
 542.01062012  -999.250000 17.277919769 26.000001907 0.0245370436 0.4517003894 2.1715979576 64.481742859 155.54649353 152.69917297 2.9568998814 22.797739029 2.2971000671 2.2971000671
 542.16302490  -999.250000 17.355590820 26.000001907 0.0099991998 0.4533981979 2.1649079323 66.162689209 151.56559753 150.14292908 2.9568998814 23.310705185 2.2932000160 2.2932000160
 542.31542969  -999.250000 17.292480469 26.000001907 0.0181545857 0.4458020031 2.1999070644 66.170097351 143.30650330 145.86312866 2.9568989277 23.623973846 2.2893989086 2.2893989086
 542.46783447  -999.250000 17.175840378 26.000001907 0.0352318771 0.4557025135 2.2353980541 65.176330566 145.00419617 145.23870850 2.9510979652 23.864131927 2.2820010185 2.2820010185
 542.62017822  -999.250000 17.425830841 26.000001907 0.0489955954 0.4703033864 2.2264940739 64.509086609 146.74710083 146.59448242 2.9306008816 23.903682709 2.2736990452 2.2736990452
 542.77258301  -999.250000 17.614189148 26.000001907 0.0357753299 0.4941003025 2.1809990406 64.676780701 147.94020081 147.68977356 2.9038031101 23.568960190 2.2553000450 2.2553000450
 542.92498779  -999.250000 17.502180099 26.000001907 0.0507621169 0.4971002042 2.1740000248 64.802780151 148.27009583 148.17123413 2.8773040771 23.000913620 2.2141039371 2.2141039371
 543.07739258  -999.250000 17.283899307 26.000001907 0.0328546241 0.4996997118 2.1698999405 64.880798340 148.33129883 148.40991211 2.8511049747 22.400913239 2.1452128887 2.1452128887
 543.22979736  -999.250000 17.317699432 26.000001907 0.0230792947 0.4942995012 2.1684000492 65.167831421 148.73570251 149.67437744 2.8202071190 22.553491592 2.0700180531 2.0700180531
 543.38220215  -999.250000 17.481189728 26.000001907 0.0245374460 0.4664914012 2.1855061054 64.994689941 152.64370728 152.44111633 2.7797958851 23.073097229 2.0519969463 2.0519969463
 543.53460693  -999.250000 17.451520920 26.000001907 0.0250000004 0.4440923035 2.2015049458 64.322273254 155.51800537 152.41888428 2.7438950539 23.541809082 2.0341980457 2.0341980457
 543.68701172  -999.250000 17.500610352 26.000001907 0.0250000004 0.4224961102 2.2169089317 64.043899536 146.92849731 148.60845947 2.7042000294 23.340124130 2.0165159702 2.0165159702
 543.83941650  -999.250000 17.531120300 26.000001907 0.0351497792 0.4103991091 2.2432000637 64.143379211 145.62719727 145.78886414 2.6737020016 22.795463562 2.0541050434 2.0541050434
 543.99182129  -999.250000 17.602920532 26.000001907 0.0276923086 0.4074048102 2.2415950298 64.143768311 144.33050537 144.41122437 2.6532030106 22.558980942 2.1017050743 2.1017050743
 544.14422607  -999.250000 17.665510178 26.000001907 0.0133067686 0.4258052111 2.2229011059 65.551872253 143.36360168 144.02494812 2.6475019455 22.387140274 2.1668729782 2.1668729782
 544.29663086  -999.250000 17.702079773 26.000001907 0.0228470173 0.4483102858 2.2286069393 66.673461914 144.86889648 146.09202576 2.6438879967 21.997850418 2.1875228882 2.1875228882
 544.44903564  -999.250000 17.669439316 26.000001907 0.0470016003 0.4656144977 2.2396879196 66.868896484 150.74909973 149.34652710 2.6219871044 21.620067596 2.0786800385 2.0786800385
 544.60144043  -999.250000 17.558420181 26.000001907 0.0687705204 0.4912114143 2.2183721066 65.284187317 151.03230286 151.51412964 2.5798969269 21.745601654 1.9532920122 1.9532920122
 544.75378418  -999.250000 17.411909103 26.000001907 0.0787665173 0.5124003291 2.1665859222 63.996738434 153.62068176 153.71270752 2.5361080170 22.045169830 1.8279490471 1.8279490471
 544.90618896  -999.250000 17.230310440 26.000001907 0.0673127696 0.5130050778 2.1383121014 64.012107849 156.37809753 155.75302124 2.5104091167 22.484758377 1.8034420013 1.8034420013
 545.05859375  -999.250000 17.248130798 26.000001907 0.0590792932 0.5237045288 2.1639959812 65.101470947 156.80967712 156.41069031 2.5024960041 22.822328568 1.8670010567 1.8670010567
 545.21099854  -999.250000 17.317939758 26.000001907 0.0410837010 0.5338945985 2.1557989120 65.338500977 155.97760010 155.68501282 2.4848001003 22.745729446 1.9406789541 1.9406789541
 545.36340332  -999.250000 17.407800674 26.000001907 0.0396916308 0.5206934810 2.1535120010 65.139572144 154.18949890 154.15942383 2.4645071030 22.595729828 1.9764909744 1.9764909744
 545.51580811  -999.250000 17.418680191 26.000001907 0.0560704842 0.5037056208 2.1842010021 65.338859558 152.40089417 152.39254761 2.4572989941 22.465888977 1.9985940456 1.9985940456
 545.66821289  -999.250000 17.355690002 26.000001907 0.0573083684 0.5196034908 2.1880009174 66.077003479 150.61250305 150.71055603 2.4458129406 22.354198456 2.0131909847 2.0131909847
 545.82061768  -999.250000 17.312730789 26.000001907 0.0417753309 0.5307921767 2.1928958893 67.213966370 149.22160339 149.38432312 2.4697959423 22.732837677 2.0054020882 2.0054020882
 545.97302246  -999.250000 17.399129868 26.000001907 0.0246211458 0.5033938289 2.1777000427 67.323226929 148.43479919 148.46772766 2.4981920719 23.533826828 1.9975990057 1.9975990057
 546.12542725  -999.250000 17.510299683 26.000001907 0.0203076918 0.4786973894 2.1760969162 66.067298889 147.74920654 148.04557800 2.5211939812 23.819070816 1.9802039862 1.9802039862
 546.27783203  -999.250000 17.493000031 26.000001907 0.0191537831 0.4668110907 2.1628139019 64.658256531 148.19030762 148.27861023 2.5444018841 23.068798065 1.9620029926 1.9620029926
 546.43023682  -999.250000 17.491910934 26.000001907 0.0520024002 0.4856024981 2.1865870953 64.434646606 148.89089966 149.09152222 2.5668940544 22.214700699 1.9526000023 1.9526000023
