# LAS format log file from PETREL
# Project units are specified as depth units
#==================================================================
~Version information
VERS.   2.0:
WRAP.   NO:
#==================================================================
~Well
STRT .m      445.17501831 :
STOP .m      1838.8730469 :
STEP .m     0.00000000 :
NULL .        -999.250000 :
COMP.           : COMPANY
WELL.  31/2-10   : WELL
FLD.            : FIELD
LOC.            : LOCATION
SRVC.           : SERVICE COMPANY
DATE.  2018-09-11 14:48:32   : Log Export Date {yyyy-MM-dd HH:mm:ss}
PROV.           : PROVINCE
UWI.   31/2-10   : UNIQUE WELL ID
API.            : API NUMBER
#==================================================================
~Curve
DEPT .m                   : DEPTH
Lithology_geolink ._      : Lithology_geolink
CALI .in                  : CALI
DRHO .g/cm3               : DRHO
NPHI .m3/m3               : NPHI
RHOB .g/cm3               : RHOB
PEF .b/e                  : PEF
GR .gAPI                  : GR
DTC .us/ft                : DTC
RDEP .ohm.m               : RDEP
SP .mV                    : SP
RSHA .ohm.m               : RSHA
RMED .ohm.m               : RMED
~Parameter
#==================================================================
~Ascii
# ...
 818.25018311  -999.250000 22.648000717 -0.002000000 0.5039300323 1.7100000381 4.0840001106 62.595642090 161.68820190 1.0050032139 60.394001007  -999.250000 0.9579955935
 818.40258789  -999.250000 22.607000351 -0.006000000 0.5066699982 1.6929999590 4.1570000648 62.812911987 161.61000061 1.0099979639 61.127704620  -999.250000 0.9490035772
 818.55499268  -999.250000 22.502998352 -0.008000000 0.5433000326 1.6879999638 4.7979998589 59.251426697 161.53173828 1.0179967880 60.394294739  -999.250000 0.9180123806
 818.70739746  -999.250000 22.302000046 -0.010000000 0.5589199662 1.6959999800 5.3670001030 62.748600006 161.45471191 1.0479879379 60.144100189  -999.250000 0.9050051570
 818.85980225  -999.250000 22.017999649 -0.008000000 0.5894399881 1.7109999657 5.2360000610 61.219615936 161.38972473 1.0749891996 60.393901825  -999.250000 0.9259915948
 819.01220703  -999.250000 21.395999908 -0.009000000 0.5976600051 1.7170000076 4.8920001984 58.844951630 161.35835266 1.0969911814 59.394401550  -999.250000 0.9609860182
 819.16461182  -999.250000 20.721000671 -0.009000000 0.5957000256 1.7200000286 4.7829999924 61.249034882 161.35804749 1.1169919968 59.424987793  -999.250000 0.9829911590
 819.31701660  -999.250000 20.322999954 -0.009000000 0.5553399920 1.7220000029 4.6529998779 61.156036377 161.36614990 1.1459884644 58.925197601  -999.250000 0.9899972081
 819.46936035  -999.250000 19.952999115 -0.006000000 0.5270199776 1.7269999981 4.6420001984 65.559471130 161.37420654 1.1719791889 58.644226074  -999.250000 0.9969943762
 819.62176514  -999.250000 19.590999603 -0.005000000 0.4785900116 1.7319999933 4.8889999390 61.003654480 161.38162231 1.2089703083 58.893802643  -999.250000 1.0119879246
 819.77416992  -999.250000 19.375000000 -0.008000000 0.5039199591 1.7400000095 4.8299999237 60.594326019 161.37927246 1.2559623718 58.863025665  -999.250000 1.0359808207
 819.92657471  -999.250000 19.552000046 -0.010000000 0.4830600023 1.7450000048 4.5089998245 59.688362122 161.32066345 1.2839888334 59.362796783  -999.250000 1.0689867735
 820.07897949  -999.250000 19.580999374 -0.011000000 0.4856800139 1.7380000353 4.1040000916 60.780559540 161.15069580 1.2780023813 59.144088745  -999.250000 1.0829943419
 820.23138428  -999.250000 19.656000137 -0.005000000 0.4930000007 1.7359999418 3.8010001183 60.250213623 160.91938782 1.2700031996 58.863113403  -999.250000 1.1009927988
 820.38378906  -999.250000 19.385000229 -0.003000000 0.5043199658 1.7350000143 3.8220000267 60.156036377 160.68832397 1.2530068159 59.143886566  -999.250000 1.0940028429
 820.53619385  -999.250000 19.250000000 0.0010000000 0.5067499876 1.7430000305 3.8650000095 56.970279694 160.45739746 1.2470023632 58.363311768  -999.250000 1.0920008421
 820.68859863  -999.250000 19.221000671 0.0020000001 0.5166000128 1.7469999790 3.5880000591 57.499786377 160.22979736 1.2529976368 59.080715179  -999.250000 1.0800048113
 820.84100342  -999.250000 19.336000443 -0.001000000 0.5421599746 1.7439999580 3.3099999428 56.250499725 160.03767395 1.2470023632 59.799713135  -999.250000 1.0760015249
 820.99340820  -999.250000 19.464000702 -0.007000000 0.5485000014 1.7369999886 3.0699999332 56.843765259 159.95028687 1.2529976368 59.331188202  -999.250000 1.0690028667
 821.14581299  -999.250000 19.367000580 -0.009000000 0.5358099937 1.7400000095 3.0690000057 56.937961578 159.97071838 1.2370064259 59.612884521  -999.250000 1.0590040684
 821.29821777  -999.250000 19.382999420 -0.005000000 0.5238400102 1.7569999695 3.3269999027 59.748874664 160.02693176 1.1950168610 59.113197327  -999.250000 1.0659971237
 821.45056152  -999.250000 19.260000229 0.0020000001 0.5183100104 1.7790000439 3.4879999161 63.902667999 160.08302307 1.1580296755 59.393775940  -999.250000 1.0929784775
 821.60296631  -999.250000 19.495000839 0.0020000001 0.5074000359 1.7899999619 3.8190000057 63.469352722 160.13893127 1.1400144100 59.144199371  -999.250000 1.1269727945
 821.75537109  -999.250000 20.184999466 0.0020000001 0.5049600005 1.7940000296 4.1560001373 63.905647278 160.18492126 1.1330056190 59.144001007  -999.250000 1.1349935532
 821.90777588  -999.250000 20.781999588 0.0020000001 0.5052899718 1.7949999571 5.0349998474 65.312438965 160.13380432 1.1519923210 59.455875397  -999.250000 1.1320011616
 822.06018066  -999.250000 20.314998627 0.0030000000 0.5053699613 1.7920000553 6.2969999313 63.969539642 159.85659790 1.1839871407 58.925212860  -999.250000 1.1300008297
 822.21258545  -999.250000 19.239000320 0.0010000000 0.4780899882 1.7920000553 5.6719999313 59.751689911 159.45579529 1.2099896669 58.924999237  -999.250000 1.1250020266
 822.36499023  -999.250000 18.565000534 -0.006000000 0.4909799993 1.7869999409 4.1100001335 57.531887054 159.05319214 1.2249940634 58.644115448  -999.250000 1.1469911337
 822.51739502  -999.250000 18.364999771 -0.012000000 0.5056200027 1.7860000134 2.8989999294 57.624961853 158.65075684 1.2349959612 58.425086975  -999.250000 1.1460003853
 822.66979980  -999.250000 18.187000275 -0.017000001 0.5167599916 1.7879999876 2.3450000286 60.062023163 158.25433350 1.2399979830 58.674900055  -999.250000 1.1729891300
 822.82220459  -999.250000 18.025999069 -0.014000000 0.4949399829 1.7890000343 2.2239999771 62.811897278 157.92102051 1.2559936047 57.425498962  -999.250000 1.1839956045
 822.97460938  -999.250000 17.922000885 -0.012000000 0.4784299731 1.7860000134 2.2520000935 68.497718811 157.78924561 1.2809900045 58.424598694  -999.250000 1.1909971237
 823.12701416  -999.250000 17.906000137 -0.008000000 0.5021300316 1.7790000439 2.2369999886 70.187324524 157.89369202 1.3109879494 58.455989838  -999.250000 1.1650103331
 823.27941895  -999.250000 17.906000137 -0.010000000 0.5056999922 1.7690000534 2.3459999561 67.626029968 158.08535767 1.3090008497 58.425010681  -999.250000 1.1410096884
 823.43182373  -999.250000 17.906000137 -0.008000000 0.4618099928 1.7630000114 2.3589999676 63.407688141 158.27696228 1.2860091925 58.674900055  -999.250000 1.1200084686
 823.58416748  -999.250000 17.906000137 -0.008000000 0.4278799891 1.7560000420 2.4830000401 63.250125885 158.46833801 1.2520271540 58.394226074  -999.250000 1.1090087891
 823.73657227  -999.250000 17.983999252 -0.008000000 0.4725199938 1.7530000210 2.4930000305 65.623100281 158.65835571 1.1960448027 58.893600464  -999.250000 1.1040040255
 823.88897705  -999.250000 18.065000534 -0.008000000 0.5109199882 1.7549999952 2.5460000038 65.874801636 158.83273315 1.1420432329 58.644199371  -999.250000 1.1079968214
 824.04138184  -999.250000 18.052000046 -0.012000000 0.5357400179 1.7569999695 2.4779999256 66.499748230 158.97007751 1.1040152311 58.924884796  -999.250000 1.1209948063
 824.19378662  -999.250000 18.007999420 -0.011000000 0.4780499935 1.7649999857 2.3849999905 67.124748230 159.08514404 1.0750116110 59.205886841  -999.250000 1.1379932165
 824.34619141  -999.250000 18.000000000 -0.011000000 0.4996300042 1.7669999599 2.4249999523 65.438682556 159.19763184 1.0540084839 58.925113678  -999.250000 1.1539936066
 824.49859619  -999.250000 18.025999069 -0.009000000 0.4806999862 1.7690000534 2.6180000305 68.061950684 159.30992126 1.0370067358 59.424800873  -999.250000 1.1619967222
 824.65100098  -999.250000 18.069999695 -0.008000000 0.4759899974 1.7680000067 2.8069999218 65.688957214 159.41900635 1.0439971685 59.455989838  -999.250000 1.1530035734
 824.80340576  -999.250000 18.077999115 -0.007000000 0.4589699805 1.7680000067 2.8099999428 66.437705994 159.49220276 1.0619928837 59.425010681  -999.250000 1.1450031996
 824.95581055  -999.250000 18.077999115 -0.008000000 0.4812200069 1.7660000324 2.7739999294 65.000572205 159.43376160 1.0889891386 59.955787659  -999.250000 1.1240084171
 825.10821533  -999.250000 18.156000137 -0.012000000 0.5168600082 1.7710000277 2.5669999123 60.657737732 159.19630432 1.1089919806 59.706100464  -999.250000 1.1060070992
 825.26062012  -999.250000 18.224000931 -0.016000001 0.5017800331 1.7819999456 2.5079998970 62.593227386 158.89057922 1.1289919615 59.924911499  -999.250000 1.1139967442
 825.41302490  -999.250000 18.260000229 -0.015000000 0.5138399601 1.8020000458 2.5590000153 61.375488281 158.58456421 1.1399955750 59.675098419  -999.250000 1.1289939880
