# LAS format log file from PETREL
# Project units are specified as depth units
#==================================================================
~Version information
VERS.   2.0:
WRAP.   NO:
#==================================================================
~Well
STRT .m      447.54394531 :
STOP .m      3384.4443359 :
STEP .m     0.00000000 :
NULL .        -999.250000 :
COMP.           : COMPANY
WELL.  31/2-8   : WELL
FLD.            : FIELD
LOC.            : LOCATION
SRVC.           : SERVICE COMPANY
DATE.  2018-09-11 14:48:34   : Log Export Date {yyyy-MM-dd HH:mm:ss}
PROV.           : PROVINCE
UWI.   31/2-8   : UNIQUE WELL ID
API.            : API NUMBER
#==================================================================
~Curve
DEPT .m                   : DEPTH
Lithology_geolink ._      : Lithology_geolink
CALI .in                  : CALI
DRHO .g/cm3               : DRHO
SGR .gAPI                 : SGR
NPHI .m3/m3               : NPHI
RHOB .g/cm3               : RHOB
PEF .b/e                  : PEF
GR .gAPI                  : GR
DTC .us/ft                : DTC
RDEP .ohm.m               : RDEP
SP .mV                    : SP
RSHA .ohm.m               : RSHA
RMED .ohm.m               : RMED
~Parameter
#==================================================================
~Ascii
# ...
 1030.9311523  -999.250000 17.916000366 0.0250000004  -999.250000 0.5396699905 2.1119999886  -999.250000 81.861610413 147.97225952 1.4800353050 45.854057312 1.1909615993 1.1909615993
 1031.0834961  -999.250000 18.016000748 0.0240000002  -999.250000 0.5103099942 2.0950000286  -999.250000 78.431770325 148.21270752 1.4580705166 46.562145233 1.2209037542 1.2209037542
 1031.2359619  -999.250000 18.180999756 0.0199999996  -999.250000 0.5037099719 2.0710000992  -999.250000 78.911415100 149.67015076 1.4460288286 47.095294952 1.2549182177 1.2549182177
 1031.3883057  -999.250000 18.198999405 0.0179999992  -999.250000 0.5096600056 2.0539999008  -999.250000 80.559387207 151.21450806 1.4400192499 47.079071045 1.2819135189 1.2819135189
 1031.5407715  -999.250000 18.287000656 0.0250000004  -999.250000 0.5046899915 2.0590000153  -999.250000 81.139152527 151.50094604 1.4270312786 47.266395569 1.2710264921 1.2710264921
 1031.6931152  -999.250000 18.833999634 0.0359999985  -999.250000 0.4706799984 2.0799999237  -999.250000 83.713729858 150.89880371 1.4240096807 46.866291046 1.2670127153 1.2670127153
 1031.8455811  -999.250000 18.625000000 0.0379999988  -999.250000 0.4767699838 2.1029999256  -999.250000 77.597679138 149.66432190 1.4190120697 47.025485992 1.2520359755 1.2520359755
 1031.9979248  -999.250000 18.232000351 0.0419999994  -999.250000 0.4912599921 2.1240000725  -999.250000 76.403778076 148.07850647 1.3861057758 47.138637543 1.2430288792 1.2430288792
 1032.1503906  -999.250000 18.108999252 0.0460000001  -999.250000 0.5029199719 2.1319999695  -999.250000 73.295974731 146.86511230 1.3770215511 47.109096527 1.2479879856 1.2479879856
 1032.3027344  -999.250000 18.013000488 0.0460000001  -999.250000 0.4877199829 2.1210000515  -999.250000 76.808670044 146.69006348 1.3720159531 47.500740051 1.2609584332 1.2609584332
 1032.4550781  -999.250000 17.975000381 0.0410000011  -999.250000 0.4885500073 2.1019999981  -999.250000 79.191467285 148.43547058 1.3391057253 46.792850494 1.2859199047 1.2859199047
 1032.6075439  -999.250000 18.021999359 0.0340000018  -999.250000 0.4815100133 2.0840001106  -999.250000 77.575225830 150.10383606 1.3210576773 47.428943634 1.2949711084 1.2949711084
 1032.7598877  -999.250000 18.099000931 0.0280000009  -999.250000 0.4820999801 2.0729999542  -999.250000 78.037124634 150.31591797 1.3349552155 47.350322723 1.2680865526 1.2680865526
 1032.9123535  -999.250000 18.016000748 0.0270000007  -999.250000 0.4561199844 2.0690000057  -999.250000 77.829673767 151.38861084 1.3100800514 47.228393555 1.2530480623 1.2530480623
 1033.0646973  -999.250000 18.218000412 0.0230000000  -999.250000 0.4252899885 2.0639998913  -999.250000 79.594902039 152.02833557 1.2850800753 47.541736603 1.2380480766 1.2380480766
 1033.2171631  -999.250000 18.844999313 0.0149999997  -999.250000 0.4248600006 2.0569999218  -999.250000 80.307731628 151.55682373 1.2830047607 46.991775513 1.2300192118 1.2300192118
 1033.3695068  -999.250000 19.093999863 0.0099999998  -999.250000 0.4329999983 2.0510001183  -999.250000 80.289085388 151.76551819 1.2421312332 46.915302277 1.1931184530 1.1931184530
 1033.5219727  -999.250000 19.090000153 0.0060000001  -999.250000 0.4529800117 2.0450000763  -999.250000 79.882301331 151.01835632 1.2110744715 46.414608002 1.1880120039 1.1880120039
 1033.6743164  -999.250000 18.983999252 0.0040000002  -999.250000 0.4315000176 2.0409998894  -999.250000 78.654945374 149.63978577 1.2189743519 45.952480316 1.1909903288 1.1909903288
 1033.8267822  -999.250000 18.875999451 0.0010000000  -999.250000 0.4098699987 2.0380001068  -999.250000 78.532379150 149.56568909 1.2020409107 46.248046875 1.2209278345 1.2209278345
 1033.9791260  -999.250000 19.059000015 0.0020000001  -999.250000 0.4011899829 2.0450000763  -999.250000 74.164047241 149.69677734 1.1960191727 45.895137787 1.2259839773 1.2259839773
 1034.1315918  -999.250000 19.281000137 0.0030000000  -999.250000 0.4306700230 2.0610001087  -999.250000 74.128067017 149.12297058 1.2109639645 46.241882324 1.2269976139 1.2269976139
 1034.2839355  -999.250000 19.360000610 0.0010000000  -999.250000 0.4375999868 2.0759999752  -999.250000 74.269538879 148.20422363 1.2329295874 45.889137268 1.2130448818 1.2130448818
 1034.4364014  -999.250000 19.516000748 0.0000000000  -999.250000 0.4408100247 2.0910000801  -999.250000 75.053482056 147.38442993 1.2439734936 46.310642242 1.1890577078 1.1890577078
 1034.5887451  -999.250000 19.690000534 0.0089999996  -999.250000 0.4168600142 2.1080000401  -999.250000 75.913246155 146.38896179 1.2529711723 46.934997559 1.1670705080 1.1670705080
 1034.7410889  -999.250000 19.806999207 0.0250000004  -999.250000 0.4067400098 2.1240000725  -999.250000 77.468757629 145.48770142 1.2649614811 46.820468903 1.1929166317 1.1929166317
 1034.8935547  -999.250000 19.889999390 0.0410000011  -999.250000 0.3944399953 2.1280000210  -999.250000 81.873855591 144.98979187 1.2659968138 47.363254547 1.2358622551 1.2358622551
 1035.0458984  -999.250000 19.809999466 0.0419999994  -999.250000 0.3963199854 2.1180000305  -999.250000 84.365043640 144.70018005 1.2510480881 47.634918213 1.2619166374 1.2619166374
 1035.1983643  -999.250000 19.693000793 0.0350000001  -999.250000 0.4101699889 2.1040000916  -999.250000 79.957206726 144.76980591 1.2330433130 48.143367767 1.2340673208 1.2340673208
 1035.3507080  -999.250000 19.628000259 0.0299999993  -999.250000 0.4004999995 2.1029999256  -999.250000 76.150245667 145.89396667 1.2339967489 48.506546021 1.1951249838 1.1951249838
 1035.5031738  -999.250000 20.208999634 0.0299999993  -999.250000 0.3813100159 2.1059999466  -999.250000 71.613540649 147.48275757 1.2240240574 48.640571594 1.2219351530 1.2219351530
 1035.6555176  -999.250000 20.716999054 0.0329999998  -999.250000 0.3605199754 2.1119999886  -999.250000 72.204055786 148.19116211 1.2160255909 48.991870880 1.2389454842 1.2389454842
 1035.8079834  -999.250000 20.690999985 0.0309999995  -999.250000 0.3643199801 2.1099998951  -999.250000 75.059829712 148.11662292 1.2209879160 48.595279694 1.2509711981 1.2509711981
 1035.9603271  -999.250000 20.586999893 0.0199999996  -999.250000 0.3667599857 2.1010000706  -999.250000 76.681808472 147.89048767 1.2259839773 49.027606964 1.2091344595 1.2091344595
 1036.1127930  -999.250000 20.455999374 0.0099999998  -999.250000 0.3563800156 2.0969998837  -999.250000 74.527938843 148.46350098 1.2319855690 48.963211060 1.2179784775 1.2179784775
 1036.2651367  -999.250000 20.228000641 0.0010000000  -999.250000 0.3683499992 2.0999999046  -999.250000 72.737739563 148.32896423 1.2559231520 48.767627716 1.2359422445 1.2359422445
 1036.4176025  -999.250000 20.115999222 -0.003000000  -999.250000 0.3885599971 2.1089999676  -999.250000 72.388824463 147.03765869 1.2869254351 48.870746613 1.2549543381 1.2549543381
 1036.5699463  -999.250000 20.052000046 -0.006000000  -999.250000 0.4007200003 2.1119999886  -999.250000 75.750198364 145.52931213 1.3079327345 48.716495514 1.2530064583 1.2530064583
 1036.7222900  -999.250000 19.801000595 -0.006000000  -999.250000 0.3850499988 2.1059999466  -999.250000 77.550247192 143.31260681 1.3339166641 48.932304382 1.2480159998 1.2480159998
 1036.8747559  -999.250000 19.590000153 -0.003000000  -999.250000 0.3607099950 2.0950000286  -999.250000 78.938560486 141.25944519 1.3688879013 48.832324982 1.2250736952 1.2250736952
 1037.0270996  -999.250000 19.235000610 0.0000000000  -999.250000 0.3540000021 2.0959999561  -999.250000 79.287895203 140.70457458 1.3889359236 48.597751617 1.1940993071 1.1940993071
 1037.1795654  -999.250000 19.044000626 0.0049999999  -999.250000 0.3431099951 2.1129999161  -999.250000 79.118545532 140.89599609 1.4089360237 48.802341461 1.1581152678 1.1581152678
 1037.3319092  -999.250000 19.169000626 0.0099999998  -999.250000 0.3472999930 2.1400001049  -999.250000 77.356658936 140.95260620 1.4369102716 48.680393219 1.1430480480 1.1430480480
 1037.4843750  -999.250000 19.437000275 0.0080000004  -999.250000 0.3481299877 2.1429998875  -999.250000 76.542945862 142.16325378 1.4519640207 48.639099121 1.1659446955 1.1659446955
