# LAS format log file from PETREL
# Project units are specified as depth units
#==================================================================
~Version information
VERS.   2.0:
WRAP.   NO:
#==================================================================
~Well
STRT .m      1309.8798828 :
STOP .m      4086.9138184 :
STEP .m     0.00000000 :
NULL .        -999.250000 :
COMP.           : COMPANY
WELL.  31/2-19 S   : WELL
FLD.            : FIELD
LOC.            : LOCATION
SRVC.           : SERVICE COMPANY
DATE.  2018-09-11 14:48:33   : Log Export Date {yyyy-MM-dd HH:mm:ss}
PROV.           : PROVINCE
UWI.   31/2-19 S   : UNIQUE WELL ID
API.            : API NUMBER
#==================================================================
~Curve
DEPT .m                   : DEPTH
Lithology_geolink ._      : Lithology_geolink
CALI .in                  : CALI
BS .in                    : BS
DRHO .g/cm3               : DRHO
NPHI .m3/m3               : NPHI
RHOB .g/cm3               : RHOB
GR .gAPI                  : GR
DTC .us/ft                : DTC
DTS .us/ft                : DTS
RDEP .ohm.m               : RDEP
SP .mV                    : SP
RSHA .ohm.m               : RSHA
RMIC .ohm.m               : RMIC
RMED .ohm.m               : RMED
~Parameter
#==================================================================
~Ascii
 1309.8798828  -999.250000 12.420998573 17.500000000 -0.690232992 0.5151690245 1.5360000134 82.858779907  -999.250000 494.34698486 0.0706119984 170.50000000 0.1262239963  -999.250000  -999.250000
 1310.0322266  -999.250000 13.855999947 17.500000000 -0.485646009 0.5388129950 1.2350000143 97.701004028  -999.250000 487.39898682 0.0757540017 167.93800354 0.1149329990 0.5040160418 0.1150176153
 1310.1846924  -999.250000 15.248999596 17.500000000 -0.284794003 0.5674359798 1.2170000076 131.28515625  -999.250000 484.36700439 0.1235549971 165.75000000 0.1047990024 0.6328966618 0.1050080061
 1310.3370361  -999.250000 16.232999802 17.500000000 -0.111326002 0.5636640191 1.3769999743 152.98893738  -999.250000 476.76101685 0.3646659851 165.25000000 0.1018809974 0.9864331484 0.1020048037
 1310.4895020  -999.250000 15.838998795 17.500000000 -0.053789999 0.5643810034 1.5540000200 162.69465637  -999.250000 555.75000000 2.1080000401 165.25000000 0.4081470072 1.1998293400 0.4077548087
 1310.6418457  -999.250000 14.951999664 17.500000000 -0.048622001 0.5643810034 1.6759999990 161.49700928  -999.250000 526.16802979 1.9889999628 164.81300354 0.4763219953 1.1960031986 0.4759455323
 1310.7943115  -999.250000 13.685999870 17.500000000 -0.045788001 0.5275830030 1.7109999657 134.73812866  -999.250000 429.41201782 2.0329999924 165.87500000 0.6433259845 1.4817709923 0.6428663135
 1310.9466553  -999.250000 13.578999519 17.500000000 -0.046716999 0.5186870098 1.7319999933 127.92727661  -999.250000 401.99600220 2.4219999313 165.06300354 1.0030000210 1.5719279051 1.0027115345
 1311.0991211  -999.250000 13.574000359 17.500000000 -0.044188000 0.4885259867 1.7660000324 123.79081726 134.88798523 416.81799316 2.0499999523 165.50000000 1.2250000238 1.4940624237 1.2248222828
 1311.2514648  -999.250000 13.486000061 17.500000000 -0.037271000 0.5074890256 1.8420000076 128.10705566 136.84442139 398.83502197 2.0999999046 165.50000000 1.3150000572 1.4380447865 1.3149279356
 1311.4039307  -999.250000 13.475999832 17.500000000 -0.031445999 0.5095480084 1.9309999943 128.05534363 138.85937500 395.63101196 2.1930000782 165.06300354 1.3930000067 1.3770488501 1.3929375410
 1311.5562744  -999.250000 13.376999855 17.500000000 -0.026262000 0.5394139886 1.9950000048 124.92312622 138.00668335 399.58602905 2.2890000343 165.18800354 1.4950000048 0.8903902173 1.4949182272
 1311.7087402  -999.250000 12.885999680 17.500000000 -0.025687000 0.5285869837 2.0099999905 122.57725525 135.92565918 399.12002563 2.4010000229 166.62500000 1.5590000153 0.3104643822 1.5589487553
 1311.8610840  -999.250000 12.880998611 17.500000000 -0.024607001 0.5453240275 2.0030000210 114.61540985 135.04769897 412.23699951 2.7300000191 165.68800354 1.7209999561 0.2430536896 1.7208701372
 1312.0134277  -999.250000 12.914999962 17.500000000 -0.023469999 0.4970610142 2.0069999695 104.41428375 135.33654785 390.44699097 2.9470000267 165.75000000 1.7910000086 0.1401649266 1.7908879519
 1312.1658936  -999.250000 12.946000099 17.500000000 -0.020700000 0.4904479980 2.0220000744 106.10157013 135.89953613 381.72100830 3.0050001144 165.75000000 1.7999999523 0.1010312513 1.7999927998
 1312.3182373  -999.250000 13.036999702 17.500000000 -0.023177000 0.4930900037 2.0269999504 105.04514313 133.35008240 381.72100830 3.0959999561 164.56300354 1.8830000162 0.1289551556 1.8828670979
 1312.4707031  -999.250000 13.060000420 17.500000000 -0.026110999 0.5341780186 2.0339999199 106.87911987 133.53784180 381.72100830 3.2230000496 163.43800354 1.9630000591 0.1489839852 1.9629359245
 1312.6230469  -999.250000 13.105999947 17.500000000 -0.027345000 0.5632299781 2.0230000019 115.69943237 134.71005249 381.72100830 3.2320001125 162.18800354 1.9420000315 0.1420056075 1.9420168400
 1312.7755127  -999.250000 13.097000122 17.500000000 -0.023750000 0.5744019747 1.9650000334 118.03393555 135.41644287 403.33200073 2.9389998913 160.25000000 1.7239999771 0.1010328308 1.7241744995
 1312.9278564  -999.250000 13.498000145 17.500000000 -0.030062001 0.5855619907 1.8480000496 120.88826752 141.03549194 441.83999634 2.7049999237 159.50000000 1.5559999943 0.1019991934 1.5561345816
 1313.0803223  -999.250000 14.875000000 17.500000000 -0.033171002 0.5871379972 1.6909999847 133.96693420 141.80339050 442.61102295 2.6289999485 157.31300354 1.3159999847 0.1469639689 1.3161921501
 1313.2326660  -999.250000 16.488000870 17.500000000 -0.030308001 0.5896080136 1.5880000591 164.99342346 142.60736084 454.81799316 1.9249999523 155.37500000 1.1330000162 0.1100296453 1.1331466436
 1313.3851318  -999.250000 17.608999252 17.500000000 -0.025483999 0.5827929974 1.5599999428 180.70787048 144.61340332 459.90301514 1.8719999790 155.50000000 1.1039999723 0.1090007946 1.1040232182
 1313.5374756  -999.250000 17.403999329 17.500000000 -0.022902001 0.5711420178 1.6030000448 192.76312256 143.47891235 448.02200317 1.8819999695 155.00000000 1.1200000048 0.1429727674 1.1199871302
 1313.6899414  -999.250000 19.129999161 17.500000000 -0.012273000 0.5492770076 1.6549999714 195.06616211 141.47660828 446.49499512 1.8750000000 153.56300354 1.1579999924 0.2049503624 1.1579695940
 1313.8422852  -999.250000 19.586000443 17.500000000 -0.013523000 0.5435979962 1.6269999743 209.22265625 141.40106201 446.05899048 1.8719999790 153.56300354 1.1940000057 0.1550400704 1.1939711571
 1313.9946289  -999.250000 21.302000046 17.500000000 -0.012629000 0.5550109744 1.6019999981 210.41764832 143.96488953 449.27197266 1.8009999990 153.25000000 1.1829999685 0.1120688617 1.1830176115
 1314.1470947  -999.250000 22.208000183 17.500000000 -0.015045000 0.5863270164 1.5959999561 228.21704102 145.72958374 434.31100464 1.7339999676 152.50000000 1.1950000525 0.1199935898 1.1949903965
 1314.2994385  -999.250000 22.440000534 17.500000000 -0.021090999 0.5840550065 1.5829999447 243.75535583 145.06008911 444.95700073 1.6369999647 152.25000000 1.1640000343 0.1150080115 1.1640496254
 1314.4519043  -999.250000 22.183000565 17.500000000 -0.023689000 0.6161209941 1.6069999933 242.47254944 150.42369080 438.01599121 1.6039999723 152.25000000 1.1599999666 0.1289887726 1.1600031853
 1314.6042480  -999.250000 20.537000656 17.500000000 -0.016491000 0.5925769806 1.6670000553 233.48339844 152.58653259 435.24798584 1.5889999866 152.25000000 1.1339999437 0.1639439613 1.1340415478
 1314.7567139  -999.250000 19.965000153 17.500000000 -0.005846000 0.6224700212 1.7810000181 226.98913574 153.42033386 444.40701294 1.6139999628 151.56300354 1.1139999628 0.1630008072 1.1140159369
 1314.9090576  -999.250000 18.510999680 17.500000000 -0.005110000 0.5768489838 1.7790000439 226.94107056 143.06730652 429.59600830 1.6230000257 151.68800354 1.0720000267 0.2069647461 1.0720336437
 1315.0615234  -999.250000 19.044000626 17.500000000 -0.013450000 0.5755320191 1.6840000153 203.40361023 146.45428467 447.29098511 1.5930000544 152.31300354 1.0319999456 0.1480472386 1.0320320129
 1315.2138672  -999.250000 19.452999115 17.500000000 -0.024154000 0.5535910130 1.6069999933 204.37376404 143.74018860 442.72201538 1.5650000572 152.00000000 1.0049999952 0.1719807684 1.0050215721
 1315.3663330  -999.250000 20.173000336 17.500000000 -0.024820000 0.5624750257 1.6319999695 211.28367615 144.67425537 435.18200684 1.4900000095 151.62500000 0.9590029716 0.1150456369 0.9590368271
 1315.5186768  -999.250000 20.164999008 17.500000000 -0.025371000 0.5326849818 1.7089999914 209.06289673 145.22055054 435.41198730 1.4609999657 151.18800354 0.9376429915 0.1419783682 0.9380168319
 1315.6711426  -999.250000 21.247999191 17.500000000 -0.025227999 0.5601729751 1.7460000515 207.12829590 144.38566589 445.91400146 1.4600000381 151.50000000 0.9388499856 0.1709767878 0.9389992356
 1315.8234863  -999.250000 21.805000305 17.500000000 -0.021531001 0.5557550192 1.6929999590 221.68562317 142.86921692 437.71499634 1.4420000315 150.50000000 0.9251729846 0.1939815730 0.9250112176
 1315.9758301  -999.250000 21.989000320 17.500000000 -0.018309999 0.5843870044 1.6809999943 232.57104492 142.40574646 436.94195557 1.4720000029 150.43800354 0.9422619939 0.1820192188 0.9419727325
