# LAS format log file from PETREL
# Project units are specified as depth units
#==================================================================
~Version information
VERS.   2.0:
WRAP.   NO:
#==================================================================
~Well
STRT .m      443.33587646 :
STOP .m      1778.0548096 :
STEP .m     0.00000000 :
NULL .        -999.250000 :
COMP.           : COMPANY
WELL.  31/2-9   : WELL
FLD.            : FIELD
LOC.            : LOCATION
SRVC.           : SERVICE COMPANY
DATE.  2018-09-11 14:48:35   : Log Export Date {yyyy-MM-dd HH:mm:ss}
PROV.           : PROVINCE
UWI.   31/2-9   : UNIQUE WELL ID
API.            : API NUMBER
#==================================================================
~Curve
DEPT .m                   : DEPTH
Lithology_geolink ._      : Lithology_geolink
CALI .in                  : CALI
DRHO .g/cm3               : DRHO
SGR .gAPI                 : SGR
NPHI .m3/m3               : NPHI
RHOB .g/cm3               : RHOB
PEF .b/e                  : PEF
GR .gAPI                  : GR
DTC .us/ft                : DTC
RDEP .ohm.m               : RDEP
SP .mV                    : SP
RSHA .ohm.m               : RSHA
RMED .ohm.m               : RMED
~Parameter
#==================================================================
~Ascii
# ...
 617.68145752  -999.250000 16.315999985 0.0170016028  -999.250000 0.4337265790 2.1460015774 11.468214989 45.938449860 136.12445068 2.6539969444 74.250961304 2.0680065155 2.0680065155
 617.83386230  -999.250000 16.186000824 0.0100028031  -999.250000 0.4195856750 2.1410019398 19.496784210 47.062637329 134.75010681 2.6459970474 74.323966980 2.0839960575 2.0839960575
 617.98626709  -999.250000 15.833000183 0.0090004001  -999.250000 0.4119930565 2.1250064373 19.188125610 46.156898499 135.00010681 2.6389870644 74.305007935 2.0740206242 2.0740206242
 618.13867188  -999.250000 15.505999565 0.0169967972  -999.250000 0.4199867845 2.1170032024 12.400718689 47.278194427 135.12649536 2.6230015755 74.287010193 2.0999951363 2.0999951363
 618.29107666  -999.250000 15.338000298 0.0339931920  -999.250000 0.4384925663 2.1229975224 9.5401449203 43.780647278 137.00160217 2.6250064373 74.269004822 2.0939888954 2.0939888954
 618.44342041  -999.250000 15.681999207 0.0389959961  -999.250000 0.4510599077 2.1329917908 7.8603458405 43.344013214 138.99960327 2.6329934597 74.378906250 2.0799951553 2.0799951553
 618.59582520  -999.250000 16.086000443 0.0160184223  -999.250000 0.4524089396 2.1210095882 5.8995704651 43.376399994 137.99949646 2.6170001030 74.500900269 2.0680017471 2.0680017471
 618.74822998  -999.250000 16.811000824 0.0080064079  -999.250000 0.4555275142 2.1150047779 5.0276975632 46.875099182 136.74960327 2.6169917583 74.622901917 2.0719976425 2.0719976425
 618.90063477  -999.250000 16.686000824 0.0139975967  -999.250000 0.4657959044 2.1090023518 5.7337169647 47.125114441 135.75010681 2.5959982872 74.761947632 2.0659987926 2.0659987926
 619.05303955  -999.250000 16.687000275 0.0419887863  -999.250000 0.4807440042 2.1329903603 8.2879762650 47.405761719 136.00019836 2.5919928551 74.911941528 2.0629935265 2.0629935265
 619.20544434  -999.250000 16.920999527 0.0599927902  -999.250000 0.4800103009 2.1539916992 7.5742864609 46.813850403 136.50144958 2.5740015507 75.060935974 2.0470016003 2.0470016003
 619.35784912  -999.250000 16.632999420 0.0510036051  -999.250000 0.4656457305 2.1599977016 5.4928340912 48.937850952 140.12460327 2.5779976845 75.123977661 2.0509905815 2.0509905815
 619.51025391  -999.250000 16.142999649 0.0270096119  -999.250000 0.4581030309 2.1460056305 4.2075142860 48.561946869 139.12390137 2.5719976425 75.023040771 2.0270047188 2.0270047188
 619.66265869  -999.250000 16.152999878 0.0090072080  -999.250000 0.4773622751 2.1370036602 5.0586585999 45.937561035 136.37515259 2.5659930706 74.922035217 2.0390071869 2.0390071869
 619.81506348  -999.250000 15.737000465 0.0070008012  -999.250000 0.4876300097 2.1389992237 7.1831488609 44.843463898 136.74839783 2.5489943027 74.819038391 2.0570042133 2.0570042133
 619.96746826  -999.250000 16.086999893 0.0050008008  -999.250000 0.4377700090 2.1370007992 12.599830627 43.500926971 132.75199890 2.5349829197 74.672058105 2.0680041313 2.0680041313
 620.11987305  -999.250000 16.336999893 0.0159955956  -999.250000 0.4302600026 2.1409983635 9.8920850754 45.814151764 137.75320435 2.4919817448 74.526062012 2.0779919624 2.0779919624
 620.27227783  -999.250000 16.007999420 0.0229971968  -999.250000 0.4739199877 2.1250064373 10.288840294 47.251174927 141.75059509 2.4689857960 74.380058289 2.0679519176 2.0679519176
 620.42468262  -999.250000 15.838998795 0.0469903871  -999.250000 0.5001800060 2.1309976578 8.0478973389 48.717899323 142.50180054 2.4509735107 74.371002197 2.0079717636 2.0079717636
 620.57702637  -999.250000 16.086999893 0.0280152187  -999.250000 0.4891244173 2.1050207615 10.146316528 47.343788147 144.74934387 2.4179883003 74.398979187 1.9729868174 1.9729868174
 620.72943115  -999.250000 16.340999603 0.0230040047  -999.250000 0.4811632037 2.1069984436 9.8362503052 46.812225342 143.12590027 2.3889904022 74.426979065 1.9399864674 1.9399864674
 620.88183594  -999.250000 16.937000275 0.0080120144  -999.250000 0.5153163075 2.0980072021 8.3991518021 44.875411987 145.37379456 2.3649923801 74.372047424 1.9060059786 1.9060059786
 621.03424072  -999.250000 17.544000626 0.0050012018  -999.250000 0.5071432590 2.1019983292 8.1251096725 45.905010223 142.37500000 2.3459911346 74.235054016 1.9210076332 1.9210076332
 621.18664551  -999.250000 17.652999878 0.0000020024  -999.250000 0.4628777206 2.0800087452 9.6713800430 43.437484741 142.37425232 2.3239991665 74.099052429 1.9399871826 1.9399871826
 621.33905029  -999.250000 17.563999176 0.0039983983  -999.250000 0.4644093812 2.0510118008 20.417695999 42.154972076 140.50120544 2.3220057487 74.013038635 1.9080071449 1.9080071449
 621.49145508  -999.250000 16.794000626 0.0030004005  -999.250000 0.4910893142 2.0080170631 76.790420532 39.594177246 143.49995422 2.3360006809 74.103958130 1.9259947538 1.9259947538
 621.64385986  -999.250000 15.942000389 0.0099971965  -999.250000 0.5109020472 2.0159969330 48.417373657 40.031459808 143.37364197 2.3380017281 74.194961548 1.9130167961 1.9130167961
 621.79626465  -999.250000 15.744999886 0.0129987989  -999.250000 0.5087099671 2.0549843311 21.948598862 41.188877106 140.00180054 2.3420016766 74.285964966 1.9550068378 1.9550068378
 621.94866943  -999.250000 15.465999603 0.0159987994  -999.250000 0.4753600061 2.1229727268 14.955797195 43.374675751 144.49850464 2.3459918499 74.009117126 1.9720040560 1.9720040560
 622.10107422  -999.250000 15.291000366 0.0090028029  -999.250000 0.4500600100 2.1619842052 10.884630203 42.563663483 140.75160217 2.3259952068 73.709121704 1.9820120335 1.9820120335
 622.25347900  -999.250000 15.288000107 -0.001995595  -999.250000 0.4378599823 2.1699969769 9.1806821823 44.219051361 144.74519348 2.3139991760 73.409118652 2.0119616985 2.0119616985
 622.40588379  -999.250000 15.095998764 0.0019983982  -999.250000 0.4400999844 2.1660015583 8.1564102173 44.282775879 138.75260925 2.3130006790 73.662902832 1.9639711380 1.9639711380
 622.55828857  -999.250000 14.920000076 0.0039991993  -999.250000 0.4559600055 2.1640007496 7.2113785744 46.499851227 142.00030518 2.3139975071 74.199996948 1.9279855490 1.9279855490
 622.71063232  -999.250000 15.227000237 0.0089959949  -999.250000 0.4772814512 2.1659982204 8.1792240143 46.313911438 142.37585449 2.3110008240 74.736785889 1.9100087881 1.9100087881
 622.86303711  -999.250000 15.270999908 0.0080008013  -999.250000 0.4639753401 2.1640017033 7.3636541367 48.593463898 144.49995422 2.3129999638 74.981903076 1.9320060015 1.9320060015
 623.01544189  -999.250000 15.267000198 0.0070008012  -999.250000 0.4491959214 2.1699953079 7.0662379265 47.250164032 144.37420654 2.3130042553 74.752090454 1.9470212460 1.9470212460
 623.16784668  -999.250000 14.863999367 0.0050008013  -999.250000 0.4226706326 2.1839942932 5.1257777214 47.656661987 142.37434387 2.3239991665 74.522094727 1.9999984503 1.9999984503
 623.32025146  -999.250000 14.862000465 -0.001997197  -999.250000 0.3952609897 2.1969947815 4.7341566086 49.315315247 140.74905396 2.3220016956 74.339073181 1.9959985018 1.9959985018
 623.47259521  -999.250000 15.286000252 -0.002999199  -999.250000 0.3831996620 2.1989982128 4.6640563011 55.094001770 138.37500000 2.3259999752 74.584800720 1.9919999838 1.9919999838
 623.62500000  -999.250000 16.055000305 -0.004998398  -999.250000 0.3895049393 2.1910064220 5.4913368225 56.625000000 139.00000000 2.3550000191 74.829803467 1.9789999723 1.9789999723
 623.77740479  -999.250000 16.825000763 0.0049919900  -999.250000 0.3976934552 2.2129824162 5.9915995598 54.250000000 136.12500000 2.3650000095 75.074798584 2.0179998875 2.0179998875
 623.92980957  -999.250000 17.839000702 0.0099959951  -999.250000 0.4065064788 2.2419769764 4.9498353004 52.655998230 148.37500000 2.3570001125 74.864082336 2.1070001125 2.1070001125
 624.08221436  -999.250000 18.013000488 0.0179935917  -999.250000 0.4176155627 2.2769718170 3.6610324383 53.469001770 137.00000000 2.3589999676 74.552124023 2.1500000954 2.1500000954
 624.23461914  -999.250000 17.663000107 0.0050052083  -999.250000 0.4213285148 2.2460124493 3.0882291794 57.812137604 135.12675476 2.3399941921 74.240119934 2.0819694996 2.0819694996
