# LAS format log file from PETREL
# Project units are specified as depth units
#==================================================================
~Version information
VERS.   2.0:
WRAP.   NO:
#==================================================================
~Well
STRT .m      326.13598633 :
STOP .m      1938.6804199 :
STEP .m     0.00000000 :
NULL .        -999.250000 :
COMP.           : COMPANY
WELL.  31/2-17 A   : WELL
FLD.            : FIELD
LOC.            : LOCATION
SRVC.           : SERVICE COMPANY
DATE.  2018-09-11 14:48:33   : Log Export Date {yyyy-MM-dd HH:mm:ss}
PROV.           : PROVINCE
UWI.   31/2-17 A   : UNIQUE WELL ID
API.            : API NUMBER
#==================================================================
~Curve
DEPT .m                   : DEPTH
Lithology_geolink ._      : Lithology_geolink
CALI .in                  : CALI
DRHO .g/cm3               : DRHO
RHOB .g/cm3               : RHOB
GR .gAPI                  : GR
DTC .us/ft                : DTC
RDEP .ohm.m               : RDEP
RMED .ohm.m               : RMED
~Parameter
#==================================================================
~Ascii
# ...
 751.02722168  -999.250000 8.6134996414 -1.004699945 2.2200000286 52.113998413 152.25840759 1.3393000364  -999.250000
 751.17962646  -999.250000 8.6134996414 -1.004699945 2.2200000286 55.133201599 152.25840759 1.3106000423  -999.250000
 751.33203125  -999.250000 8.6134996414 -1.004699945 2.2200000286 54.490398407 152.25840759 1.2819000483  -999.250000
 751.48443604  -999.250000 8.6134996414 -1.004699945 2.2200000286 56.039699554 152.25840759 1.2552000284  -999.250000
 751.63684082  -999.250000 8.6134996414 -1.004699945 2.2200000286 53.997501373 152.25840759 1.2322000265  -999.250000
 751.78924561  -999.250000 8.6134996414 -1.004699945 2.2200000286 54.640300751 152.25840759 1.2122000456  -999.250000
 751.94158936  -999.250000 8.6134996414 -1.004699945 2.2200000286 50.926200867 152.25840759 1.1935000420  -999.250000
 752.09399414  -999.250000 8.6134996414 -1.004699945 2.2200000286 52.679500580 152.25840759 1.1750999689  -999.250000
 752.24639893  -999.250000 8.6134996414 -1.004699945 2.2200000286 50.679599762 152.25840759 1.1569000483  -999.250000
 752.39880371  -999.250000 8.6134996414 -1.004699945 2.2200000286 52.148399353 152.25840759 1.1390999556  -999.250000
 752.55120850  -999.250000 8.6134996414 -1.004699945 2.2200000286 53.127601624 152.25840759 1.1246999502  -999.250000
 752.70361328  -999.250000 8.6134996414 -1.004699945 2.2200000286 55.591598511 152.25840759 1.1194000244  -999.250000
 752.85601807  -999.250000 8.6134996414 -1.004699945 2.2200000286 54.612400055 152.25840759 1.1230000257  -999.250000
 753.00842285  -999.250000 8.6134996414 -1.004699945 2.2200000286 54.367599487 152.25840759 1.1294000149  -999.250000
 753.16082764  -999.250000 8.6134996414 -1.004699945 2.2200000286 49.455600739 152.25840759 1.1359000206  -999.250000
 753.31323242  -999.250000 8.6134996414 -1.004699945 2.2200000286 52.107700348 152.25840759 1.1421999931  -999.250000
 753.46563721  -999.250000 8.6134996414 -1.004699945 2.2200000286 48.717998505 152.25840759 1.1485999823  -999.250000
 753.61804199  -999.250000 8.6134996414 -1.004699945 2.2200000286 51.667198181 152.25840759 1.1565999985  -999.250000
 753.77044678  -999.250000 8.6134996414 -1.004699945 2.2200000286 52.484901428 152.25840759 1.1677999496  -999.250000
 753.92279053  -999.250000 8.6134996414 -1.004699945 2.2200000286 52.165699005 152.25840759 1.1844999790  -999.250000
 754.07519531  -999.250000 8.6134996414 -1.004699945 2.2200000286 51.664501190 152.25840759 1.2141000032  -999.250000
 754.22760010  -999.250000 8.6134996414 -1.004699945 2.2200000286 51.866798401 152.25840759 1.2565000057  -999.250000
 754.38000488  -999.250000 8.6134996414 -1.004699945 2.2200000286 53.617198944 152.25840759 1.2961000204  -999.250000
 754.53240967  -999.250000 8.6134996414 -1.004699945 2.2200000286 57.534099579 152.25840759 1.3202999830  -999.250000
 754.68481445  -999.250000 8.6134996414 -1.004699945 2.2200000286 56.514198303 152.25840759 1.3315000534  -999.250000
 754.83721924  -999.250000 8.6134996414 -1.004699945 2.2200000286 60.186298370 152.25840759 1.3418999910  -999.250000
 754.98962402  -999.250000 8.6134996414 -1.004699945 2.2200000286 58.472599030 152.25840759 1.3631000519  -999.250000
 755.14202881  -999.250000 8.6134996414 -1.004699945 2.2200000286 59.492599487 152.25840759 1.3980000019  -999.250000
 755.29443359  -999.250000 8.6134996414 -1.004699945 2.2200000286 52.917098999 152.25840759 1.4407999516  -999.250000
 755.44683838  -999.250000 8.6134996414 -1.004699945 2.2200000286 47.745899200 152.25840759 1.4851000309  -999.250000
 755.59924316  -999.250000 8.6134996414 -1.004699945 2.2200000286 46.807598114 152.25840759 1.5242999792  -999.250000
 755.75164795  -999.250000 8.6134996414 -1.004699945 2.2200000286 49.568401337 152.25840759 1.5500999689  -999.250000
 755.90405273  -999.250000 8.6134996414 -1.004699945 2.2200000286 52.327899933 152.25840759 1.5601999760  -999.250000
 756.05639648  -999.250000 8.6134996414 -1.004699945 2.2200000286 51.552600861 152.25840759 1.5620000362  -999.250000
 756.20880127  -999.250000 8.6134996414 -1.004699945 2.2200000286 50.226398468 152.25840759 1.5620000362  -999.250000
 756.36120605  -999.250000 8.6134996414 -1.004699945 2.2200000286 51.169200897 152.25840759 1.5620000362  -999.250000
 756.51361084  -999.250000 8.6134996414 -1.004699945 2.2200000286 49.210700989 152.25840759 1.5620000362  -999.250000
 756.66601563  -999.250000 8.6134996414 -1.004699945 2.2200000286 53.960399628 152.25840759 1.5621999502  -999.250000
 756.81842041  -999.250000 8.6134996414 -1.004699945 2.2200000286 52.526901245 152.25840759 1.5645999908  -999.250000
 756.97082520  -999.250000 8.6134996414 -1.004699945 2.2200000286 55.423301697 152.25840759 1.5746999979  -999.250000
 757.12322998  -999.250000 8.6134996414 -1.004699945 2.2200000286 49.939300537 152.25840759 1.5959000587  -999.250000
 757.27563477  -999.250000 8.6134996414 -1.004699945 2.2200000286 51.822700500 152.25840759 1.6224000454  -999.250000
 757.42803955  -999.250000 8.6134996414 -1.004699945 2.2200000286 55.780899048 152.25840759 1.6418000460  -999.250000
 757.58044434  -999.250000 8.6134996414 -1.004699945 2.2200000286 58.025001526 152.25840759 1.6489000320  -999.250000
 757.73284912  -999.250000 8.6134996414 -1.004699945 2.2200000286 54.116901398 152.25840759 1.6495000124  -999.250000
 757.88525391  -999.250000 8.6134996414 -1.004699945 2.2200000286 48.976001740 152.25840759 1.6481000185  -999.250000
 758.03759766  -999.250000 8.6134996414 -1.004699945 2.2200000286 45.719100952 152.25840759 1.6453000307  -999.250000
 758.19000244  -999.250000 8.6134996414 -1.004699945 2.2200000286 47.708301544 152.25840759 1.6416000128  -999.250000
 758.34240723  -999.250000 8.6134996414 -1.004699945 2.2200000286 48.973800659 152.25840759 1.6375000477  -999.250000
 758.49481201  -999.250000 8.6134996414 -1.004699945 2.2200000286 49.950801849 152.25840759 1.6337000132  -999.250000
 758.64715576  -999.250000 8.6134996414 -1.004699945 2.2200000286 52.506099701 152.25840759 1.6300014257  -999.250000
 758.79956055  -999.250000 8.6134996414 -1.004699945 2.2200000286 51.974998474 152.25840759 1.6260015965  -999.250000
 758.95196533  -999.250000 8.6134996414 -1.004699945 2.2200000286 56.662101746 152.25840759 1.6220015287  -999.250000
 759.10437012  -999.250000 8.6134996414 -1.004699945 2.2200000286 56.065299988 152.25840759 1.6181015968  -999.250000
 759.25677490  -999.250000 8.6134996414 -1.004699945 2.2200000286 57.087100983 152.25840759 1.6145014763  -999.250000
 759.40917969  -999.250000 8.6134996414 -1.004699945 2.2200000286 52.155700684 152.25840759 1.6100018024  -999.250000
 759.56158447  -999.250000 8.6134996414 -1.004699945 2.2200000286 49.218101501 152.25840759 1.6011035442  -999.250000
 759.71392822  -999.250000 8.6134996414 -1.004699945 2.2200000286 46.833198547 152.25840759 1.5835140944  -999.250000
 759.86633301  -999.250000 8.6134996414 -1.004699945 2.2200000286 50.295700073 152.25840759 1.5581203699  -999.250000
 760.01873779  -999.250000 8.6134996414 -1.004699945 2.2200000286 52.216701508 152.25840759 1.5297228098  -999.250000
 760.17114258  -999.250000 8.6134996414 -1.004699945 2.2200000286 54.110900879 152.25840759 1.5007115602  -999.250000
 760.32354736  -999.250000 8.6134996414 -1.004699945 2.2200000286 51.136901855 152.25840759 1.4702121019  -999.250000
 760.47595215  -999.250000 8.6134996414 -1.004699945 2.2200000286 51.663898468 152.25840759 1.4375131130  -999.250000
 760.62835693  -999.250000 8.6134996414 -1.004699945 2.2200000286 53.535198212 152.25840759 1.4028139114  -999.250000
 760.78076172  -999.250000 8.6134996414 -1.004699945 2.2200000286 55.285198212 152.25840759 1.3662146330  -999.250000
 760.93316650  -999.250000 8.6134996414 -1.004699945 2.2200000286 58.712501526 152.25840759 1.3285151720  -999.250000
 761.08557129  -999.250000 8.6134996414 -1.004699945 2.2200000286 55.086101532 152.25840759 1.2905153036  -999.250000
 761.23797607  -999.250000 8.6134996414 -1.004699945 2.2200000286 55.575698853 152.25840759 1.2524152994  -999.250000
