# LAS format log file from PETREL
# Project units are specified as depth units
#==================================================================
~Version information
VERS.   2.0:
WRAP.   NO:
#==================================================================
~Well
STRT .m      452.86209106 :
STOP .m      2603.6831055 :
STEP .m     0.00000000 :
NULL .        -999.250000 :
COMP.           : COMPANY
WELL.  31/2-3   : WELL
FLD.            : FIELD
LOC.            : LOCATION
SRVC.           : SERVICE COMPANY
DATE.  2018-09-11 14:48:34   : Log Export Date {yyyy-MM-dd HH:mm:ss}
PROV.           : PROVINCE
UWI.   31/2-3   : UNIQUE WELL ID
API.            : API NUMBER
#==================================================================
~Curve
DEPT .m                   : DEPTH
Lithology_geolink ._      : Lithology_geolink
CALI .in                  : CALI
DRHO .g/cm3               : DRHO
NPHI .m3/m3               : NPHI
RHOB .g/cm3               : RHOB
GR .gAPI                  : GR
DTC .us/ft                : DTC
DTE .us/ft                : DTE
RDEP .ohm.m               : RDEP
SP .mV                    : SP
RSHA .ohm.m               : RSHA
RMED .ohm.m               : RMED
~Parameter
#==================================================================
~Ascii
# ...
 738.15484619  -999.250000 18.444000244 -0.019999599 0.5787050128 1.7600047588 19.687999725 172.16224670 170.20060730 1.0759999752 35.215034485  -999.250000 1.5840008259
 738.30725098  -999.250000 18.545000076 -0.018000800 0.5856471658 1.7530168295 19.108999252 172.16294861 170.20060730 1.0759999752 35.338951111  -999.250000 1.5849996805
 738.45959473  -999.250000 18.652000427 -0.019998398 0.5848206282 1.7380421162 19.937000275 172.16223145 170.20060730 1.0770000219 35.588802338  -999.250000 1.5959911346
 738.61199951  -999.250000 18.739000320 -0.020999199 0.5624579191 1.7370023727 20.903999329 172.16294861 170.20060730 1.0850000381 36.012660980  -999.250000 1.5989975929
 738.76440430  -999.250000 18.811000824 -0.018002402 0.5422961712 1.7389951944 20.377000809 172.16224670 170.20060730 1.0950000286 36.419673920  -999.250000 1.6109902859
 738.91680908  -999.250000 18.878000259 -0.020998798 0.5524758697 1.7270288467 19.452999115 172.16294861 170.20060730 1.1059999466 36.717880249  -999.250000 1.6139987707
 739.06921387  -999.250000 18.931999207 -0.024998398 0.5669042468 1.7160264254 18.870000839 172.16224670 170.20060730 1.1260000467 36.730995178  -999.250000 1.6279944181
 739.22161865  -999.250000 18.965000153 -0.023000801 0.5646609068 1.7259758711 18.055999756 172.16294861 170.20060730 1.1460000277 36.716007233  -999.250000 1.6429940462
 739.37402344  -999.250000 18.985000610 -0.018002002 0.5595120788 1.7429591417 19.108999252 172.16224670 170.20060730 1.1759999990 36.580055237  -999.250000 1.6749870777
 739.52642822  -999.250000 18.983999252 -0.016000802 0.5636982918 1.7619543076 19.754999161 172.16294861 170.20060730 1.2009999752 36.771923065  -999.250000 1.7189823389
 739.67883301  -999.250000 18.965000153 -0.010002403 0.5734560490 1.7839472294 18.937000275 172.13743591 170.20060730 1.2319999933 36.823982239  -999.250000 1.7669807673
 739.83123779  -999.250000 18.937999725 -0.001003604 0.5871444941 1.8089399338 18.437000275 172.13755798 170.20060730 1.2569999695 36.868999481  -999.250000 1.8159803152
 739.98364258  -999.250000 18.903999329 0.0009991991 0.5939372778 1.8249615431 18.531000137 172.16224670 170.20060730 1.2810000181 37.011001587  -999.250000 1.8489867449
 740.13604736  -999.250000 18.868999481 -0.000999199 0.5895617604 1.8339784145 18.409999847 172.16294861 170.20060730 1.3040000200 37.486000061  -999.250000 1.8679924011
 740.28845215  -999.250000 18.829000473 -0.005997998 0.5703876615 1.8180384636 18.426000595 172.16224670 170.20060730 1.3170000315 37.926998138  -999.250000 1.8680000305
 740.44079590  -999.250000 18.781000137 -0.011995194 0.5502960682 1.8020448685 19.211000443 172.16296387 170.20060730 1.3279999495 38.041999817  -999.250000 1.8540111780
 740.59320068  -999.250000 18.690000534 -0.016995996 0.5598422885 1.7980096340 19.895000458 172.16224670 170.20060730 1.3289999962 38.117000580  -999.250000 1.8370136023
 740.74560547  -999.250000 18.499000549 -0.020996796 0.5601397753 1.7950071096 20.153999329 172.16294861 170.20060730 1.3190000057 38.429000854  -999.250000 1.8200136423
 740.89801025  -999.250000 18.191999435 -0.021999599 0.5371891856 1.8049758673 20.899999619 172.16224670 170.20060730 1.3159999847 38.464000702  -999.250000 1.8040064573
 741.05041504  -999.250000 17.854999542 -0.025998399 0.5245750546 1.8159735203 22.285999298 172.16294861 170.20060730 1.3059999943 37.765998840  -999.250000 1.7870067358
 741.20281982  -999.250000 17.591999054 -0.027999200 0.5364452600 1.8359519243 23.687999725 172.16224670 170.20060730 1.2949999571 36.655998230  -999.250000 1.7710064650
 741.35522461  -999.250000 17.509000778 -0.028000001 0.5460961461 1.8429832458 24.823999405 172.16294861 170.20060730 1.2829999924 36.456001282  -999.250000 1.7540067434
 741.50762939  -999.250000 17.558000565 -0.024001602 0.5389928222 1.8430000544 25.885999680 172.16224670 170.20060730 1.2710000277 36.474998474  -999.250000 1.7380064726
 741.66003418  -999.250000 17.627000809 -0.018002402 0.5405393839 1.8459928036 26.202999115 172.13809204 170.20060730 1.2500000000 36.620998383  -999.250000 1.7250052691
 741.81243896  -999.250000 17.677000046 -0.020998798 0.5450881124 1.8380192518 27.020999908 172.13681030 170.20060730 1.2359999418 36.493000031  -999.250000 1.7210015059
 741.96484375  -999.250000 17.712999344 -0.021000000 0.5543262959 1.8290215731 27.351999283 172.19239807 170.20060730 1.2230000496 36.277000427  -999.250000 1.7060059309
 742.11724854  -999.250000 17.784000397 -0.016002003 0.5674947500 1.8240120411 26.569000244 172.16294861 170.20060730 1.2039999962 36.129001617  -999.250000 1.6900064945
 742.26965332  -999.250000 17.895999908 -0.008003204 0.5798150301 1.8210071325 26.302999496 172.16224670 170.20060730 1.1900000572 36.402999878  -999.250000 1.6760056019
 742.42205811  -999.250000 18.044000626 -0.003002002 0.5938843489 1.8229951859 26.568000793 172.16294861 170.20060730 1.1699999571 36.722000122  -999.250000 1.6600064039
 742.57440186  -999.250000 18.176000595 -0.002000801 0.6021533608 1.8160196543 26.364000320 172.13743591 170.20060730 1.1490000486 36.817001343  -999.250000 1.6330215931
 742.72680664  -999.250000 18.280000687 -0.002999199 0.6063566804 1.8030312061 25.917999268 172.13755798 170.20060730 1.1280000210 36.748001099  -999.250000 1.6150144339
 742.87921143  -999.250000 18.416999817 -0.004998398 0.5963680148 1.7920265198 25.106000900 172.16224670 170.20060730 1.1080000401 36.873001099  -999.250000 1.5840247869
 743.03161621  -999.250000 18.552000046 -0.011997196 0.5839649439 1.7850167751 24.524000168 172.16294861 170.20060730 1.0880000591 36.929000854  -999.250000 1.5450155735
 743.18402100  -999.250000 18.632999420 -0.017997596 0.5867388844 1.7820070982 23.975000381 172.16224670 170.20060730 1.0759999752 36.893001556  -999.250000 1.5300059319
 743.33642578  -999.250000 18.680999756 -0.017000401 0.6022537947 1.7839952707 24.111000061 172.16294861 170.20060730 1.0579999685 37.117000580  -999.250000 1.5270011425
 743.48883057  -999.250000 18.698999405 -0.016000401 0.6176138520 1.7810071707 23.563999176 172.13743591 170.20060730 1.0490000248 37.558998108  -999.250000 1.5269999504
 743.64123535  -999.250000 18.663000107 -0.017999198 0.6117323637 1.7730191946 21.947000504 172.13755798 170.20060730 1.0460000038 37.373001099  -999.250000 1.5269999504
 743.79364014  -999.250000 18.587999344 -0.020998798 0.5690171123 1.7630240917 20.548999786 172.16224670 170.20060730 1.0390000343 36.594001770  -999.250000 1.5289992094
 743.94604492  -999.250000 18.527000427 -0.022999199 0.5408012867 1.7570143938 20.441999435 172.16294861 170.20060730 1.0369999409 36.154998779  -999.250000 1.5399955511
 744.09844971  -999.250000 18.503999710 -0.021000801 0.5436288714 1.7530096769 20.983999252 172.16224670 170.20060730 1.0369999409 35.749000549  -999.250000 1.5539944172
 744.25085449  -999.250000 18.537000656 -0.021999599 0.5470986366 1.7510048151 21.103000641 172.16294861 170.20060730 1.0369999409 35.689998627  -999.250000 1.5559991598
 744.40325928  -999.250000 18.607999802 -0.023999199 0.5513183475 1.7579832077 21.746000290 172.16224670 170.20060730 1.0379999876 35.768001556  -999.250000 1.5550003052
 744.55560303  -999.250000 18.677999496 -0.025998399 0.5662380457 1.7570028305 22.364000320 172.16296387 170.20060730 1.0449999571 35.916000366  -999.250000 1.5450079441
 744.70800781  -999.250000 18.747999191 -0.026999200 0.5911500454 1.7540084124 21.938999176 172.16223145 170.20060730 1.0470000505 36.255001068  -999.250000 1.5539928675
 744.86041260  -999.250000 18.819000244 -0.023003204 0.5936580300 1.7559952736 21.474000931 172.16294861 170.20060730 1.0479999781 36.571998596  -999.250000 1.5559984446
 745.01281738  -999.250000 18.875000000 -0.018002002 0.5705592632 1.7659759521 21.759000778 172.16224670 170.20060730 1.0559999943 36.743999481  -999.250000 1.5559999943
 745.16522217  -999.250000 18.917999268 -0.017000401 0.5551061630 1.7689929008 21.886999130 172.16294861 170.20060730 1.0570000410 36.784000397  -999.250000 1.5669956207
 745.31762695  -999.250000 18.950000763 -0.018999198 0.5459437370 1.7670047283 21.993000031 172.16224670 170.20060730 1.0570000410 36.557998657  -999.250000 1.5699988604
