# LAS format log file from PETREL
# Project units are specified as depth units
#==================================================================
~Version information
VERS.   2.0:
WRAP.   NO:
#==================================================================
~Well
STRT .m      439.56304932 :
STOP .m      1665.9261475 :
STEP .m     0.00000000 :
NULL .        -999.250000 :
COMP.           : COMPANY
WELL.  31/2-7   : WELL
FLD.            : FIELD
LOC.            : LOCATION
SRVC.           : SERVICE COMPANY
DATE.  2018-09-11 14:48:34   : Log Export Date {yyyy-MM-dd HH:mm:ss}
PROV.           : PROVINCE
UWI.   31/2-7   : UNIQUE WELL ID
API.            : API NUMBER
#==================================================================
~Curve
DEPT .m                   : DEPTH
Lithology_geolink ._      : Lithology_geolink
CALI .in                  : CALI
DRHO .g/cm3               : DRHO
SGR .gAPI                 : SGR
NPHI .m3/m3               : NPHI
RHOB .g/cm3               : RHOB
PEF .b/e                  : PEF
GR .gAPI                  : GR
DTC .us/ft                : DTC
DTE .us/ft                : DTE
RDEP .ohm.m               : RDEP
SP .mV                    : SP
RSHA .ohm.m               : RSHA
RMED .ohm.m               : RMED
~Parameter
#==================================================================
~Ascii
# ...
 683.25067139  -999.250000 17.577999115 0.0209999997  -999.250000 0.4145500064 2.2249999046  -999.250000 41.824935913 131.21687317 131.04344177 2.5080046654 53.348495483 2.1388773918 2.1388773918
 683.40307617  -999.250000 17.672000885 0.0149999997  -999.250000 0.4111299813 2.2170000076  -999.250000 40.159980774 129.99516296 129.82788086 2.5139856339 53.536548615 2.1020889282 2.1020889282
 683.55548096  -999.250000 17.702999115 0.0170000009  -999.250000 0.4238300025 2.2300000191  -999.250000 42.774692535 129.74511719 129.55632019 2.5060193539 54.846843719 2.1309304237 2.1309304237
 683.70788574  -999.250000 17.718999863 0.0130000003  -999.250000 0.4204100072 2.2190001011  -999.250000 44.059917450 127.93975067 127.74784851 2.5020096302 53.789554596 2.1110482216 2.1110482216
 683.86029053  -999.250000 17.625000000 0.0219999999  -999.250000 0.4121099710 2.2249999046  -999.250000 43.969226837 127.49938965 127.30923462 2.5059905052 54.036399841 2.1349422932 2.1349422932
 684.01269531  -999.250000 17.531000137 0.0130000003  -999.250000 0.4438499808 2.1989998817  -999.250000 40.258937836 128.65475464 128.50482178 2.5079951286 54.161697388 2.1429805756 2.1429805756
 684.16510010  -999.250000 17.422000885 0.0030000000  -999.250000 0.4462900162 2.1860001087  -999.250000 37.662231445 130.18142700 130.00039673 2.5139856339 53.538501740 2.1290335655 2.1290335655
 684.31750488  -999.250000 17.187999725 -0.006000000  -999.250000 0.4682599902 2.1719999313  -999.250000 38.436119080 131.75413513 131.56616211 2.5179903507 54.534595490 2.0761272907 2.0761272907
 684.46984863  -999.250000 17.016000748 -0.006000000  -999.250000 0.4467800260 2.1779999733  -999.250000 38.188701630 132.10752869 131.94752502 2.5329580307 54.101222992 2.0311260223 2.0311260223
 684.62225342  -999.250000 17.141000748 0.0000000000  -999.250000 0.4809600115 2.1949999332  -999.250000 40.773727417 131.30096436 131.13766479 2.5409774780 53.164627075 2.0100588799 2.0100588799
 684.77465820  -999.250000 17.093999863 0.0120000001  -999.250000 0.4668000042 2.2230000496  -999.250000 37.383186340 130.25053406 130.08969116 2.5549664497 55.344738007 2.0389304161 2.0389304161
 684.92706299  -999.250000 17.187999725 0.0189999994  -999.250000 0.5009800196 2.2439999580  -999.250000 39.993694305 130.07170105 129.94036865 2.5510096550 53.915454865 2.0699255466 2.0699255466
 685.07946777  -999.250000 17.187999725 0.0199999996  -999.250000 0.4975599945 2.2420001030  -999.250000 39.033325195 130.08499146 129.92042542 2.5450143814 54.161399841 2.1128966808 2.1128966808
 685.23187256  -999.250000 17.108999252 0.0299999993  -999.250000 0.4897499979 2.2420001030  -999.250000 39.592647552 130.73905945 130.54901123 2.5529806614 53.787899017 2.1000311375 2.1000311375
 685.38427734  -999.250000 17.125000000 0.0260000005  -999.250000 0.4575199783 2.2249999046  -999.250000 39.874324799 131.45950317 131.26751709 2.5410287380 53.662300110 2.0940144062 2.0940144062
 685.53668213  -999.250000 17.093999863 0.0289999992  -999.250000 0.4541000128 2.2149999142  -999.250000 37.848880768 132.30876160 132.13740540 2.5270335674 53.661998749 2.0610795021 2.0610795021
 685.68908691  -999.250000 17.093999863 0.0109999999  -999.250000 0.4560500085 2.1860001087  -999.250000 38.903446198 132.81327820 132.66683960 2.5060505867 53.038501740 2.0530192852 2.0530192852
 685.84149170  -999.250000 16.968999863 0.0080000004  -999.250000 0.4687500000 2.1719999313  -999.250000 37.534301758 133.35429382 133.20408630 2.4750742912 53.411098480 2.0210769176 2.0210769176
 685.99389648  -999.250000 16.687999725 -0.003000000  -999.250000 0.4799800217 2.1519999504  -999.250000 38.248271942 133.93188477 133.73907471 2.4410817623 53.037899017 2.0180070400 2.0180070400
 686.14630127  -999.250000 17.031000137 -0.001000000  -999.250000 0.4868199825 2.1600000858  -999.250000 36.659828186 135.00944519 134.82666016 2.4080793858 52.912300110 1.9860768318 1.9860768318
 686.29870605  -999.250000 17.187999725 -0.006000000  -999.250000 0.4526399970 2.1640000343  -999.250000 34.879280090 135.49990845 135.31166077 2.3810648918 52.850147247 1.9670456648 1.9670456648
 686.45111084  -999.250000 17.266000748 0.0040000002  -999.250000 0.4375000000 2.1779999733  -999.250000 38.896312714 136.72755432 136.55239868 2.3460841179 52.475898743 1.9340792894 1.9340792894
 686.60345459  -999.250000 17.358999252 -0.002000000  -999.250000 0.4916999936 2.1719999313  -999.250000 40.495532990 137.90368652 137.75000000 2.3280506134 53.222896576 1.8911205530 1.8911205530
 686.75585938  -999.250000 17.375000000 -0.001000000  -999.250000 0.5112299919 2.1700000763  -999.250000 42.963066101 137.87492371 137.74264526 2.3140335083 53.536247253 1.8720456362 1.8720456362
 686.90826416  -999.250000 17.422000885 -0.003000000  -999.250000 0.5063499808 2.1860001087  -999.250000 42.594902039 137.75610352 137.55639648 2.2970407009 52.228149414 1.8540432453 1.8540432453
 687.06066895  -999.250000 17.593999863 -0.001000000  -999.250000 0.4765599966 2.1840000153  -999.250000 42.812473297 137.28691101 137.10464478 2.2850289345 55.591888428 1.8769446611 1.8769446611
 687.21307373  -999.250000 17.672000885 0.0000000000  -999.250000 0.4887699783 2.1779999733  -999.250000 43.062400818 137.72442627 137.55612183 2.2750241756 54.414852142 1.8939591646 1.8939591646
 687.36547852  -999.250000 17.312999725 -0.002000000  -999.250000 0.4887699783 2.1659998894  -999.250000 43.312400818 138.64898682 138.46324158 2.2700119019 54.287300110 1.9239279032 1.9239279032
 687.51788330  -999.250000 17.500000000 -0.008000000  -999.250000 0.4282199740 2.1579999924  -999.250000 40.725234985 139.98381042 139.84727478 2.2749881744 54.225147247 1.9289879799 1.9289879799
 687.67028809  -999.250000 17.516000748 -0.004000000  -999.250000 0.4316400290 2.1679999828  -999.250000 39.907951355 140.27740479 140.08732605 2.2750000954 54.349697113 1.8960793018 1.8960793018
 687.82269287  -999.250000 17.500000000 -0.002000000  -999.250000 0.4477500021 2.1679999828  -999.250000 38.409603119 140.06196594 139.85879517 2.2769951820 54.100597382 1.8790408373 1.8790408373
 687.97509766  -999.250000 17.500000000 0.0070000002  -999.250000 0.4946300089 2.1819999218  -999.250000 45.389179230 139.41555786 139.23329163 2.2829856873 53.663051605 1.8670288324 1.8670288324
 688.12750244  -999.250000 17.500000000 -0.004000000  -999.250000 0.4770500064 2.1659998894  -999.250000 50.051811218 138.55351257 138.39405823 2.2889857292 53.974246979 1.8889472485 1.8889472485
 688.27990723  -999.250000 17.500000000 -0.008000000  -999.250000 0.4599599838 2.1559998989  -999.250000 52.432292938 138.08592224 137.91796875 2.2929904461 53.600898743 1.9199254513 1.9199254513
 688.43231201  -999.250000 17.516000748 -0.015000000  -999.250000 0.4799800217 2.1459999084  -999.250000 49.351436615 137.23661804 137.11312866 2.3049712181 52.976501465 1.9708774090 1.9708774090
 688.58471680  -999.250000 17.483999252 -0.004000000  -999.250000 0.4672900140 2.1619999409  -999.250000 50.684768677 136.55987549 136.39692688 2.3069951534 53.286247253 2.0039205551 2.0039205551
 688.73706055  -999.250000 17.406000137 -0.002000000  -999.250000 0.4584999979 2.1719999313  -999.250000 50.001930237 136.36245728 136.20574951 2.3030111790 55.468864441 1.9920336008 1.9920336008
 688.88946533  -999.250000 17.437999725 0.0089999996  -999.250000 0.4199199975 2.1970000267  -999.250000 48.160430908 135.57786560 135.41030884 2.2990095615 55.162750244 1.9939951897 1.9939951897
 689.04187012  -999.250000 17.468999863 0.0040000002  -999.250000 0.4355500042 2.1889998913  -999.250000 43.075237274 135.78294373 135.57904053 2.2830383778 53.728450775 1.9780385494 1.9780385494
 689.19427490  -999.250000 17.422000885 -0.001000000  -999.250000 0.4316400290 2.1800000668  -999.250000 45.743541718 136.31153870 136.13049316 2.2680358887 52.539852142 1.9750071764 1.9750071764
 689.34667969  -999.250000 17.391000748 -0.002000000  -999.250000 0.4331099987 2.1819999218  -999.250000 47.121696472 137.77772522 137.65390015 2.2679998875 53.285198212 1.9321033955 1.9321033955
