# LAS format log file from PETREL
# Project units are specified as depth units
#==================================================================
~Version information
VERS.   2.0:
WRAP.   NO:
#==================================================================
~Well
STRT .m      1309.8798828 :
STOP .m      4086.9138184 :
STEP .m     0.00000000 :
NULL .        -999.250000 :
COMP.           : COMPANY
WELL.  31/2-19 S   : WELL
FLD.            : FIELD
LOC.            : LOCATION
SRVC.           : SERVICE COMPANY
DATE.  2018-09-11 14:48:33   : Log Export Date {yyyy-MM-dd HH:mm:ss}
PROV.           : PROVINCE
UWI.   31/2-19 S   : UNIQUE WELL ID
API.            : API NUMBER
#==================================================================
~Curve
DEPT .m                   : DEPTH
Lithology_geolink ._      : Lithology_geolink
CALI .in                  : CALI
BS .in                    : BS
DRHO .g/cm3               : DRHO
NPHI .m3/m3               : NPHI
RHOB .g/cm3               : RHOB
GR .gAPI                  : GR
DTC .us/ft                : DTC
DTS .us/ft                : DTS
RDEP .ohm.m               : RDEP
SP .mV                    : SP
RSHA .ohm.m               : RSHA
RMIC .ohm.m               : RMIC
RMED .ohm.m               : RMED
~Parameter
#==================================================================
~Ascii
# ...
 3159.4072266 6.0000000000 9.1529998779 8.5000000000 0.0004569936 0.2823230028 2.5830030441 124.35900116 75.300003052  -999.250000 16.017999649 -215.4380035 14.703000069 14.022956848 14.703841209
 3159.5595703 6.0000000000 9.1250000000 8.5000000000 -0.003283699 0.2919200063 2.5840082169 106.50499725 75.250000000  -999.250000 16.684000015 -216.0630035 14.878000259 15.631639481 14.882344246
 3159.7119141 5.0000000000 9.1149997711 8.5000000000 -0.003719242 0.2848800123 2.5889918804 111.97100067 75.300003052  -999.250000 16.850999832 -216.3130035 15.782999992 16.210527420 15.783218384
 3159.8642578 5.0000000000 9.1230001450 8.5000000000 -0.003867974 0.2878729999 2.5839984417 107.59500122 75.400001526  -999.250000 16.903999329 -214.3750000 15.850999832 16.763015747 15.850483894
 3160.0168457 5.0000000000 9.1250000000 8.5000000000 -0.002595872 0.2807169855 2.5830094814 107.66300201 74.800003052  -999.250000 16.945999146 -213.7500000 15.689999580 15.773913383 15.688374519
 3160.1691895 5.0000000000 9.1599998474 8.5000000000 0.0005688654 0.3039830029 2.5860223770 108.03500366 74.449996948  -999.250000 16.972000122 -213.6250000 15.352000237 15.886807442 15.353392601
 3160.3215332 5.0000000000 9.2110004425 8.5000000000 0.0067196586 0.3053559959 2.6000158787 104.16899872 74.449996948  -999.250000 17.033000946 -212.5630035 15.642000198 15.864170074 15.640926361
 3160.4738770 5.0000000000 9.1479997635 8.5000000000 0.0096182115 0.3163580000 2.6099917889 101.07199860 75.099998474  -999.250000 16.827999115 -213.2500000 15.307000160 15.998792648 15.306827545
 3160.6264648 5.0000000000 9.1140003204 8.5000000000 0.0072619901 0.3170959949 2.6050095558 108.20899963 75.400001526  -999.250000 16.415000916 -213.7500000 15.253000259 14.731237411 15.250159264
 3160.7788086 6.0000000000 9.1169996262 8.5000000000 0.0084957117 0.3334909976 2.6079807281 107.74900055 75.499992371  -999.250000 16.127000809 -214.5000000 14.661999702 14.511717796 14.664365768
 3160.9311523 6.0000000000 9.1099996567 8.5000000000 0.0027026762 0.3511289954 2.5960047245 109.24199677 75.849998474  -999.250000 15.890999794 -216.1880035 15.154999733 14.353560448 15.154413223
 3161.0834961 6.0000000000 9.1079998016 8.5000000000 -0.001239393 0.3344250023 2.5989918709 110.72399902 75.599998474  -999.250000 15.727999687 -213.3750000 14.972000122 14.424536705 14.971727371
 3161.2358398 6.0000000000 9.0860004425 8.5000000000 -0.002736048 0.3183960021 2.5939857960 109.87999725 75.449996948  -999.250000 15.739999771 -211.6250000 14.887000084 14.622730255 14.885904312
 3161.3884277 6.0000000000 9.1239995956 8.5000000000 -0.006522838 0.3044300079 2.5849297047 108.34500122 75.300003052  -999.250000 15.788999557 -212.0000000 14.545000076 15.816737175 14.548360825
 3161.5407715 6.0000000000 9.2119998932 8.5000000000 -0.012385840 0.3111340106 2.5629968643 112.40399933 75.099998474  -999.250000 15.791999817 -212.5000000 15.244000435 15.286067009 15.244336128
 3161.6931152 6.0000000000 9.1269998550 8.5000000000 -0.009166934 0.3174819946 2.5609889030 110.18199921 74.900001526  -999.250000 15.881999969 -211.8750000 15.314000130 14.926608086 15.315032005
 3161.8454590 6.0000000000 9.0419998169 8.5000000000 -0.006635583 0.3088090122 2.5540094376 110.04199982 74.300003052  -999.250000 16.173000336 -212.6250000 15.635999680 15.378980637 15.634637833
 3161.9980469 6.0000000000 9.0500001907 8.5000000000 -0.007612013 0.2971009910 2.5600030422 115.07099915 74.150001526  -999.250000 16.483999252 -213.8130035 15.211000443 16.149179459 15.213183403
 3162.1503906 6.0000000000 9.0399999619 8.5000000000 -0.004493071 0.2978999913 2.5610194206 107.76599884 74.099998474  -999.250000 16.368999481 -214.1250000 15.664999962 15.926724434 15.663661003
 3162.3027344 6.0000000000 9.0600004196 8.5000000000 0.0004467051 0.2930989861 2.5729935169 105.66600037 74.199996948  -999.250000 16.135000229 -215.5630035 15.385999680 16.246131897 15.384256363
 3162.4550781 5.0000000000 9.1250000000 8.5000000000 0.0002664215 0.2965719998 2.5690064430 108.78199768 74.199996948  -999.250000 16.076999664 -214.0000000 14.842000008 14.024432182 14.843134880
 3162.6076660 5.0000000000 8.9949998856 8.5000000000 0.0024051424 0.2898539901 2.5730063915 102.81199646 72.400001526  -999.250000 16.018999100 -212.4380035 15.196000099 12.836092949 15.196499825
 3162.7600098 5.0000000000 9.0629997253 8.5000000000 0.0046224277 0.3022019863 2.5749936104 100.73600006 70.449996948  -999.250000 16.069000244 -212.6880035 15.300000191 12.600841522 15.297384262
 3162.9123535 5.0000000000 9.1300001144 8.5000000000 -0.000099486 0.2851549983 2.5709824562 99.860000610 63.999996185  -999.250000 16.059000015 -212.6880035 14.755000114 12.703461647 14.756340027
 3163.0646973 5.0000000000 9.1499996185 8.5000000000 -0.002897208 0.2452110052 2.5599870682 99.300003052 62.700000763  -999.250000 15.963999748 -213.0000000 15.172039986 12.503743172 15.171080589
 3163.2170410 5.0000000000 9.1470003128 8.5000000000 -0.004898202 0.1872359961 2.5519919395 95.922996521 62.299999237  -999.250000 15.887000084 -213.7500000 14.583449364 11.345480919 14.592897415
 3163.3696289 5.0000000000 9.1490001678 8.5000000000 -0.006257309 0.1478680074 2.5470414162 92.706001282 61.849998474  -999.250000 21.982999802 -214.0630035 20.450351715 9.7862739563 20.440479279
 3163.5219727 5.0000000000 9.1490001678 8.5000000000 -0.002293139 0.1380320042 2.5601041317 89.303001404 61.649997711  -999.250000 14.545000076 -215.0000000 14.327421188 19.122571945 14.322277069
 3163.6743164 16.000000000 9.1250000000 8.5000000000 0.0044823764 0.1390800029 2.6250753403 57.571998596 60.099994659  -999.250000 13.480999947 -215.5000000 12.721207619 82.230232239 12.721416473
 3163.8266602 16.000000000 8.9119997025 8.5000000000 0.0103246700 0.1529559940 2.6719839573 48.216999054 57.099998474  -999.250000 13.421999931 -212.3750000 12.851443291 38.802028656 12.851887703
 3163.9792480 16.000000000 9.0979995728 8.5000000000 0.0107162753 0.1804780066 2.6618175507 74.116996765 69.849998474  -999.250000 13.466079712 -211.7500000 13.127648354 10.750455856 13.127470970
 3164.1315918 16.000000000 9.1389999390 8.5000000000 0.0026934762 0.2239309996 2.6049358845 70.722999573 74.099998474  -999.250000 13.491044998 -211.8130035 13.017177582 10.684161186 13.015537262
 3164.2839355 5.0000000000 9.1199998856 8.5000000000 -0.003232811 0.2569069862 2.5650160313 67.425003052 73.500000000  -999.250000 13.519035339 -211.5630035 12.505118370 10.827158928 12.505237579
 3164.4362793 5.0000000000 9.1180000305 8.5000000000 0.0012405145 0.2852410078 2.5749952793 71.835998535 73.900001526  -999.250000 13.541005135 -210.5630035 12.578953743 10.730504036 12.578907967
 3164.5888672 5.0000000000 9.1120004654 8.5000000000 -0.002173934 0.2822220027 2.5720160007 69.888000488 73.800003052  -999.250000 13.543961525 -212.6250000 12.551664352 11.661128044 12.552499771
 3164.7412109 6.0000000000 9.1140003204 8.5000000000 -0.001216899 0.2833209932 2.5769999027 86.652000427 73.699996948  -999.250000 13.531768799 -213.0000000 13.070052147 11.672369003 13.070158005
 3164.8935547 6.0000000000 9.1160001755 8.5000000000 0.0000895481 0.2707419991 2.5769934654 108.56800079 73.400001526  -999.250000 13.387089729 -214.1250000 13.101398468 11.100193977 13.099798203
 3165.0458984 6.0000000000 9.1370000839 8.5000000000 -0.001436226 0.2665140033 2.5730063915 109.37899780 74.000000000  -999.250000 12.820376396 -213.1250000 12.104490280 11.266719818 12.104980469
 3165.1982422 6.0000000000 9.2410001755 8.5000000000 -0.000327189 0.2594189942 2.5769999027 108.74199677 73.500000000  -999.250000 13.055678368 -211.3750000 12.410629272 13.579031944 12.411259651
 3165.3508301 6.0000000000 9.1379995346 8.5000000000 0.0020364209 0.2603099942 2.5769774914 106.48899841 73.250000000  -999.250000 13.478044510 -210.9380035 12.802571297 12.192605972 12.802357674
 3165.5031738 6.0000000000 9.0659999847 8.5000000000 -0.001262559 0.2665950060 2.5699968338 107.43599701 73.199996948  -999.250000 13.492009163 -211.0000000 12.669432640 12.638751984 12.669864655
