# LAS format log file from PETREL
# Project units are specified as depth units
#==================================================================
~Version information
VERS.   2.0:
WRAP.   NO:
#==================================================================
~Well
STRT .m      452.86209106 :
STOP .m      2603.6831055 :
STEP .m     0.00000000 :
NULL .        -999.250000 :
COMP.           : COMPANY
WELL.  31/2-3   : WELL
FLD.            : FIELD
LOC.            : LOCATION
SRVC.           : SERVICE COMPANY
DATE.  2018-09-11 14:48:34   : Log Export Date {yyyy-MM-dd HH:mm:ss}
PROV.           : PROVINCE
UWI.   31/2-3   : UNIQUE WELL ID
API.            : API NUMBER
#==================================================================
~Curve
DEPT .m                   : DEPTH
Lithology_geolink ._      : Lithology_geolink
CALI .in                  : CALI
DRHO .g/cm3               : DRHO
NPHI .m3/m3               : NPHI
RHOB .g/cm3               : RHOB
GR .gAPI                  : GR
DTC .us/ft                : DTC
DTE .us/ft                : DTE
RDEP .ohm.m               : RDEP
SP .mV                    : SP
RSHA .ohm.m               : RSHA
RMED .ohm.m               : RMED
~Parameter
#==================================================================
~Ascii
# ...
 1455.0443115 2.0000000000 12.099999428 -0.035991985 0.1215239242 2.0169928074 39.737998962 125.87406921 127.33952332 1418.7829590 5.7179999352 3.3210000992 260.49938965
 1455.1966553 2.0000000000 12.099999428 -0.039990392 0.1206920221 2.0050384998 40.111000061 126.82835388 128.33084106 1665.2440186 5.3039999008 3.1830000877 233.87200928
 1455.3491211 2.0000000000 12.095999718 -0.037004810 0.1184236333 1.9890384674 39.487998962 127.54606628 129.01770020 1574.5269775 4.8920001984 2.9630000591 212.89556885
 1455.5014648 2.0000000000 12.081999779 -0.031014411 0.1191881523 1.9840159416 38.673000336 127.83950806 129.27783203 797.07098389 4.4889998436 2.9210000038 201.10232544
 1455.6539307 2.0000000000 12.076001167 -0.028004808 0.1234631389 1.9790120125 39.087001801 127.66294861 129.11564636 404.99499512 4.1220002174 2.9979999065 188.32946777
 1455.8062744 2.0000000000 12.095000267 -0.028000001 0.1264727712 1.9809935093 39.334999084 127.19638824 128.62876892 251.78300476 3.8340001106 2.9879999161 166.86961365
 1455.9587402 2.0000000000 12.099999428 -0.031993590 0.1314420253 1.9929711819 39.851001740 126.42353058 127.87274933 214.25900269 4.5000000000 2.8340001106 150.24160767
 1456.1110840 2.0000000000 12.100999832 -0.034992795 0.1388721317 2.0179197788 40.529998779 125.29409790 126.76028442 160.00000000 5.1880002022 2.8120000362 140.33378601
 1456.2635498 2.0000000000 12.109000206 -0.033003204 0.1444710493 2.0499229431 40.215000153 123.98203278 125.41098785 123.05999756 5.7340002060 2.7790000439 136.58895874
 1456.4158936 2.0000000000 12.133000374 -0.033998400 0.1528864950 2.0619616508 38.909000397 122.83738708 124.28372192 98.602996826 6.2680001259 2.7300000191 134.06803894
 1456.5682373 2.0000000000 12.156999588 -0.033002403 0.1552643180 2.0629968643 39.249000549 122.35389709 123.72998810 81.447998047 5.8260002136 2.5780000687 131.84036255
 1456.7207031 2.0000000000 12.180999756 -0.030004807 0.1474525481 2.0620031357 40.342998505 122.41268921 123.78529358 69.061996460 5.2509999275 2.5069999695 128.19184875
 1456.8730469 2.0000000000 12.194000244 -0.038978383 0.1466120034 2.0450546741 41.641998291 122.83584595 124.29071808 62.981998444 4.4739999771 2.5820000172 118.92330170
 1457.0255127 2.0000000000 12.196999550 -0.043991987 0.1543076485 2.0300478935 42.160999298 123.55197144 124.99373627 60.032001495 3.7009999752 2.6199998856 111.17140198
 1457.1778564 2.0000000000 12.215000153 -0.046992794 0.1616024673 2.0290031433 40.513000488 124.25679016 125.64951324 67.457000732 3.3819999695 2.6659998894 105.95751953
 1457.3303223 1.0000000000 12.253999710 -0.051991988 0.1691978425 2.0250096321 39.819000244 124.73732758 126.10049438 73.887001038 3.1480000019 2.7790000439 104.84776306
 1457.4826660 1.0000000000 12.286000252 -0.051002402 0.1767318845 2.0269935131 39.104999542 124.86766052 126.25923157 89.318000793 3.4440000057 2.7070000172 108.14106750
 1457.6351318 1.0000000000 12.290999413 -0.046008013 0.1834592223 2.0289952755 37.472999573 124.75020599 126.16050720 110.41300201 3.7699999809 2.7279999256 112.76758575
 1457.7874756 1.0000000000 12.269000053 -0.046000000 0.1831507832 2.0290000439 37.534000397 124.56085968 126.01528931 131.46699524 3.7090001106 2.6219999790 118.98604584
 1457.9399414 1.0000000000 12.229000092 -0.041008014 0.1793960184 2.0359830856 37.904998779 124.67700195 126.10279846 125.00399780 3.5810000896 2.5650000572 124.82066345
 1458.0922852 1.0000000000 12.201000214 -0.038007203 0.1732647568 2.0419807434 38.090000153 125.15229034 126.58085632 127.33000183 3.7309999466 2.5739998817 129.03388977
 1458.2447510 1.0000000000 12.194999695 -0.029014422 0.1772635579 2.0439951420 38.166000366 125.86650085 127.32823181 133.32499695 3.6879999638 2.9909999371 133.83331299
 1458.3970947 1.0000000000 12.201000214 -0.026004808 0.1887515783 2.0459935665 37.290000916 126.64212799 128.06231689 132.11700439 3.9010000229 3.5539999008 137.88151550
 1458.5494385 1.0000000000 12.215000153 -0.031985588 0.2016390115 2.0370287895 35.584999084 127.23986053 128.67739868 137.29299927 4.2220001221 3.1809999943 140.66830444
 1458.7019043 1.0000000000 12.203000069 -0.038988784 0.2154279202 2.0200543404 35.006000519 127.71705627 129.20254517 142.96000671 4.3000001907 2.6150000095 144.79539490
 1458.8542480 1.0000000000 12.156999588 -0.040995196 0.2236801833 2.0030546188 35.750999451 128.01754761 129.56465149 116.16100311 3.9440002441 2.5710000992 149.00588989
 1459.0067139 1.0000000000 12.119999886 -0.039003205 0.2250178903 2.0020031929 36.727001190 128.19563293 129.70451355 94.803001404 4.0770001411 2.5510001183 158.08244324
 1459.1590576 1.0000000000 12.109999657 -0.036007203 0.2231644690 2.0000064373 36.425998688 128.20719910 129.61137390 96.321998596 4.4489998817 2.5780000687 175.70759583
 1459.3115234 1.0000000000 12.128999710 -0.034003206 0.2125470340 1.9980047941 36.068000793 127.78398132 129.19532776 104.94599915 4.7540001869 2.6989998817 195.58615112
 1459.4638672 1.0000000000 12.137000084 -0.036992796 0.2102155685 1.9970031977 35.743000031 127.07051849 128.51324463 111.21399689 4.8920001984 2.6500000954 213.82516479
 1459.6163330 1.0000000000 12.124000549 -0.037998397 0.2154715508 1.9989951849 35.418998718 126.36168671 127.83454895 123.14700317 4.4609999657 2.4909999371 229.78546143
 1459.7686768 1.0000000000 12.125000000 -0.035007205 0.2188518792 2.0019905567 35.169998169 125.87428284 127.32030487 142.81399536 3.9749996662 2.3480000496 235.47735596
 1459.9211426 1.0000000000 12.107999802 -0.035998397 0.2145868540 2.0020000935 34.946998596 125.45755768 126.87931824 155.15199280 4.0320000648 2.4690001011 239.47460938
 1460.0734863 1.0000000000 12.088000298 -0.038992796 0.2067488581 2.0000064373 34.729000092 125.09837341 126.50231934 232.36700439 4.3229999542 2.4010000229 246.04321289
 1460.2259521 1.0000000000 12.074000359 -0.040996797 0.1981837153 1.9950120449 34.509998322 125.03633881 126.44543457 283.37500000 4.4780001640 2.3420000076 250.87925720
 1460.3782959 1.0000000000 12.093001366 -0.036008012 0.1850410849 1.9910128117 34.314998627 125.33196259 126.75218964 352.69100952 4.3029999733 2.3259999752 254.58605957
 1460.5307617 1.0000000000 12.104000092 -0.029011209 0.1719409823 1.9929952621 34.242000580 126.04458618 127.44220734 547.94702148 4.1100001335 2.2929999828 260.11715698
 1460.6831055 1.0000000000 12.124000549 -0.028999999 0.1679264009 1.9959903955 34.377998352 127.23351288 128.63513184 692.47601318 3.9809997082 2.3840000629 261.44488525
 1460.8354492 1.0000000000 12.164999008 -0.030995196 0.1688378006 1.9999871254 34.581001282 128.19386292 129.69261169 459.54699707 3.8650000095 2.4249999523 263.60281372
 1460.9879150 1.0000000000 12.204999924 -0.037988782 0.1694290638 2.0059807301 35.381999969 128.37696838 129.89402771 235.21099854 3.7579998970 2.4920001030 264.19506836
 1461.1402588 1.0000000000 12.258999825 -0.040992796 0.1688314378 2.0089905262 36.706001282 128.08972168 129.51924133 147.43299866 3.6849999428 2.4809999466 261.99530029
 1461.2927246 1.0000000000 12.319999695 -0.041000001 0.1701079458 2.0060071945 38.073001862 127.54544067 128.97595215 113.45099640 3.9189999104 2.4890000820 254.28535461
 1461.4450684 1.0000000000 12.319999695 -0.033019215 0.1691123992 2.0000193119 39.370998383 126.77326965 128.18716431 108.71399689 4.5029997826 2.6319999695 232.82763672
 1461.5975342 1.0000000000 12.315999985 -0.033998400 0.1695293188 1.9920191765 40.354999542 125.71023560 127.12722015 143.34700012 5.0089998245 2.6949999332 196.61804199
 1461.7498779 2.0000000000 12.317999840 -0.034000002 0.1696596891 1.9860191345 40.848999023 123.74507904 125.19978333 188.91900635 4.2810001373 2.6619999409 159.16404724
 1461.9023438 2.0000000000 12.243000984 -0.025014423 0.1626812071 2.0169253349 42.124000549 119.99942780 121.38111115 206.63600159 3.7869999409 2.7520000935 137.27598572
 1462.0546875 2.0000000000 12.185001373 -0.026995197 0.1551181823 2.0568718910 43.889999390 115.81929779 117.10913086 201.34100342 4.4200000763 3.0480000973 135.44731140
 1462.2071533 2.0000000000 12.163000107 -0.020011218 0.1555992067 2.0839352608 45.554000854 113.77066040 115.07291412 175.84100342 5.1649999619 3.8900001049 139.75209045
