# LAS format log file from PETREL
# Project units are specified as depth units
#==================================================================
~Version information
VERS.   2.0:
WRAP.   NO:
#==================================================================
~Well
STRT .m      439.56304932 :
STOP .m      1665.9261475 :
STEP .m     0.00000000 :
NULL .        -999.250000 :
COMP.           : COMPANY
WELL.  31/2-7   : WELL
FLD.            : FIELD
LOC.            : LOCATION
SRVC.           : SERVICE COMPANY
DATE.  2018-09-11 14:48:34   : Log Export Date {yyyy-MM-dd HH:mm:ss}
PROV.           : PROVINCE
UWI.   31/2-7   : UNIQUE WELL ID
API.            : API NUMBER
#==================================================================
~Curve
DEPT .m                   : DEPTH
Lithology_geolink ._      : Lithology_geolink
CALI .in                  : CALI
DRHO .g/cm3               : DRHO
SGR .gAPI                 : SGR
NPHI .m3/m3               : NPHI
RHOB .g/cm3               : RHOB
PEF .b/e                  : PEF
GR .gAPI                  : GR
DTC .us/ft                : DTC
DTE .us/ft                : DTE
RDEP .ohm.m               : RDEP
SP .mV                    : SP
RSHA .ohm.m               : RSHA
RMED .ohm.m               : RMED
~Parameter
#==================================================================
~Ascii
# ...
 520.79229736  -999.250000 17.850000381 0.0489999987  -999.250000 0.4842100143 2.1630001068  -999.250000 48.435684204 134.86259460 134.74107361 3.7190160751 47.662624359 2.6820080280 2.6820080280
 520.94470215  -999.250000 17.834999084 0.0610000007  -999.250000 0.4684299827 2.1710000038  -999.250000 53.895050049 135.84379578 135.66606140 3.6930520535 46.664001465 2.6760120392 2.6760120392
 521.09710693  -999.250000 17.836000443 0.0649999976  -999.250000 0.4374400079 2.1860001087  -999.250000 52.690437317 136.55918884 136.36851501 3.6620619297 47.784744263 2.6700119972 2.6700119972
 521.24951172  -999.250000 17.763000488 0.0439999998  -999.250000 0.4031800032 2.1879999638  -999.250000 52.406562805 136.19230652 136.00120544 3.6190860271 48.285999298 2.6560280323 2.6560280323
 521.40191650  -999.250000 17.697000504 0.0109999999  -999.250000 0.3823600113 2.1830000877  -999.250000 50.254318237 136.21980286 136.04627991 3.5740900040 47.663249969 2.6330459118 2.6330459118
 521.55426025  -999.250000 17.791000366 -0.002000000  -999.250000 0.3814600110 2.1930000782  -999.250000 54.894809723 136.65463257 136.51094055 3.5570406914 48.098945618 2.5761368275 2.5761368275
 521.70666504  -999.250000 17.856000900 -0.003000000  -999.250000 0.4225099981 2.2000000477  -999.250000 55.842121124 138.35060120 138.16101074 3.5450241566 47.413375854 2.5231060982 2.5231060982
 521.85906982  -999.250000 17.910999298 0.0040000002  -999.250000 0.4669300020 2.2049999237  -999.250000 56.187309265 140.25355530 140.08042908 3.5330240726 48.035747528 2.4960541725 2.4960541725
 522.01147461  -999.250000 17.965999603 0.0140000004  -999.250000 0.4847800136 2.2130000591  -999.250000 53.443508148 140.05567932 139.87886047 3.5080499649 48.411247253 2.5119681358 2.5119681358
 522.16387939  -999.250000 17.875000000 0.0189999994  -999.250000 0.4618200064 2.2209999561  -999.250000 56.774303436 138.56738281 138.40995789 3.4590983391 47.476875305 2.5309617519 2.5309617519
 522.31622314  -999.250000 17.870000839 0.0140000004  -999.250000 0.4196400046 2.2260000706  -999.250000 56.968551636 138.54353333 138.37503052 3.4200937748 49.157943726 2.5389807224 2.5389807224
 522.46862793  -999.250000 17.797000885 0.0160000008  -999.250000 0.4228399992 2.2400000095  -999.250000 57.779048920 139.73855591 139.58895874 3.3870794773 48.538501740 2.5040841103 2.5040841103
 522.62103271  -999.250000 17.767000198 0.0230000000  -999.250000 0.4214500189 2.2400000095  -999.250000 58.747673035 142.14878845 141.97981262 3.3810143471 47.664100647 2.4730744362 2.4730744362
 522.77343750  -999.250000 17.794000626 0.0540000014  -999.250000 0.4258000255 2.2560000420  -999.250000 60.900817871 144.56414795 144.40658569 3.3909759521 48.659595490 2.4490575790 2.4490575790
 522.92584229  -999.250000 17.809999466 0.0729999989  -999.250000 0.4296000004 2.2479999065  -999.250000 61.280097961 144.62844849 144.46841431 3.4039688110 48.350749969 2.4360313416 2.4360313416
 523.07824707  -999.250000 17.799999237 0.0670000017  -999.250000 0.4313499928 2.2339999676  -999.250000 59.410503387 144.56414795 144.40295410 3.4099857807 47.975898743 2.4320094585 2.4320094585
 523.23065186  -999.250000 17.797000885 0.0500000007  -999.250000 0.4550000131 2.2139999866  -999.250000 59.562622070 144.53237915 144.36264038 3.4060094357 48.598495483 2.4359905720 2.4359905720
 523.38305664  -999.250000 17.948999405 0.0359999985  -999.250000 0.4581399858 2.2130000591  -999.250000 60.498123169 143.98175049 143.83216858 3.3980159760 48.475250244 2.4529659748 2.4529659748
 523.53546143  -999.250000 17.944999695 0.0299999993  -999.250000 0.4560500085 2.2109999657  -999.250000 57.568881989 143.43945313 143.27641296 3.3950059414 49.971996307 2.5058939457 2.5058939457
 523.68786621  -999.250000 17.795999527 0.0280000009  -999.250000 0.4600899816 2.2149999142  -999.250000 58.248622894 143.16535950 142.99758911 3.3730440140 49.725498199 2.5588939190 2.5588939190
 523.84027100  -999.250000 17.659999847 0.0170000009  -999.250000 0.4765499830 2.2070000172  -999.250000 56.566379547 143.10920715 142.93676758 3.3440582752 49.163127899 2.5490200520 2.5490200520
 523.99267578  -999.250000 17.608999252 0.0109999999  -999.250000 0.5022799969 2.2019999027  -999.250000 58.589935303 142.98231506 142.81564331 3.2950983047 49.037250519 2.4981019497 2.4981019497
 524.14508057  -999.250000 17.576000214 0.0130000003  -999.250000 0.5137000084 2.2019999027  -999.250000 55.412380219 143.15217590 143.00120544 3.2401101589 48.975124359 2.4690582752 2.4690582752
 524.29748535  -999.250000 17.524999619 0.0149999997  -999.250000 0.5198699832 2.1949999332  -999.250000 54.127563477 143.16119385 143.03884888 3.1861083508 48.413127899 2.4630119801 2.4630119801
 524.44982910  -999.250000 17.500000000 0.0199999996  -999.250000 0.5525000095 2.1900000572  -999.250000 53.283027649 143.48170471 143.29498291 3.1480913162 47.851348877 2.4490334988 2.4490334988
 524.60223389  -999.250000 17.420999527 0.0280000009  -999.250000 0.5905900002 2.1789999008  -999.250000 49.914108276 144.07775879 143.91517639 3.1350312233 48.224098206 2.3771731853 2.3771731853
 524.75463867  -999.250000 17.271999359 0.0399999991  -999.250000 0.6029899716 2.1719999313  -999.250000 51.496170044 144.57786560 144.41020203 3.1110577583 46.978000641 2.3221321106 2.3221321106
 524.90704346  -999.250000 17.193000793 0.0450000018  -999.250000 0.5785700083 2.1570000648  -999.250000 49.660430908 144.75666809 144.55838013 3.0960359573 46.039253235 2.3180096149 2.3180096149
 525.05944824  -999.250000 17.221000671 0.0430000015  -999.250000 0.5396500230 2.1530001163  -999.250000 50.622673035 144.72959900 144.56022644 3.0840289593 47.471542358 2.3419423103 2.3419423103
 525.21185303  -999.250000 17.245000839 0.0439999998  -999.250000 0.5153999925 2.1559998989  -999.250000 51.810146332 144.35751343 144.20059204 3.0760192871 46.851501465 2.3769159317 2.3769159317
 525.36425781  -999.250000 17.389999390 0.0410000011  -999.250000 0.5188400149 2.1510000229  -999.250000 49.629383087 145.03627014 144.85217285 3.0740039349 50.467735291 2.3959617615 2.3959617615
 525.51666260  -999.250000 17.361000061 0.0410000011  -999.250000 0.5054199696 2.1600000858  -999.250000 45.913444519 145.39364624 145.22358704 3.0959558487 48.915126801 2.4139640331 2.4139640331
 525.66906738  -999.250000 17.358999252 0.0410000011  -999.250000 0.5000000000 2.1730000973  -999.250000 44.066688538 145.66789246 145.49879456 3.1289339066 47.914001465 2.4379518032 2.4379518032
 525.82147217  -999.250000 17.614000320 0.0410000011  -999.250000 0.4722999930 2.1689999104  -999.250000 46.807491302 145.65446472 145.47445679 3.1449680328 49.408996582 2.4729299545 2.4729299545
 525.97387695  -999.250000 17.743999481 0.0469999984  -999.250000 0.4473400116 2.1440000534  -999.250000 50.367866516 145.74684143 145.56588745 3.1559779644 48.788249969 2.4799859524 2.4799859524
 526.12628174  -999.250000 17.801000595 0.0299999993  -999.250000 0.4412799776 2.0980000496  -999.250000 45.665447235 146.08207703 145.95719910 3.1480159760 48.974620819 2.4450700283 2.4450700283
 526.27868652  -999.250000 17.791000366 0.0280000009  -999.250000 0.4398899972 2.0959999561  -999.250000 47.122058868 145.60058594 145.41722107 3.1070821285 48.912124634 2.4569759369 2.4569759369
 526.43103027  -999.250000 17.832000732 0.0260000005  -999.250000 0.4400900006 2.1050000191  -999.250000 46.283027649 145.72723389 145.54388428 3.0591154099 47.665000916 2.4919159412 2.4919159412
 526.58343506  -999.250000 18.027000427 0.0260000005  -999.250000 0.4322899878 2.0950000286  -999.250000 51.924407959 146.72830200 146.53749084 3.0141081810 48.160797119 2.4800288677 2.4800288677
 526.73583984  -999.250000 18.225000381 0.0199999996  -999.250000 0.4044800103 2.0840001106  -999.250000 48.134162903 145.71580505 145.57443237 3.0080142021 50.469440460 2.3632810116 2.3632810116
 526.88824463  -999.250000 17.944000244 0.0149999997  -999.250000 0.3701699972 2.1059999466  -999.250000 49.278221130 144.53199768 144.41990662 3.0020143986 48.791053772 2.2682280540 2.2682280540
