# LAS format log file from PETREL
# Project units are specified as depth units
#==================================================================
~Version information
VERS.   2.0:
WRAP.   NO:
#==================================================================
~Well
STRT .m      326.13598633 :
STOP .m      1938.6804199 :
STEP .m     0.00000000 :
NULL .        -999.250000 :
COMP.           : COMPANY
WELL.  31/2-17 A   : WELL
FLD.            : FIELD
LOC.            : LOCATION
SRVC.           : SERVICE COMPANY
DATE.  2018-09-11 14:48:33   : Log Export Date {yyyy-MM-dd HH:mm:ss}
PROV.           : PROVINCE
UWI.   31/2-17 A   : UNIQUE WELL ID
API.            : API NUMBER
#==================================================================
~Curve
DEPT .m                   : DEPTH
Lithology_geolink ._      : Lithology_geolink
CALI .in                  : CALI
DRHO .g/cm3               : DRHO
RHOB .g/cm3               : RHOB
GR .gAPI                  : GR
DTC .us/ft                : DTC
RDEP .ohm.m               : RDEP
RMED .ohm.m               : RMED
~Parameter
#==================================================================
~Ascii
# ...
 1072.2863770  -999.250000  -999.250000  -999.250000 2.2200000286 31.487499237 152.25840759 1.4975999594  -999.250000
 1072.4388428  -999.250000  -999.250000  -999.250000 2.2200000286 33.778301239 152.25840759 1.4492000341  -999.250000
 1072.5911865  -999.250000  -999.250000  -999.250000 2.2200000286 33.782501221 152.25840759 1.4062999487  -999.250000
 1072.7435303  -999.250000  -999.250000  -999.250000 2.2200000286 35.137798309 152.25840759 1.3456000090  -999.250000
 1072.8959961  -999.250000  -999.250000  -999.250000 2.2200000286 34.499801636 152.25840759 1.3492000103  -999.250000
 1073.0483398  -999.250000  -999.250000  -999.250000 2.2200000286 36.553199768 152.25840759 1.3775000572  -999.250000
 1073.2008057  -999.250000  -999.250000  -999.250000 2.2200000286 41.069999695 152.25840759 1.3983000517  -999.250000
 1073.3531494  -999.250000  -999.250000  -999.250000 2.2200000286 43.717601776 152.25840759 1.4284000397  -999.250000
 1073.5056152  -999.250000  -999.250000  -999.250000 2.2200000286 44.995601654 152.25840759 1.4608999491  -999.250000
 1073.6579590  -999.250000  -999.250000  -999.250000 2.2200000286 42.320201874 152.25840759 1.4967000484  -999.250000
 1073.8104248  -999.250000  -999.250000  -999.250000 2.2200000286 41.382198334 152.25840759 1.4968999624  -999.250000
 1073.9627686  -999.250000  -999.250000  -999.250000 2.2200000286 38.037300110 152.25840759 1.5055999756  -999.250000
 1074.1152344  -999.250000  -999.250000  -999.250000 2.2200000286 35.740798950 152.25840759 1.5178999901  -999.250000
 1074.2675781  -999.250000  -999.250000  -999.250000 2.2200000286 32.976100922 152.25840759 1.5157999992  -999.250000
 1074.4200439  -999.250000  -999.250000  -999.250000 2.2200000286 29.551500320 152.25840759 1.4891999960  -999.250000
 1074.5723877  -999.250000  -999.250000  -999.250000 2.2200000286 31.366699219 152.25840759 1.4314999580  -999.250000
 1074.7247314  -999.250000  -999.250000  -999.250000 2.2200000286 33.743499756 152.25840759 1.3837000132  -999.250000
 1074.8771973  -999.250000  -999.250000  -999.250000 2.2200000286 33.989601135 152.25840759 1.3524999619  -999.250000
 1075.0295410  -999.250000  -999.250000  -999.250000 2.2200000286 33.548999786 152.25840759 1.3235000372  -999.250000
 1075.1820068  -999.250000  -999.250000  -999.250000 2.2200000286 35.499900818 152.25840759 1.2972999811  -999.250000
 1075.3343506  -999.250000  -999.250000  -999.250000 2.2200000286 40.869800568 152.25840759 1.2627999783  -999.250000
 1075.4868164  -999.250000  -999.250000  -999.250000 2.2200000286 40.877399445 152.25840759 1.2965999842  -999.250000
 1075.6391602  -999.250000  -999.250000  -999.250000 2.2200000286 37.181499481 152.25840759 1.2999999523  -999.250000
 1075.7916260  -999.250000  -999.250000  -999.250000 2.2200000286 37.218101501 152.25840759 1.3457000256  -999.250000
 1075.9439697  -999.250000  -999.250000  -999.250000 2.2200000286 39.099700928 152.25840759 1.4372999668  -999.250000
 1076.0964355  -999.250000  -999.250000  -999.250000 2.2200000286 39.495399475 152.25840759 1.5166000128  -999.250000
 1076.2487793  -999.250000  -999.250000  -999.250000 2.2200000286 39.193401337 152.25840759 1.6208000183  -999.250000
 1076.4012451  -999.250000  -999.250000  -999.250000 2.2200000286 37.281299591 152.25840759 1.5568000078  -999.250000
 1076.5535889  -999.250000  -999.250000  -999.250000 2.2200000286 37.762298584 152.25840759 1.5042999983  -999.250000
 1076.7060547  -999.250000  -999.250000  -999.250000 2.2200000286 37.016601563 152.25840759 1.4084999561  -999.250000
 1076.8583984  -999.250000  -999.250000  -999.250000 2.2200000286 35.069400787 152.25840759 1.3176000118  -999.250000
 1077.0107422  -999.250000  -999.250000  -999.250000 2.2200000286 34.883499146 152.25840759 1.3008999825  -999.250000
 1077.1632080  -999.250000  -999.250000  -999.250000 2.2200000286 34.866199493 152.25840759 1.2359999418  -999.250000
 1077.3155518  -999.250000  -999.250000  -999.250000 2.2200000286 37.190898895 152.25840759 1.2300000191  -999.250000
 1077.4680176  -999.250000  -999.250000  -999.250000 2.2200000286 38.607101440 152.25840759 1.2575000525  -999.250000
 1077.6203613  -999.250000  -999.250000  -999.250000 2.2200000286 39.630599976 152.25840759 1.3057999611  -999.250000
 1077.7728271  -999.250000  -999.250000  -999.250000 2.2200000286 41.173900604 152.25840759 1.3439999819  -999.250000
 1077.9251709  -999.250000  -999.250000  -999.250000 2.2200000286 41.279201508 152.25840759 1.3842999935  -999.250000
 1078.0776367  -999.250000  -999.250000  -999.250000 2.2200000286 39.773799896 152.25840759 1.4256999493  -999.250000
 1078.2299805  -999.250000  -999.250000  -999.250000 2.2200000286 38.147598267 152.25840759 1.4657000303  -999.250000
 1078.3824463  -999.250000  -999.250000  -999.250000 2.2200000286 37.150398254 152.25840759 1.5072000027  -999.250000
 1078.5347900  -999.250000  -999.250000  -999.250000 2.2200000286 35.495098114 152.25840759 1.5283000469  -999.250000
 1078.6872559  -999.250000  -999.250000  -999.250000 2.2200000286 34.187198639 152.25840759 1.4419000149  -999.250000
 1078.8395996  -999.250000  -999.250000  -999.250000 2.2200000286 32.730300903 152.25840759 1.3712999821  -999.250000
 1078.9919434  -999.250000  -999.250000  -999.250000 2.2200000286 31.847900391 152.25840759 1.2989000082  -999.250000
 1079.1444092  -999.250000  -999.250000  -999.250000 2.2200000286 34.484699249 152.25840759 1.2177000046  -999.250000
 1079.2967529  -999.250000  -999.250000  -999.250000 2.2200000286 36.500301361 152.25840759 1.1826000214  -999.250000
 1079.4492188  -999.250000  -999.250000  -999.250000 2.2200000286 39.584400177 152.25840759 1.1341999769  -999.250000
 1079.6015625  -999.250000  -999.250000  -999.250000 2.2200000286 38.044601440 152.25840759 1.1209000349  -999.250000
 1079.7540283  -999.250000  -999.250000  -999.250000 2.2200000286 38.369701385 152.25840759 1.1592999697  -999.250000
 1079.9063721  -999.250000  -999.250000  -999.250000 2.2200000286 41.367099762 152.25840759 1.1927000284  -999.250000
 1080.0588379  -999.250000  -999.250000  -999.250000 2.2200000286 41.006801605 152.25840759 1.2272000313  -999.250000
 1080.2111816  -999.250000  -999.250000  -999.250000 2.2200000286 42.501399994 152.25840759 1.2941000462  -999.250000
 1080.3636475  -999.250000  -999.250000  -999.250000 2.2200000286 41.050598145 152.25840759 1.2633999586  -999.250000
 1080.5159912  -999.250000  -999.250000  -999.250000 2.2200000286 40.637500763 152.25840759 1.3057999611  -999.250000
 1080.6684570  -999.250000  -999.250000  -999.250000 2.2200000286 36.571498871 152.25840759 1.3282999992  -999.250000
 1080.8208008  -999.250000  -999.250000  -999.250000 2.2200000286 34.380401611 152.25840759 1.2293000221  -999.250000
 1080.9731445  -999.250000  -999.250000  -999.250000 2.2200000286 34.108501434 152.25840759 1.1194000244  -999.250000
 1081.1256104  -999.250000  -999.250000  -999.250000 2.2200000286 34.722400665 152.25840759 1.0917999744  -999.250000
 1081.2779541  -999.250000  -999.250000  -999.250000 2.2200000286 36.251201630 152.25840759 1.0900000334  -999.250000
 1081.4304199  -999.250000  -999.250000  -999.250000 2.2200000286 39.184600830 152.25840759 1.1082999706  -999.250000
 1081.5827637  -999.250000  -999.250000  -999.250000 2.2200000286 39.073699951 152.25840759 1.1556999683  -999.250000
 1081.7352295  -999.250000  -999.250000  -999.250000 2.2200000286 38.276298523 152.25840759 1.2149000168  -999.250000
 1081.8875732  -999.250000  -999.250000  -999.250000 2.2200000286 38.118099213 152.25840759 1.2290999889  -999.250000
 1082.0400391  -999.250000  -999.250000  -999.250000 2.2200000286 43.909400940 152.25840759 1.3307000399  -999.250000
 1082.1923828  -999.250000  -999.250000  -999.250000 2.2200000286 45.016601563 152.25840759 1.3856999874  -999.250000
 1082.3448486  -999.250000  -999.250000  -999.250000 2.2200000286 44.313400269 152.25840759 1.3533999920  -999.250000
 1082.4971924  -999.250000  -999.250000  -999.250000 2.2200000286 39.470798492 152.25840759 1.3592000008  -999.250000
