# LAS format log file from PETREL
# Project units are specified as depth units
#==================================================================
~Version information
VERS.   2.0:
WRAP.   NO:
#==================================================================
~Well
STRT .m      452.86209106 :
STOP .m      2603.6831055 :
STEP .m     0.00000000 :
NULL .        -999.250000 :
COMP.           : COMPANY
WELL.  31/2-3   : WELL
FLD.            : FIELD
LOC.            : LOCATION
SRVC.           : SERVICE COMPANY
DATE.  2018-09-11 14:48:34   : Log Export Date {yyyy-MM-dd HH:mm:ss}
PROV.           : PROVINCE
UWI.   31/2-3   : UNIQUE WELL ID
API.            : API NUMBER
#==================================================================
~Curve
DEPT .m                   : DEPTH
Lithology_geolink ._      : Lithology_geolink
CALI .in                  : CALI
DRHO .g/cm3               : DRHO
NPHI .m3/m3               : NPHI
RHOB .g/cm3               : RHOB
GR .gAPI                  : GR
DTC .us/ft                : DTC
DTE .us/ft                : DTE
RDEP .ohm.m               : RDEP
SP .mV                    : SP
RSHA .ohm.m               : RSHA
RMED .ohm.m               : RMED
~Parameter
#==================================================================
~Ascii
# ...
 1169.7514648 19.000000000 17.537000656 -0.000992794 0.5173923969 2.0769517422 33.466442108 135.28373718 131.99763489 1.1479967833 41.168220520  -999.250000 1.4678606987
 1169.9039307 19.000000000 17.548000336 -0.009985576 0.5178791881 2.0839776993 31.915000916 128.72393799 125.44383240 1.1460000277 41.682998657  -999.250000 1.6327356100
 1170.0562744 19.000000000 17.547000885 -0.003016813 0.5223029256 2.0959615707 28.903411865 124.87435150 121.53553009 1.1300127506 41.861854553  -999.250000 1.9113297462
 1170.2087402 19.000000000 17.579999924 0.0029903846 0.5244365931 2.1019856930 27.377000809 125.97199249 122.65119934 1.1139999628 41.665000916  -999.250000 2.1006972790
 1170.3610840 19.000000000 17.687999725 0.0030000000 0.5234615803 2.0930287838 29.399377823 131.18301392 127.92238617 1.1000112295 41.345256805  -999.250000 1.7458550930
 1170.5135498 19.000000000 17.745000839 0.0039983978 0.5167108178 2.0700552464 32.835998535 138.29508972 134.99324036 1.0859999657 41.236000061  -999.250000 1.4295064211
 1170.6658936 19.000000000 17.652999878 0.0020048039 0.5111289620 2.0610289574 36.457096100 143.67863464 140.29705811 1.0740096569 41.573730469  -999.250000 1.2334707975
 1170.8183594 19.000000000 17.562000275 -0.000995192 0.5123490095 2.0570094585 37.388999939 145.25485229 141.94117737 1.0700000525 41.286998749  -999.250000 1.1940624714
 1170.9707031 19.000000000 17.569999695 -0.001000000 0.5115512609 2.0550065041 35.029891968 143.18577576 139.90745544 1.0700000525 40.900310516  -999.250000 1.3236877918
 1171.1231689 19.000000000 17.590999603 -0.003997595 0.5034164786 2.0609858036 32.720001221 140.20118713 136.87307739 1.0700000525 41.020000458  -999.250000 1.4957244396
 1171.2755127 19.000000000 17.572999954 -0.000006405 0.5017526746 2.0689744949 31.326118469 138.16889954 134.81512451 1.0739967823 41.856327057  -999.250000 1.6297852993
 1171.4279785 19.000000000 17.530000687 0.0019983975 0.5069258213 2.0779783726 29.648000717 137.37980652 134.10803223 1.0859999657 41.508998871  -999.250000 1.6699359417
 1171.5803223 19.000000000 17.495000839 0.0010016013 0.5009995103 2.0760064125 31.526494980 138.55706787 135.28585815 1.1039999723 40.752605438  -999.250000 1.5402083397
 1171.7326660 19.000000000 17.482999802 -0.001995192 0.4795145094 2.0660319328 32.368324280 140.29734802 136.95907593 1.1440000534 41.439445496  -999.250000 1.4013339281
 1171.8851318 19.000000000 17.509000778 -0.002000000 0.4592324793 2.0580255985 31.050056458 139.48751831 136.19549561 1.1920000315 41.031326294  -999.250000 1.3231250048
 1172.0374756 19.000000000 17.600999832 -0.005993590 0.4568237960 2.0540127754 31.156913757 135.21992493 131.96653748 1.2510000467 42.038192749  -999.250000 1.3229999542
 1172.1899414 19.000000000 17.775999069 -0.006000000 0.4628702700 2.0510072708 32.842998505 128.96234131 125.69258118 1.3240000010 42.680000305  -999.250000 1.4947243929
 1172.3422852 19.000000000 17.993999481 -0.001008013 0.4683012962 2.0500030518 33.895156860 121.45336151 118.12047577 1.4010000229 42.633037567  -999.250000 1.7184619904
 1172.4947510 19.000000000 18.146999359 0.0009967975 0.4718343318 2.0490024090 32.844001770 112.98445129 109.70702362 1.5219999552 41.694999695  -999.250000 2.0584552288
 1172.6470947 19.000000000 18.115999222 -0.005988782 0.4812648296 2.0440158844 30.744682312 105.04917908 101.77046204 1.6510000229 41.065502167  -999.250000 2.4839766026
 1172.7995605 16.000000000 18.017999649 -0.004003203 0.5026856661 2.0360193253 28.469999313 99.500473022 96.183639526 1.7669999599 41.305000305  -999.250000 3.0261313915
 1172.9519043 16.000000000 17.972999573 0.0029887820 0.5185146928 2.0489583015 26.249778748 101.27830505 97.965324402 1.8109999895 42.369144440  -999.250000 3.3871328831
 1173.1043701 16.000000000 17.895000458 0.0020008013 0.5176407099 2.0839159489 26.621999741 107.61057281 104.32829285 1.8209999800 42.506999969  -999.250000 3.0575304031
 1173.2567139 19.000000000 17.722000122 -0.004988791 0.5134167671 2.0979552269 28.871196747 112.50133514 109.19770813 1.7849999666 41.577743530  -999.250000 2.5292706490
 1173.4091797 19.000000000 17.590999603 -0.011994391 0.5113616586 2.0980000496 31.194999695 117.50318909 114.11608124 1.6879999638 41.228000641  -999.250000 2.1326346397
 1173.5615234 19.000000000 17.586000443 -0.008006405 0.5144649744 2.1039807796 31.326894760 123.74214172 120.39464569 1.5269999504 41.338912964  -999.250000 1.9073605537
 1173.7138672 19.000000000 17.635999680 -0.012991987 0.5246037245 2.0970222950 32.388149261 131.12341309 127.85514832 1.4090000391 41.346992493  -999.250000 1.6785500050
 1173.8663330 19.000000000 17.729000092 -0.007009608 0.5346639156 2.0740735531 35.607421875 138.41433716 135.10688782 1.3279999495 41.002273560  -999.250000 1.4893028736
 1174.0186768 19.000000000 17.799999237 -0.003006410 0.5473796129 2.0640318394 38.166946411 143.32455444 139.98741150 1.2489999533 40.703239441  -999.250000 1.4600696564
 1174.1711426 19.000000000 17.808000565 -0.000004804 0.5637238622 2.0659935474 37.381000519 144.77511597 141.45071411 1.2009999752 40.985000610  -999.250000 1.5079231262
 1174.3234863 19.000000000 17.767999649 0.0029951923 0.5700199008 2.0620129108 33.021495819 144.42033386 141.09867859 1.1799999475 41.133880615  -999.250000 1.5349351168
 1174.4759521 19.000000000 17.695999146 -0.000993595 0.5600360036 2.0540192127 30.454999924 143.76342773 140.48419189 1.1909999847 41.590999603  -999.250000 1.5429871082
 1174.6282959 19.000000000 17.638000488 -0.001998398 0.5464617610 2.0470223427 32.267547607 142.81420898 139.49017334 1.2050000429 42.087604523  -999.250000 1.5589616299
 1174.7807617 19.000000000 17.601999283 -0.001001601 0.5400402546 2.0440070629 34.206001282 140.73983765 137.44143677 1.2200000286 42.171001434  -999.250000 1.6218990088
 1174.9331055 19.000000000 17.565999985 -0.000001603 0.5359764695 2.0469903946 33.919227600 138.87969971 135.58996582 1.2359999418 41.307689667  -999.250000 1.7287429571
 1175.0855713 19.000000000 17.541000366 -0.001998398 0.5314735770 2.0609664917 31.656999588 138.75152588 135.39756775 1.2619999647 40.706001282  -999.250000 1.8358285427
 1175.2379150 19.000000000 17.506999969 -0.003996798 0.5279856324 2.0759520531 31.399206161 139.63854980 136.29278564 1.2899999619 40.682018280  -999.250000 1.9327670336
 1175.3903809 19.000000000 17.468000412 -0.000003205 0.5329060555 2.0779953003 31.541999817 140.41836548 137.14686584 1.3040000200 41.222000122  -999.250000 1.9819214344
 1175.5427246 19.000000000 17.419000626 0.0049919933 0.5386508107 2.0690288544 30.669698715 141.30932617 138.00732422 1.3059999943 41.515762329  -999.250000 1.9061218500
 1175.6950684 19.000000000 17.351999283 0.0139855770 0.5275578499 2.0520546436 32.828269958 142.67767334 139.32170105 1.2940000296 41.629909515  -999.250000 1.7234395742
 1175.8475342 19.000000000 17.302000046 0.0140000004 0.5227276683 2.0480129719 34.421726227 142.98933411 139.64889526 1.2790000439 41.489112854  -999.250000 1.5872179270
 1175.9998779 19.000000000 17.304000854 0.0050144228 0.5303777456 2.0509905815 34.094264984 141.68914795 138.40014648 1.2589999437 41.421054840  -999.250000 1.6029744148
 1176.1523438 19.000000000 17.370000839 0.0069967979 0.5355417132 2.0519969463 32.462001801 140.95764160 137.67979431 1.2109999657 42.026000977  -999.250000 1.6279599667
 1176.3046875 19.000000000 17.445999146 0.0030064103 0.5319158435 2.0500063896 31.826509476 142.49089050 139.15148926 1.1679999828 41.738227844  -999.250000 1.6000448465
 1176.4571533 19.000000000 17.476999283 -0.004987190 0.5291244388 2.0350360870 33.450000763 145.05661011 141.77488708 1.1649999619 42.714000702  -999.250000 1.5221248865
 1176.6094971 19.000000000 17.495000839 -0.008993589 0.5397828817 2.0220417976 33.836692810 146.67697144 143.37599182 1.1749999523 42.512161255  -999.250000 1.4850592613
 1176.7619629 19.000000000 17.527000427 -0.008001601 0.5555747151 2.0259904861 34.924999237 146.27479553 142.94430542 1.1940000057 41.671001434  -999.250000 1.4790096283
 1176.9143066 19.000000000 17.541000366 -0.008000000 0.5666622519 2.0359680653 35.016925812 144.25427246 140.96940613 1.2139999866 42.366443634  -999.250000 1.5498862267
