# LAS format log file from PETREL
# Project units are specified as depth units
#==================================================================
~Version information
VERS.   2.0:
WRAP.   NO:
#==================================================================
~Well
STRT .m      1999.6403809 :
STOP .m      3191.7131348 :
STEP .m     0.00000000 :
NULL .        -999.250000 :
COMP.           : COMPANY
WELL.  31/2-21 S   : WELL
FLD.            : FIELD
LOC.            : LOCATION
SRVC.           : SERVICE COMPANY
DATE.  2018-09-11 14:48:34   : Log Export Date {yyyy-MM-dd HH:mm:ss}
PROV.           : PROVINCE
UWI.   31/2-21 S   : UNIQUE WELL ID
API.            : API NUMBER
#==================================================================
~Curve
DEPT .m                   : DEPTH
Lithology_geolink ._      : Lithology_geolink
CALI .in                  : CALI
BS .in                    : BS
ROP .m/h                  : ROP
DRHO .g/cm3               : DRHO
NPHI .m3/m3               : NPHI
RHOB .g/cm3               : RHOB
PEF .b/e                  : PEF
GR .gAPI                  : GR
DTC .us/ft                : DTC
DTS .us/ft                : DTS
RDEP .ohm.m               : RDEP
RMED .ohm.m               : RMED
~Parameter
#==================================================================
~Ascii
# ...
 2395.2707520 6.0000000000 8.6281003952 8.5000000000 13.264107704 0.0509000011 0.3499999940 2.3350999355 3.0292000771 92.817298889 92.833595276 170.18499756 3.1064000130 3.1422998905
 2395.4233398 6.0000000000 8.6066999435 8.5000000000 13.312316895 0.0784000009 0.3558999896 2.3717999458 3.1006999016 88.167800903 93.522598267 172.32019043 3.1947000027 3.2000999451
 2395.5756836 6.0000000000 8.5853004456 8.5000000000 12.892786026 0.0772000030 0.3468999863 2.3712999821 3.1649999619 89.170501709 94.205108643 173.19290161 3.3245000839 3.3136999607
 2395.7280273 6.0000000000 8.6044998169 8.5000000000 13.550688744 0.0759000033 0.3386999965 2.3708000183 3.2293999195 89.855400085 94.078498840 172.98262024 3.4574999809 3.4275000095
 2395.8803711 6.0000000000 8.6487998962 8.5000000000 14.471784592 0.0746999979 0.3470999897 2.3703000546 3.2936999798 90.303596497 93.872100830 172.91040039 3.4393999577 3.4219999313
 2396.0327148 6.0000000000 8.6482000351 8.5000000000 14.713582993 0.0734999999 0.3481000066 2.3698000908 3.3580000401 87.409500122 94.054000854 171.70260620 3.3129000664 3.2950000763
 2396.1853027 6.0000000000 8.6541004181 8.5000000000 14.262822151 0.0722000003 0.3513999879 2.3692998886 3.4223001003 90.948799133 94.030303955 172.87710571 3.2054998875 3.1282999516
 2396.3376465 6.0000000000 8.6538000107 8.5000000000 12.847250938 0.0710000023 0.3438999951 2.3689000607 3.4865999222 91.736503601 94.313201904 173.90530396 3.2681000233 3.1781001091
 2396.4899902 6.0000000000 8.6354999542 8.5000000000 11.909120560 0.0687000006 0.3436999917 2.3673000336 3.4637999535 91.613700867 94.822601318 175.82910156 3.3015999794 3.1961998940
 2396.6423340 6.0000000000 8.6346998215 8.5000000000 13.054462433 0.0671000034 0.3386000097 2.3708000183 3.5067999363 91.734199524 95.032798767 175.14167786 3.3229999542 3.1975998878
 2396.7949219 6.0000000000 8.6382999420 8.5000000000 13.758559227 0.0684999973 0.3377000093 2.3759858608 3.2977159023 92.537696838 95.174110413 174.27839661 3.3383998871 3.1965000629
 2396.9472656 6.0000000000 8.6141996384 8.5000000000 13.162867546 0.0645999983 0.3386999965 2.3672013283 3.7433984280 90.605796814 95.380493164 171.40138245 3.3369998932 3.1809000969
 2397.0996094 6.0000000000 8.6008996964 8.5000000000 12.840434074 0.0653999969 0.3407999873 2.3681192398 3.5552425385 86.049003601 94.926399231 172.74249268 3.3656001091 3.2214000225
 2397.2519531 6.0000000000 8.5949001312 8.5000000000 12.971784592 0.0617000014 0.3415000141 2.3801999092 3.3945999146 89.923896790 94.756301880 172.32638550 3.3433001041 3.2049000263
 2397.4045410 6.0000000000 8.5794000626 8.5000000000 12.883728027 0.0634000003 0.3278999925 2.4014163017 3.6329717636 91.420700073 93.891807556 171.34866333 3.2922999859 3.1540000439
 2397.5568848 6.0000000000 8.5663003922 8.5000000000 13.415257454 0.0694999993 0.3298999965 2.4114806652 3.7389006615 90.094001770 92.991996765 169.88870239 3.2718999386 3.1249001026
 2397.7092285 6.0000000000 8.5614995956 8.5000000000 13.353369713 0.0590000004 0.3424000144 2.3994879723 3.1160459518 93.639396667 91.972198486 168.85209656 3.2578999996 3.0985999107
 2397.8615723 6.0000000000 8.5570001602 8.5000000000 12.549212456 0.0549000017 0.3361999989 2.3919999599 3.0199999809 94.995796204 91.381698608 168.84469604 3.2741000652 3.1043999195
 2398.0139160 6.0000000000 8.5734996796 8.5000000000 12.062664986 0.0504000001 0.3321999907 2.3778998852 3.0473001003 93.544403076 91.455703735 167.89570618 3.3052999973 3.1505999565
 2398.1665039 6.0000000000 8.5868997574 8.5000000000 11.865100861 0.0542000011 0.3476000130 2.3789978027 3.2354905605 92.938102722 91.333091736 166.25001526 3.3545999527 3.2386999130
 2398.3188477 6.0000000000 8.6050996780 8.5000000000 11.624539375 0.0588999987 0.3468999863 2.3777072430 3.5411932468 88.223701477 91.859306335 167.49620056 3.3380000591 3.2462999821
 2398.4711914 6.0000000000 8.5991001129 8.5000000000 11.336941719 0.0640999973 0.3503000140 2.3822000027 3.5371000767 86.160697937 93.320503235 170.96420288 3.2486000061 3.1828999519
 2398.6235352 6.0000000000 8.5525999069 8.5000000000 10.640419960 0.0593000017 0.3420000076 2.3784000874 3.6893000603 92.443702698 94.326896667 173.34338379 3.2140998840 3.1693999767
 2398.7761230 6.0000000000 8.5275001526 8.5000000000 10.791347504 0.0557999983 0.3287999928 2.3885369301 4.1594324112 100.48999786 94.603210449 173.20880127 3.1807000637 3.1435999870
 2398.9284668 6.0000000000 8.5339002609 8.5000000000 12.228498459 0.0610999987 0.3170000017 2.4115264416 3.7434563637 96.817398071 94.129699707 171.44810486 3.1157000065 3.0761001110
 2399.0808105 6.0000000000 8.5504999161 8.5000000000 12.934377670 0.0634000003 0.3176999986 2.4280054569 3.6534421444 92.816802979 92.923797607 167.89381409 3.0013000965 2.9361999035
 2399.2331543 6.0000000000 8.5542001724 8.5000000000 11.702755928 0.0480999984 0.3118999898 2.4314000607 3.2430000305 94.183700562 90.003196716 164.20021057 2.8108999729 2.6647000313
 2399.3857422 6.0000000000 8.5605001450 8.5000000000 9.3306579590 0.0573999994 0.2994000018 2.4524178505 3.5972425938 94.920799255 87.692314148 160.94210815 2.7997999191 2.6131999493
 2399.5380859 6.0000000000 8.5574998856 8.5000000000 5.8253078461 0.0600999966 0.3030000031 2.4635050297 3.6866927147 94.406898499 85.513801575 158.54859924 3.0683999062 2.8743999004
 2399.6904297 6.0000000000 8.5580997467 8.5000000000 6.7605285645 0.0648000017 0.3048999906 2.4665784836 4.1176190376 92.148597717 83.679298401 156.22610474 3.3078000546 3.1508998871
 2399.8427734 6.0000000000 8.5271997452 8.5000000000 11.487532616 0.0657000020 0.3170999885 2.4532001019 3.7551000118 91.677497864 84.153701782 155.30740356 3.4217998981 3.3306999207
 2399.9951172 6.0000000000 8.5524997711 8.5000000000 12.314632416 0.0635000020 0.3249000013 2.4172000885 3.3729000092 88.999198914 85.924400330 157.00700378 3.4670000076 3.5415999889
 2400.1477051 6.0000000000 8.5399999619 8.5000000000 13.878611565 0.0644000024 0.3310999870 2.4014475346 3.4953908920 86.955703735 88.779098511 161.67509460 3.4149000645 3.7632000446
 2400.3000488 6.0000000000 8.5163002014 8.5000000000 14.900382996 0.0588000007 0.3436999917 2.3687157631 3.8009696007 83.848602295 91.197700500 167.98869324 3.0334999561 3.5353999138
 2400.4523926 6.0000000000 8.5763998032 8.5000000000 14.157153130 0.0593999997 0.3438000083 2.3785998821 3.6572000980 85.815902710 93.094795227 171.23840332 2.4179000854 2.7184998989
 2400.6047363 6.0000000000 8.5564002991 8.5000000000 14.039698601 0.0573000014 0.3400000036 2.3705000877 3.0132999420 86.793403625 93.976699829 174.28970337 1.7885999680 1.7379000187
 2400.7573242 6.0000000000 8.5627002716 8.5000000000 15.297940254 0.0593999997 0.3404999971 2.3653049469 3.1344251633 86.075996399 94.352600098 174.69500732 1.6806999445 1.4625999928
 2400.9096680 6.0000000000 8.5177001953 8.5000000000 15.728915215 0.0631999969 0.3386000097 2.3684186935 3.2748234272 86.777801514 94.443206787 175.50830078 2.5734000206 2.2497000694
 2401.0620117 6.0000000000 8.5100002289 8.5000000000 14.240815163 0.0662000030 0.3309000134 2.3800001144 3.3519001007 88.130500793 94.418197632 175.81109619 2.9535999298 2.5555000305
 2401.2143555 6.0000000000 8.5516004562 8.5000000000 12.634842873 0.0632999986 0.3131000102 2.3666999340 3.1445000172 90.765098572 94.431190491 176.15840149 2.9714000225 2.5504999161
 2401.3666992 6.0000000000 8.6035995483 8.5000000000 11.842191696 0.0642983988 0.3359633684 2.3492999077 3.1168999672 93.220359802 94.583053589 175.74128723 2.9459407330 2.7190299034
 2401.5190430 6.0000000000 8.6038999557 8.5000000000 11.248031616 0.0624030419 0.3376972973 2.3517000675 3.2460000515 92.447944641 94.812332153 174.39157104 2.8993747234 2.8918232918
 2401.6713867 6.0000000000 8.6035995483 8.5000000000 10.813648224 0.0570086539 0.3487822115 2.3492999077 3.1110999584 94.958168030 95.701873779 174.57130432 2.9728820324 2.9468121529
 2401.8239746 6.0000000000 8.5986995697 8.5000000000 11.070865631 0.0653000027 0.3553999960 2.3501000404 3.3115999699 94.431602478 96.489501953 175.55348206 3.0764000416 3.0255999565
