# LAS format log file from PETREL
# Project units are specified as depth units
#==================================================================
~Version information
VERS.   2.0:
WRAP.   NO:
#==================================================================
~Well
STRT .m      443.33587646 :
STOP .m      1778.0548096 :
STEP .m     0.00000000 :
NULL .        -999.250000 :
COMP.           : COMPANY
WELL.  31/2-9   : WELL
FLD.            : FIELD
LOC.            : LOCATION
SRVC.           : SERVICE COMPANY
DATE.  2018-09-11 14:48:35   : Log Export Date {yyyy-MM-dd HH:mm:ss}
PROV.           : PROVINCE
UWI.   31/2-9   : UNIQUE WELL ID
API.            : API NUMBER
#==================================================================
~Curve
DEPT .m                   : DEPTH
Lithology_geolink ._      : Lithology_geolink
CALI .in                  : CALI
DRHO .g/cm3               : DRHO
SGR .gAPI                 : SGR
NPHI .m3/m3               : NPHI
RHOB .g/cm3               : RHOB
PEF .b/e                  : PEF
GR .gAPI                  : GR
DTC .us/ft                : DTC
RDEP .ohm.m               : RDEP
SP .mV                    : SP
RSHA .ohm.m               : RSHA
RMED .ohm.m               : RMED
~Parameter
#==================================================================
~Ascii
# ...
 530.50866699  -999.250000 17.045000076 -0.000001201  -999.250000 0.4224813879 2.1969993114 3.5119671822 57.093036652 148.12535095 2.6070001125 72.513145447 2.1150140762 2.1150140762
 530.66107178  -999.250000 17.121000290 0.0080000004  -999.250000 0.4246799946 2.2009999752 3.5920000076 54.688789368 149.00000000 2.6070001125 72.147003174 2.1500236988 2.1500236988
 530.81347656  -999.250000 17.079000473 0.0070000002  -999.250000 0.4187099934 2.1909999847 3.4590001106 56.655822754 149.00059509 2.6070032120 71.817001343 2.2089757919 2.2089757919
 530.96588135  -999.250000 17.701000214 0.0070000002  -999.250000 0.4074599743 2.1909999847 3.3550000191 56.218990326 150.49969482 2.6150023937 72.100997925 2.1479892731 2.1479892731
 531.11828613  -999.250000 17.302999496 0.0060000001  -999.250000 0.4018999934 2.1879999638 3.7249999046 56.187774658 149.74989319 2.6209993362 72.385002136 2.1210064888 2.1210064888
 531.27069092  -999.250000 16.656000137 0.0109999999  -999.250000 0.4083599746 2.1970000267 4.4920001030 55.625965118 149.49960327 2.6190006733 72.668998718 2.1370084286 2.1370084286
 531.42303467  -999.250000 16.888999939 0.0109999999  -999.250000 0.4179961085 2.1989991665 4.6049547195 58.030998230 148.50000000 2.6210000515 72.811935425 2.1579999924 2.1579999924
 531.57543945  -999.250000 16.711999893 0.0060020024  -999.250000 0.4161407351 2.2009992599 4.2501420975 64.313003540 148.50000000 2.6270000935 72.913963318 2.1760001183 2.1760001183
 531.72784424  -999.250000 16.676000595 0.0030012014  -999.250000 0.4013159275 2.2029993534 3.9671132565 68.000000000 147.75000000 2.6250000000 73.016960144 2.1519999504 2.1519999504
 531.88024902  -999.250000 17.285999298 0.0030000000  -999.250000 0.3872356415 2.2089977264 3.8710384369 65.000000000 147.50000000 2.6349999905 73.038993835 2.1779999733 2.1779999733
 532.03265381  -999.250000 17.315000534 0.0010008010  -999.250000 0.3783735633 2.2090001106 3.7480492592 60.405998230 147.12500000 2.6250000000 72.979019165 2.1860001087 2.1860001087
 532.18505859  -999.250000 17.274999619 -0.003997998  -999.250000 0.3746215105 2.2070007324 3.1912231445 62.030422211 147.37484741 2.6109993458 72.919021606 2.2149803638 2.2149803638
 532.33746338  -999.250000 17.191999435 -0.005999199  -999.250000 0.3773389161 2.2070000172 3.0020756721 60.594089508 147.00015259 2.6089980602 72.932991028 2.1660015583 2.1660015583
 532.48986816  -999.250000 16.645000458 -0.002001602  -999.250000 0.3841772377 2.2089993954 2.9710123539 60.811397552 147.37515259 2.6039969921 73.222885132 2.1699819565 2.1699819565
 532.64227295  -999.250000 16.881999969 0.0010000000  -999.250000 0.3901399970 2.2070000172 3.1310000420 56.814975739 147.75054932 2.5960030556 73.513000488 2.1249899864 2.1249899864
 532.79467773  -999.250000 17.415000916 -0.001000000  -999.250000 0.3873899877 2.2009999752 3.0529999733 61.748233795 149.12524414 2.6039953232 73.803001404 2.0999917984 2.0999917984
 532.94708252  -999.250000 17.354000092 -0.001000000  -999.250000 0.3976300061 2.2049999237 2.9260001183 57.343662262 149.74960327 2.5919911861 73.399002075 2.0800106525 2.0800106525
 533.09948730  -999.250000 17.048999786 0.0020000001  -999.250000 0.4292100072 2.2130000591 2.9319999218 56.496070862 148.74949646 2.5700016022 72.944999695 2.1070289612 2.1070289612
 533.25189209  -999.250000 17.136999130 0.0030000000  -999.250000 0.4373300076 2.2170000076 3.0139999390 51.594402313 148.12469482 2.5720016956 72.490997314 2.1430151463 2.1430151463
 533.40429688  -999.250000 16.830999374 0.0010000000  -999.250000 0.4270399809 2.2109999657 3.0780000687 52.092025757 147.74920654 2.5739893913 72.425003052 2.1619815826 2.1619815826
 533.55664063  -999.250000 16.701000214 0.0000004005  -999.250000 0.4120500088 2.2050023079 3.0200231075 49.625625610 146.75065613 2.5609943867 72.567939758 2.1390016079 2.1390016079
 533.70904541  -999.250000 16.611000061 0.0000000000  -999.250000 0.4011600018 2.1910057068 3.0060057640 51.188964844 148.37570190 2.5469663143 72.710937500 2.1430041790 2.1430041790
 533.86145020  -999.250000 16.864000320 0.0000000000  -999.250000 0.4014500082 2.1820034981 2.9840087891 53.594512939 150.12565613 2.4630181789 72.799964905 2.1539940834 2.1539940834
 534.01385498  -999.250000 17.004999161 -0.000999600  -999.250000 0.4137099981 2.1700048447 2.9570107460 54.875488281 151.75050354 2.5079851151 72.797996521 2.1389894485 2.1389894485
 534.16625977  -999.250000 16.500999451 0.0019987987  -999.250000 0.4340900183 2.1700000763 2.9570000172 56.094238281 153.00030518 2.4709858894 72.796997070 2.1129727364 2.1129727364
 534.31866455  -999.250000 16.712999344 0.0020000001  -999.250000 0.4417299926 2.1660015583 2.9450047016 56.688488007 153.75041199 2.4359848499 72.782005310 2.0449707508 2.0449707508
 534.47106934  -999.250000 17.146999359 0.0000008010  -999.250000 0.4339099824 2.1600024700 3.0939404964 57.905185699 154.75010681 2.3980212212 72.633064270 1.9719984531 1.9719984531
 534.62347412  -999.250000 17.152999878 -0.002998799  -999.250000 0.4184800088 2.1560015678 3.1149916649 55.875038147 155.00030518 2.4509751797 72.483062744 1.9679952860 1.9679952860
 534.77587891  -999.250000 17.297000885 0.0000000000  -999.250000 0.4175400138 2.1619999409 3.1970000267 55.966049194 155.74894714 2.3889927864 72.333999634 1.9560267925 1.9560267925
 534.92828369  -999.250000 16.808000565 0.0020000001  -999.250000 0.4229600132 2.1740000248 3.2360000610 48.594165802 153.12815857 2.3710289001 72.425003052 2.0230112076 2.0230112076
 535.08068848  -999.250000 16.976999283 0.0040000002  -999.250000 0.4285599887 2.1889998913 3.2400000095 49.000949860 160.99678040 2.4430193901 72.572998047 2.0510482788 2.0510482788
 535.23309326  -999.250000 16.778999329 -0.002000000  -999.250000 0.4186600149 2.1949999332 3.2379999161 50.195533752 156.99789429 2.4669792652 72.721000671 2.1110031605 2.1110031605
 535.38549805  -999.250000 16.854000092 -0.003000000  -999.250000 0.4065700173 2.2070000172 3.1089999676 59.593902588 154.37350464 2.4410207272 72.885002136 2.1150143147 2.1150143147
 535.53784180  -999.250000 16.926000595 -0.005998799  -999.250000 0.3965399861 2.2070000172 3.1559810638 59.469089508 152.49800110 2.4670617580 73.062934875 2.1330029964 2.1330029964
 535.69024658  -999.250000 17.627000809 -0.005000400  -999.250000 0.3900699914 2.2209942341 3.1639969349 59.686573029 147.49874878 2.6209712029 73.240928650 2.1410083771 2.1410083771
 535.84265137  -999.250000 17.784000397 -0.004000401  -999.250000 0.3925099969 2.2339947224 3.1839919090 56.125911713 144.37780762 2.5490212440 73.411933899 2.1620140076 2.1620140076
 535.99505615  -999.250000 17.601999283 -0.006998799  -999.250000 0.4151900113 2.2479941845 3.1330204010 58.404632568 151.37504578 2.6020042896 73.560935974 2.1970007420 2.1970007420
 536.14746094  -999.250000 17.426000595 -0.005000801  -999.250000 0.4463600218 2.2479999065 3.1619882584 54.998672485 151.49874878 2.6129930019 73.709938049 2.1989998817 2.1989998817
 536.29986572  -999.250000 17.753999710 -0.009997997  -999.250000 0.4527800083 2.2320065498 3.1580016613 51.686199188 148.37725830 2.5959918499 73.858940125 2.1989982128 2.1989982128
 536.45227051  -999.250000 17.586999893 -0.006001602  -999.250000 0.4545000196 2.2230036259 3.2539615631 47.189765930 153.99964905 2.5759983063 73.812011719 2.1950135231 2.1950135231
 536.60467529  -999.250000 17.146999359 -0.009998398  -999.250000 0.4456000030 2.2130041122 3.2270107269 51.594303131 153.12510681 2.5719923973 73.759025574 2.2289836407 2.2289836407
 536.75708008  -999.250000 17.596000671 -0.005000000  -999.250000 0.4280399978 2.2090001106 3.3159999847 52.343803406 153.37489319 2.5530016422 73.705001831 2.1879804134 2.1879804134
 536.90948486  -999.250000 18.108999252 -0.001000000  -999.250000 0.4121400118 2.2009999752 3.2890000343 51.842037201 153.12339783 2.5569992065 73.547996521 2.1389780045 2.1389780045
 537.06188965  -999.250000 17.385000229 0.0000000000  -999.250000 0.4028200209 2.1949999332 3.4260001183 46.937885284 149.12515259 2.5549983978 73.344001770 2.0839843750 2.0839843750
