# LAS format log file from PETREL
# Project units are specified as depth units
#==================================================================
~Version information
VERS.   2.0:
WRAP.   NO:
#==================================================================
~Well
STRT .m      443.33587646 :
STOP .m      1778.0548096 :
STEP .m     0.00000000 :
NULL .        -999.250000 :
COMP.           : COMPANY
WELL.  31/2-9   : WELL
FLD.            : FIELD
LOC.            : LOCATION
SRVC.           : SERVICE COMPANY
DATE.  2018-09-11 14:48:35   : Log Export Date {yyyy-MM-dd HH:mm:ss}
PROV.           : PROVINCE
UWI.   31/2-9   : UNIQUE WELL ID
API.            : API NUMBER
#==================================================================
~Curve
DEPT .m                   : DEPTH
Lithology_geolink ._      : Lithology_geolink
CALI .in                  : CALI
DRHO .g/cm3               : DRHO
SGR .gAPI                 : SGR
NPHI .m3/m3               : NPHI
RHOB .g/cm3               : RHOB
PEF .b/e                  : PEF
GR .gAPI                  : GR
DTC .us/ft                : DTC
RDEP .ohm.m               : RDEP
SP .mV                    : SP
RSHA .ohm.m               : RSHA
RMED .ohm.m               : RMED
~Parameter
#==================================================================
~Ascii
# ...
 1154.1293945  -999.250000 18.503999710 -0.001004808  -999.250000 0.4911246598 2.0439391136 3.6470737457 71.191207886 155.37319946 0.7610064149 56.614387512 0.8329855800 0.8329855800
 1154.2817383  -999.250000 18.625999451 -0.004990392  -999.250000 0.4994699359 2.1337838173 5.8935933113 75.188102722 153.11698914 0.7689983845 56.948200226 0.8150088191 0.8150088191
 1154.4342041  -999.250000 18.292999268 -0.008993589  -999.250000 0.5069479942 2.2767708302 5.0813126564 75.308700562 143.12059021 0.7669839859 57.225559235 0.8261008263 0.8261008263
 1154.5865479  -999.250000 18.145999908 -0.009000000  -999.250000 0.4932928979 2.3308703899 3.8120529652 72.626556396 140.37480164 0.7569944263 57.502334595 0.8890849352 0.8890849352
 1154.7390137  -999.250000 18.163000107 -0.006004808  -999.250000 0.4689290524 2.2331571579 2.9723429680 74.553092957 140.13040161 0.7499887943 57.747608185 0.9950144291 0.9950144291
 1154.8913574  -999.250000 18.163000107 0.0009831866  -999.250000 0.4518211186 2.1063048840 2.8044009209 68.381858826 143.50761414 0.7429975867 57.841773987 1.0039269924 1.0039269924
 1155.0438232  -999.250000 18.131000519 0.0039951927  -999.250000 0.4262309968 2.0351138115 2.8469309807 76.936904907 153.00160217 0.7400000095 57.934852600 0.9128975272 0.9128975272
 1155.1961670  -999.250000 18.111999512 0.0020032052  -999.250000 0.4279771447 2.0140335560 2.8469998837 76.256462097 154.00059509 0.7399911880 58.028850555 0.8489871621 0.8489871621
 1155.3485107  -999.250000 18.108999252 -0.001990392  -999.250000 0.4532291889 2.0149977207 2.8829133511 84.307899475 154.75079346 0.7289879918 57.429443359 0.8329944015 0.8329944015
 1155.5008545  -999.250000 18.111999512 -0.006987981  -999.250000 0.4638545513 2.0100119114 2.9528317451 77.938003540 155.75000000 0.7139999866 56.747638702 0.8259999752 0.8259999752
 1155.6533203  -999.250000 18.136999130 -0.008995196  -999.250000 0.4659749568 2.0090024471 3.1345627308 69.997749329 155.99818420 0.7049975991 56.065635681 0.8220008016 0.8220008016
 1155.8056641  -999.250000 18.173000336 -0.006007212  -999.250000 0.4543580115 2.0159831047 3.0960936546 67.188003540 153.75001526 0.7020000219 55.516319275 0.8230000138 0.8230000138
 1155.9581299  -999.250000 18.149000168 -0.001012010  -999.250000 0.4526540041 2.0219857693 2.9742929935 68.378150940 156.00009155 0.7000048161 55.049121857 0.8260104060 0.8260104060
 1156.1104736  -999.250000 18.174999237 -0.000002404  -999.250000 0.4667759538 2.0289831161 2.8293485641 72.313003540 156.12500000 0.7059999704 54.582122803 0.8389999866 0.8389999866
 1156.2629395  -999.250000 18.225000381 -0.006983187  -999.250000 0.4746810496 2.0270047188 2.8349857330 71.059150696 155.99948120 0.7130039930 54.310436249 0.8510072231 0.8510072231
 1156.4152832  -999.250000 18.277000427 -0.016975962  -999.250000 0.4827605784 2.0180215836 2.8489663601 66.250000000 155.37500000 0.7179999948 54.428714752 0.8600000143 0.8600000143
 1156.5677490  -999.250000 18.370000839 -0.018995196  -999.250000 0.4973748624 2.0080239773 2.9128463268 64.252006531 155.00030518 0.7210023999 54.546810150 0.8710088134 0.8710088134
 1156.7200928  -999.250000 18.426000595 -0.014012020  -999.250000 0.5084933043 2.0099952221 2.9329519272 66.753303528 155.37500000 0.7239983678 54.671798706 0.8820072412 0.8820072412
 1156.8725586  -999.250000 18.516000748 -0.008014412  -999.250000 0.4933565259 2.0189783573 2.8422186375 70.877105713 155.37510681 0.7219935656 54.908622742 0.8909951448 0.8909951448
 1157.0249023  -999.250000 18.427999496 -0.005007212  -999.250000 0.4699263573 2.0229904652 2.8220481873 73.501350403 155.50050354 0.7139927745 55.145618439 0.8849807978 0.8849807978
 1157.1772461  -999.250000 18.420999527 -0.006995193  -999.250000 0.4556442797 2.0190095901 2.8309783936 75.188003540 156.12500000 0.7049999833 55.382431030 0.8610000014 0.8610000014
 1157.3297119  -999.250000 18.354999542 -0.008995196  -999.250000 0.4942170382 2.0120170116 2.9447262287 77.750099182 156.37510681 0.6929928064 55.671539307 0.8359832168 0.8359832168
 1157.4820557  -999.250000 18.322000504 -0.009997596  -999.250000 0.5463645458 2.0100047588 2.8951201439 77.875000000 156.50000000 0.6840000153 55.976268768 0.8149999976 0.8149999976
 1157.6345215  -999.250000 18.323999405 -0.009002401  -999.250000 0.5744327307 2.0109975338 2.8441226482 71.560852051 157.12449646 0.6789984107 56.281513214 0.8039960265 0.8039960265
 1157.7868652  -999.250000 18.367000580 -0.009000000  -999.250000 0.5695120692 2.0129952431 2.7891323566 68.875000000 156.50000000 0.6769999862 56.495483398 0.7990000248 0.7990000248
 1157.9393311  -999.250000 18.309999466 -0.010995196  -999.250000 0.5568903685 2.0120024681 2.8159351349 68.940757751 156.37469482 0.6760016084 56.615810394 0.7990112305 0.7990112305
 1158.0916748  -999.250000 18.229999542 -0.011000000  -999.250000 0.5594338179 2.0159904957 2.8060240746 72.375000000 155.99998474 0.6779999733 56.735710144 0.8130000234 0.8130000234
 1158.2441406  -999.250000 18.254999161 -0.009004803  -999.250000 0.5618841052 2.0219857693 2.7710840702 74.938957214 156.12489319 0.6830032468 56.801891327 0.8260104060 0.8260104060
 1158.3964844  -999.250000 18.339000702 -0.005009615  -999.250000 0.5446316004 2.0309782028 2.7310960293 76.125000000 155.99998474 0.6869999766 56.666328430 0.8389999866 0.8389999866
 1158.5489502  -999.250000 18.354999542 -0.003004804  -999.250000 0.5136843920 2.0319976807 2.6950864792 75.307945251 155.75019836 0.6920047998 56.530216217 0.8490023613 0.8490023613
 1158.7012939  -999.250000 18.409999847 -0.003997596  -999.250000 0.4951744378 2.0250170231 2.7289183140 68.998497009 156.00028992 0.6979992390 56.394329071 0.8519976139 0.8519976139
 1158.8537598  -999.250000 18.429000854 -0.006992795  -999.250000 0.5028913021 2.0210094452 2.6691439152 67.122993469 156.37480164 0.6969992518 56.091484070 0.8489935398 0.8489935398
 1159.0061035  -999.250000 18.371000290 -0.008995192  -999.250000 0.5031493902 2.0209999084 2.6540360451 64.634956360 156.12500000 0.6959983706 55.775508881 0.8409936428 0.8409936428
 1159.1584473  -999.250000 18.340000153 -0.008003203  -999.250000 0.4940890968 2.0289745331 2.6410417557 77.063003540 156.12500000 0.6940000057 55.459758759 0.8330000043 0.8330000043
 1159.3109131  -999.250000 18.353000641 -0.008000000  -999.250000 0.4921047091 2.0309951305 2.7906394005 79.065155029 156.49989319 0.6920023561 55.137516022 0.8259927630 0.8259927630
 1159.4632568  -999.250000 18.358999252 -0.003012019  -999.250000 0.4991530180 2.0339927673 2.9376466274 81.750000000 156.37500000 0.6949999928 54.810787201 0.8169999719 0.8169999719
 1159.6157227  -999.250000 18.361999512 -0.002002402  -999.250000 0.5119891167 2.0499615669 3.4088664055 73.065208435 156.49809265 0.6990016103 54.484523773 0.8070048094 0.8070048094
 1159.7680664  -999.250000 18.368999481 -0.002997596  -999.250000 0.5292285085 2.0789303780 3.4947955608 75.813003540 154.12500000 0.7009999752 54.276500702 0.8130000234 0.8130000234
 1159.9205322  -999.250000 18.361999512 -0.006990393  -999.250000 0.5542498827 2.1019446850 3.2934851646 76.873397827 150.99868774 0.6999983788 54.268013000 0.8440240026 0.8440240026
 1160.0728760  -999.250000 18.408000946 -0.008995192  -999.250000 0.5787611008 2.0900287628 2.9548149109 74.875000000 149.37500000 0.6980000138 54.260017395 0.8740000129 0.8740000129
 1160.2253418  -999.250000 18.552000046 -0.009000000  -999.250000 0.5777525902 2.0610697269 2.8462593555 69.940353394 149.12600708 0.6940007806 54.256008148 0.8679807782 0.8679807782
 1160.3776855  -999.250000 18.562999725 -0.008002404  -999.250000 0.5608008504 2.0330672264 2.8689446449 72.875000000 150.37500000 0.6949999928 54.290916443 0.8439999819 0.8439999819
 1160.5301514  -999.250000 18.524999619 -0.007002402  -999.250000 0.5482202172 2.0250194073 2.8729903698 71.062652588 154.00120544 0.6949951649 54.326942444 0.8289943933 0.8289943933
 1160.6824951  -999.250000 18.513000488 -0.007000000  -999.250000 0.5507538319 2.0250000954 2.8610289097 70.624496460 155.50079346 0.6889976263 54.361915588 0.8220000267 0.8220000267
