# LAS format log file from PETREL
# Project units are specified as depth units
#==================================================================
~Version information
VERS.   2.0:
WRAP.   NO:
#==================================================================
~Well
STRT .m      1309.8798828 :
STOP .m      4086.9138184 :
STEP .m     0.00000000 :
NULL .        -999.250000 :
COMP.           : COMPANY
WELL.  31/2-19 S   : WELL
FLD.            : FIELD
LOC.            : LOCATION
SRVC.           : SERVICE COMPANY
DATE.  2018-09-11 14:48:33   : Log Export Date {yyyy-MM-dd HH:mm:ss}
PROV.           : PROVINCE
UWI.   31/2-19 S   : UNIQUE WELL ID
API.            : API NUMBER
#==================================================================
~Curve
DEPT .m                   : DEPTH
Lithology_geolink ._      : Lithology_geolink
CALI .in                  : CALI
BS .in                    : BS
DRHO .g/cm3               : DRHO
NPHI .m3/m3               : NPHI
RHOB .g/cm3               : RHOB
GR .gAPI                  : GR
DTC .us/ft                : DTC
DTS .us/ft                : DTS
RDEP .ohm.m               : RDEP
SP .mV                    : SP
RSHA .ohm.m               : RSHA
RMIC .ohm.m               : RMIC
RMED .ohm.m               : RMED
~Parameter
#==================================================================
~Ascii
# ...
 4077.9223633  -999.250000 8.4549999237  -999.250000 0.0039585512 0.1692110002 2.5659806728  -999.250000 87.350006104  -999.250000 6.0770001411  -999.250000 5.6469998360 3.0516922474 5.6425929070
 4078.0747070  -999.250000 8.4580001831  -999.250000 0.0043059648 0.1632120013 2.5539567471  -999.250000 76.749992371  -999.250000 5.5300002098  -999.250000 5.0970001221 2.8107306957 5.0972247124
 4078.2270508  -999.250000 8.4770002365  -999.250000 0.0067720879 0.1579799950 2.5269517899  -999.250000 74.199996948  -999.250000 5.5050001144  -999.250000 5.1250000000 2.4829037189 5.1222400665
 4078.3793945  -999.250000 8.5699996948  -999.250000 0.0043365886 0.1494199932 2.4969391823  -999.250000 75.000000000  -999.250000 5.1620001793  -999.250000 4.7800002098 3.3921089172 4.7778530121
 4078.5319824  -999.250000 8.5399999619  -999.250000 0.0053390623 0.1469260007 2.4589297771  -999.250000 74.599998474  -999.250000 4.8260002136  -999.250000 4.4450001717 2.5811059475 4.4436297417
 4078.6843262  -999.250000 8.6809997559  -999.250000 0.0094114598 0.1429000050 2.4369552135  -999.250000 76.900001526  -999.250000 4.7210001945  -999.250000 4.2740001678 2.8952212334 4.2732629776
 4078.8366699  -999.250000 8.8439998627  -999.250000 0.0115733789 0.1410430074 2.4089903831  -999.250000 77.999992371  -999.250000 4.7690000534  -999.250000 4.1820001602 2.3122787476 4.1828737259
 4078.9890137  -999.250000 8.8599996567  -999.250000 0.0155542307 0.1445900053 2.4029936790  -999.250000 77.150001526  -999.250000 4.4590001106  -999.250000 4.2909998894 3.5715672970 4.2909116745
 4079.1416016  -999.250000 8.8599996567  -999.250000 0.0200580191 0.1584970057 2.3989934921  -999.250000 76.300003052  -999.250000 4.4429998398  -999.250000 4.2800002098 3.0242865086 4.2816109657
 4079.2939453  -999.250000 8.8610000610  -999.250000 0.0197491385 0.1693940014 2.3969953060  -999.250000 72.699996948  -999.250000 4.5850000381  -999.250000 4.4809999466 4.1129617691 4.4817533493
 4079.4462891  -999.250000 8.8599996567  -999.250000 0.0179589689 0.1727219969 2.3939969540  -999.250000 73.300003052  -999.250000 4.6919999123  -999.250000 4.5749998093 4.5036921501 4.5741825104
 4079.5986328  -999.250000 8.8629999161  -999.250000 0.0129499873 0.1780360043 2.3920176029  -999.250000 74.199996948  -999.250000 4.9099998474  -999.250000 4.4730000496 2.7211058140 4.4784479141
 4079.7512207  -999.250000 8.8520002365  -999.250000 0.0098343473 0.1916169971 2.4031441212  -999.250000 75.150009155  -999.250000 5.3829998970  -999.250000 5.1539998055 2.7268481255 5.1583509445
 4079.9035645  -999.250000 8.7849998474  -999.250000 0.0121291140 0.1974599957 2.4480834007  -999.250000 72.900001526  -999.250000 5.8720002174  -999.250000 5.6970000267 2.2743270397 5.6976890564
 4080.0559082  -999.250000 8.7860002518  -999.250000 0.0159437936 0.1864890009 2.5000705719  -999.250000 71.000000000  -999.250000 6.4019999504  -999.250000 5.7829999924 2.5198750496 5.7881360054
 4080.2082520  -999.250000 8.7869997025  -999.250000 0.0195584409 0.1796990037 2.5440030098  -999.250000 71.750000000  -999.250000 7.0570001602  -999.250000 6.4239997864 3.1805193424 6.4202637672
 4080.3605957  -999.250000 8.7869997025  -999.250000 0.0229594149 0.1763910055 2.5460207462  -999.250000 71.849998474  -999.250000 6.6999998093  -999.250000 5.9569997787 8.8685293198 5.9534611702
 4080.5131836  -999.250000 8.7860002518  -999.250000 0.0300873760 0.1718290001 2.5590193272  -999.250000 71.500000000  -999.250000 6.2270002365  -999.250000 5.4050002098 5.7082691193 5.4013462067
 4080.6655273  -999.250000 8.7919998169  -999.250000 0.0355084017 0.1694770008 2.5650048256  -999.250000 71.900001526  -999.250000 5.9099998474  -999.250000 4.9489998817 3.9781537056 4.9465961456
 4080.8178711  -999.250000 8.7849998474  -999.250000 0.0407323800 0.1694359928 2.5679695606  -999.250000 72.599998474  -999.250000 5.4439997673  -999.250000 4.6490001678 3.2700769901 4.6491365433
 4080.9702148  -999.250000 8.7889995575  -999.250000 0.0353561305 0.1725620031 2.5489919186  -999.250000 70.800003052  -999.250000 5.3790001869  -999.250000 4.6659998894 2.9725961685 4.6691040993
 4081.1228027  -999.250000 8.7889995575  -999.250000 0.0316994786 0.1684750021 2.5440223217  -999.250000 70.550003052  -999.250000 6.1319999695  -999.250000 5.0539999008 3.3460128307 5.0575175285
 4081.2751465  -999.250000 8.7849998474  -999.250000 0.0318209305 0.1643729955 2.5509552956  -999.250000 70.099998474  -999.250000 6.6129999161  -999.250000 5.4930000305 3.6100192070 5.4921107292
 4081.4274902  -999.250000 8.7679996490  -999.250000 0.0149492677  -999.250000 2.5229454041  -999.250000 70.199996948  -999.250000 6.4609999657  -999.250000 5.3819999695 3.3993363380 5.3800287247
 4081.5798340  -999.250000 8.7150001526  -999.250000 0.0095003322  -999.250000 2.4889471531  -999.250000 70.099998474  -999.250000 6.0079998970  -999.250000 5.1360001564 2.7099905014 5.1373443604
 4081.7324219  -999.250000 8.6739997864  -999.250000 0.0040894817  -999.250000 2.4559745789  -999.250000 69.800003052  -999.250000 6.0219998360  -999.250000 5.3039999008 2.4005937576 5.3023815155
 4081.8847656  -999.250000 8.6440000534  -999.250000 0.0008071138  -999.250000 2.4480030537  -999.250000 70.199996948  -999.250000 5.9109997749  -999.250000 5.1020002365 2.4559712410 5.1003818512
 4082.0371094  -999.250000 8.6459999084  -999.250000 -0.002858583  -999.250000 2.4500401020  -999.250000 70.000000000  -999.250000 5.7239999771  -999.250000 4.9000000954 2.7745001316 4.8968110085
 4082.1894531  -999.250000 8.6789999008  -999.250000 -0.001978689  -999.250000 2.4750576019  -999.250000 70.150001526  -999.250000 5.6560001373  -999.250000 4.5019998550 4.0494613647 4.5021996498
 4082.3417969  -999.250000 8.7060003281  -999.250000 -0.003648444  -999.250000 2.5110800266  -999.250000 70.300003052  -999.250000 5.5279998779  -999.250000 4.5269999504 2.7740318775 4.5276155472
 4082.4943848  -999.250000 8.7110004425  -999.250000 -0.000179880  -999.250000 2.5610802174  -999.250000 70.400001526  -999.250000 5.4949998856  -999.250000 4.6230001450 4.4774036407 4.6256604195
 4082.6467285  -999.250000 8.7100000381  -999.250000 0.0020365720  -999.250000 2.5860016346  -999.250000 71.099998474  -999.250000 6.3600001335  -999.250000 4.9549999237 9.5618171692 4.9661216736
 4082.7990723  -999.250000 8.7180004120  -999.250000 0.0011480785  -999.250000 2.5869693756  -999.250000 70.599998474  -999.250000 7.7239999771  -999.250000 6.3429999352 9.1052780151 6.3471584320
 4082.9514160  -999.250000 8.7139997482  -999.250000 0.0018215914  -999.250000 2.5679616928  -999.250000 71.500000000  -999.250000 8.8750000000  -999.250000 6.8619999886 6.4683070183 6.8725438118
 4083.1040039  -999.250000 8.7110004425  -999.250000 0.0028244655  -999.250000 2.5439679623  -999.250000 70.050003052  -999.250000 10.217000008  -999.250000 8.1800003052 7.7444133759 8.1994876862
 4083.2563477  -999.250000 8.6319999695  -999.250000 0.0063963365  -999.250000 2.5339758396  -999.250000 70.500000000  -999.250000 12.743000031  -999.250000 10.612000465 8.3992013931 10.619845390
 4083.4086914  -999.250000 8.7060003281  -999.250000 0.0066135912  -999.250000 2.5190031528  -999.250000 71.599998474  -999.250000 13.784999847  -999.250000 11.590999603 7.8005576134 11.582249641
 4083.5610352  -999.250000 8.7889995575  -999.250000 0.0113470051  -999.250000 2.5209856033  -999.250000 69.500000000  -999.250000 12.854999542  -999.250000 10.498999596 7.6489229202 10.498191833
 4083.7136230  -999.250000 8.7989997864  -999.250000 0.0138449948  -999.250000 2.5120065212  -999.250000 69.900001526  -999.250000 12.069000244  -999.250000 10.397999763 7.3446893692 10.391949654
 4083.8659668  -999.250000 8.8319997787  -999.250000 0.0147761432  -999.250000 2.5139968395  -999.250000 70.400001526  -999.250000 11.118000031  -999.250000 9.6429996490 8.4704713821 9.6365737915
 4084.0183105  -999.250000 8.8479995728  -999.250000 0.0136209037  -999.250000 2.5119905472  -999.250000 70.599998474  -999.250000 10.432999611  -999.250000 8.8409996033 8.9955873489 8.8373937607
