# LAS format log file from PETREL
# Project units are specified as depth units
#==================================================================
~Version information
VERS.   2.0:
WRAP.   NO:
#==================================================================
~Well
STRT .m      399.05941772 :
STOP .m      2436.9521484 :
STEP .m     0.00000000 :
NULL .        -999.250000 :
COMP.           : COMPANY
WELL.  31/2-1   : WELL
FLD.            : FIELD
LOC.            : LOCATION
SRVC.           : SERVICE COMPANY
DATE.  2018-09-11 14:48:32   : Log Export Date {yyyy-MM-dd HH:mm:ss}
PROV.           : PROVINCE
UWI.   31/2-1   : UNIQUE WELL ID
API.            : API NUMBER
#==================================================================
~Curve
DEPT .m                   : DEPTH
Lithology_geolink ._      : Lithology_geolink
CALI .in                  : CALI
BS .in                    : BS
DRHO .g/cm3               : DRHO
NPHI .m3/m3               : NPHI
RHOB .g/cm3               : RHOB
GR .gAPI                  : GR
DTC .us/ft                : DTC
DTE .us/ft                : DTE
RDEP .ohm.m               : RDEP
SP .mV                    : SP
RSHA .ohm.m               : RSHA
RMED .ohm.m               : RMED
~Parameter
#==================================================================
~Ascii
# ...
 1887.7025146 5.0000000000 11.808600426 12.250000954 -0.007310648 0.2606103122 2.4277067184 48.308025360 89.079200745 89.194061279 1.6069805622 32.406734467 1.8546332121 1.8546332121
 1887.8548584 5.0000000000 11.806968689 12.250000954 0.0039791665 0.2790256143 2.4082553387 50.033695221 93.799079895 94.039489746 1.5407131910 31.923931122 1.5704088211 1.5704088211
 1888.0073242 5.0000000000 11.773909569 12.250000954 0.0119127305 0.3066113889 2.3265545368 50.734107971 99.410598755 98.125610352 1.4795600176 31.362552643 1.4431107044 1.4431107044
 1888.1596680 5.0000000000 11.793509483 12.250000954 0.0079326928 0.3293904960 2.3049235344 50.442760468 100.06686401 99.664764404 1.3857593536 30.724517822 1.4133576155 1.4133576155
 1888.3121338 5.0000000000 11.807902336 12.250000954 -0.000602082 0.3183956146 2.2928097248 50.102741241 99.526054382 99.231239319 1.2934218645 30.219295502 1.5095818043 1.5095818043
 1888.4644775 5.0000000000 11.807902336 12.250000954 -0.000310897 0.3083043098 2.2921044827 50.422843933 97.961708069 98.138793945 1.2007782459 30.455345154 1.6383367777 1.6383367777
 1888.6169434 5.0000000000 11.807799339 12.250000954 0.0000000000 0.3136973083 2.2974977493 50.443214417 97.160881042 97.332252502 1.0982521772 31.530471802 1.7220590115 1.7220590115
 1888.7692871 5.0000000000 11.807601929 12.250000954 -0.001689103 0.3063926995 2.3029007912 50.045761108 96.985542297 97.224670410 1.0189574957 31.872465134 1.7431031466 1.7431031466
 1888.9217529 5.0000000000 11.807399750 12.250000954 0.0005360577 0.2964991927 2.3089952469 49.042613983 97.698356628 97.893600464 0.9126533866 31.548139572 1.5403814316 1.5403814316
 1889.0740967 5.0000000000 11.807200432 12.250000954 0.0018446759 0.2938111126 2.3098871708 48.482429504 99.110252380 99.374465942 0.8043313026 30.980482101 1.0571154356 1.0571154356
 1889.2265625 2.0000000000 11.807101250 12.250000954 0.0045360578 0.3102029860 2.2928056717 46.904983521 101.49209595 101.49832153 0.7189361453 30.934003830 0.8645145297 0.8645145297
 1889.3789063 2.0000000000 11.806909561 12.250000954 0.0033106485 0.3223047853 2.2610065937 43.978294373 103.83601379 103.61948395 0.6584786773 31.016208649 0.7608601451 0.7608601451
 1889.5312500 2.0000000000 11.830800056 12.250000954 -0.002067308 0.3301059902 2.2305259705 42.339473724 105.36364746 105.03606415 0.6134760380 30.907163620 0.7228940129 0.7228940129
 1889.6837158 2.0000000000 11.832490921 12.250000954 -0.008068054 0.3362013102 2.2074124813 41.684654236 105.70712280 105.60151672 0.5741501451 30.340814590 0.7190147638 0.7190147638
 1889.8360596 2.0000000000 11.806400299 12.250000954 -0.012378206 0.3386035860 2.1970007420 41.671169281 105.74044800 105.57844543 0.5396697521 29.569187164 0.7336868644 0.7336868644
 1889.9885254 2.0000000000 11.806200981 12.250000954 -0.011310648 0.3425036073 2.1797218323 40.627174377 105.19523621 105.19186401 0.5192359090 29.032032013 0.7610577941 0.7610577941
 1890.1408691 2.0000000000 11.806000710 12.250000954 -0.004243590 0.3499014080 2.1965761185 39.433742523 104.69570923 104.70964050 0.5185053349 29.666887283 0.7743656635 0.7743656635
 1890.2933350 2.0000000000 11.805800438 12.250000954 -0.000465973 0.3514983058 2.2005929947 38.809867859 104.26744080 104.31072235 0.5226949453 30.673463821 0.7744001150 0.7744001150
 1890.4456787 2.0000000000 11.805700302 12.250000954 -0.002533654 0.3476074040 2.1917102337 39.434719086 104.02109528 104.01889038 0.5283946395 30.574460983 0.7744999528 0.7744999528
 1890.5981445 2.0000000000 11.805500031 12.250000954 -0.006378703 0.3568974137 2.1957936287 40.474899292 103.77510071 103.83692932 0.5343917012 30.106452942 0.7745998502 0.7745998502
 1890.7504883 2.0000000000 11.805299759 12.250000954 -0.013756410 0.3496684134 2.1875946522 41.438369751 103.78510284 103.80491638 0.5409960747 29.793230057 0.7746002078 0.7746002078
 1890.9029541 2.0000000000 11.805100441 12.250000954 -0.017534027 0.3290795088 2.1798152924 41.847270966 103.87422943 103.96858978 0.5504108071 29.954484940 0.7746999264 0.7746999264
 1891.0552979 2.0000000000 11.805000305 12.250000954 -0.009554488 0.3183127046 2.1847300529 41.848350525 104.33732605 104.40213776 0.5699761510 30.344736099 0.7747998238 0.7747998238
 1891.2077637 2.0000000000 11.804800034 12.250000954 -0.000391827 0.3269146979 2.2078883648 42.024089813 105.04113770 105.04133606 0.5907788873 30.940711975 0.7749190927 0.7749190927
 1891.3601074 2.0000000000 11.804599762 12.250000954 0.0035340274 0.3349091113 2.2117941380 43.472030640 105.74364471 105.38722992 0.6107696891 31.447271347 0.7855719924 0.7855719924
 1891.5125732 2.0000000000 11.804399490 12.250000954 0.0040000002 0.3414011896 2.2094159126 44.486938477 105.10381317 104.97036743 0.6285899282 30.601848602 0.8607398868 0.8607398868
 1891.6649170 2.0000000000 11.804299355 12.250000954 0.0014659729 0.3420883119 2.2170038223 44.730125427 104.06462860 104.26985168 0.6508649588 29.735071182 0.9475609660 0.9475609660
 1891.8172607 2.0000000000 11.804099083 12.250000954 -0.005756410 0.3333919942 2.2244000435 44.654792786 103.85692596 103.88876343 0.6707634926 30.197397232 1.0248301029 1.0248301029
 1891.9697266 2.0000000000 11.803899765 12.250000954 -0.011223379 0.3287104964 2.2312855721 45.248493195 103.73928833 103.87034607 0.6910699010 30.888397217 1.0280724764 1.0280724764
 1892.1220703 2.0000000000 11.803700447 12.250000954 -0.010310898 0.3368822038 2.2244729996 46.981929779 104.13546753 104.13980103 0.7114501595 31.505249023 1.0132068396 1.0132068396
 1892.2745361 2.0000000000 11.803499222 12.250000954 -0.014223378 0.3260929883 2.2016203403 48.077960968 104.53327942 104.46986389 0.7252799273 31.688583374 0.9855515957 0.9855515957
 1892.4268799 2.0000000000 11.803400040 12.250000954 -0.020067308 0.3204106092 2.2033240795 49.045211792 104.70593262 104.66626740 0.7400774956 31.738658905 0.9655607939 0.9655607939
 1892.5793457 2.0000000000 11.803198814 12.250000954 -0.015931945 0.3271004856 2.2203054428 50.332290649 104.75975800 104.75272369 0.7592856288 31.839319229 0.9591241479 0.9591241479
 1892.7316895 5.0000000000 11.803001404 12.250000954 -0.008243590 0.3274999857 2.2368998528 51.395549774 104.81295776 104.78342438 0.7932699323 31.969755173 0.9647376537 0.9647376537
 1892.8841553 5.0000000000 11.803460121 12.250000954 -0.002776621 0.3275197148 2.2456908226 52.234020233 104.77203369 104.64811707 0.8361303806 32.013740540 1.0002454519 1.0002454519
 1893.0364990 5.0000000000 11.834630013 12.250000954 -0.000310897 0.3379189074 2.2448058128 53.196838379 104.28508759 104.27130890 0.9181247354 31.572019577 1.0786532164 1.0786532164
 1893.1889648 5.0000000000 11.852339745 12.250000954 -0.007608173 0.3508175910 2.2479553223 53.601425171 103.79669189 103.81358337 1.0272346735 31.251358032 1.2006822824 1.2006822824
 1893.3413086 5.0000000000 11.821220398 12.250000954 -0.007310648 0.3604142964 2.2796905041 52.807277679 103.39652252 103.40247345 1.1640303135 31.497310638 1.4517498016 1.4517498016
 1893.4937744 5.0000000000 11.834930420 12.250000954 -0.003618590 0.3706277907 2.2908720970 51.650997162 103.03598785 103.03071594 1.3216227293 32.229087830 1.8044865131 1.8044865131
 1893.6461182 5.0000000000 11.852599144 12.250000954 -0.000465973 0.3863117993 2.3367111683 50.018447876 102.67619324 102.77523041 1.4751399755 32.490634918 2.4341411591 2.4341411591
 1893.7984619 5.0000000000 11.852399826 12.250000954 0.0025336540 0.3950881958 2.3726115227 48.711154938 102.71524048 102.73198700 1.5228307247 32.181983948 2.6511168480 2.6511168480
 1893.9509277 5.0000000000 11.852199554 12.250000954 0.0021553244 0.3881959021 2.3547952175 47.834041595 102.81202698 102.91323853 1.5223374367 31.784669876 2.5292270184 2.5292270184
 1894.1032715 5.0000000000 11.852099419 12.250000954 0.0087564103 0.3849951029 2.3398859501 47.389404297 103.30811310 103.32473755 1.3290311098 31.271812439 1.9682036638 1.9682036638
 1894.2557373 5.0000000000 11.851900101 12.250000954 0.0167574044 0.3819870055 2.3168854713 45.823715210 103.85726166 103.85434723 1.1810604334 30.638761520 1.4924058914 1.4924058914
