# LAS format log file from PETREL
# Project units are specified as depth units
#==================================================================
~Version information
VERS.   2.0:
WRAP.   NO:
#==================================================================
~Well
STRT .m      1999.6403809 :
STOP .m      3191.7131348 :
STEP .m     0.00000000 :
NULL .        -999.250000 :
COMP.           : COMPANY
WELL.  31/2-21 S   : WELL
FLD.            : FIELD
LOC.            : LOCATION
SRVC.           : SERVICE COMPANY
DATE.  2018-09-11 14:48:34   : Log Export Date {yyyy-MM-dd HH:mm:ss}
PROV.           : PROVINCE
UWI.   31/2-21 S   : UNIQUE WELL ID
API.            : API NUMBER
#==================================================================
~Curve
DEPT .m                   : DEPTH
Lithology_geolink ._      : Lithology_geolink
CALI .in                  : CALI
BS .in                    : BS
ROP .m/h                  : ROP
DRHO .g/cm3               : DRHO
NPHI .m3/m3               : NPHI
RHOB .g/cm3               : RHOB
PEF .b/e                  : PEF
GR .gAPI                  : GR
DTC .us/ft                : DTC
DTS .us/ft                : DTS
RDEP .ohm.m               : RDEP
RMED .ohm.m               : RMED
~Parameter
#==================================================================
~Ascii
# ...
 2234.3364258 16.000000000 8.4798002243 8.5000000000 2.6807742119 0.0298999995 0.1330000013 2.4175999165 3.4403998852 53.143199921 100.13050079 179.08580017 1.7437000275 2.2107000351
 2234.4887695 2.0000000000 8.4771995544 8.5000000000 10.330708504 0.0313999988 0.1356000006 2.4467999935 3.7067000866 49.355701447 102.34929657 171.92199707 1.4546999931 2.0764000416
 2234.6411133 2.0000000000 8.4816999435 8.5000000000 31.588909149 0.0317000002 0.1425999999 2.2967000008 2.9010000229 49.373199463 98.743591309 171.98751831 0.9456999898 1.2390999794
 2234.7937012 2.0000000000 8.4767999649 8.5000000000 56.135173798 0.0438000001 0.2019000053 2.2133998871 2.1893000603 56.351001740 97.787399292 173.69830322 0.6816999912 0.7703999877
 2234.9460449 2.0000000000 8.4679002762 8.5000000000 93.804786682 0.0342999995 0.2540999949 2.1616001129 2.1912999153 60.078899384 98.141403198 183.26159668 0.6628999710 0.7292000055
 2235.0983887 2.0000000000 8.4680004120 8.5000000000 168.13549805 0.0335000008 0.2748999894 2.1544001102 2.1282999516 53.658000946 99.462898254 190.31907654 0.6567999721 0.6895999908
 2235.2507324 2.0000000000 8.4725999832 8.5000000000 192.60040283 0.0308999997 0.2734000087 2.1522998810 2.0817000866 51.522098541 100.68979645 192.70880127 0.6620000005 0.6352000237
 2235.4033203 2.0000000000 8.4791002274 8.5000000000 149.37040710 0.0292000007 0.2705999911 2.1380999088 2.1942000389 58.203098297 101.29329681 190.42842102 0.6762999892 0.6090999842
 2235.5556641 2.0000000000 8.4788999557 8.5000000000 107.14632416 0.0331000015 0.2497999966 2.1559000015 2.1568000317 57.712699890 101.96900177 187.05360413 0.7756000161 0.7179999948
 2235.7080078 16.000000000 8.4499998093 8.5000000000 82.048233032 0.0317000002 0.2298000008 2.1672999859 2.0915000439 52.053501129 102.65809631 174.62080383 1.1500999928 1.1360000372
 2235.8603516 16.000000000 8.4884996414 8.5000000000 71.330711365 0.0381000005 0.2074999958 2.2246000767 2.3954000473 57.574298859 103.55400848 178.32310486 1.3787000179 1.5915000439
 2236.0126953 16.000000000 8.5011997223 8.5000000000 63.686351776 0.0359999985 0.1784999967 2.2632000446 2.4349999428 60.452400208 103.79850006 180.83999634 1.0422999859 1.3709000349
 2236.1652832 2.0000000000 8.4776000977 8.5000000000 77.453414917 0.0333000049 0.2048999965 2.2922000885 2.5146999359 65.944900513 104.09519958 184.00929260 0.8116999865 1.1102999449
 2236.3176270 2.0000000000 8.4642000198 8.5000000000 154.72013855 0.0285000000 0.2592000067 2.2269001007 2.4151999950 59.652301788 103.47820282 183.14210510 0.7318999767 0.9815000296
 2236.4699707 2.0000000000 8.4628000259 8.5000000000 175.02691650 0.0243999995 0.2781000137 2.1633000374 2.2913000584 59.378799438 101.49970245 183.43539429 0.6844999790 0.8529999852
 2236.6223145 2.0000000000 8.4440002441 8.5000000000 139.31529236 0.0267999992 0.2788999975 2.1654999256 2.1498000622 59.543598175 101.13729858 183.78741455 0.6830999851 0.7590000033
 2236.7749023 2.0000000000 8.4433002472 8.5000000000 105.84154510 0.0243999995 0.2750999928 2.1726999283 2.0841999054 60.417301178 101.20490265 186.09509277 0.7319999933 0.7707999945
 2236.9272461 2.0000000000 8.4517002106 8.5000000000 105.08333588 0.0289999992 0.2689000070 2.2153000832 2.2009000778 68.939201355 100.97019196 185.26229858 0.8080999851 0.8019999862
 2237.0795898 2.0000000000 8.4596004486 8.5000000000 128.40551758 0.0278999992 0.2675000131 2.2251999378 2.3210000992 69.267501831 100.73549652 184.42950439 0.8276000023 0.7630000114
 2237.2319336 5.0000000000 8.4412002563 8.5000000000 124.88715363 0.0326000005 0.2628000081 2.2167999744 2.3210000992 69.899200439 100.74800110 185.62338257 0.7620000243 0.6999999881
 2237.3845215 5.0000000000 8.4154996872 8.5000000000 107.11384583 0.0357000008 0.2567000091 2.2102999687 2.2953000069 64.853103638 100.18499756 185.69329834 0.8082000017 0.7537000179
 2237.5368652 5.0000000000 8.4250001907 8.5000000000 98.295928955 0.0386999995 0.2703000009 2.2377998829 2.3835000992 70.150398254 99.390296936 185.74029541 0.9429000020 0.8804000020
 2237.6892090 5.0000000000 8.4226999283 8.5000000000 98.017715454 0.0364999995 0.2640999854 2.2685000896 2.3896999359 70.323196411 96.657897949 182.39630127 1.0772000551 1.0144000053
 2237.8415527 5.0000000000 8.4457998276 8.5000000000 98.410438538 0.0285999998 0.2594000101 2.3048999310 2.4177999496 72.390899658 94.578201294 179.77001953 1.1369999647 1.0780999660
 2237.9938965 5.0000000000 8.4316997528 8.5000000000 97.167984009 0.0263000000 0.2606000006 2.2946000099 2.4472999573 83.887001038 93.743499756 171.58561707 1.1771999598 1.1095999479
 2238.1464844 5.0000000000 8.4294004440 8.5000000000 93.906494141 0.0339000002 0.2511999905 2.2939999104 2.6872999668 83.831298828 93.975601196 169.63749695 1.2870999575 1.2465000153
 2238.2988281 5.0000000000 8.4448995590 8.5000000000 85.355316162 0.0317000002 0.2533999979 2.3036999702 2.5088000298 85.643096924 96.242500305 169.58448792 1.4347000122 1.4804999828
 2238.4511719 5.0000000000 8.4399003983 8.5000000000 71.889434814 0.0340999998 0.2558999956 2.3043000698 2.4460999966 79.415397644 99.523902893 168.09039307 1.3877999783 1.5686000586
 2238.6035156 5.0000000000 8.4458999634 8.5000000000 69.643699646 0.0289999992 0.2653999925 2.2623000145 2.3968000412 81.247200012 99.642097473 170.18380737 1.1333999634 1.3034000397
 2238.7561035 2.0000000000 8.4470996857 8.5000000000 81.869422913 0.0320000015 0.2768000066 2.2258000374 2.3485000134 72.494903564 96.559402466 173.96679688 0.9114000201 1.0245000124
 2238.9084473 2.0000000000 8.4486999512 8.5000000000 105.07382202 0.0299999993 0.2764999866 2.1635999680 2.2195000648 66.166198730 96.320098877 180.09500122 0.6843000054 0.6951000094
 2239.0607910 2.0000000000 8.4455003738 8.5000000000 121.06365204 0.0216000006 0.2800999880 2.1345000267 2.2190001011 56.017101288 100.14050293 186.30000305 0.6290000081 0.6179999709
 2239.2131348 2.0000000000 8.4399003983 8.5000000000 120.04626465 0.0243999995 0.2971999943 2.1421000957 2.2456998825 49.023601532 102.52199554 188.04589844 0.5967000127 0.5748000145
 2239.3657227 2.0000000000 8.4409999847 8.5000000000 113.23097229 0.0252000000 0.2788000107 2.1486001015 2.2304999828 49.960700989 103.66650391 181.03260803 0.5713000298 0.5443999767
 2239.5180664 1.0000000000 8.4390001297 8.5000000000 105.14698792 0.0225000009 0.2702000141 2.1524000168 2.0796000957 50.127700806 102.79969788 178.60479736 0.5493999720 0.5256000161
 2239.6704102 1.0000000000 8.4264001846 8.5000000000 96.944877625 0.0297999997 0.2673000097 2.1645998955 2.2421000004 35.951198578 101.38760376 175.47370911 0.5152999759 0.5084000230
 2239.8227539 1.0000000000 8.4301004410 8.5000000000 87.606300354 0.0303000007 0.2746999860 2.1610000134 2.3083999157 44.131099701 100.84190369 177.06329346 0.5105999708 0.4934000075
 2239.9750977 1.0000000000 8.4299001694 8.5000000000 74.735237122 0.0219999999 0.2768999934 2.1591999531 2.1754000187 52.336700439 100.10309601 172.45770264 0.5591999888 0.4972999990
 2240.1276855 1.0000000000 8.4270000458 8.5000000000 61.418735504 0.0245999992 0.2597000003 2.1931002140 2.2920000553 43.657001495 98.592811584 168.26800537 0.7021999955 0.5558000207
 2240.2800293 1.0000000000 8.4212999344 8.5000000000 53.091262817 0.0249000005 0.2407999933 2.2344000340 2.3424000740 46.418998718 95.824996948 166.80909729 1.1485999823 0.8165000081
 2240.4323730 1.0000000000 8.4156999588 8.5000000000 47.395996094 0.0251000002 0.2217999995 2.2755999565 2.3926999569 44.240600586 83.592002869 151.77920532 2.5727999210 1.8555999994
 2240.5847168 1.0000000000 8.4268999100 8.5000000000 41.805446625 0.0210999995 0.1828999966 2.4763998985 3.2787001133 40.869400024 76.552803040 142.66569519 4.8649997711 4.4120001793
 2240.7373047 1.0000000000 8.4688997269 8.5000000000 47.695014954 0.0375000015 0.1407999992 2.6017999649 4.0788998604 38.368301392 68.458999634 129.31370544 6.5479001999 8.5080995560
 2240.8896484 1.0000000000 8.4813003540 8.5000000000 73.181808472 0.0507999994 0.1133000031 2.6231000423 4.3056998253 40.604400635 67.882698059 124.83280182 9.2391996384 14.426699638
