# LAS format log file from PETREL
# Project units are specified as depth units
#==================================================================
~Version information
VERS.   2.0:
WRAP.   NO:
#==================================================================
~Well
STRT .m      452.86209106 :
STOP .m      2603.6831055 :
STEP .m     0.00000000 :
NULL .        -999.250000 :
COMP.           : COMPANY
WELL.  31/2-3   : WELL
FLD.            : FIELD
LOC.            : LOCATION
SRVC.           : SERVICE COMPANY
DATE.  2018-09-11 14:48:34   : Log Export Date {yyyy-MM-dd HH:mm:ss}
PROV.           : PROVINCE
UWI.   31/2-3   : UNIQUE WELL ID
API.            : API NUMBER
#==================================================================
~Curve
DEPT .m                   : DEPTH
Lithology_geolink ._      : Lithology_geolink
CALI .in                  : CALI
DRHO .g/cm3               : DRHO
NPHI .m3/m3               : NPHI
RHOB .g/cm3               : RHOB
GR .gAPI                  : GR
DTC .us/ft                : DTC
DTE .us/ft                : DTE
RDEP .ohm.m               : RDEP
SP .mV                    : SP
RSHA .ohm.m               : RSHA
RMED .ohm.m               : RMED
~Parameter
#==================================================================
~Ascii
# ...
 1308.7403564 5.0000000000 17.327999115 -0.001998399 0.5095815659 2.1050264835 35.002216339 130.72029114 132.18553162 0.9580000043 45.130718231  -999.250000 1.3425860405
 1308.8927002 5.0000000000 17.159000397 -0.011983975 0.5208519697 2.0392115116 38.165462494 139.58006287 141.08975220 0.9440000057 44.800262451  -999.250000 1.0694375038
 1309.0450439 5.0000000000 17.114000320 -0.011002402 0.5284916759 1.9851731062 42.596897125 148.12391663 149.76110840 0.9240000248 45.371086121  -999.250000 0.9712353945
 1309.1975098 5.0000000000 17.131999969 -0.005009615 0.5346501470 1.9859967232 45.791442871 152.33287048 154.05902100 0.9039999843 46.054454803  -999.250000 0.9879727364
 1309.3498535 5.0000000000 17.121000290 0.0009855885 0.5394583941 1.9999551773 46.064563751 153.12129211 154.83731079 0.8840000033 45.411033630  -999.250000 1.0279039145
 1309.5023193 5.0000000000 17.097999573 0.0039951927 0.5438330173 2.0029928684 44.435306549 153.11962891 154.89660645 0.8640000224 45.518913269  -999.250000 1.0349887609
 1309.6546631 5.0000000000 17.135000229 0.0010072058 0.5502445698 1.9970191717 44.614711761 153.71028137 155.43493652 0.8439999819 45.596874237  -999.250000 1.0369951725
 1309.8071289 5.0000000000 17.222999573 -0.004990384 0.5573086739 1.9890191555 46.399570465 154.30995178 156.03085327 0.8209999800 44.834609985  -999.250000 1.0799311399
 1309.9594727 5.0000000000 17.257999420 -0.006995196 0.5674256682 1.9840159416 45.175983429 154.31335449 156.10427856 0.7969999909 44.844993591  -999.250000 1.1398558617
 1310.1119385 5.0000000000 17.194999695 -0.008996795 0.5792310834 1.9810070992 46.000339508 153.89799500 155.65438843 0.7730000019 44.661148071  -999.250000 1.1290175915
 1310.2642822 5.0000000000 17.104000092 -0.007004804 0.5907223821 1.9800032377 46.744403839 153.65510559 155.34147644 0.7469999790 44.723949432  -999.250000 1.0481945276
 1310.4167480 5.0000000000 17.083000183 -0.003006410 0.6022515297 1.9800000191 46.247402191 153.95095825 155.68273926 0.7179999948 45.575317383  -999.250000 0.9870977402
 1310.5690918 5.0000000000 17.122999191 -0.002002402 0.6093928814 1.9770096540 46.836528778 154.19662476 156.01480103 0.6890000105 45.077400208  -999.250000 0.9211585522
 1310.7215576 5.0000000000 17.166999817 -0.001001603 0.6121256351 1.9789952040 46.581207275 153.78285217 155.53817749 0.6660000086 45.527637482  -999.250000 0.8531089425
 1310.8739014 6.0000000000 17.211999893 -0.000001603 0.6139870286 1.9839839935 46.709896088 152.88735962 154.65141296 0.6579999924 45.325164795  -999.250000 0.7930961251
 1311.0262451 6.0000000000 17.208000183 0.0019951963 0.6038044691 1.9820064306 49.587383270 152.28683472 154.03761292 0.6620000005 44.588184357  -999.250000 0.7740456462
 1311.1787109 6.0000000000 17.076999664 -0.001993590 0.5750162005 1.9790096283 49.990680695 152.10700989 153.83383179 0.6719999909 44.704906464  -999.250000 0.7969631553
 1311.3310547 6.0000000000 16.961999893 -0.007985589 0.5603551865 1.9819903374 47.920322418 152.57513428 154.29534912 0.6850000024 45.377922058  -999.250000 0.8608462811
 1311.4835205 6.0000000000 16.902999878 -0.010995192 0.5692656636 1.9889775515 45.841663361 153.65093994 155.39738464 0.7070000172 44.897384644  -999.250000 0.9877964258
 1311.6358643 5.0000000000 16.829999924 -0.012995197 0.5707265735 1.9979711771 44.786689758 154.25331116 156.05445862 0.7300000191 44.875034332  -999.250000 1.0259087086
 1311.7883301 5.0000000000 16.871999741 -0.009006410 0.5585995317 1.9950071573 43.346000671 153.84101868 155.59811401 0.7670000196 46.095024109  -999.250000 1.0250015259
 1311.9406738 5.0000000000 16.982999802 -0.003014412 0.5454117060 1.9890191555 43.125999451 152.82946777 154.55830383 0.8040000200 46.162944794  -999.250000 1.0140265226
 1312.0931396 5.0000000000 17.024000168 -0.001003205 0.5322111845 1.9909952879 44.040000916 151.93191528 153.66448975 0.8370000124 45.171794891  -999.250000 1.0020191669
 1312.2454834 5.0000000000 17.027999878 -0.001997598 0.5218049884 1.9929935932 43.508998871 151.86503601 153.55487061 0.8669999838 45.711566925  -999.250000 0.9930216074
 1312.3979492 5.0000000000 17.034999847 0.0009951923 0.5242061615 1.9930000305 43.673000336 152.81469727 154.49575806 0.8830000162 44.902648926  -999.250000 0.9999887943
 1312.5502930 5.0000000000 17.006999969 0.0029951963 0.5296967626 1.9949935675 43.569999695 154.12597656 155.83229065 0.8960000277 44.490333557  -999.250000 1.0488823652
 1312.7027588 5.0000000000 16.950000763 -0.004987179 0.5368984342 1.9979928732 45.590000153 154.79080200 156.51284790 0.9089999795 44.540958405  -999.250000 1.1128975153
 1312.8551025 5.0000000000 16.943000793 -0.008993589 0.5367203355 1.9980000257 47.002998352 154.32029724 156.13000488 0.9179999828 45.140518188  -999.250000 1.1739022732
 1313.0074463 6.0000000000 16.986000061 -0.005009607 0.5154612064 1.9980000257 48.421001434 153.24757385 155.04325867 0.9269999862 45.997627258  -999.250000 1.2248774767
 1313.1599121 6.0000000000 17.003000259 0.0019887821 0.4904899895 2.0019872189 48.509998322 152.05450439 153.76376343 0.9350000024 45.277580261  -999.250000 1.1870609522
 1313.3122559 6.0000000000 16.924999237 0.0109783830 0.4863798022 2.0129647255 49.547000885 151.03964233 152.70170593 0.9399999976 44.746849060  -999.250000 1.1291393042
 1313.4647217 6.0000000000 16.785999298 0.0149935894 0.4927797019 2.0249617100 51.025001526 150.32258606 152.02290344 0.9459999800 45.557346344  -999.250000 1.0661009550
 1313.6170654 6.0000000000 16.697000504 0.0070192157 0.5022372603 2.0269935131 50.736999512 149.08116150 150.81434631 0.9629999995 44.978927612 56.398811340 0.9991609454
 1313.7695313 6.0000000000 16.719999313 0.0079983976 0.5089292526 2.0329856873 48.613998413 145.99557495 147.71386719 1.0000000000 45.617488861 13.723937988 0.9081458449
 1313.9218750 16.000000000 16.864999771 -0.000978383 0.4940258861 2.0639007092 49.238998413 140.23959351 141.85594177 1.0520000458 44.684745789 1.1758631468 0.8700912595
 1314.0743408 16.000000000 17.107999802 -0.011982372 0.4715560079 2.1198651791 49.800998688 132.31195068 133.78390503 1.1000000238 44.693992615 1.0049976110 1.1046234369
 1314.2266846 16.000000000 17.243999481 -0.003021617 0.4602670670 2.1847918034 48.944999695 128.19406128 129.63143921 1.1269999743 46.022933960 1.0019984245 1.5798566341
 1314.3791504 16.000000000 17.056999207 0.0109775644 0.4569952190 2.2129328251 48.823001862 132.61972046 134.12811279 1.1419999599 46.458652496 1.0000000000 2.2000064850
 1314.5314941 6.0000000000 16.750000000 0.0109999999 0.4691906273 2.1751215458 48.845001221 138.55104065 140.13172913 1.1289999485 45.558719635 1.0000015497 2.2708318233
 1314.6839600 6.0000000000 16.613000870 0.0000176282 0.5047529340 2.0762379169 49.541999817 140.77113342 142.40960693 1.0499999523 44.765632629 1.0020079613 1.7698045969
 1314.8363037 6.0000000000 16.610000610 -0.001996795 0.5400634408 1.9892785549 49.757999420 144.37658691 146.05548096 0.9599999785 44.344337463 1.0069999695 1.2638108730
 1314.9887695 6.0000000000 16.632999420 -0.003996798 0.5629733205 1.9480985403 49.932998657 149.86944580 151.61784363 0.8700000048 44.416000366 1.0069903135 1.0273778439
 1315.1411133 6.0000000000 16.653999329 -0.002003205 0.5797331929 1.9220832586 50.108001709 153.40257263 155.13989258 0.7820000052 44.451000214 1.0017075539 0.8692532182
 1315.2934570 6.0000000000 16.652999878 -0.000004804 0.5946940780 1.8901025057 51.425998688 155.01976013 156.72773743 0.7129999995 44.188999176 1.8953882456 0.7482906580
 1315.4459229 6.0000000000 16.650999069 -0.000998397 0.6041748524 1.8620896339 53.012001038 155.62394714 157.39311218 0.6660000086 44.721000671 16.154581070 0.6651330590
 1315.5982666 6.0000000000 16.708999634 -0.002995196 0.5842978954 1.8550224304 53.370998383 155.45132446 157.23188782 0.6420000196 45.410999298 74.264068604 0.6490384340
 1315.7507324 6.0000000000 16.829000473 -0.003998398 0.5573930740 1.8669711351 53.595001221 154.55783081 156.33934021 0.6510000229 44.498001099 101.81300354 0.7608205080
 1315.9030762 6.0000000000 16.951999664 -0.004000000 0.5284795165 1.9098622799 53.825000763 153.01446533 154.72674561 0.6850000024 44.412998199 101.81300354 0.9874547124
