# LAS format log file from PETREL
# Project units are specified as depth units
#==================================================================
~Version information
VERS.   2.0:
WRAP.   NO:
#==================================================================
~Well
STRT .m      1309.8798828 :
STOP .m      4086.9138184 :
STEP .m     0.00000000 :
NULL .        -999.250000 :
COMP.           : COMPANY
WELL.  31/2-19 S   : WELL
FLD.            : FIELD
LOC.            : LOCATION
SRVC.           : SERVICE COMPANY
DATE.  2018-09-11 14:48:33   : Log Export Date {yyyy-MM-dd HH:mm:ss}
PROV.           : PROVINCE
UWI.   31/2-19 S   : UNIQUE WELL ID
API.            : API NUMBER
#==================================================================
~Curve
DEPT .m                   : DEPTH
Lithology_geolink ._      : Lithology_geolink
CALI .in                  : CALI
BS .in                    : BS
DRHO .g/cm3               : DRHO
NPHI .m3/m3               : NPHI
RHOB .g/cm3               : RHOB
GR .gAPI                  : GR
DTC .us/ft                : DTC
DTS .us/ft                : DTS
RDEP .ohm.m               : RDEP
SP .mV                    : SP
RSHA .ohm.m               : RSHA
RMIC .ohm.m               : RMIC
RMED .ohm.m               : RMED
~Parameter
#==================================================================
~Ascii
# ...
 3346.8591309 5.0000000000 9.0830001831 8.5000000000 0.0049079470 0.3164159954 2.6039793491 103.92400360 75.499992371  -999.250000 27.725999832 -238.0000000 32.514999390 16.731813431 32.506011963
 3347.0117188 5.0000000000 9.0930004120 8.5000000000 0.0029973409 0.3258599937 2.5910000801 109.40499878 77.250000000  -999.250000 25.349000931 -239.0000000 30.645999908 13.738321304 30.611518860
 3347.1640625 5.0000000000 9.1660003662 8.5000000000 0.0002964327 0.3400050104 2.5910129547 106.51200104 76.000000000  -999.250000 21.281999588 -235.5630035 25.267000198 11.357817650 25.249244690
 3347.3164063 6.0000000000 9.1459999084 8.5000000000 -0.001927391 0.3412930071 2.5989935398 127.71800232 76.000000000  -999.250000 19.589000702 -236.8130035 22.496999741 18.279193878 22.498619080
 3347.4687500 6.0000000000 9.1499996185 8.5000000000 -0.002793205 0.3114359975 2.5949840546 124.23799896 76.349998474  -999.250000 19.440999985 -239.2500000 22.750000000 19.668512344 22.747524261
 3347.6213379 6.0000000000 9.2060003281 8.5000000000 -0.002303651 0.2977359891 2.5849168301 126.97399902 76.599998474  -999.250000 19.472999573 -234.6250000 22.235000610 20.095209122 22.236551285
 3347.7736816 6.0000000000 9.2299995422 8.5000000000 -0.004059146 0.2931360006 2.5589969158 127.48300171 76.550003052  -999.250000 19.482000351 -238.4380035 22.476999283 19.088129044 22.476282120
 3347.9260254 6.0000000000 9.2279996872 8.5000000000 -0.001037963 0.3067600131 2.5569694042 132.12600708 76.800003052  -999.250000 19.485000610 -236.1880035 22.364999771 29.096839905 22.369295120
 3348.0783691 6.0000000000 9.2340002060 8.5000000000 -0.002886875 0.3241199851 2.5379631519 138.05099487 76.900001526  -999.250000 19.525999069 -236.8130035 23.040134430 24.744440079 23.048402786
 3348.2307129 6.0000000000 9.1929998398 8.5000000000 -0.004685300 0.3616360128 2.5149424076 141.94400024 77.699989319  -999.250000 21.884000778 -237.7500000 25.621438980 24.796121597 25.632320404
 3348.3833008 6.0000000000 9.1429996490 8.5000000000 -0.009236715 0.4026539922 2.4789423943 146.09500122 82.999992371  -999.250000 24.950000763 -239.0000000 28.997293472 24.350938797 28.983545303
 3348.5356445 6.0000000000 9.1289997101 8.5000000000 -0.010396058 0.4248749912 2.4609839916 141.21099854 89.850006104  -999.250000 21.912000656 -237.6880035 24.726518631 24.471389771 24.722080231
 3348.6879883 6.0000000000 9.1260004044 8.5000000000 -0.011676382 0.4146350026 2.4510271549 143.68699646 81.000000000  -999.250000 20.859010696 -240.9380035 23.802303314 25.031023026 23.800912857
 3348.8403320 6.0000000000 9.1250000000 8.5000000000 -0.010664503 0.3825500011 2.4680511951 143.02000427 80.099998474  -999.250000 20.865985870 -237.3750000 23.368339539 27.001525879 23.367019653
 3348.9929199 6.0000000000 9.1730003357 8.5000000000 -0.008466153 0.3530319929 2.5001311302 134.04400635 80.199989319  -999.250000 20.858070374 -236.7500000 22.957246780 24.454082489 22.957494736
 3349.1452637 6.0000000000 9.1960000992 8.5000000000 -0.002283933 0.3360179961 2.5410351753 130.88800049 80.250000000  -999.250000 20.879987717 -237.7500000 23.033803940 25.205638885 23.033218384
 3349.2976074 6.0000000000 9.1429996490 8.5000000000 -0.002245946 0.3406879902 2.5629999638 124.49500275 80.199989319  -999.250000 20.872886658 -238.7500000 22.912508011 25.036182404 22.914030075
 3349.4499512 6.0000000000 9.1260004044 8.5000000000 -0.004698404 0.3516199887 2.5630192757 132.52299500 80.099998474  -999.250000 20.803249359 -241.5000000 23.229846954 24.934646606 23.231538773
 3349.6025391 6.0000000000 9.1120004654 8.5000000000 -0.001199568 0.3743860126 2.5750319958 138.05000305 80.099998474  -999.250000 20.958358765 -238.2500000 23.754007339 24.881986618 23.751007080
 3349.7548828 6.0000000000 9.1160001755 8.5000000000 0.0026708511 0.3669500053 2.5849905014 141.76300049 80.199989319  -999.250000 20.757135391 -237.9380035 22.819198608 23.762403488 22.810794830
 3349.9072266 6.0000000000 9.1160001755 8.5000000000 0.0013407564 0.3634310067 2.5789999962 141.42100525 79.900001526  -999.250000 19.593811035 -238.4380035 21.073539734 23.272352219 21.072162628
 3350.0595703 6.0000000000 9.1199998856 8.5000000000 0.0067944936 0.3446570039 2.5789871216 141.57899475 82.699989319  -999.250000 18.852779388 -237.9380035 20.785671234 17.747280121 20.783014297
 3350.2119141 6.0000000000 9.1709995270 8.5000000000 0.0058564390 0.3450239897 2.5710225105 145.28399658 77.000000000  -999.250000 18.714914322 -236.8130035 19.958070755 18.029392242 19.958211899
 3350.3645020 6.0000000000 9.1120004654 8.5000000000 0.0061255777 0.3239830136 2.5850129128 143.31599426 75.050003052  -999.250000 18.658596039 -240.6250000 20.000183105 17.934999466 19.998359680
 3350.5168457 6.0000000000 9.1289997101 8.5000000000 0.0047460431 0.3071579933 2.5890142918 141.76899719 75.000000000  -999.250000 17.595735550 -237.6250000 19.430501938 17.935552597 19.420028687
 3350.6691895 6.0000000000 9.1610002518 8.5000000000 0.0035182356 0.2892900109 2.5979919434 135.47700500 75.099998474  -999.250000 16.184913635 -240.6880035 17.251590729 17.996847153 17.252773285
 3350.8215332 6.0000000000 9.1630001068 8.5000000000 -0.001939721 0.2881219983 2.5930030346 124.86000061 75.000000000  -999.250000 16.132015228 -238.6250000 17.619394302 17.107820511 17.618179321
 3350.9741211 6.0000000000 9.1490001678 8.5000000000 -0.000520563 0.2888700068 2.5950193405 126.85700226 75.099998474  -999.250000 16.140609741 -236.8750000 17.238979340 16.768613815 17.236953735
 3351.1264648 6.0000000000 9.1569995880 8.5000000000 -0.000702189 0.2970840037 2.6009969711 124.33300018 75.250000000  -999.250000 16.018833160 -236.7500000 16.610168457 16.604957581 16.610673904
 3351.2788086 6.0000000000 9.1510000229 8.5000000000 -0.004555575 0.2938089967 2.5990128517 125.14700317 75.199989319  -999.250000 15.914922714 -236.5630035 16.714689255 17.574871063 16.713758469
 3351.4311523 6.0000000000 9.1520004272 8.5000000000 -0.003047027 0.2847450078 2.6069953442 124.00900269 75.099998474  -999.250000 15.866962433 -238.1880035 16.522045135 15.687239647 16.524133682
 3351.5837402 6.0000000000 9.1169996262 8.5000000000 -0.004315488 0.2789700031 2.6039745808 123.09100342 75.250000000  -999.250000 15.843933105 -238.8130035 17.173511505 13.868923187 17.174026489
 3351.7360840 6.0000000000 9.0690002441 8.5000000000 -0.006028109 0.2835749984 2.5959694386 123.97799683 75.099998474  -999.250000 15.822710037 -239.5630035 17.331947327 15.346378326 17.328788757
 3351.8884277 6.0000000000 9.1110000610 8.5000000000 -0.007959064 0.3015600145 2.5769903660 131.81199646 75.400001526  -999.250000 15.640452385 -237.5630035 16.673553467 15.517040253 16.666227341
 3352.0407715 6.0000000000 9.0799999237 8.5000000000 -0.004261197 0.3124539852 2.5710000992 129.61399841 77.999992371  -999.250000 14.675743103 -238.2500000 15.149644852 15.519912720 15.150933266
 3352.1931152 6.0000000000 9.0830001831 8.5000000000 -0.004380403 0.3360629976 2.5710225105 134.13099670 80.300003052  -999.250000 14.516865730 -237.3750000 15.552020073 15.268448830 15.554066658
 3352.3457031 6.0000000000 9.0740003586 8.5000000000 -0.002127582 0.3400360048 2.5850129128 145.88999939 80.949996948  -999.250000 15.056753159 -239.5000000 16.188743591 16.437543869 16.187973022
 3352.4980469 6.0000000000 9.0860004425 8.5000000000 0.0031159890 0.3433839977 2.5929856300 137.77400208 80.650001526  -999.250000 14.902940750 -240.9380035 16.027877808 18.242296219 16.024518967
 3352.6503906 6.0000000000 9.0760002136 8.5000000000 0.0024783125 0.3149859905 2.5839905739 134.99699402 80.650001526  -999.250000 14.866000175 -241.1880035 15.329438210 18.773887634 15.330312729
 3352.8027344 6.0000000000 9.1000003815 8.5000000000 -0.002309006 0.3144829869 2.5780017376 136.47099304 80.499992371  -999.250000 14.866011620 -241.6250000 15.601222992 18.720077515 15.599668503
 3352.9553223 6.0000000000 9.1470003128 8.5000000000 -0.001060376 0.3163479865 2.5790512562 138.46099854 80.400001526  -999.250000 14.872558594 -238.1880035 15.118196487 12.531622887 15.119397163
