# LAS format log file from PETREL
# Project units are specified as depth units
#==================================================================
~Version information
VERS.   2.0:
WRAP.   NO:
#==================================================================
~Well
STRT .m      416.08499146 :
STOP .m      2599.3679199 :
STEP .m     0.00000000 :
NULL .        -999.250000 :
COMP.           : COMPANY
WELL.  31/2-2 R   : WELL
FLD.            : FIELD
LOC.            : LOCATION
SRVC.           : SERVICE COMPANY
DATE.  2018-09-11 14:48:33   : Log Export Date {yyyy-MM-dd HH:mm:ss}
PROV.           : PROVINCE
UWI.   31/2-2 R   : UNIQUE WELL ID
API.            : API NUMBER
#==================================================================
~Curve
DEPT .m                   : DEPTH
Lithology_geolink ._      : Lithology_geolink
CALI .in                  : CALI
DRHO .g/cm3               : DRHO
NPHI .m3/m3               : NPHI
RHOB .g/cm3               : RHOB
GR .gAPI                  : GR
DTC .us/ft                : DTC
RDEP .ohm.m               : RDEP
SP .mV                    : SP
RSHA .ohm.m               : RSHA
RMED .ohm.m               : RMED
~Parameter
#==================================================================
~Ascii
# ...
 1721.8485107 5.0000000000 11.984001160 -0.006000000 0.3967100084 2.1659998894 55.032752991 107.99839020 0.6190000176 24.607999802 0.9703581929 0.8600000143
 1722.0009766 5.0000000000 11.984001160 -0.011000000 0.3933899999 2.1500000954 56.126426697 107.99999237 0.6200000048 24.857999802 1.1197397709 0.7739999890
 1722.1533203 5.0000000000 11.984001160 -0.012000000 0.3772100210 2.1470000744 56.716648102 107.37599945 0.6169999838 24.982999802 1.3494279385 0.7059999704
 1722.3057861 5.0000000000 11.984001160 -0.011000000 0.3553099930 2.1589999199 55.241218567 107.56285095 0.6079999804 24.607999802 1.1120768785 0.6990000010
 1722.4581299 5.0000000000 11.984001160 -0.004000000 0.3376200199 2.1770000458 51.593902588 107.56300354 0.6110000014 24.357999802 1.1366394758 0.7179999948
 1722.6105957 5.0000000000 11.984001160 0.0030000000 0.3304600120 2.1860001087 51.531749725 107.74984741 0.6209999919 25.107999802 1.4020960331 0.7409999967
 1722.7629395 5.0000000000 11.984001160 0.0049999999 0.3329199851 2.1870000362 51.850612640 107.18845367 0.6370000243 25.295999527 1.4318125248 0.7469999790
 1722.9154053 5.0000000000 11.984001160 0.0010000000 0.3378700018 2.1900000572 55.975154877 106.56351471 0.6690000296 24.420999527 1.3548909426 0.7670000196
 1723.0677490 5.0000000000 11.984001160 -0.005000000 0.3562200069 2.1989998817 58.536006927 106.37515259 0.7239999771 24.045999527 1.6323554516 0.8000000119
 1723.2202148 6.0000000000 11.994001389 -0.007000000 0.3811299801 2.2160000801 61.665531158 106.00029755 0.7670000196 24.670999527 1.7426826954 0.8790000081
 1723.3725586 6.0000000000 11.999999046 -0.008000000 0.3936299980 2.2309999466 65.626602173 104.37631226 0.7979999781 24.670999527 1.6424884796 0.9459999800
 1723.5249023 6.0000000000 11.999999046 -0.004000000 0.3806900084 2.2320001125 66.622695923 102.00379944 0.8130000234 24.232999802 1.1715168953 1.0509999990
 1723.6773682 6.0000000000 12.005000114 0.0010000000 0.3553600013 2.2119998932 65.173233032 100.37630463 0.7879999876 24.107999802 0.9711697698 1.1849999428
 1723.8297119 6.0000000000 12.012000084 0.0040000002 0.3385699987 2.1749999523 55.959987640 102.74620056 0.7459999919 23.857999802 1.0236467123 1.2170000076
 1723.9821777 2.0000000000 12.015000343 -0.002000000 0.3402399719 2.1410000324 50.327861786 106.18524933 0.6919999719 23.982999802 0.8771889210 1.0900000334
 1724.1345215 2.0000000000 12.015999794 -0.011000000 0.3511199951 2.1159999371 43.622646332 107.56079865 0.6290000081 23.420999527 0.9360144138 0.8809999824
 1724.2869873 2.0000000000 12.025998116 -0.017999999 0.3601300120 2.0999999046 42.147441864 107.56300354 0.5799999833 23.295999527 0.9420480132 0.7710000277
 1724.4393311 2.0000000000 12.031000137 -0.024000000 0.3559400141 2.0959999561 38.601364136 107.37515259 0.5500000119 23.170999527 0.9567043185 0.7300000191
 1724.5917969 2.0000000000 12.041000366 -0.026000001 0.3479700089 2.1059999466 43.188976288 107.56285095 0.5440000296 23.232999802 0.8355180025 0.7009999752
 1724.7441406 2.0000000000 12.057000160 -0.016000001 0.3526300192 2.1240000725 43.598659515 108.18750000 0.5540000200 23.920999527 1.3389614820 0.6510000229
 1724.8966064 2.0000000000 12.082999229 -0.007000000 0.3613000214 2.1579999924 46.495872498 107.18880463 0.5799999833 23.795999527 14.214089394 0.6140000224
 1725.0489502 2.0000000000 12.097999573 -0.008000000 0.3512200117 2.2260000706 44.776092529 107.00015259 0.6209999919 23.295999527 22.262826920 0.5889999866
 1725.2014160 2.0000000000 12.090999603 -0.020000000 0.2953700125 2.3259999752 41.712623596 98.381904602 0.6880000234 23.857999802 1.9758750200 0.5830000043
 1725.3537598 2.0000000000 12.097000122 -0.012000000 0.2277799994 2.3770000935 39.055736542 86.759307861 0.7779999971 23.482999802 1.3280664682 0.6710000038
 1725.5062256 2.0000000000 12.064000130 -0.012000000 0.1934499890 2.3710000515 34.528896332 82.753204346 0.9509999752 23.857999802 5.3892884254 1.1009999514
 1725.6585693 2.0000000000 12.047999382 -0.009000000 0.1907700002 2.3670001030 33.651817322 79.752403259 1.3830000162 23.920999527 3.6072320938 2.0039999485
 1725.8109131 2.0000000000 12.041000366 -0.006000000 0.1995999962 2.3919999599 31.049379349 82.558502197 2.2360000610 24.545999527 1.8859952688 2.4300000668
 1725.9633789 16.000000000 12.034000397 -0.004000000 0.1893899888 2.4400000572 32.534076691 78.003646851 3.1329998970 24.795999527 32.556419373 3.0920000076
 1726.1157227 16.000000000 12.031000137 0.0020000001 0.1654400080 2.4709999561 33.819961548 70.387207031 2.7379999161 24.295999527 20.817132950 3.7109999657
 1726.2681885 2.0000000000 12.031000137 -0.004000000 0.1329800040 2.4830000401 38.154197693 70.375000000 2.2829999924 24.420999527 3.4377670288 5.9409999847
 1726.4205322 2.0000000000 12.043000221 0.0099999998 0.1230700016 2.4340000153 37.410507202 72.995796204 1.9639999866 24.670999527 1.8081754446 6.8520002365
 1726.5729980 2.0000000000 12.057999611 0.0099999998 0.1764300019 2.3399999142 40.226432800 76.185447693 1.7220000029 24.545999527 1.4646260738 3.4409999847
 1726.7253418 2.0000000000 12.090999603 0.0020000001 0.2610799968 2.2609999180 43.318706512 87.179191589 1.6519999504 24.795999527 1.0550720692 1.9459999800
 1726.8778076 2.0000000000 12.112999916 -0.001000000 0.3354700208 2.2260000706 46.872222900 98.740745544 1.7359999418 25.170999527 8.5633363724 1.3420000076
 1727.0301514 2.0000000000 12.116999626 -0.016000001 0.3506499827 2.2550001144 45.711338043 101.74758911 1.7599999905 25.045999527 11.151846886 1.1790000200
 1727.1826172 2.0000000000 12.098999977 -0.024000000 0.3116300106 2.3340001106 40.934772491 92.195655823 1.7150000334 24.545999527 9.8634071350 1.3070000410
 1727.3349609 16.000000000 12.022000313 -0.027000001 0.2500499785 2.4230000973 39.591796875 84.569114685 1.6979999542 24.232999802 11.209900856 2.2639999390
 1727.4874268 16.000000000 11.987998962 -0.011000000 0.2022799999 2.4760000706 38.219902039 76.756248474 1.7050000429 25.107999802 3.7042372227 5.2810001373
 1727.6397705 16.000000000 11.984001160 0.0049999999 0.1877200007 2.4909999371 38.596607208 74.002204895 1.6909999847 25.732999802 2.2219047546 11.819999695
 1727.7921143 2.0000000000 11.960000038 0.0260000005 0.2109199911 2.4460000992 40.225410461 79.179695129 1.7619999647 25.795999527 1.8812476397 14.765999794
 1727.9445801 2.0000000000 11.959000587 0.0199999996 0.2545599937 2.3519999981 44.232738495 85.994544983 1.9900000095 26.107999802 1.9845443964 10.055000305
 1728.0969238 2.0000000000 11.961000443 0.0000000000 0.3047899902 2.2760000229 49.940353394 90.991996765 2.1329998970 25.482999802 2.1540937424 4.5159997940
 1728.2493896 2.0000000000 11.955000877 -0.011000000 0.3390399814 2.2509999275 51.405548096 98.993591309 1.9479999542 24.920999527 2.1925580502 2.1800000668
 1728.4017334 5.0000000000 11.953000069 -0.014000000 0.3570399880 2.2609999180 51.212890625 103.99199677 1.5950000286 25.857999802 2.0566563606 1.5579999685
 1728.5541992 5.0000000000 11.960000038 -0.008000000 0.3676399887 2.2760000229 47.411026001 105.56175232 1.3320000172 24.857999802 2.7422802448 1.5340000391
 1728.7065430 5.0000000000 11.954000473 -0.006000000 0.3726200163 2.2890000343 49.503005981 104.75064850 1.2480000257 25.295999527 2.2071683407 1.6599999666
 1728.8590088 5.0000000000 11.953000069 -0.002000000 0.3810900152 2.3020000458 51.383556366 104.37530518 1.2359999418 24.795999527 2.2758502960 1.7879999876
 1729.0113525 5.0000000000 11.960000038 0.0030000000 0.3817999959 2.3039999008 54.939403534 103.37580109 1.2400000095 24.545999527 1.9186850786 1.7209999561
 1729.1638184 5.0000000000 11.954000473 0.0089999996 0.3712400198 2.2960000038 55.809318542 103.56285095 1.2400000095 25.045999527 2.2027821541 1.6510000229
 1729.3161621 5.0000000000 11.953000069 0.0070000002 0.3608900011 2.2850000858 54.282852173 103.56300354 1.2389999628 25.670999527 2.1341416836 1.6180000305
 1729.4686279 5.0000000000 11.953000069 0.0000000000 0.3442400098 2.2839999199 55.436573029 102.75064850 1.2339999676 26.107999802 1.8671762943 1.6059999466
