# LAS format log file from PETREL
# Project units are specified as depth units
#==================================================================
~Version information
VERS.   2.0:
WRAP.   NO:
#==================================================================
~Well
STRT .m      1309.8798828 :
STOP .m      4086.9138184 :
STEP .m     0.00000000 :
NULL .        -999.250000 :
COMP.           : COMPANY
WELL.  31/2-19 S   : WELL
FLD.            : FIELD
LOC.            : LOCATION
SRVC.           : SERVICE COMPANY
DATE.  2018-09-11 14:48:33   : Log Export Date {yyyy-MM-dd HH:mm:ss}
PROV.           : PROVINCE
UWI.   31/2-19 S   : UNIQUE WELL ID
API.            : API NUMBER
#==================================================================
~Curve
DEPT .m                   : DEPTH
Lithology_geolink ._      : Lithology_geolink
CALI .in                  : CALI
BS .in                    : BS
DRHO .g/cm3               : DRHO
NPHI .m3/m3               : NPHI
RHOB .g/cm3               : RHOB
GR .gAPI                  : GR
DTC .us/ft                : DTC
DTS .us/ft                : DTS
RDEP .ohm.m               : RDEP
SP .mV                    : SP
RSHA .ohm.m               : RSHA
RMIC .ohm.m               : RMIC
RMED .ohm.m               : RMED
~Parameter
#==================================================================
~Ascii
# ...
 3709.2666016 6.0000000000 8.6829996109 8.5000000000 -0.004393393 0.2833690047 2.6550142765 115.96900177 74.500000000  -999.250000 18.545999527 -126.8130112 20.708000183 16.546644211 20.711410522
 3709.4189453 6.0000000000 8.6859998703 8.5000000000 -0.004015194 0.2838619947 2.6639935970 117.26100159 73.699996948  -999.250000 18.690999985 -123.8750000 21.239999771 18.828826904 21.238714218
 3709.5712891 6.0000000000 8.6339998245 8.5000000000 -0.004136069 0.2670210004 2.6600000858 118.87999725 73.699996948  -999.250000 18.934999466 -126.0630035 21.038999557 24.260828018 21.042745590
 3709.7236328 6.0000000000 8.6569995880 8.5000000000 -0.004179933 0.2453179955 2.6599888802 107.75800323 73.000000000  -999.250000 19.520999908 -126.3750076 21.818000793 23.303375244 21.820381165
 3709.8762207 5.0000000000 8.6960000992 8.5000000000 -0.004755346 0.2422329932 2.6530082226 107.19999695 72.900001526  -999.250000 19.912000656 -126.8130112 22.312999725 22.032730103 22.314319611
 3710.0285645 5.0000000000 8.6820001602 8.5000000000 -0.000607091 0.2455440015 2.6580095291 107.80599976 72.849998474  -999.250000 20.264999390 -124.0630035 22.518999100 25.281606674 22.521539688
 3710.1809082 5.0000000000 8.6590003967 8.5000000000 0.0012072260 0.2565670013 2.6640081406 105.36599731 73.000000000  -999.250000 20.461000443 -125.6250000 22.916000366 23.274654388 22.915658951
 3710.3332520 5.0000000000 8.6450004578 8.5000000000 0.0026028927 0.2610380054 2.6690175533 108.13899994 72.800003052  -999.250000 20.607999802 -127.0630035 22.844999313 22.311471939 22.846109390
 3710.4858398 5.0000000000 8.6409997940 8.5000000000 0.0081393104 0.2603569925 2.6799681187 108.00399780 72.500000000  -999.250000 20.687999725 -124.1880035 23.076000214 22.264366150 23.077634811
 3710.6381836 5.0000000000 8.6359996796 8.5000000000 0.0069910563 0.2652480006 2.6700017452 105.06700134 71.099998474  -999.250000 20.778999329 -123.6880035 23.330999374 23.046789169 23.335767746
 3710.7905273 5.0000000000 8.6569995880 8.5000000000 0.0076482738 0.2727270126 2.6709904671 105.86900330 71.199996948  -999.250000 21.613000870 -122.9380035 24.075000763 25.461835861 24.078424454
 3710.9428711 5.0000000000 8.6700000763 8.5000000000 0.0071968604 0.2841649950 2.6650030613 101.81099701 71.000000000  -999.250000 22.402000427 -122.8750000 24.610000610 21.866567612 24.614202499
 3711.0954590 5.0000000000 8.6520004272 8.5000000000 0.0077236015 0.2742699981 2.6670000553 105.57199860 71.300003052  -999.250000 22.721000671 -125.0000000 25.483999252 24.601814270 25.484172821
 3711.2478027 5.0000000000 8.6400003433 8.5000000000 0.0047926893 0.2618049979 2.6669952869 111.23000336 72.300003052  -999.250000 23.041000366 -125.0000000 25.510999680 24.501018524 25.515558243
 3711.4001465 5.0000000000 8.6630001068 8.5000000000 0.0027263814 0.2449720055 2.6640193462 112.89199829 72.050003052  -999.250000 23.263999939 -125.1880112 26.222000122 24.946029663 26.216087341
 3711.5524902 5.0000000000 8.6870002747 8.5000000000 0.0004651987 0.2417529970 2.6759953499 111.77799988 72.099998474  -999.250000 22.604000092 -123.0000000 25.298000336 28.132259369 25.296615601
 3711.7050781 5.0000000000 8.6680002213 8.5000000000 -0.003769693 0.2466060072 2.6730256081 114.51100159 71.300003052  -999.250000 22.464000702 -123.5000000 25.010000229 27.129369736 25.010627747
 3711.8574219 5.0000000000 8.6780004501 8.5000000000 -0.003054058 0.2489109933 2.6809871197 112.57499695 71.599998474  -999.250000 22.524999619 -123.8130035 25.107999802 27.164087296 25.107128143
 3712.0097656 5.0000000000 8.6639995575 8.5000000000 -0.004963564 0.2572660148 2.6729824543 114.23500061 71.099998474  -999.250000 22.593000412 -124.6880035 24.972000122 27.357278824 24.973812103
 3712.1621094 5.0000000000 8.6969995499 8.5000000000 -0.007799330 0.2580009997 2.6620128155 110.08100128 71.599998474  -999.250000 22.589000702 -124.8750000 25.254999161 25.073413849 25.252153397
 3712.3144531 5.0000000000 8.6890001297 8.5000000000 -0.003013553 0.2425429970 2.6700048447 108.35099792 71.699996948  -999.250000 22.093000412 -125.0000000 24.663000107 20.327529907 24.661081314
 3712.4670410 5.0000000000 8.9659996033 8.5000000000 0.0016259649 0.2359350026 2.6729969978 111.01699829 71.800003052  -999.250000 21.940000534 -126.1249924 24.263999939 25.877779007 24.263307571
 3712.6193848 5.0000000000 8.7060003281 8.5000000000 0.0016103012 0.2390069962 2.6719856262 112.22200012 71.699996948  -999.250000 21.903999329 -123.8130035 24.156000137 39.200603485 24.157186508
 3712.7717285 5.0000000000 8.7200002670 8.5000000000 -0.001308398 0.2485029995 2.6630001068 115.27899933 69.199996948  -999.250000 21.985000610 -123.2500000 24.340999603 24.004461288 24.342388153
 3712.9240723 5.0000000000 8.7100000381 8.5000000000 0.0040467000 0.2547419965 2.6629920006 112.03700256 70.500000000  -999.250000 21.871999741 -122.4380035 24.558000565 22.460643768 24.554803848
 3713.0766602 5.0000000000 8.7130002975 8.5000000000 0.0013578753 0.2586370111 2.6579904556 90.817001343 72.750000000  -999.250000 21.697999954 -124.7500000 23.892999649 17.682697296 23.904909134
 3713.2290039 5.0000000000 8.7119998932 8.5000000000 -0.001794885 0.2685849965 2.6550030708 118.86299896 73.099998474  -999.250000 23.489999771 -124.6880035 25.750999451 17.390905380 25.759332657
 3713.3813477 5.0000000000 8.7279996872 8.5000000000 -0.001093449 0.2675180137 2.6570208073 120.65499878 73.199996948  -999.250000 24.559000015 -125.4380035 27.051000595 17.391952515 27.051090240
 3713.5336914 6.0000000000 8.7480001450 8.5000000000 0.0029859247 0.2604959905 2.6699969769 123.00399780 73.000000000  -999.250000 24.624000549 -121.6250000 27.065000534 18.555740356 27.066356659
 3713.6862793 6.0000000000 8.8559999466 8.5000000000 0.0017038352 0.2633750141 2.6680159569 126.60800171 72.800003052  -999.250000 24.802000046 -121.9380035 27.347000122 22.238634109 27.344846725
 3713.8386230 6.0000000000 8.8459997177 8.5000000000 0.0050846217 0.2689689994 2.6729984283 123.46600342 72.900001526  -999.250000 24.471000671 -123.0630035 27.010999680 22.377355576 27.001037598
 3713.9909668 6.0000000000 8.7609996796 8.5000000000 0.0085889539 0.2673789859 2.6720063686 120.13500214 72.599998474  -999.250000 23.075000763 -120.7500000 25.457000732 21.782258987 25.444885254
 3714.1433105 6.0000000000 8.7620000839 8.5000000000 0.0098070009 0.2693490088 2.6760001183 116.00099945 72.699996948  -999.250000 21.402999878 -121.5630035 23.563999176 20.367856979 23.561267853
 3714.2956543 6.0000000000 8.8020000458 8.5000000000 0.0104290098 0.2704080045 2.6759984493 124.33499908 72.849998474  -999.250000 20.731000900 -121.9380035 22.996000290 20.482851028 22.993587494
 3714.4482422 6.0000000000 8.8229999542 8.5000000000 0.0091763856 0.2726199925 2.6749680042 121.85700226 72.800003052  -999.250000 20.761999130 -121.3750000 22.493999481 23.257577896 22.493217468
 3714.6005859 6.0000000000 8.8319997787 8.5000000000 0.0052386061 0.2697469890 2.6649887562 127.32900238 73.000000000  -999.250000 20.444000244 -121.3130035 22.371999741 23.728683472 22.370109558
 3714.7529297 6.0000000000 8.8290004730 8.5000000000 0.0000005144 0.2690910101 2.6580080986 122.43399811 73.099998474  -999.250000 19.927000046 -120.5000000 22.076999664 23.695528030 22.074298859
 3714.9052734 6.0000000000 8.8739995956 8.5000000000 -0.005291391 0.2746059895 2.6630113125 123.72399902 73.599998474  -999.250000 19.802999496 -120.1880035 21.655000687 23.643926620 21.656005859
 3715.0578613 6.0000000000 8.8649997711 8.5000000000 -0.008649860 0.2740100026 2.6700353622 126.30799866 73.000000000  -999.250000 20.121999741 -122.1250000 21.864000320 23.329980850 21.866411209
 3715.2102051 6.0000000000 8.8129997253 8.5000000000 -0.008604734 0.2840879858 2.6809856892 124.45500183 72.699996948  -999.250000 20.232000351 -121.9380035 22.239999771 23.591758728 22.241044998
 3715.3625488 6.0000000000 8.8579998016 8.5000000000 -0.007813485 0.2877439857 2.6719951630 129.00900269 73.400001526  -999.250000 20.353000641 -122.5630035 22.402999878 18.923479080 22.397239685
