# LAS format log file from PETREL
# Project units are specified as depth units
#==================================================================
~Version information
VERS.   2.0:
WRAP.   NO:
#==================================================================
~Well
STRT .m      439.56304932 :
STOP .m      1665.9261475 :
STEP .m     0.00000000 :
NULL .        -999.250000 :
COMP.           : COMPANY
WELL.  31/2-7   : WELL
FLD.            : FIELD
LOC.            : LOCATION
SRVC.           : SERVICE COMPANY
DATE.  2018-09-11 14:48:34   : Log Export Date {yyyy-MM-dd HH:mm:ss}
PROV.           : PROVINCE
UWI.   31/2-7   : UNIQUE WELL ID
API.            : API NUMBER
#==================================================================
~Curve
DEPT .m                   : DEPTH
Lithology_geolink ._      : Lithology_geolink
CALI .in                  : CALI
DRHO .g/cm3               : DRHO
SGR .gAPI                 : SGR
NPHI .m3/m3               : NPHI
RHOB .g/cm3               : RHOB
PEF .b/e                  : PEF
GR .gAPI                  : GR
DTC .us/ft                : DTC
DTE .us/ft                : DTE
RDEP .ohm.m               : RDEP
SP .mV                    : SP
RSHA .ohm.m               : RSHA
RMED .ohm.m               : RMED
~Parameter
#==================================================================
~Ascii
# ...
 1495.5428467 5.0000000000 17.812999725 0.0219999999 44.626251221 0.4252899885 2.1879999638 4.1563878059 75.682899475 145.79200745 140.05627441 0.8129400015 79.777099609 0.8959496021 0.8959496021
 1495.6953125 5.0000000000 17.687999725 0.0109999999 46.187873840 0.4335900247 2.1970000267 4.1450262070 73.753105164 144.75115967 139.02145386 0.8319695592 81.022994995 0.9748734236 0.9748734236
 1495.8476563 5.0000000000 17.797000885 0.0140000004 46.030422211 0.4384799898 2.2049999237 4.3084750175 71.630104065 141.52534485 135.89445496 0.8379855752 80.276802063 1.0039303303 1.0039303303
 1496.0001221 5.0000000000 17.641000748 0.0189999994 45.313049316 0.4726599753 2.2230000496 5.1459827423 73.496994019 140.60737610 134.90220642 0.8310111761 79.651000977 0.9830336571 0.9830336571
 1496.1524658 5.0000000000 17.750000000 0.0140000004 45.344879150 0.4936500192 2.2130000591 6.3591089249 70.008407593 141.90425110 136.15434265 0.8309999704 79.650001526 0.9161609411 0.9161609411
 1496.3049316 5.0000000000 17.750000000 0.0240000002 46.438850403 0.4863300025 2.2109999657 7.9142622948 69.813301086 142.80108643 137.11082458 0.8339951634 79.774803162 0.8471105695 0.8471105695
 1496.4572754 5.0000000000 17.562999725 0.0149999997 46.968250275 0.4375000000 2.1819999218 7.6807618141 66.072013855 144.83982849 139.11595154 0.8320048451 79.525604248 0.8489951491 0.8489951491
 1496.6097412 5.0000000000 17.687999725 0.0080000004 46.032550812 0.4721699953 2.1579999924 6.3392305374 72.053390503 145.90237427 140.18150330 0.8339967728 78.401802063 0.8699663281 0.8699663281
 1496.7620850 5.0000000000 17.702999115 -0.003000000 47.000202179 0.4658200145 2.1459999084 5.9741625786 74.745697021 145.83659363 140.08786011 0.8300064206 78.524803162 0.8799839616 0.8799839616
 1496.9144287 5.0000000000 17.656000137 -0.002000000 47.250423431 0.4912099838 2.1429998875 5.5792660713 76.620498657 144.51589966 138.77946472 0.8299999833 78.774398804 0.8839904070 0.8839904070
 1497.0668945 5.0000000000 17.812999725 -0.002000000 47.779647827 0.4443399906 2.1559998989 5.2590246201 75.315109253 142.86540222 137.13264465 0.8409823775 79.024597168 0.9139518738 0.9139518738
 1497.2192383 5.0000000000 17.843999863 -0.001000000 46.093875885 0.4086900055 2.1700000763 5.1214389801 71.572013855 142.86651611 137.16032410 0.8340167999 79.149703979 0.9788438678 0.9788438678
 1497.3717041 5.0000000000 17.827999115 -0.004000000 45.939025879 0.4028300047 2.1640000343 5.1718363762 69.067008972 142.89680481 137.18803406 0.8260127902 79.774002075 0.9899823666 0.9899823666
 1497.5240479 5.0000000000 17.781000137 -0.001000000 47.219726563 0.3876999915 2.1540000439 5.8139357567 67.628456116 142.98579407 137.21575928 0.8449543715 79.775001526 0.9441105127 0.9441105127
 1497.6765137 5.0000000000 17.843999863 0.0000000000 48.126525879 0.4150400162 2.1540000439 6.6819133759 67.563102722 142.98829651 137.24354553 0.8400079608 79.400604248 0.8811009526 0.8811009526
 1497.8288574 5.0000000000 17.781000137 0.0080000004 50.030773163 0.4340800047 2.1679999828 7.8831472397 68.186500549 142.98579407 137.27122498 0.8200480342 79.898803711 0.8730192184 0.8730192184
 1497.9813232 5.0000000000 17.937999725 0.0060000001 49.750026703 0.4692400098 2.1700000763 7.7661938667 68.687202454 143.01600647 137.29893494 0.8140096068 79.276000977 0.8849807382 0.8849807382
 1498.1336670 5.0000000000 17.812999725 0.0080000004 49.779521942 0.4990200102 2.1700000763 6.2536411285 71.243843079 143.10499573 137.32664490 0.8140000105 80.147903442 0.9019591808 0.9019591808
 1498.2861328 5.0000000000 17.608999252 0.0070000002 47.934844971 0.4477500021 2.1659998894 5.0020031929 71.000404358 143.10749817 137.35438538 0.8140000105 79.650802612 0.8910176158 0.8910176158
 1498.4384766 5.0000000000 17.608999252 0.0240000002 45.967723846 0.4028300047 2.1860001087 4.7116942406 75.239791870 143.10499573 137.38214111 0.8000336289 80.024101257 0.8820216656 0.8820216656
 1498.5909424 6.0000000000 17.687999725 0.0260000005 44.375999451 0.3608399928 2.1840000153 4.8198256493 75.250000000 143.10749817 137.40985107 0.8019967675 80.274597168 0.8820000291 0.8820000291
 1498.7432861 6.0000000000 17.766000748 0.0350000001 45.000324249 0.3940399885 2.2009999752 4.8279871941 79.556091309 143.13265991 137.43754578 0.8000032306 81.522994995 0.8909855485 0.8909855485
 1498.8957520 6.0000000000 17.656000137 0.0149999997 45.410652161 0.4379900098 2.1860001087 4.6053571701 77.940605164 143.19886780 137.46528625 0.7870208025 80.401802063 0.8610480428 0.8610480428
 1499.0480957 6.0000000000 18.125000000 0.0240000002 48.311573029 0.4526399970 2.2009999752 4.3404250145 77.064407349 143.13162231 137.49304199 0.7810096145 80.774398804 0.8789711595 0.8789711595
 1499.2004395 6.0000000000 17.625000000 0.0509999990 46.530471802 0.4340800047 2.2090001106 4.3280286789 76.875450134 143.22424316 137.52073669 0.7810000181 81.273803711 0.8730144501 0.8730144501
 1499.3529053 6.0000000000 17.733999252 0.0659999996 45.872795105 0.4409199953 2.2049999237 4.4218492508 75.751800537 143.25437927 137.54844666 0.8069583178 81.275001526 0.9139342904 0.9139342904
 1499.5052490 5.0000000000 17.858999252 0.0460000001 43.126701355 0.4975599945 2.1760001183 4.5227570534 76.498199463 143.34249878 137.57612610 0.8259543180 81.649101257 0.9020288587 0.9020288587
 1499.6577148 5.0000000000 17.781000137 0.0250000004 45.251403809 0.5195299983 2.1640000343 4.5229997635 73.754409790 143.34249878 137.60385132 0.8479647040 80.526802063 0.9099872112 0.9099872112
 1499.8100586 5.0000000000 17.937999725 0.0170000009 47.000774384 0.5458999872 2.1719999313 4.3593940735 72.067054749 143.34352112 137.63162231 0.8669543266 80.774398804 0.8920432329 0.8920432329
 1499.9625244 5.0000000000 17.781000137 0.0120000001 47.968425751 0.5390599966 2.1779999733 4.3050861359 51.221454620 143.37356567 137.65933228 0.8540208340 79.776603699 0.8860095739 0.8860095739
 1500.1148682 5.0000000000 17.702999115 0.0049999999 47.249797821 0.5986300111 2.1640000343 4.2850480080 50.813899994 143.46269226 137.68702698 0.8430263996 80.149101257 0.8700384498 0.8700384498
 1500.2673340 5.0000000000 17.687999725 0.0149999997 46.997146606 0.5878900290 2.1659998894 4.2810063362 43.106372833 143.46499634 137.71475220 0.8380079865 79.401206970 0.8440416455 0.8440416455
 1500.4196777 5.0000000000 17.718999863 0.0149999997 45.218502045 0.5712900162 2.1700000763 4.2420935631 41.722305298 143.46270752 137.74253845 0.8419904113 78.527099609 0.8200576305 0.8200576305
 1500.5721436 5.0000000000 17.687999725 0.0270000007 44.592700958 0.5068399906 2.1970000267 4.3518238068 43.278495789 143.46499634 137.77024841 0.8459935784 79.398597717 0.8160064220 0.8160064220
 1500.7244873 5.0000000000 17.781000137 0.0179999992 43.783226013 0.5063499808 2.1930000782 4.5814471245 47.894889832 143.49040222 137.79794312 0.8649543524 79.524703979 0.8419375420 0.8419375420
 1500.8769531 5.0000000000 17.781000137 0.0320000015 46.561145782 0.4902299941 2.2090001106 4.7297630310 52.805137634 143.58422852 137.82568359 0.8869647384 79.525001526 0.8679583073 0.8679583073
 1501.0292969 5.0000000000 17.733999252 0.0140000004 45.406398773 0.4780300260 2.1860001087 4.7499680519 52.095153809 143.58099365 137.85343933 0.9039727449 79.275405884 0.8789823651 0.8789823651
 1501.1816406 5.0000000000 17.781000137 0.0340000018 45.905097961 0.4741199911 2.2070000172 4.7500000000 48.788955688 143.58197021 137.88113403 0.9239519835 79.773803711 0.8740119934 0.8740119934
 1501.3341064 5.0000000000 17.672000885 0.0379999988 44.782875061 0.4941400290 2.2090001106 4.8009185791 46.597507477 143.61192322 137.90884399 0.9369791150 80.399002075 0.8570272326 0.8570272326
 1501.4864502 5.0000000000 17.672000885 0.0630000010 47.125099182 0.5522499681 2.2170000076 4.8788127899 47.934772491 143.70019531 137.93655396 0.9220359921 80.649398804 0.8550048470 0.8550048470
 1501.6389160 5.0000000000 17.641000748 0.0790000036 47.249549866 0.5400400162 2.1989998817 4.8710126877 48.686798096 143.70019531 137.96434021 0.9020320773 81.274002075 0.8599920273 0.8599920273
