# LAS format log file from PETREL
# Project units are specified as depth units
#==================================================================
~Version information
VERS.   2.0:
WRAP.   NO:
#==================================================================
~Well
STRT .m      1999.6403809 :
STOP .m      3191.7131348 :
STEP .m     0.00000000 :
NULL .        -999.250000 :
COMP.           : COMPANY
WELL.  31/2-21 S   : WELL
FLD.            : FIELD
LOC.            : LOCATION
SRVC.           : SERVICE COMPANY
DATE.  2018-09-11 14:48:34   : Log Export Date {yyyy-MM-dd HH:mm:ss}
PROV.           : PROVINCE
UWI.   31/2-21 S   : UNIQUE WELL ID
API.            : API NUMBER
#==================================================================
~Curve
DEPT .m                   : DEPTH
Lithology_geolink ._      : Lithology_geolink
CALI .in                  : CALI
BS .in                    : BS
ROP .m/h                  : ROP
DRHO .g/cm3               : DRHO
NPHI .m3/m3               : NPHI
RHOB .g/cm3               : RHOB
PEF .b/e                  : PEF
GR .gAPI                  : GR
DTC .us/ft                : DTC
DTS .us/ft                : DTS
RDEP .ohm.m               : RDEP
RMED .ohm.m               : RMED
~Parameter
#==================================================================
~Ascii
# ...
 2080.1076660 7.0000000000 8.6161003113 8.5000000000 38.352035522 0.0606999993 0.3776000142 2.2946000099 3.3485000134 184.49890137 127.25229645 228.55270386 1.0780999660 1.0572999716
 2080.2600098 7.0000000000 8.7402000427 8.5000000000 35.529857635 0.0719000027 0.3817999959 2.3078999519 3.5423998833 187.06927490 127.44120026 230.35908508 1.0846999884 1.0681999922
 2080.4123535 7.0000000000 8.8144998550 8.5000000000 43.951446533 0.0731000006 0.3698000014 2.3038001060 3.6022000313 190.55052185 127.43109894 231.59141541 1.0945999622 1.0778000355
 2080.5646973 7.0000000000 8.8315000534 8.5000000000 44.018047333 0.0764999986 0.3811999857 2.3020000458 3.7486999035 190.03320313 127.34090424 230.45419312 1.0963000059 1.0721000433
 2080.7172852 7.0000000000 8.7520999908 8.5000000000 42.174213409 0.0825000033 0.3923000097 2.3043000698 3.6960000992 190.92990112 127.40989685 230.42599487 1.1071000099 1.0907000303
 2080.8696289 7.0000000000 8.5537996292 8.5000000000 37.106956482 0.0797000006 0.3813999891 2.2999000549 3.8687000275 183.78900146 127.62490082 231.67057800 1.0960999727 1.0772000551
 2081.0219727 7.0000000000 8.7444000244 8.5000000000 39.795272827 0.0716999993 0.3869000077 2.2978999615 3.5999999046 184.54649353 127.80419922 230.96629333 1.0858000517 1.0578000546
 2081.1743164 7.0000000000 8.7988004684 8.5000000000 42.070209503 0.0729999989 0.3855000138 2.2953000069 3.7126998901 185.84919739 128.01240540 229.30969238 1.1088000536 1.0822000504
 2081.3269043 7.0000000000 8.6408004761 8.5000000000 40.842193604 0.0759000033 0.3919999897 2.2866001129 3.8824000359 184.99740601 127.89959717 231.41380310 1.1270999908 1.1085000038
 2081.4792480 7.0000000000 8.5747995377 8.5000000000 35.575786591 0.0807999969 0.4032000005 2.2850000858 3.6124000549 182.82870483 128.22079468 230.60569763 1.1184999943 1.1026999950
 2081.6315918 7.0000000000 8.5418996811 8.5000000000 34.804790497 0.0679000020 0.3993000090 2.2671999931 3.6575000286 186.37240601 128.19909668 233.70809937 1.0860999823 1.0611000061
 2081.7839355 7.0000000000 8.5902004242 8.5000000000 40.044948578 0.0791999996 0.4079000056 2.2802999020 3.6875998974 192.79479980 128.51579285 235.74688721 1.0957000256 1.0693000555
 2081.9362793 7.0000000000 8.7206001282 8.5000000000 41.697177887 0.0850000009 0.4154999852 2.2894001007 3.8612999916 191.18739319 128.83250427 237.78559875 1.1246000528 1.0968999863
 2082.0888672 7.0000000000 8.6370000839 8.5000000000 41.694881439 0.0789000019 0.4020999968 2.2864999771 3.8926000595 190.62780762 129.17129517 239.28817749 1.1256999969 1.0963000059
 2082.2412109 7.0000000000 8.6511001587 8.5000000000 39.701114655 0.0746000037 0.4068999887 2.2726998329 3.7472999096 195.54049683 129.30909729 236.90010071 1.1374000311 1.1190999746
 2082.3935547 7.0000000000 8.6934995651 8.5000000000 39.369750977 0.0790000036 0.3991999924 2.2676000595 3.7416000366 198.26400757 128.87800598 235.55520630 1.1066000462 1.0888999701
 2082.5458984 7.0000000000 8.4645996094 8.5000000000 39.133201599 0.0747999996 0.3899999857 2.2699999809 3.6826000214 197.81469727 128.78649902 232.51449585 1.0944000483 1.0654000044
 2082.6984863 7.0000000000 8.4205999374 8.5000000000 36.911418915 0.0768000036 0.3786999881 2.2908999920 3.7456998825 182.76280212 128.58470154 229.27471924 1.1298999786 1.0971000195
 2082.8508301 7.0000000000 8.4940004349 8.5000000000 34.406822205 0.0826999992 0.3890999854 2.3018000126 4.0269999504 192.96749878 128.55909729 225.70712280 1.1847000122 1.1546000242
 2083.0031738 7.0000000000 8.5071001053 8.5000000000 36.149936676 0.0767000020 0.3941999972 2.2857000828 3.7237999439 196.83999634 128.82220459 224.02432251 1.1955000162 1.1717000008
 2083.1555176 7.0000000000 8.6922998428 8.5000000000 37.282482147 0.0753000006 0.4081999958 2.2688000202 3.6493000984 196.08799744 128.85600281 224.98001099 1.1671999693 1.1454000473
 2083.3081055 7.0000000000 8.6724996567 8.5000000000 45.561679840 0.0759999976 0.3930000067 2.2607998848 3.5948998928 183.62120056 128.07519531 225.05679321 1.1358000040 1.1129000187
 2083.4604492 7.0000000000 8.6847000122 8.5000000000 46.528545380 0.0758000016 0.4009000063 2.2693998814 3.8757998943 179.57359314 127.38799286 227.66950989 1.1374000311 1.1166000366
 2083.6127930 7.0000000000 8.7374000549 8.5000000000 40.541339874 0.0829999968 0.4072000086 2.2901000977 3.8548998833 179.56069946 126.52169800 229.03179932 1.1682000160 1.1542999744
 2083.7651367 7.0000000000 8.6304998398 8.5000000000 35.291996002 0.0837000012 0.3801999986 2.3020000458 3.8531000614 183.00759888 126.34260559 230.26939392 1.1592999697 1.1369999647
 2083.9174805 7.0000000000 8.5719995499 8.5000000000 32.997703552 0.0781999975 0.3914999962 2.2976999283 3.5792999268 177.36050415 126.13950348 228.44059753 1.1380000114 1.1015000343
 2084.0700684 7.0000000000 8.7376003265 8.5000000000 33.569225311 0.0702999979 0.3862999976 2.2794001102 3.1001000404 185.18699646 126.46669769 225.20309448 1.1525000334 1.1154999733
 2084.2224121 7.0000000000 8.8437004089 8.5000000000 38.191272736 0.0781000033 0.4002999961 2.2741999626 3.2672998905 183.34399414 126.36180115 223.06530762 1.1749999523 1.1461000443
 2084.3747559 7.0000000000 8.6436996460 8.5000000000 41.968833923 0.0791999996 0.3892999887 2.2818999290 3.4656000137 181.63189697 126.39550018 225.77209473 1.1793999672 1.1540000439
 2084.5270996 7.0000000000 8.5875997543 8.5000000000 42.199146271 0.0759000033 0.3811999857 2.2869999409 3.4507999420 190.97880554 126.89909363 227.72271729 1.1770000458 1.1611000299
 2084.6796875 7.0000000000 8.7128000259 8.5000000000 41.431758881 0.0747999996 0.3770999908 2.2822000980 3.4468998909 183.42359924 127.38909912 227.10749817 1.1438000202 1.1290999651
 2084.8320313 7.0000000000 8.7861003876 8.5000000000 39.916667938 0.0675999969 0.3917999864 2.2681999207 3.3896999359 190.05119324 127.65609741 226.72329712 1.1115000248 1.0927000046
 2084.9843750 7.0000000000 8.7646999359 8.5000000000 36.897308350 0.0698999986 0.4007999897 2.2702000141 3.3821001053 183.23069763 127.77149963 228.05630493 1.1225999594 1.1042000055
 2085.1367188 7.0000000000 8.7287998199 8.5000000000 45.060039520 0.0820000023 0.3925999999 2.2830998898 3.7341001034 176.86230469 128.22830200 227.30949402 1.1290999651 1.1114000082
 2085.2893066 7.0000000000 8.8063001633 8.5000000000 54.249671936 0.0772000030 0.3944000006 2.2815999985 3.6238000393 179.14520264 128.21839905 229.46098328 1.1213999987 1.1023000479
 2085.4416504 7.0000000000 8.8080997467 8.5000000000 51.031169891 0.0728999972 0.4147999883 2.2816998959 3.5450999737 177.38679504 128.55639648 230.62019348 1.1117000580 1.0949000120
 2085.5939941 7.0000000000 8.7021999359 8.5000000000 42.776573181 0.0688999966 0.4147999883 2.2801001072 3.4193999767 184.33689880 128.82310486 230.40600586 1.0776000023 1.0464999676
 2085.7463379 7.0000000000 8.8208999634 8.5000000000 37.370735168 0.0649999976 0.4020000100 2.2769999504 3.3331000805 190.07110596 129.11799622 229.38099670 1.1010999680 1.0700000525
 2085.8989258 7.0000000000 8.8253002167 8.5000000000 38.463581085 0.0595000014 0.4052999914 2.2660999298 3.2239000797 187.84410095 128.96369934 227.77160645 1.1301000118 1.1068999767
 2086.0512695 7.0000000000 8.8600997925 8.5000000000 40.086284637 0.0555000007 0.4097000062 2.2581999302 3.0487999916 179.65550232 128.80929565 226.16220093 1.1222000122 1.0872000456
 2086.2036133 7.0000000000 8.8310003281 8.5000000000 35.041667938 0.0557999983 0.4190999866 2.2592999935 3.2186999321 179.59739685 128.38220215 222.58250427 1.1720999479 1.1448999643
 2086.3559570 7.0000000000 8.7903003693 8.5000000000 38.334972382 0.0640999973 0.4029999971 2.2764999866 3.3157999516 187.50070190 127.80359650 221.84031677 1.2001999617 1.1875000000
 2086.5083008 7.0000000000 8.7453002930 8.5000000000 49.279197693 0.0621000007 0.4032000005 2.2690999508 3.3280000687 183.56500244 127.48149872 222.24842834 1.1823999882 1.1698000431
 2086.6608887 7.0000000000 8.7151002884 8.5000000000 50.861877441 0.0619999990 0.4049000144 2.2655999660 3.2323999405 179.38079834 127.28041077 222.93829346 1.1523000002 1.1346999407
