# LAS format log file from PETREL
# Project units are specified as depth units
#==================================================================
~Version information
VERS.   2.0:
WRAP.   NO:
#==================================================================
~Well
STRT .m      326.13598633 :
STOP .m      1938.6804199 :
STEP .m     0.00000000 :
NULL .        -999.250000 :
COMP.           : COMPANY
WELL.  31/2-17 A   : WELL
FLD.            : FIELD
LOC.            : LOCATION
SRVC.           : SERVICE COMPANY
DATE.  2018-09-11 14:48:33   : Log Export Date {yyyy-MM-dd HH:mm:ss}
PROV.           : PROVINCE
UWI.   31/2-17 A   : UNIQUE WELL ID
API.            : API NUMBER
#==================================================================
~Curve
DEPT .m                   : DEPTH
Lithology_geolink ._      : Lithology_geolink
CALI .in                  : CALI
DRHO .g/cm3               : DRHO
RHOB .g/cm3               : RHOB
GR .gAPI                  : GR
DTC .us/ft                : DTC
RDEP .ohm.m               : RDEP
RMED .ohm.m               : RMED
~Parameter
#==================================================================
~Ascii
# ...
 1932.4320068  -999.250000 8.6562004089 0.0388999991 2.3946015835  -999.250000 128.89355469  -999.250000  -999.250000
 1932.5843506  -999.250000 8.6562004089 0.0361000001 2.3664960861  -999.250000 130.29461670  -999.250000  -999.250000
 1932.7368164  -999.250000 8.6562004089 0.0364000015 2.3609993458  -999.250000 131.72177124  -999.250000  -999.250000
 1932.8891602  -999.250000 8.6562004089 0.0351000018 2.3591496944  -999.250000 131.43887329  -999.250000  -999.250000
 1933.0416260  -999.250000 8.6562004089 0.0370000005 2.3312735558  -999.250000 132.61497498  -999.250000  -999.250000
 1933.1939697  -999.250000 8.6562004089 0.0288999993 2.2835092545  -999.250000 135.52757263  -999.250000  -999.250000
 1933.3464355  -999.250000 8.6562004089 0.0305000003 2.2376413345  -999.250000 139.08590698  -999.250000  -999.250000
 1933.4987793  -999.250000 8.6562004089 0.0281000007 2.2199401855  -999.250000 140.95635986  -999.250000  -999.250000
 1933.6512451  -999.250000 8.6562004089 0.0293000005 2.2095572948  -999.250000 142.58464050  -999.250000  -999.250000
 1933.8035889  -999.250000 8.6562004089 0.0346999988 2.1993918419  -999.250000 143.95306396  -999.250000  -999.250000
 1933.9560547  -999.250000 8.6562004089 0.0383000001 2.1888566017  -999.250000 144.09188843  -999.250000  -999.250000
 1934.1083984  -999.250000 8.6562004089 0.0303000007 2.1904363632  -999.250000 142.90490723  -999.250000  -999.250000
 1934.2607422  -999.250000 8.6562004089 0.0375999995 2.1980175972  -999.250000 141.45080566  -999.250000  -999.250000
 1934.4132080  -999.250000 8.6562004089 0.0445999987 2.2082419395  -999.250000 140.17121887  -999.250000  -999.250000
 1934.5655518  -999.250000 8.6562004089 0.0416000001 2.2183346748  -999.250000 139.40487671  -999.250000  -999.250000
 1934.7180176  -999.250000 8.6562004089 0.0447000004 2.2441899776  -999.250000 134.60798645  -999.250000  -999.250000
 1934.8703613  -999.250000 8.6562004089 0.0524999984 2.2995080948  -999.250000 126.59202576  -999.250000  -999.250000
 1935.0228271  -999.250000 8.6562004089 0.0441000015 2.3820028305  -999.250000 116.00560760  -999.250000  -999.250000
 1935.1751709  -999.250000 8.6562004089 0.0377999991 2.4823305607  -999.250000 103.13923645  -999.250000  -999.250000
 1935.3276367  -999.250000 8.6562004089 0.0366999991 2.5456275940  -999.250000 93.674156189  -999.250000  -999.250000
 1935.4799805  -999.250000 8.6562004089 0.0342999995 2.5660607815  -999.250000 89.963287354  -999.250000  -999.250000
 1935.6324463  -999.250000 8.6562004089 0.0261000004 2.5533666611  -999.250000 91.363723755  -999.250000  -999.250000
 1935.7847900  -999.250000 8.6562004089 0.0275999997 2.5230405331  -999.250000 96.058326721  -999.250000  -999.250000
 1935.9372559  -999.250000 8.6640996933 0.0225000009 2.4832282066  -999.250000 102.43587494  -999.250000  -999.250000
 1936.0895996  -999.250000 8.7578001022 0.0259000007 2.4391975403  -999.250000 110.66432953  -999.250000  -999.250000
 1936.2419434  -999.250000 8.6562004089 0.0252999999 2.3933770657  -999.250000 120.04862213  -999.250000  -999.250000
 1936.3944092  -999.250000 8.6562004089 0.0297999997 2.3481638432  -999.250000 128.96434021  -999.250000  -999.250000
 1936.5467529  -999.250000 8.6562004089 0.0230999999 2.3715384007  -999.250000 129.07173157  -999.250000  -999.250000
 1936.6992188  -999.250000 8.6562004089 0.0287999995 2.4451816082  -999.250000 122.35092163  -999.250000  -999.250000
 1936.8515625  -999.250000 8.6562004089 0.0300999992 2.5327785015  -999.250000 113.42020416  -999.250000  -999.250000
 1937.0040283  -999.250000 8.6562004089 0.0326999985 2.5752933025  -999.250000 109.99260712  -999.250000  -999.250000
 1937.1563721  -999.250000 8.6562004089 0.0357000008 2.5602967739  -999.250000 114.62153625  -999.250000  -999.250000
 1937.3088379  -999.250000 8.6562004089 0.0399999991 2.5302584171  -999.250000 121.47293854  -999.250000  -999.250000
 1937.4611816  -999.250000 8.6562004089 0.0392999984 2.5010769367  -999.250000 127.91539001  -999.250000  -999.250000
 1937.6136475  -999.250000 8.6562004089 0.0390999988 2.4793643951  -999.250000 132.03454590  -999.250000  -999.250000
 1937.7659912  -999.250000 8.6562004089 0.0412000008 2.4836740494  -999.250000 128.19345093  -999.250000  -999.250000
 1937.9184570  -999.250000 8.6562004089 0.0452000014 2.4838650227  -999.250000 122.03332520  -999.250000  -999.250000
 1938.0708008  -999.250000 8.6562004089 0.0465999991 2.4572412968  -999.250000 117.85639191  -999.250000  -999.250000
 1938.2232666  -999.250000 8.6562004089 0.0518000014 2.3733286858  -999.250000 121.09819031  -999.250000  -999.250000
 1938.3756104  -999.250000 8.6562004089 0.0527000017 2.2882165909  -999.250000 126.57440186  -999.250000  -999.250000
 1938.5279541  -999.250000 8.6562004089 0.0527000017 2.2348103523  -999.250000 130.44583130  -999.250000  -999.250000
 1938.6804199  -999.250000 8.6562004089 0.0527000017 2.2126362324  -999.250000 132.08264160  -999.250000  -999.250000
