# LAS format log file from PETREL
# Project units are specified as depth units
#==================================================================
~Version information
VERS.   2.0:
WRAP.   NO:
#==================================================================
~Well
STRT .m      399.05941772 :
STOP .m      2436.9521484 :
STEP .m     0.00000000 :
NULL .        -999.250000 :
COMP.           : COMPANY
WELL.  31/2-1   : WELL
FLD.            : FIELD
LOC.            : LOCATION
SRVC.           : SERVICE COMPANY
DATE.  2018-09-11 14:48:32   : Log Export Date {yyyy-MM-dd HH:mm:ss}
PROV.           : PROVINCE
UWI.   31/2-1   : UNIQUE WELL ID
API.            : API NUMBER
#==================================================================
~Curve
DEPT .m                   : DEPTH
Lithology_geolink ._      : Lithology_geolink
CALI .in                  : CALI
BS .in                    : BS
DRHO .g/cm3               : DRHO
NPHI .m3/m3               : NPHI
RHOB .g/cm3               : RHOB
GR .gAPI                  : GR
DTC .us/ft                : DTC
DTE .us/ft                : DTE
RDEP .ohm.m               : RDEP
SP .mV                    : SP
RSHA .ohm.m               : RSHA
RMED .ohm.m               : RMED
~Parameter
#==================================================================
~Ascii
# ...
 1485.3665771 1.0000000000 11.950050354 12.250000954 -0.035466347 0.1317023933 1.7729618549 35.812171936 143.78869629 143.97193909 1431.4461670 -69.79416656 8.2208909988 59.874763489
 1485.5190430 1.0000000000 11.997639656 12.250000954 -0.029927883 0.1342030019 1.7660419941 34.216297150 143.46629333 143.96788025 1405.4509277 -69.28218842 8.1714191437 60.053855896
 1485.6713867 1.0000000000 12.025929451 12.250000954 -0.023931945 0.1365019977 1.7588239908 33.347835541 144.93820190 144.90591431 1394.1280518 -68.71683502 8.1189241409 60.259647369
 1485.8238525 1.0000000000 11.951371193 12.250000954 -0.017927885 0.1388074011 1.7547399998 32.553356171 146.13040161 145.91732788 1406.1463623 -68.14344788 8.0411071777 60.615055084
 1485.9761963 1.0000000000 11.924659729 12.250000954 -0.018689351 0.1446986049 1.7567930222 33.702877045 146.58940125 146.54803467 1421.7325439 -67.56242371 8.0958814621 60.993694305
 1486.1285400 1.0000000000 11.999460220 12.250000954 -0.018999999 0.1430051029 1.7629389763 35.307270050 146.99440002 146.70349121 1448.3243408 -66.94583893 8.4392910004 61.319698334
 1486.2810059 1.0000000000 12.049980164 12.250000954 -0.015621297 0.1472975016 1.7691010237 36.316032410 146.35969543 146.45661926 1450.1425781 -66.32234192 8.6744623184 61.365612030
 1486.4333496 1.0000000000 12.020829201 12.250000954 -0.015844552 0.1439915001 1.7702339888 36.479858398 146.21710205 146.58728027 1375.9169922 -65.69976044 9.4663400650 61.368095398
 1486.5858154 2.0000000000 11.959971428 12.250000954 -0.022757405 0.1364986002 1.7717289925 37.431476593 147.41389465 147.61274719 1301.2318115 -65.07717896 9.5428590775 59.886230469
 1486.7381592 2.0000000000 11.920100212 12.250000954 -0.024844551 0.1344995946 1.7721530199 38.530715942 149.22419739 148.91714478 1223.5545654 -64.14846802 9.6733665466 57.759269714
 1486.8906250 2.0000000000 11.919100761 12.250000954 -0.024155324 0.1341011971 1.7730220556 39.051322937 149.86109924 149.62579346 1132.8046875 -62.68414307 9.4910602570 55.278388977
 1487.0429688 2.0000000000 11.918440819 12.250000954 -0.028222756 0.1360023022 1.7702759504 38.337390900 149.77587891 149.69950867 1040.5618896 -61.13387680 8.6463279724 52.942722321
 1487.1954346 2.0000000000 11.957900047 12.250000954 -0.023931945 0.1382963061 1.7688770294 37.765487671 149.50970459 149.43629456 948.20196533 -59.58014297 8.8714475632 50.665142059
 1487.3477783 2.0000000000 12.032441139 12.250000954 -0.015399039 0.1355966032 1.7692359686 37.528469086 149.01750183 148.34675598 844.44885254 -58.44135284 8.9072618484 47.226058960
 1487.5002441 2.0000000000 11.971830368 12.250000954 -0.007237180 0.1319977939 1.7780970335 37.792160034 146.10479736 145.07974243 737.05072021 -57.40980148 8.5195655823 43.022903442
 1487.6525879 2.0000000000 11.920809746 12.250000954 -0.004310649 0.1303014010 1.8050830364 39.562252045 139.70889282 141.08401489 644.09637451 -56.38632965 8.2757692337 40.386154175
 1487.8050537 2.0000000000 11.930250168 12.250000954 -0.006536058 0.1319044977 1.8089339733 39.683544159 138.76640320 138.96990967 610.45471191 -55.67576218 8.3149957657 39.783470154
 1487.9573975 2.0000000000 11.967281342 12.250000954 -0.007844676 0.1355101019 1.8048800230 38.530422211 138.04879761 138.78833008 582.29046631 -55.21621323 8.1314182281 39.387775421
 1488.1097412 2.0000000000 12.062970161 12.250000954 -0.004621795 0.1478020996 1.7957228422 37.877845764 140.06089783 141.42552185 554.09228516 -54.79226685 8.0007390976 38.990417480
 1488.2622070 2.0000000000 12.034560204 12.250000954 -0.010757406 0.1495954990 1.7719099522 36.581096649 146.83779907 145.87144470 509.45196533 -54.38393021 8.2589559555 37.257877350
 1488.4145508 2.0000000000 11.976550102 12.250000954 -0.015378206 0.1436935067 1.7652889490 36.437458038 149.57539368 148.77267456 445.76239014 -53.98256683 8.4138050079 33.480136871
 1488.5670166 2.0000000000 11.931500435 12.250000954 -0.012621298 0.1378979981 1.7700760365 37.496398926 149.78509521 149.52815247 381.44537354 -53.58214188 8.7811317444 28.606174469
 1488.7193604 2.0000000000 11.930311203 12.250000954 -0.012844551 0.1350000948 1.7796070576 39.201934814 149.33160400 149.15846252 301.66497803 -53.19250870 8.9049367905 23.621307373
 1488.8718262 2.0000000000 11.938120842 12.250000954 -0.015534027 0.1351003051 1.7805089951 38.581329346 148.33659363 148.30308533 229.44741821 -52.82277298 8.9581508636 20.497947693
 1489.0241699 2.0000000000 11.971530914 12.250000954 -0.013466346 0.1355011016 1.7763999701 37.023998260 147.30589294 147.46759033 216.23005676 -52.45786285 11.372163773 22.330966949
 1489.1766357 2.0000000000 12.003861427 12.250000954 -0.007087270 0.1365986019 1.7684350014 35.145782471 146.90589905 147.30709839 253.24813843 -52.09261703 15.556818962 25.018037796
 1489.3289795 2.0000000000 11.928690910 12.250000954 -0.014445513 0.1340937018 1.7633010149 34.688884735 147.94479370 148.15785217 299.03500366 -51.66222763 12.630000114 33.930168152
 1489.4814453 2.0000000000 11.913209915 12.250000954 -0.016000001 0.1273873001 1.7599810362 34.983963013 149.64410400 149.49031067 355.88055420 -51.15829468 10.786680222 40.946300507
 1489.6337891 2.0000000000 11.921151161 12.250000954 -0.017689101 0.1176969036 1.7638700008 36.656417847 150.73049927 150.11570740 412.72482300 -50.65457916 10.542940140 40.836910248
 1489.7862549 2.0000000000 11.977939606 12.250000954 -0.025608173 0.1142015010 1.7748010159 38.719238281 149.64160156 149.56427002 439.06533813 -50.19603348 10.896670341 40.719089508
 1489.9385986 2.0000000000 12.093798637 12.250000954 -0.024465973 0.1154026985 1.7820080519 39.689491272 148.51919556 148.52282715 418.12881470 -49.74633789 11.157529831 39.509178162
 1490.0910645 2.0000000000 11.967100143 12.250000954 -0.018077787 0.1187110022 1.7865020037 39.953300476 147.44540405 147.61596680 391.75622559 -49.29518890 10.657010078 34.220649719
 1490.2434082 2.0000000000 11.879540443 12.250000954 -0.018690953 0.1280108988 1.7897609472 40.268890381 147.02760315 147.19190979 324.90917969 -48.84503174 9.5479841232 29.191759109
 1490.3957520 2.0000000000 11.930930138 12.250000954 -0.023226762 0.1426160932 1.7982269526 41.864971161 147.17660522 147.38838196 250.02650452 -48.39533615 6.1897602081 24.696769714
 1490.5482178 2.0000000000 11.958010674 12.250000954 -0.026536429 0.1570077986 1.7919950485 40.994838715 148.07420349 148.26849365 240.31700134 -47.63344193 7.5513520241 24.065429688
 1490.7005615 2.0000000000 11.978219986 12.250000954 -0.025309294 0.1683955044 1.7723579407 37.620121002 149.63220215 149.74597168 277.38751221 -46.78117371 9.6821355820 26.546739578
 1490.8530273 2.0000000000 11.998410225 12.250000954 -0.019076923 0.1640976965 1.7620279789 36.216320038 151.56219482 151.56852722 286.15469360 -45.85843277 9.7935609818 31.028430939
 1491.0053711 2.0000000000 12.017440796 12.250000954 -0.014618095 0.1604052037 1.7613159418 37.092658997 153.49240112 152.99700928 282.80749512 -44.88299179 8.4065771103 31.867410660
 1491.1578369 2.0000000000 11.953189850 12.250000954 -0.014000000 0.1656063050 1.7671329975 38.627681732 153.61869812 153.74562073 289.80999756 -44.27897644 7.3859300613 32.000740051
 1491.3101807 2.0000000000 11.933719635 12.250000954 -0.018227382 0.1769057065 1.7725039721 40.555019379 154.41900635 154.27999878 329.06900024 -44.04269409 7.4444551468 35.943279266
 1491.4626465 2.0000000000 11.950000763 12.250000954 -0.018153846 0.1829847991 1.7771610022 42.065559387 154.66349792 154.62327576 417.92221069 -43.91378403 8.2546415329 45.870800018
 1491.6149902 2.0000000000 11.950000763 12.250000954 -0.016309047 0.1712919027 1.7786689997 42.789718628 154.84419250 155.14302063 507.39739990 -43.79486465 9.4357156754 57.936950684
 1491.7674561 2.0000000000 11.950000763 12.250000954 -0.019384615 0.1619995981 1.7752759457 42.703861237 156.15899658 156.21505737 453.52670288 -43.50988007 8.9521293640 66.659080505
 1491.9197998 2.0000000000 11.950000763 12.250000954 -0.024227383 0.1617155969 1.7694900036 41.710399628 157.58770752 157.22251892 298.11529541 -43.00644684 7.3726840019 59.113780975
