# LAS format log file from PETREL
# Project units are specified as depth units
#==================================================================
~Version information
VERS.   2.0:
WRAP.   NO:
#==================================================================
~Well
STRT .m      399.05941772 :
STOP .m      2436.9521484 :
STEP .m     0.00000000 :
NULL .        -999.250000 :
COMP.           : COMPANY
WELL.  31/2-1   : WELL
FLD.            : FIELD
LOC.            : LOCATION
SRVC.           : SERVICE COMPANY
DATE.  2018-09-11 14:48:32   : Log Export Date {yyyy-MM-dd HH:mm:ss}
PROV.           : PROVINCE
UWI.   31/2-1   : UNIQUE WELL ID
API.            : API NUMBER
#==================================================================
~Curve
DEPT .m                   : DEPTH
Lithology_geolink ._      : Lithology_geolink
CALI .in                  : CALI
BS .in                    : BS
DRHO .g/cm3               : DRHO
NPHI .m3/m3               : NPHI
RHOB .g/cm3               : RHOB
GR .gAPI                  : GR
DTC .us/ft                : DTC
DTE .us/ft                : DTE
RDEP .ohm.m               : RDEP
SP .mV                    : SP
RSHA .ohm.m               : RSHA
RMED .ohm.m               : RMED
~Parameter
#==================================================================
~Ascii
# ...
 1083.0306396  -999.250000 16.858819962 17.500000000 -0.009461538 0.6012889743 1.9165019989 38.600990295 160.36349487 160.18719482 1.0484000444 36.216926575 1.0226000547 1.0226000547
 1083.1829834  -999.250000 17.075729370 17.500000000 -0.005618094 0.5809981823 1.9211000204 37.764591217 158.88710022 158.97523499 1.0506981611 36.021614075 1.0145074129 1.0145074129
 1083.3354492  -999.250000 17.339469910 17.500000000 -0.005846154 0.5650923848 1.9258029461 37.873550415 157.82092285 157.94705200 1.0593069792 35.694000244 0.9899011850 0.9899011850
 1083.4877930  -999.250000 17.484500885 17.500000000 -0.006000000 0.5492994785 1.9326000214 38.085628510 157.21348572 157.33270264 1.0821716785 35.222084045 0.9674286246 0.9674286246
 1083.6402588  -999.250000 17.561130524 17.500000000 -0.006000000 0.5380042195 1.9232029915 38.162559509 157.03221130 156.99394226 1.1026929617 34.122188568 0.9592006207 0.9592006207
 1083.7926025  -999.250000 17.627050400 17.500000000 -0.007690953 0.5482028127 1.9310009480 38.159603119 156.69720459 156.54591370 1.1088969707 33.926944733 0.9510379434 0.9510379434
 1083.9450684  -999.250000 17.688629150 17.500000000 -0.008846154 0.5517991781 1.9328030348 38.156940460 155.84609985 155.81713867 1.1150989532 33.920097351 0.9866951704 0.9866951704
 1084.0974121  -999.250000 17.780429840 17.500000000 -0.009845477 0.5495169163 1.9401040077 38.851703644 154.96859741 154.99520874 1.1212960482 33.578720093 1.0230668783 1.0230668783
 1084.2497559  -999.250000 17.959659576 17.500000000 -0.005773237 0.5729060173 1.9459960461 39.684310913 154.22201538 154.41795349 1.1273940802 33.420681000 1.0422736406 1.0422736406
 1084.4022217  -999.250000 18.172430038 17.500000000 -0.005000000 0.5935981870 1.9316929579 40.002365112 154.21789551 154.34385681 1.1335959435 33.152000427 1.0387018919 1.0387018919
 1084.5545654  -999.250000 18.222070694 17.500000000 -0.011762821 0.5909994245 1.9214979410 40.110931396 154.63609314 154.73681641 1.1397939920 33.006465912 1.0348041058 1.0348041058
 1084.7070313  -999.250000 18.085300446 17.500000000 -0.013846154 0.5883036256 1.9135969877 39.548419952 155.41270447 155.11000061 1.1471010447 32.729419708 1.0310000181 1.0310000181
 1084.8593750  -999.250000 17.923189163 17.500000000 -0.013154523 0.5944005251 1.9077990055 39.283634186 155.06170654 154.88084412 1.1553903818 32.422462463 1.0271041393 1.0271041393
 1085.0118408  -999.250000 17.839569092 17.500000000 -0.011307692 0.5976948142 1.9041019678 39.251701355 154.17919922 154.40086365 1.1638000011 32.022773743 1.0236200094 1.0236200094
 1085.1641846  -999.250000 17.772390366 17.500000000 -0.006772618 0.5878977776 1.9085019827 40.346584320 154.19760132 154.23442078 1.1720902920 32.562503815 1.0580594540 1.0580594540
 1085.3166504  -999.250000 17.724599838 17.500000000 -0.000076923 0.5667961836 1.9234989882 41.243480682 154.29280090 153.89245605 1.1832000017 32.670101166 1.0994999409 1.0994999409
 1085.4689941  -999.250000 17.726900101 17.500000000 -0.000690953 0.5588005781 1.9220989943 41.710994720 152.92778015 153.20925903 1.1954851151 32.559520721 1.1427443027 1.1427443027
 1085.6214600  -999.250000 17.664949417 17.500000000 -0.001846154 0.5747064948 1.9101979733 41.628959656 152.77369690 153.11466980 1.2075920105 32.873382568 1.1427960396 1.1427960396
 1085.7738037  -999.250000 17.540340424 17.500000000 -0.002000000 0.5906947851 1.9058890343 41.191162109 153.79341125 154.06698608 1.2021024227 33.796676636 1.1319997311 1.1319997311
 1085.9262695  -999.250000 17.595529556 17.500000000 -0.003692308 0.5839930773 1.8915020227 40.664840698 155.73880005 155.71095276 1.1965010166 34.453655243 1.1132010221 1.1132010221
 1086.0786133  -999.250000 17.665269852 17.500000000 -0.006536429 0.5642014146 1.8989189863 41.501598358 157.51220703 156.89343262 1.1910034418 34.001892090 1.0888010263 1.0888010263
 1086.2309570  -999.250000 17.625099182 17.500000000 -0.003618590 0.5662034154 1.9255019426 42.737857819 157.03860474 157.07940674 1.1856073141 33.473873138 1.0730030537 1.0730030537
 1086.3834229  -999.250000 17.619680405 17.500000000 -0.001309047 0.5783079267 1.9315929413 43.622890472 156.96112061 157.14556885 1.1886985302 33.135421753 1.0568130016 1.0568130016
 1086.5357666  -999.250000 17.591350555 17.500000000 -0.003536058 0.5904005766 1.9214979410 44.285228729 157.55599976 157.36326599 1.1918964386 33.430595398 1.0650000572 1.0650000572
 1086.6882324  -999.250000 17.380840302 17.500000000 -0.006538462 0.5931947827 1.9146039486 44.190368652 157.39978027 157.17851257 1.1950019598 33.996994019 1.0839020014 1.0839020014
 1086.8405762  -999.250000 17.270149231 17.500000000 -0.006154524 0.5842977166 1.9209020138 43.389781952 156.52688599 156.38612366 1.2005934715 34.592079163 1.1026940346 1.1026940346
 1086.9930420  -999.250000 17.557519913 17.500000000 -0.002615385 0.5694897771 1.9324040413 44.350498199 155.23260498 155.22482300 1.2085000277 35.187152863 1.1228009462 1.1228009462
 1087.1453857  -999.250000 17.781799316 17.500000000 0.0022273818 0.5501015782 1.9408010244 45.996929169 153.98170471 154.11712646 1.2162897587 33.944511414 1.1436920166 1.1436920166
 1087.2978516  -999.250000 17.736940384 17.500000000 0.0038461541 0.5676094294 1.9475990534 47.670021057 153.25738525 153.52268982 1.2165989876 33.308238983 1.1651029587 1.1651029587
 1087.4501953  -999.250000 17.613399506 17.500000000 0.0065364293 0.5880002975 1.9443999529 48.837661743 153.49339294 153.55474854 1.2137032747 33.110523224 1.1941859722 1.1941859722
 1087.6026611  -999.250000 17.625339508 17.500000000 0.0053076921 0.5967959762 1.9428039789 49.798000336 153.89108276 153.78033447 1.2108999491 33.718708038 1.1951910257 1.1951910257
 1087.7550049  -999.250000 17.732240677 17.500000000 0.0033090473 0.5867151022 1.9525040388 49.955219269 153.88940430 153.66760254 1.2081010342 34.065223694 1.1738020182 1.1738020182
 1087.9074707  -999.250000 17.787099838 17.500000000 0.0021538462 0.6063070297 1.9576020241 49.428699493 153.13340759 153.21276855 1.2072999477 33.848369598 1.1630020142 1.1630020142
 1088.0598145  -999.250000 17.797760010 17.500000000 0.0020000001 0.6271935105 1.9638990164 48.055500031 152.77400208 152.85896301 1.2072999477 33.372966766 1.1529099941 1.1529099941
 1088.2121582  -999.250000 17.746419907 17.500000000 0.0003092949 0.6179702878 1.9630939960 45.447509766 152.71940613 152.69488525 1.2072030306 33.309841156 1.1529040337 1.1529040337
 1088.3646240  -999.250000 17.675800323 17.500000000 -0.003381906 0.5903881788 1.9579989910 43.362869263 152.57301331 152.78520203 1.2096990347 33.561473846 1.1569000483 1.1569000483
 1088.5169678  -999.250000 17.673160553 17.500000000 -0.003154648 0.5721036196 1.9571900368 41.701000214 153.24890137 153.44319153 1.2124999762 33.714954376 1.1634939909 1.1634939909
 1088.6694336  -999.250000 17.638259888 17.500000000 -0.004690953 0.5756996274 1.9470989704 41.476871490 154.59120178 154.49024963 1.2152990103 33.167308807 1.1634999514 1.1634999514
 1088.8217773  -999.250000 17.569780350 17.500000000 -0.005845353 0.5750039816 1.9460109472 43.114791870 155.51930237 155.26075745 1.2180010080 32.511077881 1.1634999514 1.1634999514
 1088.9742432  -999.250000 17.548999786 17.500000000 -0.002615385 0.5792927146 1.9574019909 45.106369019 155.55560303 155.07897949 1.2214980125 31.959907532 1.1634010077 1.1634010077
 1089.1265869  -999.250000 17.552099228 17.500000000 -0.002000000 0.5651078820 1.9609980583 45.711090088 153.94239807 154.05122375 1.2250000238 32.971630096 1.1649149656 1.1649149656
 1089.2790527  -999.250000 17.549190521 17.500000000 -0.004538462 0.5740057826 1.9590979815 45.468048096 152.92082214 153.21450806 1.2285989523 33.887035370 1.1836899519 1.1836899519
 1089.4313965  -999.250000 17.530679703 17.500000000 -0.003309047 0.5868105292 1.9544019699 45.701908112 152.96060181 153.10818481 1.2331000566 35.026367188 1.2024010420 1.2024010420
 1089.5838623  -999.250000 17.509099960 17.500000000 -0.000461538 0.5995150805 1.9574000835 47.447029114 153.47300720 153.50096130 1.2379970551 35.303440094 1.2256070375 1.2256070375
