# LAS format log file from PETREL
# Project units are specified as depth units
#==================================================================
~Version information
VERS.   2.0:
WRAP.   NO:
#==================================================================
~Well
STRT .m      1999.6403809 :
STOP .m      3191.7131348 :
STEP .m     0.00000000 :
NULL .        -999.250000 :
COMP.           : COMPANY
WELL.  31/2-21 S   : WELL
FLD.            : FIELD
LOC.            : LOCATION
SRVC.           : SERVICE COMPANY
DATE.  2018-09-11 14:48:34   : Log Export Date {yyyy-MM-dd HH:mm:ss}
PROV.           : PROVINCE
UWI.   31/2-21 S   : UNIQUE WELL ID
API.            : API NUMBER
#==================================================================
~Curve
DEPT .m                   : DEPTH
Lithology_geolink ._      : Lithology_geolink
CALI .in                  : CALI
BS .in                    : BS
ROP .m/h                  : ROP
DRHO .g/cm3               : DRHO
NPHI .m3/m3               : NPHI
RHOB .g/cm3               : RHOB
PEF .b/e                  : PEF
GR .gAPI                  : GR
DTC .us/ft                : DTC
DTS .us/ft                : DTS
RDEP .ohm.m               : RDEP
RMED .ohm.m               : RMED
~Parameter
#==================================================================
~Ascii
# ...
 2629.9667969 6.0000000000 9.8072996140 8.5000000000 36.791667938 0.1679999977 0.3861039877 2.2936999798 4.5645999908 86.459762573 83.376396179 147.50549316 4.5861001015 4.2807998657
 2630.1191406 6.0000000000 9.7709999084 8.5000000000 63.711288452 0.1655000001 0.3736200333 2.2980999947 4.7810001373 96.351097107 82.795898438 147.35699463 4.4808998108 4.1792001724
 2630.2714844 6.0000000000 9.7462997437 8.5000000000 69.004920959 0.1595000029 0.3563277125 2.3013000488 4.7340002060 94.837257385 82.041900635 147.10249329 4.3145999908 4.0208001137
 2630.4238281 6.0000000000 9.6618003845 8.5000000000 64.402236938 0.1557999998 0.3614833653 2.2967000008 4.5893001556 99.039306641 81.326103210 147.10470581 4.3362998962 4.0615000725
 2630.5764160 6.0000000000 9.6957998276 8.5000000000 66.262138367 0.1597000062 0.3726820648 2.3008999825 4.5907001495 88.979667664 81.184700012 146.99079895 4.3838000298 4.1813998222
 2630.7287598 6.0000000000 9.7890996933 8.5000000000 74.069221497 0.1500999928 0.3803876638 2.2802999020 4.4365000725 96.425323486 81.398300171 147.06410217 4.5450000763 4.3165998459
 2630.8811035 6.0000000000 9.8275003433 8.5000000000 68.417976379 0.1566000134 0.3717139363 2.2787001133 5.0282998085 94.372810364 81.875198364 146.96699524 4.6756000519 4.6023001671
 2631.0334473 6.0000000000 9.8220996857 8.5000000000 59.648292542 0.1600999981 0.3776903749 2.2864000797 4.8828001022 95.223526001 83.331596375 147.27079773 4.6072998047 4.5637001991
 2631.1857910 6.0000000000 9.7133998871 8.5000000000 55.526905060 0.1633999944 0.3683300614 2.3141999245 4.5686998367 95.184532166 84.327102661 147.55690002 4.5710000992 4.4918999672
 2631.3383789 6.0000000000 9.6318998337 8.5000000000 52.761154175 0.1578000039 0.3583160341 2.3287000656 4.4218997955 98.766349792 84.648002625 147.44659424 4.5036001205 4.4331002235
 2631.4907227 6.0000000000 9.5413999557 8.5000000000 45.019027710 0.1526000053 0.3390309215 2.3508999348 4.3284001350 103.68611145 84.536499023 147.53970337 4.2743000984 4.0896000862
 2631.6430664 6.0000000000 9.4400997162 8.5000000000 24.316928864 0.1474999934 0.3250224292 2.3571999073 4.2610998154 90.393447876 84.033302307 147.76420593 4.0908999443 3.8722000122
 2631.7954102 6.0000000000 9.3452997208 8.5000000000 26.970144272 0.1406999975 0.3198166192 2.3678998947 4.2734999657 87.116752625 83.463104248 148.32820129 3.9953999519 3.7225000858
 2631.9479980 6.0000000000 9.3470001221 8.5000000000 35.911418915 0.1407999992 0.3238934577 2.3766999245 4.1965999603 90.041191101 82.582603455 148.97120667 3.9442999363 3.6428999901
 2632.1003418 6.0000000000 9.3896999359 8.5000000000 42.114830017 0.1450999975 0.3244990408 2.3678998947 4.2505002022 98.938323975 81.915802002 148.00480652 3.8661999702 3.5741999149
 2632.2526855 6.0000000000 9.4656000137 8.5000000000 56.521324158 0.1365000010 0.3248993456 2.3359999657 4.0303997993 96.166572571 81.800498962 148.05990601 4.0230998993 3.7708001137
 2632.4050293 6.0000000000 9.6197004318 8.5000000000 66.325790405 0.1438000053 0.3329740763 2.3101000786 4.5357999802 96.921661377 81.951698303 147.91600037 4.0198001862 3.8097999096
 2632.5576172 6.0000000000 9.6321001053 8.5000000000 67.166336060 0.1523000002 0.3362947106 2.2911000252 4.5503997803 94.357917786 82.102996826 147.77209473 3.8596000671 3.6589999199
 2632.7099609 6.0000000000 9.6829996109 8.5000000000 64.829063416 0.1465000063 0.3498782218 2.2736999989 4.3502001762 99.363159180 82.691398621 147.48199463 3.9728000164 3.8338999748
 2632.8623047 6.0000000000 9.6215000153 8.5000000000 59.282806396 0.1523000002 0.3610820472 2.2741999626 4.6111001968 96.666740417 83.024696350 146.76539612 4.1614999771 4.0201997757
 2633.0146484 6.0000000000 9.6593999863 8.5000000000 62.476707458 0.1499000043 0.3719825447 2.2630999088 4.6458997726 95.154319763 83.409599304 145.58239746 4.1347999573 4.1761999130
 2633.1669922 6.0000000000 9.8723001480 8.5000000000 72.240158081 0.1459999979 0.3932318389 2.2592999935 4.4166998863 96.330314636 83.481498718 145.07159424 3.7736001015 3.7286999226
 2633.3195801 6.0000000000 9.7517004013 8.5000000000 76.638786316 0.1332000196 0.3972935975 2.2648999691 4.0149002075 95.087898254 83.328598022 144.95939636 3.7546999454 3.5167000294
 2633.4719238 6.0000000000 9.6105003357 8.5000000000 75.870079041 0.1362999976 0.3461820483 2.2908999920 4.2561998367 99.698303223 82.972290039 145.07969666 3.9869999886 3.6796000004
 2633.6242676 6.0000000000 9.5980997086 8.5000000000 72.921264648 0.1407999992 0.3072623610 2.3064999580 4.1333999634 97.706809998 82.712692261 144.70449829 4.2074999809 3.7978000641
 2633.7766113 6.0000000000 9.4743003845 8.5000000000 62.311019897 0.1377999932 0.3057048023 2.3122999668 4.1132998466 94.059593201 82.856407166 144.53019714 4.7985000610 4.3786997795
 2633.9291992 6.0000000000 9.4194002151 8.5000000000 52.360237122 0.1336999983 0.3380480707 2.3273000717 4.1180000305 92.474723816 82.439094543 144.42649841 6.2378001213 6.1858000755
 2634.0815430 5.0000000000 9.3682003021 8.5000000000 41.730316162 0.1328999996 0.3458875120 2.3434998989 3.9855000973 81.785949707 80.962692261 142.56440735 7.7684001923 8.6056003571
 2634.2338867 5.0000000000 9.2173995972 8.5000000000 25.651575089 0.1459999979 0.2906886339 2.3938000202 4.3930001259 73.513153076 78.515098572 138.01319885 7.8003001213 9.4294996262
 2634.3862305 5.0000000000 8.7447996140 8.5000000000 11.900918007 0.1189000010 0.2200265527 2.4358000755 4.7511000633 68.630035400 73.927200317 130.95129395 7.5226001740 9.5714998245
 2634.5388184 5.0000000000 8.5586996078 8.5000000000 14.104001999 0.1259000003 0.1564017534 2.5234999657 5.0303001404 67.731719971 68.614997864 121.00260162 6.8134999275 8.9098997116
 2634.6911621 16.000000000 8.8022003174 8.5000000000 27.761156082 0.1321000010 0.1228536889 2.5724999905 4.9119000435 64.915313721 62.930999756 113.03749847 5.6105999947 7.2399997711
 2634.8435059 16.000000000 9.0345001221 8.5000000000 34.715877533 0.1272999942 0.1031315699 2.5743999481 4.7972002029 72.111343384 62.854801178 120.66210175 4.2814002037 5.2404999733
 2634.9958496 16.000000000 9.0867004395 8.5000000000 42.812992096 0.1333999932 0.1122852564 2.5736000538 4.7245998383 81.990760803 65.585899353 128.94299316 3.1166999340 3.4114999771
 2635.1481934 5.0000000000 9.1310997009 8.5000000000 49.509513855 0.1368000060 0.1426027268 2.5408000946 4.6898999214 89.690536499 74.219398499 132.18409729 2.7202999592 2.7695999146
 2635.3007813 6.0000000000 9.1764001846 8.5000000000 52.069225311 0.1486999989 0.1929193884 2.4797999859 4.4921998978 82.898643494 78.733497620 138.85029602 2.5223999023 2.3857998848
 2635.4531250 6.0000000000 9.2683000565 8.5000000000 55.398948669 0.1467999965 0.2336347848 2.4263000488 4.3930001259 84.726150513 81.300003052 148.24540710 2.4052000046 2.1243000031
 2635.6054688 6.0000000000 9.3411998749 8.5000000000 53.351707458 0.1378999949 0.2511719465 2.3803000450 4.5822000504 86.513740540 80.630798340 151.95959473 2.4340000153 1.9129999876
 2635.7578125 6.0000000000 9.3774003983 8.5000000000 47.061679840 0.1327999979 0.2620651424 2.3513000011 4.4039001465 93.214302063 80.173103333 153.05050659 2.6891000271 1.9680999517
 2635.9104004 6.0000000000 9.4444999695 8.5000000000 41.068569183 0.1295000017 0.2726830244 2.3478000164 4.9570999146 92.658622742 81.142402649 152.95010376 2.9186000824 2.2892999649
 2636.0627441 6.0000000000 9.4378004074 8.5000000000 37.982284546 0.1280999929 0.2878756523 2.3519001007 5.1195998192 90.454734802 82.920799255 152.38850403 2.9328000546 2.3183999062
 2636.2150879 6.0000000000 9.4361000061 8.5000000000 36.782150269 0.1433999985 0.3219453394 2.3543999195 5.1314001083 93.382690430 83.782295227 152.11799622 2.9228999615 2.3224000931
 2636.3674316 6.0000000000 9.4425001144 8.5000000000 34.123359680 0.1455000043 0.3324664235 2.3548998833 4.7677998543 97.079444885 84.333290100 152.03688049 3.0188000202 2.6577000618
 2636.5200195 6.0000000000 9.4402999878 8.5000000000 31.529855728 0.1525000036 0.3244000077 2.3705999851 5.1044001579 94.092613220 84.281898499 151.50149536 3.0701000690 2.8129999638
