# LAS format log file from PETREL
# Project units are specified as depth units
#==================================================================
~Version information
VERS.   2.0:
WRAP.   NO:
#==================================================================
~Well
STRT .m      416.08499146 :
STOP .m      2599.3679199 :
STEP .m     0.00000000 :
NULL .        -999.250000 :
COMP.           : COMPANY
WELL.  31/2-2 R   : WELL
FLD.            : FIELD
LOC.            : LOCATION
SRVC.           : SERVICE COMPANY
DATE.  2018-09-11 14:48:33   : Log Export Date {yyyy-MM-dd HH:mm:ss}
PROV.           : PROVINCE
UWI.   31/2-2 R   : UNIQUE WELL ID
API.            : API NUMBER
#==================================================================
~Curve
DEPT .m                   : DEPTH
Lithology_geolink ._      : Lithology_geolink
CALI .in                  : CALI
DRHO .g/cm3               : DRHO
NPHI .m3/m3               : NPHI
RHOB .g/cm3               : RHOB
GR .gAPI                  : GR
DTC .us/ft                : DTC
RDEP .ohm.m               : RDEP
SP .mV                    : SP
RSHA .ohm.m               : RSHA
RMED .ohm.m               : RMED
~Parameter
#==================================================================
~Ascii
# ...
 2009.4273682 3.0000000000 8.2580003738 -0.004000000 0.2915000021 2.2320001125 32.920333862 100.99935150 0.5250295997 33.650302887  -999.250000 0.7380897403
 2009.5797119 3.0000000000 8.2500000000 -0.008000000 0.3076199889 2.2049999237 38.873397827 102.74859619 0.4970224500 34.336452484  -999.250000 0.7280079722
 2009.7321777 3.0000000000 8.2500000000 -0.010000000 0.3120099902 2.1909999847 37.873725891 102.56315613 0.4750176072 34.586803436  -999.250000 0.6940272450
 2009.8845215 3.0000000000 8.2659997940 0.0130000003 0.3041999936 2.2209999561 37.333984375 102.56300354 0.4620104432 34.337203979  -999.250000 0.6880048513
 2010.0369873 3.0000000000 8.2500000000 0.0199999996 0.3125000000 2.2209999561 31.100078583 103.37435150 0.4580031931 34.399951935  -999.250000 0.6430360079
 2010.1893311 3.0000000000 8.2580003738 0.0099999998 0.3237300217 2.2009999752 33.626651764 103.00028992 0.4480080307 34.649799347  -999.250000 0.6330080032
 2010.3417969 3.0000000000 8.2659997940 -0.003000000 0.3403300047 2.1700000763 34.668006897 103.56255341 0.4410056174 35.024700165  -999.250000 0.6819607615
 2010.4941406 3.0000000000 8.2500000000 -0.002000000 0.3418000042 2.1679999828 39.652343750 102.75064850 0.4280104339 34.775203705  -999.250000 0.7339583635
 2010.6464844 3.0000000000 8.2500000000 -0.011000000 0.3315399885 2.1619999409 37.372745514 101.75159454 0.4150207937 34.712100983  -999.250000 0.7859167457
 2010.7989502 3.0000000000 8.2580003738 -0.008000000 0.3256800175 2.1819999218 35.951961517 101.00060272 0.4070064127 34.836902618  -999.250000 0.7200528979
 2010.9512939 3.0000000000 8.2659997940 -0.004000000 0.3183600008 2.1949999332 28.873722076 100.37599945 0.4000112116 34.587402344  -999.250000 0.6590976715
 2011.1037598 3.0000000000 8.2580003738 0.0120000001 0.3183600008 2.1970000267 28.074735641 101.37419891 0.3890088201 34.025451660  -999.250000 0.5830609202
 2011.2561035 3.0000000000 8.2659997940 -0.002000000 0.2983399928 2.1600000858 26.718999863 103.18509674 0.3740240335 34.211704254  -999.250000 0.5530480146
 2011.4085693 3.0000000000 8.2659997940 -0.009000000 0.3168900013 2.1389999390 26.718849182 103.74954987 0.3580128253 35.336101532  -999.250000 0.5490032434
 2011.5609131 3.0000000000 8.2659997940 -0.012000000 0.3334999979 2.1289999485 26.653247833 104.18765259 0.3440112174 34.712501526  -999.250000 0.5430048108
 2011.7133789 3.0000000000 8.2659997940 -0.008000000 0.3632799983 2.1270000935 24.929141998 104.99935150 0.3410024047 33.338104248  -999.250000 0.5469967723
 2011.8657227 3.0000000000 8.2580003738 -0.008000000 0.3456999958 2.1289999485 21.243616104 105.18784332 0.3489935994 33.087203979  -999.250000 0.5450016260
 2012.0181885 3.0000000000 8.2659997940 -0.010000000 0.3212900162 2.1210000515 17.261177063 103.56430817 0.3609904051 34.149150848  -999.250000 0.5290127993
 2012.1705322 3.0000000000 8.2659997940 -0.009000000 0.3154299855 2.1229999065 15.260391235 100.19069672 0.3849807680 35.274101257  -999.250000 0.5399912000
 2012.3229980 3.0000000000 8.2659997940 -0.010000000 0.3276399970 2.1250000000 16.749511719 96.752746582 0.4219703674 34.150901794  -999.250000 0.6059471369
 2012.4753418 3.0000000000 8.2659997940 -0.010000000 0.3066399992 2.1540000439 16.548429489 92.003807068 0.4579711556 32.713153839  -999.250000 0.7039214969
 2012.6276855 3.0000000000 8.2659997940 -0.011000000 0.2807599902 2.1909999847 17.438724518 91.563713074 0.5109151006 33.835201263  -999.250000 0.7988479137
 2012.7801514 3.0000000000 8.2659997940 -0.016000001 0.2431599945 2.2209999561 17.896810532 91.999649048 0.5859399438 33.712100983  -999.250000 0.8709422946
 2012.9324951 3.0000000000 8.2659997940 -0.020000000 0.2372999936 2.2360000610 21.524589539 91.750389099 0.6508959532 36.146099091  -999.250000 0.8570224047
 2013.0849609 3.0000000000 8.2659997940 -0.024000000 0.2158200145 2.2439999580 26.903823853 95.185241699 0.7319350839 36.711551666  -999.250000 0.8779832125
 2013.2373047 18.000000000 8.2659997940 -0.025000000 0.2211899906 2.2379999161 38.901142120 102.36349487 0.8697790504 36.088001251  -999.250000 0.9878238440
 2013.3897705 18.000000000 8.2659997940 -0.017000001 0.2392600030 2.2320001125 55.216072083 108.99468994 1.0338686705 37.335998535  -999.250000 1.2477916479
 2013.5421143 18.000000000 8.2659997940 -0.010000000 0.3203099966 2.2070000172 66.878509521 115.74459076 1.2208501101 40.647346497  -999.250000 1.4798141718
 2013.6945801 18.000000000 8.2810001373 0.0000000000 0.3769499958 2.1310000420 69.051597595 122.18284607 1.5027742386 43.334850311  -999.250000 1.8397117853
 2013.8469238 18.000000000 8.3360004425 0.0230000000 0.4355500042 1.9989999533 64.305442810 127.37084198 1.8906891346 44.149349213  -999.250000 2.8861610889
 2013.9993896 18.000000000 8.5159997940 0.0240000002 0.5009800196 1.8049999475 59.601207733 129.99789429 2.2846846581 46.023498535  -999.250000 5.6308012009
 2014.1517334 6.0000000000 8.5780000687 0.0010000000 0.5737299919 1.6349999905 62.606872559 124.56735992 2.5607788563 47.648700714  -999.250000 5.9257655144
 2014.3041992 6.0000000000 8.6020002365 -0.034000002 0.6040000319 1.6039999723 70.650367737 116.19470978 2.8048048019 47.961753845  -999.250000 4.1144514084
 2014.4565430 6.0000000000 8.6090002060 -0.061999999 0.5458999872 1.7159999609 81.189804077 110.56751251 3.0637924671 50.023349762  -999.250000 3.0108838081
 2014.6090088 6.0000000000 8.7340002060 -0.035999998 0.4668000042 2.0469999313 82.306396484 106.75304413 3.0659983158 50.774402618  -999.250000 2.5353803635
 2014.7613525 6.0000000000 9.2110004425 0.0140000004 0.4399400055 2.3069999218 79.565307617 103.37770081 2.8072073460 49.900703430  -999.250000 2.4800441265
 2014.9136963 6.0000000000 9.5389995575 0.0160000008 0.4311500192 2.3010001183 81.007110596 102.75099945 2.7271280289 48.776802063  -999.250000 2.4800000191
 2015.0661621 6.0000000000 9.1250000000 0.0460000001 0.4404299855 2.3010001183 85.443405151 98.566360474 2.6580553055 49.149700165  -999.250000 2.9895913601
 2015.2185059 6.0000000000 8.6409997940 0.0820000023 0.4350599945 2.2790000439 87.683395386 90.575813293 2.5861153603 49.586303711  -999.250000 3.2166364193
 2015.3709717 6.0000000000 8.8750000000 0.1030000001 0.4428699911 2.2709999084 84.809700012 92.561401367 2.6479504108 49.774852753  -999.250000 3.6126825809
 2015.5233154 6.0000000000 9.2500000000 0.0500000007 0.4418900013 2.2439999580 83.435600281 92.563003540 2.8866174221 50.149402618  -999.250000 3.4302930832
 2015.6757813 6.0000000000 9.3830003738 0.0469999984 0.4033200145 2.3340001106 81.938003540 95.372749329 3.0079028606 50.711551666  -999.250000 3.3590569496
 2015.8281250 6.0000000000 8.5629997253 0.0700000003 0.4135699868 2.4260001183 81.936798096 93.001892090 3.1089191437 51.211601257  -999.250000 3.3649952412
 2015.9805908 6.0000000000 8.9610004425 0.0610000007 0.4399400055 2.4509999752 81.183952332 92.999992371 3.2698709965 51.836502075  -999.250000 3.6227934361
 2016.1329346 6.0000000000 9.0550003052 0.0149999997 0.4990200102 2.4279999733 79.501800537 91.376304626 3.3998959064 51.837001801  -999.250000 4.1365880966
 2016.2854004 6.0000000000 8.3520002365 -0.008000000 0.5024399757 2.4530000687 80.625755310 88.002693176 3.4319744110 51.462303162  -999.250000 4.9053845406
 2016.4377441 6.0000000000 8.3590002060 -0.002000000 0.5053699613 2.4879999161 80.942306519 87.375503540 3.6598174572 51.150253296  -999.250000 5.0898528099
 2016.5902100 6.0000000000 8.3590002060 -0.005000000 0.4814499915 2.4860000610 83.614639282 87.999488831 3.7868983746 51.524700165  -999.250000 4.9061474800
 2016.7425537 6.0000000000 8.3590002060 -0.003000000 0.5019500256 2.4790000916 79.316108704 89.187049866 3.8929150105 50.587753296  -999.250000 4.7661118507
 2016.8948975 6.0000000000 8.3590002060 -0.010000000 0.5053699613 2.4730000496 81.253303528 88.189605713 3.9239504337 50.150699615  -999.250000 4.7270627022
 2017.0473633 6.0000000000 8.3590002060 -0.009000000 0.5205099583 2.4920001030 83.317810059 88.749549866 4.0159258842 51.024299622  -999.250000 4.6600537300
