# LAS format log file from PETREL
# Project units are specified as depth units
#==================================================================
~Version information
VERS.   2.0:
WRAP.   NO:
#==================================================================
~Well
STRT .m      1999.6403809 :
STOP .m      3191.7131348 :
STEP .m     0.00000000 :
NULL .        -999.250000 :
COMP.           : COMPANY
WELL.  31/2-21 S   : WELL
FLD.            : FIELD
LOC.            : LOCATION
SRVC.           : SERVICE COMPANY
DATE.  2018-09-11 14:48:34   : Log Export Date {yyyy-MM-dd HH:mm:ss}
PROV.           : PROVINCE
UWI.   31/2-21 S   : UNIQUE WELL ID
API.            : API NUMBER
#==================================================================
~Curve
DEPT .m                   : DEPTH
Lithology_geolink ._      : Lithology_geolink
CALI .in                  : CALI
BS .in                    : BS
ROP .m/h                  : ROP
DRHO .g/cm3               : DRHO
NPHI .m3/m3               : NPHI
RHOB .g/cm3               : RHOB
PEF .b/e                  : PEF
GR .gAPI                  : GR
DTC .us/ft                : DTC
DTS .us/ft                : DTS
RDEP .ohm.m               : RDEP
RMED .ohm.m               : RMED
~Parameter
#==================================================================
~Ascii
# ...
 2951.8354492 7.0000000000 8.5237998962 8.5000000000 116.83267975 0.0204000007 0.4675000012 2.2701001167 2.4089000225 95.316833496 105.00000000 170.74969482 4.8811998367 5.2207999229
 2951.9880371 7.0000000000 8.5200004578 8.5000000000 99.851051331 0.0509999990 0.4670000076 2.2509999275 2.2021999359 104.64247131 104.93149567 179.87741089 3.6751999855 3.7146000862
 2952.1403809 7.0000000000 8.5447998047 8.5000000000 77.129264832 0.0350000001 0.5273000002 2.2462000847 2.2037999630 128.23655701 104.71389771 183.00000000 3.5053000450 3.5027000904
 2952.2927246 7.0000000000 8.5255002975 8.5000000000 67.403213501 0.0463999994 0.4925999939 2.3615000248 2.3708999157 120.11729431 103.95050049 181.26048279 3.1326000690 3.0720000267
 2952.4450684 7.0000000000 8.5739002228 8.5000000000 71.426185608 0.0599999987 0.4207000136 2.4284000397 2.5076000690 113.94905853 102.25140381 176.09449768 2.9361000061 2.7525000572
 2952.5976563 7.0000000000 8.6680002213 8.5000000000 75.231628418 0.0744000003 0.3925000131 2.5041999817 2.8578999043 123.04037476 99.390708923 166.75451660 2.8956000805 2.6131999493
 2952.7500000 7.0000000000 8.5958995819 8.5000000000 70.400588989 0.0617999993 0.4144000113 2.5618999004 3.5007998943 124.86489105 95.322593689 158.90539551 2.8963999748 2.5450000763
 2952.9023438 7.0000000000 8.5538997650 8.5000000000 59.029525757 0.0634000003 0.3422000110 2.6122000217 4.2140998840 124.85861206 89.320602417 155.22399902 3.1003999710 2.7562000751
 2953.0546875 7.0000000000 8.5438995361 8.5000000000 50.012466431 0.0632999986 0.2055000067 2.6368000507 4.2936000824 119.77396393 83.333206177 151.79179382 3.3341999054 3.0030000210
 2953.2070313 7.0000000000 8.5204000473 8.5000000000 42.425525665 0.0634000003 0.1386000067 2.6436998844 4.2406997681 112.67755890 78.475708008 147.07440186 3.9156000614 3.6203999519
 2953.3596191 6.0000000000 8.5268001556 8.5000000000 34.251312256 0.0661000013 0.1272000074 2.6507999897 3.7207000256 100.99800873 73.968299866 133.41969299 4.7336997986 4.6367001534
 2953.5119629 6.0000000000 8.5139999390 8.5000000000 27.005578995 0.0657000020 0.1817999929 2.6466000080 4.0752000809 90.566917419 70.749900818 123.35710144 5.2199997902 5.6795001030
 2953.6643066 6.0000000000 8.4940004349 8.5000000000 22.287731171 0.0683000013 0.2312999964 2.6426000595 4.3298001289 63.722064972 69.504898071 121.07959747 4.9028000832 5.3460001945
 2953.8166504 6.0000000000 8.4923000336 8.5000000000 23.879264832 0.0586000010 0.2440000027 2.6261999607 3.8866999149 70.765350342 70.300697327 124.84490204 4.6869001389 5.0774998665
 2953.9692383 6.0000000000 8.4987001419 8.5000000000 33.780513763 0.0579000004 0.2560999990 2.6031000614 3.7404999733 84.205360413 72.491500854 127.50170898 4.6409997940 4.9787001610
 2954.1215820 6.0000000000 8.5025997162 8.5000000000 60.053142548 0.0676999986 0.2533000112 2.5947999954 3.5283999443 96.560501099 75.214302063 128.97900391 4.6824002266 4.9637999535
 2954.2739258 6.0000000000 8.5206003189 8.5000000000 85.516731262 0.0685999990 0.2637999952 2.5829999447 3.5650000572 98.702987671 77.700202942 131.72239685 4.6244997978 4.7129001617
 2954.4262695 6.0000000000 8.5205001831 8.5000000000 99.099411011 0.0666000098 0.2698000073 2.5940999985 3.9439001083 95.525314331 76.981498718 133.87170410 4.6015000343 4.4720001221
 2954.5788574 6.0000000000 8.5170001984 8.5000000000 114.30052948 0.0647000000 0.2188999951 2.6147999763 4.2147002220 100.59384155 74.915702820 136.10240173 4.5391001701 4.2202000618
 2954.7312012 6.0000000000 8.5029001236 8.5000000000 122.53018951 0.0621000007 0.1585000008 2.5694000721 4.1277999878 101.76792908 73.704101563 135.32339478 4.5082001686 4.0529999733
 2954.8835449 6.0000000000 8.5402002335 8.5000000000 103.58497620 0.0684999973 0.1611000001 2.5113000870 3.1997001171 100.64120483 73.952598572 141.32949829 4.6737999916 4.2336001396
 2955.0358887 6.0000000000 8.5692996979 8.5000000000 78.824478149 0.0615000017 0.2303999960 2.4518001080 2.9105999470 88.471931458 77.500099182 152.63850403 4.9461002350 4.6626000404
 2955.1884766 6.0000000000 8.5850000381 8.5000000000 61.409770966 0.0705000013 0.3337999880 2.3696000576 2.5018999577 73.447151184 83.275802612 159.51400757 5.2102999687 5.2755999565
 2955.3408203 6.0000000000 8.5431003571 8.5000000000 57.735240936 0.0527000017 0.3822000027 2.2776999474 2.1489000320 61.525997162 89.306098938 162.05258179 4.6493000984 4.8983001709
 2955.4931641 6.0000000000 8.5315999985 8.5000000000 67.632217407 0.0427000001 0.3662999868 2.3232998848 2.2585000992 81.084373474 92.658203125 167.97450256 3.9576001167 4.1421999931
 2955.6455078 6.0000000000 8.5478000641 8.5000000000 85.657478333 0.0649000034 0.3393999934 2.4528999329 2.5311999321 115.60294342 92.756698608 168.86253357 3.4093000889 3.5113999844
 2955.7978516 7.0000000000 8.5480003357 8.5000000000 91.893371582 0.0619999990 0.3303000033 2.4948999882 2.9335000515 117.86820221 90.702011108 171.28450012 3.1563000679 3.1515998840
 2955.9504395 7.0000000000 8.5481996536 8.5000000000 95.125000000 0.0590999983 0.3210999966 2.5367999077 3.3357999325 122.72239685 85.993492126 173.35600281 3.1082000732 2.9953000546
 2956.1027832 7.0000000000 8.5223999023 8.5000000000 107.65190887 0.0688000023 0.3172999918 2.5968999863 3.8873999119 119.26889801 85.054901123 174.00000000 3.2274999619 3.0236001015
 2956.2551270 7.0000000000 8.5332002640 8.5000000000 110.52592468 0.0753000006 0.3298000097 2.5871000290 3.6198000908 125.22170258 85.736801147 174.00000000 3.2074999809 2.9100999832
 2956.4074707 7.0000000000 8.5611000061 8.5000000000 103.36023712 0.0635000020 0.3995999992 2.5402998924 3.3074998856 132.85209656 87.031402588 165.34010315 3.2725999355 2.9389998913
 2956.5600586 7.0000000000 8.5626001358 8.5000000000 90.524284363 0.0428000018 0.4639999866 2.3794000149 3.1201999187 129.10899353 89.060203552 151.54159546 3.5608999729 3.2832000256
 2956.7124023 7.0000000000 8.5399999619 8.5000000000 82.869094849 0.0656000003 0.4524999857 2.1974999905 2.0982999802 121.75759888 90.640403748 151.41781616 3.9173998833 3.7853000164
 2956.8647461 7.0000000000 8.5276002884 8.5000000000 87.450134277 0.0189999994 0.3790000081 2.2443997860 2.4089999199 116.11990356 84.980407715 155.96180725 3.7620000839 3.6944000721
 2957.0170898 7.0000000000 8.5324001312 8.5000000000 102.13419342 0.0298999995 0.3465999961 2.3556001186 2.7342000008 117.61660004 77.933898926 160.71350098 3.6294999123 3.5280001163
 2957.1696777 7.0000000000 8.5371999741 8.5000000000 106.78445435 0.0408000015 0.3140999973 2.4667999744 3.0594999790 112.42790222 75.056800842 176.48710632 3.6651000977 3.5308001041
 2957.3220215 7.0000000000 8.5506000519 8.5000000000 97.126312256 0.0599999987 0.3224999905 2.5466001034 3.1064999104 112.64790344 77.868797302 183.92959595 3.6614000797 3.4895000458
 2957.4743652 7.0000000000 8.5755996704 8.5000000000 82.902557373 0.0575999990 0.3217999935 2.4832003117 3.0313000679 118.76210022 82.358001709 184.84640503 3.7743999958 3.4502999783
 2957.6267090 7.0000000000 8.6007003784 8.5000000000 74.228347778 0.0758000016 0.3210999966 2.4191999435 2.6398000717 124.19190216 86.926895142 183.31790161 4.3094000816 3.8415000439
 2957.7790527 7.0000000000 8.5578002930 8.5000000000 72.028869629 0.0500000007 0.3713999987 2.3622999191 3.1861000061 120.64890289 96.601188660 181.63059998 5.0360999107 4.5626001358
 2957.9316406 7.0000000000 8.5732002258 8.5000000000 59.667320251 0.0474999994 0.4011000097 2.2690000534 2.8010001183 108.56980133 112.25839996 181.54170227 5.8509001732 5.4583001137
 2958.0839844 18.000000000 8.5886001587 8.5000000000 51.132217407 0.0449000001 0.4307999909 2.1756000519 2.4158999920 86.358001709 122.40859985 179.01359558 6.1992001534 5.9334001541
 2958.2363281 18.000000000 8.6150999069 8.5000000000 59.667320251 0.0027999999 0.5769000053 1.6942000389 1.5212999582 57.095199585 123.50891113 176.58221436 6.2463998795 6.3392000198
 2958.3886719 18.000000000 8.6119003296 8.5000000000 97.800529480 -0.037300002 0.7325000167 1.3454999924 0.9067000151 48.895900726 121.63568878 157.45977783 5.5802998543 5.7891001701
