# LAS format log file from PETREL
# Project units are specified as depth units
#==================================================================
~Version information
VERS.   2.0:
WRAP.   NO:
#==================================================================
~Well
STRT .m      326.13598633 :
STOP .m      1938.6804199 :
STEP .m     0.00000000 :
NULL .        -999.250000 :
COMP.           : COMPANY
WELL.  31/2-17 A   : WELL
FLD.            : FIELD
LOC.            : LOCATION
SRVC.           : SERVICE COMPANY
DATE.  2018-09-11 14:48:33   : Log Export Date {yyyy-MM-dd HH:mm:ss}
PROV.           : PROVINCE
UWI.   31/2-17 A   : UNIQUE WELL ID
API.            : API NUMBER
#==================================================================
~Curve
DEPT .m                   : DEPTH
Lithology_geolink ._      : Lithology_geolink
CALI .in                  : CALI
DRHO .g/cm3               : DRHO
RHOB .g/cm3               : RHOB
GR .gAPI                  : GR
DTC .us/ft                : DTC
RDEP .ohm.m               : RDEP
RMED .ohm.m               : RMED
~Parameter
#==================================================================
~Ascii
# ...
 647.39514160  -999.250000 8.6134996414 -1.004699945 2.2200000286 53.128200531 152.25840759 1.6085019112  -999.250000
 647.54754639  -999.250000 8.6134996414 -1.004699945 2.2200000286 58.805599213 152.25840759 1.6039017439  -999.250000
 647.69995117  -999.250000 8.6134996414 -1.004699945 2.2200000286 59.987899780 152.25840759 1.5994018316  -999.250000
 647.85235596  -999.250000 8.6134996414 -1.004699945 2.2200000286 57.826099396 152.25840759 1.5948017836  -999.250000
 648.00476074  -999.250000 8.6134996414 -1.004699945 2.2200000286 57.732299805 152.25840759 1.5901019573  -999.250000
 648.15716553  -999.250000 8.6134996414 -1.004699945 2.2200000286 58.383899689 152.25840759 1.5855017900  -999.250000
 648.30957031  -999.250000 8.6134996414 -1.004699945 2.2200000286 60.255199432 152.25840759 1.5814017057  -999.250000
 648.46197510  -999.250000 8.6134996414 -1.004699945 2.2200000286 58.588298798 152.25840759 1.5782012939  -999.250000
 648.61437988  -999.250000 8.6134996414 -1.004699945 2.2200000286 53.327301025 152.25840759 1.5765007734  -999.250000
 648.76678467  -999.250000 8.6134996414 -1.004699945 2.2200000286 50.190498352 152.25840759 1.5760002136  -999.250000
 648.91912842  -999.250000 8.6134996414 -1.004699945 2.2200000286 50.636100769 152.25840759 1.5759999752  -999.250000
 649.07153320  -999.250000 8.6134996414 -1.004699945 2.2200000286 55.329399109 152.25840759 1.5759999752  -999.250000
 649.22393799  -999.250000 8.6134996414 -1.004699945 2.2200000286 55.880699158 152.25840759 1.5759999752  -999.250000
 649.37634277  -999.250000 8.6134996414 -1.004699945 2.2200000286 53.276699066 152.25840759 1.5759999752  -999.250000
 649.52874756  -999.250000 8.6134996414 -1.004699945 2.2200000286 51.746601105 152.25840759 1.5759999752  -999.250000
 649.68115234  -999.250000 8.6134996414 -1.004699945 2.2200000286 51.684898376 152.25840759 1.5759999752  -999.250000
 649.83355713  -999.250000 8.6134996414 -1.004699945 2.2200000286 48.243198395 152.25840759 1.5759999752  -999.250000
 649.98596191  -999.250000 8.6134996414 -1.004699945 2.2200000286 46.269901276 152.25840759 1.5759999752  -999.250000
 650.13836670  -999.250000 8.6134996414 -1.004699945 2.2200000286 50.971500397 152.25840759 1.5759999752  -999.250000
 650.29077148  -999.250000 8.6134996414 -1.004699945 2.2200000286 52.864898682 152.25840759 1.5759999752  -999.250000
 650.44317627  -999.250000 8.6134996414 -1.004699945 2.2200000286 56.570999146 152.25840759 1.5759999752  -999.250000
 650.59558105  -999.250000 8.6134996414 -1.004699945 2.2200000286 51.909198761 152.25840759 1.5759999752  -999.250000
 650.74798584  -999.250000 8.6134996414 -1.004699945 2.2200000286 55.084598541 152.25840759 1.5759999752  -999.250000
 650.90039063  -999.250000 8.6134996414 -1.004699945 2.2200000286 56.063800812 152.25840759 1.5759999752  -999.250000
 651.05273438  -999.250000 8.6134996414 -1.004699945 2.2200000286 58.426898956 152.25840759 1.5759999752  -999.250000
 651.20513916  -999.250000 8.6134996414 -1.004699945 2.2200000286 57.038600922 152.25840759 1.5759999752  -999.250000
 651.35754395  -999.250000 8.6134996414 -1.004699945 2.2200000286 55.040000916 152.25840759 1.5759999752  -999.250000
 651.50994873  -999.250000 8.6134996414 -1.004699945 2.2200000286 55.329898834 152.25840759 1.5759999752  -999.250000
 651.66235352  -999.250000 8.6134996414 -1.004699945 2.2200000286 57.292800903 152.25840759 1.5757999420  -999.250000
 651.81475830  -999.250000 8.6134996414 -1.004699945 2.2200000286 58.025501251 152.25840759 1.5743000507  -999.250000
 651.96716309  -999.250000 8.6134996414 -1.004699945 2.2200000286 57.391399384 152.25840759 1.5690000057  -999.250000
 652.11956787  -999.250000 8.6134996414 -1.004699945 2.2200000286 56.409900665 152.25840759 1.5591000319  -999.250000
 652.27197266  -999.250000 8.6134996414 -1.004699945 2.2200000286 58.654998779 152.25840759 1.5463999510  -999.250000
 652.42437744  -999.250000 8.6134996414 -1.004699945 2.2200000286 56.556701660 152.25840759 1.5345000029  -999.250000
 652.57678223  -999.250000 8.6134996414 -1.004699945 2.2200000286 58.028800964 152.25840759 1.5276000500  -999.250000
 652.72918701  -999.250000 8.6134996414 -1.004699945 2.2200000286 57.737800598 152.25840759 1.5279999971  -999.250000
 652.88159180  -999.250000 8.6134996414 -1.004699945 2.2200000286 54.839801788 152.25840759 1.5333000422  -999.250000
 653.03399658  -999.250000 8.6134996414 -1.004699945 2.2200000286 51.718799591 152.25840759 1.5398999453  -999.250000
 653.18634033  -999.250000 8.6134996414 -1.004699945 2.2200000286 50.541000366 152.25840759 1.5465999842  -999.250000
 653.33874512  -999.250000 8.6134996414 -1.004699945 2.2200000286 55.192298889 152.25840759 1.5522999763  -999.250000
 653.49114990  -999.250000 8.6134996414 -1.004699945 2.2200000286 56.310600281 152.25840759 1.5507999659  -999.250000
 653.64355469  -999.250000 8.6134996414 -1.004699945 2.2200000286 53.091800690 152.25840759 1.5324000120  -999.250000
 653.79595947  -999.250000 8.6134996414 -1.004699945 2.2200000286 46.265399933 152.25840759 1.4986000061  -999.250000
 653.94836426  -999.250000 8.6134996414 -1.004699945 2.2200000286 49.447898865 152.25840759 1.4608000517  -999.250000
 654.10076904  -999.250000 8.6134996414 -1.004699945 2.2200000286 47.005401611 152.25840759 1.4234999418  -999.250000
 654.25317383  -999.250000 8.6134996414 -1.004699945 2.2200000286 53.384700775 152.25840759 1.3862999678  -999.250000
 654.40557861  -999.250000 8.6134996414 -1.004699945 2.2200000286 50.162601471 152.25840759 1.3497999907  -999.250000
 654.55798340  -999.250000 8.6134996414 -1.004699945 2.2200000286 51.696498871 152.25840759 1.3156000376  -999.250000
 654.71038818  -999.250000 8.6134996414 -1.004699945 2.2200000286 51.409099579 152.25840759 1.2836999893  -999.250000
 654.86279297  -999.250000 8.6134996414 -1.004699945 2.2200000286 49.000701904 152.25840759 1.2532000542  -999.250000
 655.01519775  -999.250000 8.6134996414 -1.004699945 2.2200000286 47.742401123 152.25840759 1.2231999636  -999.250000
 655.16754150  -999.250000 8.6134996414 -1.004699945 2.2200000286 45.502300262 152.25840759 1.1930999756  -999.250000
 655.31994629  -999.250000 8.6134996414 -1.004699945 2.2200000286 46.518001556 152.25840759 1.1628999710  -999.250000
 655.47235107  -999.250000 8.6134996414 -1.004699945 2.2200000286 49.455600739 152.25840759 1.1331000328  -999.250000
 655.62475586  -999.250000 8.6134996414 -1.004699945 2.2200000286 49.699901581 152.25840759 1.1065000296  -999.250000
 655.77716064  -999.250000 8.6134996414 -1.004699945 2.2200000286 49.945301056 152.25840759 1.0881999731  -999.250000
 655.92956543  -999.250000 8.6134996414 -1.004699945 2.2200000286 46.731998444 152.25840759 1.0793000460  -999.250000
 656.08197021  -999.250000 8.6134996414 -1.004699945 2.2200000286 46.769401550 152.25840759 1.0751999617  -999.250000
 656.23437500  -999.250000 8.6134996414 -1.004699945 2.2200000286 51.769001007 152.25840759 1.0717999935  -999.250000
 656.38677979  -999.250000 8.6134996414 -1.004699945 2.2200000286 57.185501099 152.25840759 1.0684000254  -999.250000
 656.53918457  -999.250000 8.6134996414 -1.004699945 2.2200000286 58.125099182 152.25840759 1.0651999712  -999.250000
 656.69158936  -999.250000 8.6134996414 -1.004699945 2.2200000286 50.426601410 152.25840759 1.0622999668  -999.250000
 656.84399414  -999.250000 8.6134996414 -1.004699945 2.2200000286 46.951099396 152.25840759 1.0595999956  -999.250000
 656.99639893  -999.250000 8.6134996414 -1.004699945 2.2200000286 45.312999725 152.25840759 1.0571000576  -999.250000
 657.14880371  -999.250000 8.6134996414 -1.004699945 2.2200000286 52.090400696 152.25840759 1.0547000170  -999.250000
 657.30114746  -999.250000 8.6134996414 -1.004699945 2.2200000286 55.321098328 152.25840759 1.0521999598  -999.250000
 657.45355225  -999.250000 8.6134996414 -1.004699945 2.2200000286 56.523700714 152.25840759 1.0498000383  -999.250000
 657.60595703  -999.250000 8.6134996414 -1.004699945 2.2200000286 49.928798676 152.25840759 1.0478999615  -999.250000
