# LAS format log file from PETREL
# Project units are specified as depth units
#==================================================================
~Version information
VERS.   2.0:
WRAP.   NO:
#==================================================================
~Well
STRT .m      445.17501831 :
STOP .m      1838.8730469 :
STEP .m     0.00000000 :
NULL .        -999.250000 :
COMP.           : COMPANY
WELL.  31/2-10   : WELL
FLD.            : FIELD
LOC.            : LOCATION
SRVC.           : SERVICE COMPANY
DATE.  2018-09-11 14:48:32   : Log Export Date {yyyy-MM-dd HH:mm:ss}
PROV.           : PROVINCE
UWI.   31/2-10   : UNIQUE WELL ID
API.            : API NUMBER
#==================================================================
~Curve
DEPT .m                   : DEPTH
Lithology_geolink ._      : Lithology_geolink
CALI .in                  : CALI
DRHO .g/cm3               : DRHO
NPHI .m3/m3               : NPHI
RHOB .g/cm3               : RHOB
PEF .b/e                  : PEF
GR .gAPI                  : GR
DTC .us/ft                : DTC
RDEP .ohm.m               : RDEP
SP .mV                    : SP
RSHA .ohm.m               : RSHA
RMED .ohm.m               : RMED
~Parameter
#==================================================================
~Ascii
# ...
 1652.1829834 1.0000000000 8.2729997635 -0.016000001 0.3520500064 2.0840001106 2.4630000591 46.539939880 108.26274109 0.4239951968 85.170333862 0.7039999962 0.5210168362
 1652.3354492 1.0000000000 8.2729997635 -0.013000000 0.3330099881 2.0840001106 2.4430000782 50.252002716 108.24617004 0.4219871759 84.071083069 0.6980000138 0.5280063748
 1652.4877930 1.0000000000 8.2729997635 -0.014000000 0.3310500085 2.0799999237 2.4179999828 50.872596741 108.50567627 0.4179903865 85.650314331 0.6840000153 0.5299951434
 1652.6402588 1.0000000000 8.2729997635 -0.014000000 0.3242200017 2.0799999237 2.4340000153 49.857574463 108.56142426 0.4139775634 84.951873779 0.6949999928 0.5280064344
 1652.7926025 1.0000000000 8.2729997635 -0.015000000 0.3378900290 2.0820000172 2.4509999752 44.439201355 108.73297882 0.4069871902 84.911087036 0.7139999866 0.5300160050
 1652.9450684 1.0000000000 8.2729997635 -0.012000000 0.3217800260 2.0840001106 2.5139999390 44.797973633 109.11280060 0.4029935896 84.937179565 0.7310000062 0.5349839926
 1653.0974121 1.0000000000 8.2729997635 -0.011000000 0.3110400140 2.0820000172 2.5309998989 40.143913269 109.22637939 0.4009935856 84.995574951 0.6769999862 0.5299679637
 1653.2498779 1.0000000000 8.2729997635 -0.015000000 0.3100599945 2.0680000782 2.5999999046 46.031101227 109.31024933 0.3990096152 85.796478271 0.6790000200 0.5199518800
 1653.4022217 1.0000000000 8.2729997635 -0.012000000 0.3144499958 2.0720000267 2.6019999981 46.072006226 109.47022247 0.4020224214 85.324981689 0.6269999743 0.5049936175
 1653.5545654 1.0000000000 8.2729997635 -0.009000000 0.3344699740 2.0820000172 2.5209999084 48.873271942 109.71543121 0.4090192318 85.319389343 0.6060000062 0.5030240417
 1653.7070313 1.0000000000 8.2729997635 -0.008000000 0.3369100094 2.0920000076 2.4509999752 48.155998230 109.90367126 0.4170608521 85.063690186 0.6779999733 0.5130320191
 1653.8593750 2.0000000000 8.2729997635 -0.016000001 0.3427700102 2.0859999657 2.4379999638 48.162086487 109.97505188 0.4360769093 84.338577271 0.7580000162 0.5230649114
 1654.0118408 2.0000000000 8.2729997635 -0.020000000 0.3383800089 2.0880000591 2.4730000496 50.685394287 109.88117981 0.4680864513 82.508415222 0.7239999771 0.5501633286
 1654.1641846 2.0000000000 8.2729997635 -0.021000000 0.3349599838 2.0920000076 2.5629999638 49.881462097 109.43713379 0.4950529039 84.200263977 0.7480000257 0.6011226177
 1654.3166504 5.0000000000 8.2729997635 -0.020000000 0.3530300260 2.1050000191 2.6389999390 52.558597565 109.16355896 0.5171185136 86.378204346 0.8579999804 0.6521697640
 1654.4689941 5.0000000000 8.2729997635 -0.017999999 0.3603500128 2.1110000610 2.6480000019 51.193031311 109.15052795 0.5540841818 83.960494995 0.7889999747 0.7049422860
 1654.6214600 5.0000000000 8.2729997635 -0.020000000 0.3662099838 2.1150000095 2.6210000515 53.283905029 109.15029907 0.5890961289 87.481391907 1.0909999609 0.6810737252
 1654.7738037 5.0000000000 8.2729997635 -0.017999999 0.3364300132 2.1270000935 2.5590000153 54.191802979 109.17166138 0.6190800667 86.666595459 0.7450000048 0.7040736675
 1654.9262695 5.0000000000 8.2729997635 -0.016000001 0.3261699975 2.1410000324 2.6389999390 55.379707336 108.63815308 0.6440897584 85.297203064 1.0210000277 0.7269935608
 1655.0786133 5.0000000000 8.2729997635 -0.012000000 0.3164100051 2.1540000439 2.5209999084 56.836994171 107.90372467 0.6720832586 85.663597107 0.9990000129 0.7249808311
 1655.2310791 5.0000000000 8.2729997635 -0.014000000 0.3339799941 2.1459999084 2.5739998817 54.652496338 107.54248047 0.6980256438 83.364898682 0.9769999981 0.7190929055
 1655.3834229 5.0000000000 8.2729997635 -0.017000001 0.3388700187 2.1559998989 2.6250000000 53.566402435 107.26538086 0.7059935927 85.201583862 0.8069999814 0.7484900355
 1655.5357666 5.0000000000 8.2729997635 -0.017000001 0.3383800089 2.1719999313 2.7460000515 54.634616852 106.71112061 0.7039591074 85.694534302 1.7120000124 0.9011370540
 1655.6882324 5.0000000000 8.2729997635 -0.014000000 0.3364300132 2.1889998913 2.7699999809 58.622497559 106.31120300 0.6868910789 85.501182556 1.1260000467 0.9580063820
 1655.8405762 5.0000000000 8.2729997635 -0.010000000 0.3232400119 2.1860001087 2.7009999752 57.834533691 106.48322296 0.6528966427 85.557228088 1.0549999475 0.9597523808
 1655.9930420 5.0000000000 8.2729997635 -0.010000000 0.3266600072 2.1659998894 2.7809998989 53.897190094 106.15925598 0.6098815203 85.240173340 0.9279999733 0.8566477299
 1656.1453857 2.0000000000 8.2729997635 -0.016000001 0.3242200017 2.1329998970 2.5840001106 51.149612427 106.19303131 0.5729134679 85.603927612 1.2050000429 0.7466105819
 1656.2978516 2.0000000000 8.2729997635 -0.017999999 0.3408200145 2.1019999981 2.4449999332 48.497898102 107.28770447 0.5368878841 85.160682678 0.7269999981 0.5848110318
 1656.4501953 2.0000000000 8.2729997635 -0.017999999 0.3422900140 2.0840001106 2.2709999084 47.840095520 108.18842316 0.5019158125 85.684524536 0.6909999847 0.5260601044
 1656.6026611 2.0000000000 8.2729997635 -0.017000001 0.3359400034 2.0859999657 2.3459999561 46.221103668 108.64590454 0.4669071436 85.486976624 0.6930000186 0.5512049794
 1656.7550049 2.0000000000 8.2729997635 -0.018999999 0.3159199953 2.0940001011 2.3980000019 46.875900269 109.08686066 0.4379615188 84.856529236 0.7770000100 0.6150961518
 1656.9074707 2.0000000000 8.2729997635 -0.017000001 0.3125000000 2.1019999981 2.3889999390 47.251300812 109.09825897 0.4219775498 84.658760071 0.7710000277 0.6549294591
 1657.0598145 2.0000000000 8.2729997635 -0.011000000 0.3222700059 2.1050000191 2.3519999981 47.661602020 108.68427277 0.4149903953 84.586166382 0.8140000105 0.6328847408
 1657.2122803 2.0000000000 8.2729997635 -0.007000000 0.3378900290 2.0959999561 2.2850000858 49.397983551 109.18348694 0.4119871855 84.946945190 0.7530000210 0.5968589783
 1657.3646240 2.0000000000 8.2729997635 -0.011000000 0.3354499936 2.0820000172 2.2209999561 46.901298523 110.03836060 0.4079871774 83.994949341 0.6830000281 0.5529230833
 1657.5169678 2.0000000000 8.2729997635 -0.014000000 0.3300800025 2.0739998817 2.2090001106 45.428085327 110.85292053 0.4039855897 82.746963501 0.6750000119 0.5289783478
 1657.6694336 2.0000000000 8.2729997635 -0.017999999 0.3339799941 2.0739998817 2.2909998894 41.321105957 111.54319763 0.3979743719 88.117736816 0.6819999814 0.5200063586
 1657.8217773 2.0000000000 8.2729997635 -0.021000000 0.3227500021 2.0739998817 2.4430000782 43.854145050 111.91932678 0.3899879754 85.237007141 0.6850000024 0.5220528841
 1657.9742432 2.0000000000 8.2729997635 -0.022000000 0.3286100030 2.0780000687 2.4769999981 48.079612732 111.88973999 0.3850063980 85.655052185 0.6940000057 0.5440896749
 1658.1265869 2.0000000000 8.2729997635 -0.021000000 0.3286100030 2.0759999752 2.5309998989 53.252479553 111.12865448 0.3870240450 85.670745850 0.7279999852 0.5720144510
 1658.2790527 2.0000000000 8.2729997635 -0.018999999 0.3442400098 2.0759999752 2.5840001106 54.265384674 110.32119751 0.3970704675 85.564064026 0.7059999704 0.5778911114
 1658.4313965 2.0000000000 8.2729997635 -0.015000000 0.3452099860 2.0680000782 2.6889998913 49.401790619 109.90677643 0.4191009700 84.960273743 0.6959999800 0.5439375043
 1658.5838623 2.0000000000 8.2729997635 -0.017000001 0.3476599753 2.0699999332 2.7269999981 47.655899048 109.84415436 0.4611441195 85.068946838 0.7250000238 0.5181024671
 1658.7362061 2.0000000000 8.2729997635 -0.013000000 0.3452099860 2.0899999142 2.7460000515 47.637847900 109.89216614 0.5061298013 83.816009521 0.7519999743 0.5502043366
 1658.8886719 2.0000000000 8.2729997635 -0.014000000 0.3374000192 2.1129999161 2.7379999161 52.975410461 109.75405884 0.5602788329 87.137664795 0.8399999738 0.6353653669
 1659.0410156 2.0000000000 8.2729997635 -0.014000000 0.3217800260 2.1370000839 2.7379999161 54.972206116 109.05773163 0.6473234892 85.789566040 1.1000000238 0.7492017746
 1659.1934814 5.0000000000 8.2729997635 -0.015000000 0.3100599945 2.1619999409 2.9920001030 55.970401764 108.15415955 0.7483205199 85.655364990 0.9929999709 0.8124711514
 1659.3458252 5.0000000000 8.2729997635 -0.018999999 0.2954100072 2.1970000267 3.4079999924 56.418109894 106.75286865 0.8483522534 85.764755249 1.1879999638 0.9600664377
