# LAS format log file from PETREL
# Project units are specified as depth units
#==================================================================
~Version information
VERS.   2.0:
WRAP.   NO:
#==================================================================
~Well
STRT .m      443.33587646 :
STOP .m      1778.0548096 :
STEP .m     0.00000000 :
NULL .        -999.250000 :
COMP.           : COMPANY
WELL.  31/2-9   : WELL
FLD.            : FIELD
LOC.            : LOCATION
SRVC.           : SERVICE COMPANY
DATE.  2018-09-11 14:48:35   : Log Export Date {yyyy-MM-dd HH:mm:ss}
PROV.           : PROVINCE
UWI.   31/2-9   : UNIQUE WELL ID
API.            : API NUMBER
#==================================================================
~Curve
DEPT .m                   : DEPTH
Lithology_geolink ._      : Lithology_geolink
CALI .in                  : CALI
DRHO .g/cm3               : DRHO
SGR .gAPI                 : SGR
NPHI .m3/m3               : NPHI
RHOB .g/cm3               : RHOB
PEF .b/e                  : PEF
GR .gAPI                  : GR
DTC .us/ft                : DTC
RDEP .ohm.m               : RDEP
SP .mV                    : SP
RSHA .ohm.m               : RSHA
RMED .ohm.m               : RMED
~Parameter
#==================================================================
~Ascii
# ...
 1060.2509766  -999.250000 18.009000778 0.0309855770  -999.250000 0.4795781374 2.1459951401 4.3767580986 80.122848511 134.75059509 1.3409831524 71.147003174 1.3580344915 1.3580344915
 1060.4033203  -999.250000 18.072999954 0.0419735797  -999.250000 0.4913716018 2.1240530014 3.6527414322 77.434501648 135.50419617 1.3200088739 70.745971680 1.4009472132 1.4009472132
 1060.5557861  -999.250000 18.006999969 0.0250272434  -999.250000 0.4878956378 2.0780737400 3.3385016918 73.057495117 140.75140381 1.3310087919 70.342651367 1.3349623680 1.3349623680
 1060.7081299  -999.250000 17.917999268 0.0120208338  -999.250000 0.4595754445 2.0600287914 3.5756185055 66.189804077 142.49760437 1.3419952393 69.940643311 1.2879775763 1.2879775763
 1060.8604736  -999.250000 17.996999741 0.0120000001  -999.250000 0.4444862008 2.0689783096 3.7336204052 68.438003540 139.50000000 1.3359999657 69.144912720 1.2599999905 1.2599999905
 1061.0129395  -999.250000 17.900999069 0.0149951922  -999.250000 0.4478944540 2.0769870281 3.6451425552 80.130905151 139.00160217 1.3179967403 68.338287354 1.2779799700 1.2779799700
 1061.1652832  -999.250000 17.787000656 0.0130048040  -999.250000 0.4526186585 2.0750048161 3.3147950172 87.500000000 141.00000000 1.3140000105 67.531936646 1.2530000210 1.2530000210
 1061.3177490  -999.250000 17.566999435 0.0060112178  -999.250000 0.4518512785 2.0670127869 3.1832101345 88.937454224 139.75219727 1.2979999781 67.333312988 1.2479808331 1.2479808331
 1061.4700928  -999.250000 17.433000565 0.0030072059  -999.250000 0.4483983219 2.0630095005 3.2498390675 88.250000000 142.50000000 1.2979999781 67.403831482 1.2239999771 1.2239999771
 1061.6225586  -999.250000 17.454999924 0.0010032052  -999.250000 0.4393545091 2.0580081940 3.4436891079 85.189552307 143.37319946 1.3020136356 67.474884033 1.2360159159 1.2360159159
 1061.7749023  -999.250000 17.561000824 0.0010000000  -999.250000 0.4279673696 2.0540094376 3.3751657009 87.125000000 141.12500000 1.3190000057 67.473999023 1.2560000420 1.2560000420
 1061.9273682  -999.250000 17.573999405 -0.000996795  -999.250000 0.4179760218 2.0510048866 3.1882996559 81.626304626 142.12289429 1.3230007887 67.374160767 1.2690016031 1.2690016031
 1062.0797119  -999.250000 17.681999207 -0.001997598  -999.250000 0.4260605276 2.0539927483 2.9844899178 83.250000000 139.50000000 1.3240000010 67.273246765 1.2710000277 1.2710000277
 1062.2321777  -999.250000 17.861999512 -0.003996795  -999.250000 0.4321103394 2.0619871616 2.8362371922 78.752807617 139.74890137 1.3249920607 67.298965454 1.2710144520 1.2710144520
 1062.3845215  -999.250000 17.743000031 -0.004000000  -999.250000 0.4282094240 2.0749688148 2.7741489410 82.253501892 138.37269592 1.3149824142 68.133987427 1.2890192270 1.2890192270
 1062.5369873  -999.250000 17.745000839 -0.004000000  -999.250000 0.4311352670 2.0740015507 2.8648540974 86.630355835 135.50260925 1.2929823399 68.973655701 1.3130079508 1.3130079508
 1062.6893311  -999.250000 17.766000748 -0.002003205  -999.250000 0.4473439753 2.0739998817 3.1126024723 93.312255859 138.75030518 1.2709920406 69.811660767 1.3229839802 1.3229839802
 1062.8416748  -999.250000 17.766000748 0.0019903923  -999.250000 0.4673917890 2.0700094700 3.2187454700 92.375000000 139.12500000 1.2610000372 70.001541138 1.3029999733 1.3029999733
 1062.9941406  -999.250000 17.771999359 0.0049951924  -999.250000 0.4851415753 2.0640094280 3.1441202164 93.059204102 142.12600708 1.2409944534 70.077880859 1.2709687948 1.2709687948
 1063.1464844  -999.250000 17.829999924 0.0020072060  -999.250000 0.4751441479 2.0540239811 2.9823892117 88.313003540 143.37500000 1.2339999676 70.153816223 1.2319999933 1.2319999933
 1063.2989502  -999.250000 17.909999847 -0.005987179  -999.250000 0.4469352365 2.0420193672 2.8562018871 85.184547424 141.50000000 1.2389984131 69.808555603 1.1999896765 1.1999896765
 1063.4512939  -999.250000 17.784999847 -0.012983187  -999.250000 0.4200047255 2.0449929237 2.9986565113 80.875000000 141.50000000 1.2369999886 69.145591736 1.1870000362 1.1870000362
 1063.6037598  -999.250000 17.731000900 -0.021985577  -999.250000 0.4117331803 2.0499918461 3.4922084808 80.873901367 139.12359619 1.2400032282 68.481063843 1.2050496340 1.2050496340
 1063.7561035  -999.250000 17.718999863 -0.022997597  -999.250000 0.4505465031 2.0569829941 3.8860538006 79.500000000 137.37500000 1.2439999580 67.982200623 1.2669999599 1.2669999599
 1063.9085693  -999.250000 17.702999115 -0.018008012  -999.250000 0.4656459391 2.0510096550 3.8041329384 84.312850952 139.50309753 1.2470127344 67.882164001 1.3199968338 1.3199968338
 1064.0609131  -999.250000 17.784000397 -0.007026421  -999.250000 0.4810629189 2.0460119247 3.8079905510 84.125000000 143.37500000 1.2630000114 67.784233093 1.3159999847 1.3159999847
 1064.2133789  -999.250000 18.051000595 -0.002008013  -999.250000 0.4814194739 2.0420064926 4.1284856796 87.247100830 144.00170898 1.2790200710 67.684158325 1.2609632015 1.2609632015
 1064.3657227  -999.250000 18.048999786 -0.002997598  -999.250000 0.4792252779 2.0420000553 4.1848654747 83.625000000 146.12500000 1.3040000200 67.470512390 1.2150000334 1.2150000334
 1064.5181885  -999.250000 18.069000244 -0.004996795  -999.250000 0.4728502333 2.0429983139 3.7197468281 84.502052307 142.49809265 1.3159984350 67.256340027 1.2280192375 1.2280192375
 1064.6705322  -999.250000 18.191999435 -0.001006410  -999.250000 0.4591120183 2.0489904881 3.2457594872 87.061454773 140.12370300 1.3139896393 67.041343689 1.2520191669 1.2520191669
 1064.8229980  -999.250000 17.915000916 0.0029935949  -999.250000 0.4457314312 2.0549905300 3.2360143661 85.123550415 138.49879456 1.3009879589 66.750465393 1.2760096788 1.2760096788
 1064.9753418  -999.250000 17.792999268 0.0069935899  -999.250000 0.4408577681 2.0679793358 3.2759358883 83.311599731 137.00280762 1.2859719992 66.431510925 1.2879999876 1.2879999876
 1065.1276855  -999.250000 17.805999756 0.0030096078  -999.250000 0.4577892125 2.0640094280 3.4286324978 81.563003540 140.50000000 1.2510000467 66.113761902 1.2879999876 1.2879999876
 1065.2801514  -999.250000 17.805999756 0.0000048077  -999.250000 0.4929635823 2.0610048771 3.2123477459 84.624450684 139.00170898 1.2269847393 65.749580383 1.2809864283 1.2809864283
 1065.4324951  -999.250000 17.919000626 -0.003990393  -999.250000 0.5122736096 2.0490288734 3.1062545776 83.938003540 141.12500000 1.2079999447 65.331008911 1.2640000582 1.2640000582
 1065.5849609  -999.250000 18.250000000 -0.004998398  -999.250000 0.5122501254 2.0480017662 3.0900256634 83.559051514 143.12519836 1.1659735441 64.911674500 1.2409440279 1.2409440279
 1065.7373047  -999.250000 18.066999435 -0.003004804  -999.250000 0.5087085366 2.0499951839 3.2426326275 78.625000000 143.37500000 1.1330000162 64.794281006 1.1710000038 1.1710000038
 1065.8897705  -999.250000 17.864000320 -0.002001603  -999.250000 0.5048462152 2.0460064411 3.5175592899 83.312606812 145.75000000 1.1109822989 66.175781250 1.1089775562 1.1089775562
 1066.0421143  -999.250000 17.851999283 0.0089735789  -999.250000 0.5035530925 2.0539805889 3.6087813377 82.813003540 145.75000000 1.0889999866 67.557678223 1.0809999704 1.0809999704
 1066.1945801  -999.250000 17.923000336 0.0080016032  -999.250000 0.5206825137 2.0470111370 3.6858766079 88.500251770 146.75030518 1.0660055876 68.942779541 1.0890144110 1.0890144110
 1066.3469238  -999.250000 17.922000885 0.0109927943  -999.250000 0.5500493646 2.0519881248 3.6570696831 88.813003540 147.12500000 1.0729999542 68.343452454 1.1069999933 1.1069999933
 1066.4993896  -999.250000 17.902999878 0.0060080127  -999.250000 0.5607329607 2.0559935570 3.3894293308 84.687553406 146.49780273 1.0940103531 67.487373352 1.1450384855 1.1450384855
 1066.6517334  -999.250000 17.948999405 0.0050024018  -999.250000 0.5336652398 2.0679712296 3.0807421207 84.125549316 143.74940491 1.1070159674 66.632049561 1.1930367947 1.1930367947
 1066.8041992  -999.250000 18.024999619 0.0020048078  -999.250000 0.4992052019 2.0709953308 2.7904646397 84.812004089 142.99850464 1.1270143986 66.488227844 1.2390272617 1.2390272617
