# LAS format log file from PETREL
# Project units are specified as depth units
#==================================================================
~Version information
VERS.   2.0:
WRAP.   NO:
#==================================================================
~Well
STRT .m      416.08499146 :
STOP .m      2599.3679199 :
STEP .m     0.00000000 :
NULL .        -999.250000 :
COMP.           : COMPANY
WELL.  31/2-2 R   : WELL
FLD.            : FIELD
LOC.            : LOCATION
SRVC.           : SERVICE COMPANY
DATE.  2018-09-11 14:48:33   : Log Export Date {yyyy-MM-dd HH:mm:ss}
PROV.           : PROVINCE
UWI.   31/2-2 R   : UNIQUE WELL ID
API.            : API NUMBER
#==================================================================
~Curve
DEPT .m                   : DEPTH
Lithology_geolink ._      : Lithology_geolink
CALI .in                  : CALI
DRHO .g/cm3               : DRHO
NPHI .m3/m3               : NPHI
RHOB .g/cm3               : RHOB
GR .gAPI                  : GR
DTC .us/ft                : DTC
RDEP .ohm.m               : RDEP
SP .mV                    : SP
RSHA .ohm.m               : RSHA
RMED .ohm.m               : RMED
~Parameter
#==================================================================
~Ascii
# ...
 2157.1030273 6.0000000000 8.5310001373 0.0240000002 0.4165000021 2.4379999638 96.304000854 111.00000000 2.1089999676 60.650001526  -999.250000 3.0429999828
 2157.2553711 6.0000000000 8.5000000000 0.0419999994 0.4150400162 2.4389998913 93.504707336 109.75000000 2.0899999142 59.025001526  -999.250000 3.0209999084
 2157.4079590 6.0000000000 8.6250000000 0.0309999995 0.4423799813 2.4430000782 96.448219299 110.18799591 2.0659999847 59.400001526  -999.250000 2.9860000610
 2157.5603027 6.0000000000 8.5860004425 0.0219999999 0.4541000128 2.4409999847 99.620193481 110.00000000 2.0610001087 58.275001526  -999.250000 2.9319999218
 2157.7126465 6.0000000000 8.6409997940 0.0599999987 0.4736299813 2.4769999981 98.110603333 110.56300354 2.0720000267 58.150001526  -999.250000 2.9100000858
 2157.8649902 6.0000000000 8.5159997940 0.0390000008 0.4863300025 2.4360001087 93.616386414 110.37500000 2.0959999561 59.150001526  -999.250000 2.9430000782
 2158.0175781 6.0000000000 8.5000000000 0.0199999996 0.4824199975 2.4219999313 88.262222290 109.56300354 2.1170001030 59.150001526  -999.250000 2.9709999561
 2158.1699219 6.0000000000 8.5780000687 -0.006000000 0.4785200059 2.4019999504 92.071815491 109.18800354 2.1480000019 59.025001526  -999.250000 3.0490000248
 2158.3222656 6.0000000000 8.6879997253 0.0010000000 0.4570299983 2.4360001087 94.834640503 108.56300354 2.1659998894 59.275001526  -999.250000 3.1410000324
 2158.4746094 7.0000000000 8.8360004425 0.0309999995 0.4682599902 2.4609999657 101.57140350 107.00000000 2.1760001183 59.400001526  -999.250000 3.3069999218
 2158.6271973 7.0000000000 8.3520002365 0.0240000002 0.5034199953 2.4509999752 104.20462799 105.37500000 2.2049999237 59.525001526  -999.250000 3.4379999638
 2158.7792969 7.0000000000 8.2810001373 0.0170000009 0.4824199975 2.4340000153 109.37920380 105.37500000 2.2519247532 59.899398804  -999.250000 3.2932324409
 2158.9316406 7.0000000000 8.2580003738 0.0089999996 0.4726599753 2.4470000267 112.00911713 102.19310760 2.2909374237 59.775203705  -999.250000 3.0943191051
 2159.0842285 7.0000000000 8.2659997940 0.0209999997 0.4282199740 2.4839999676 117.70160675 100.00000000 2.3320000172 59.275001526  -999.250000 3.1289999485
 2159.2365723 7.0000000000 8.2030000687 0.0080000004 0.4531300068 2.5060000420 121.94100952 97.563003540 2.3770000935 59.150001526  -999.250000 3.3689999580
 2159.3889160 7.0000000000 8.2419996262 -0.008000000 0.4755899906 2.5079998970 123.80348969 94.754501343 2.4119439125 59.274803162  -999.250000 3.6385679245
 2159.5412598 6.0000000000 8.2889995575 -0.014000000 0.5048800111 2.5099999905 117.86037445 94.563301086 2.5078461170 59.649398804  -999.250000 3.7168750763
 2159.6938477 6.0000000000 8.2889995575 -0.001000000 0.5229499936 2.5209999084 108.72660065 94.000000000 2.6189999580 59.400001526  -999.250000 3.9140000343
 2159.8461914 6.0000000000 8.2889995575 0.0140000004 0.5014600158 2.5350000858 101.43620300 92.563003540 2.7009999752 59.150001526  -999.250000 4.1640000343
 2159.9985352 6.0000000000 8.2810001373 0.0299999993 0.4975599945 2.5550000668 100.31540680 92.000900269 2.7828688622 59.774002075  -999.250000 4.4725055695
 2160.1508789 6.0000000000 8.2889995575 0.0010000000 0.4682599902 2.5350000858 101.80388641 92.374397278 2.8728556633 59.525402069  -999.250000 4.5269136429
 2160.3032227 6.0000000000 8.2889995575 -0.010000000 0.4726599753 2.5309998989 96.108703613 92.188301086 2.9099407196 60.024200439  -999.250000 4.2194933891
 2160.4558105 6.0000000000 8.2889995575 -0.017000001 0.4755899906 2.5099999905 85.922279358 93.375000000 2.9179999828 59.025001526  -999.250000 3.9140000343
 2160.6081543 6.0000000000 8.2580003738 -0.011000000 0.5063499808 2.5000000000 76.131309509 93.562705994 2.9080159664 58.401000977  -999.250000 3.7732255459
 2160.7604980 6.0000000000 8.2500000000 -0.002000000 0.5258800387 2.5139999390 80.080734253 93.999298096 2.8930239677 58.774398804  -999.250000 3.6482002735
 2160.9128418 6.0000000000 8.2500000000 -0.003000000 0.5454099774 2.5290000439 91.157051086 94.374404907 2.9019856453 58.525402069  -999.250000 3.4513156414
 2161.0654297 7.0000000000 8.2500000000 -0.004000000 0.5576199889 2.5230000019 111.15200043 95.375000000 2.9489998817 58.025001526  -999.250000 3.2090001106
 2161.2177734 7.0000000000 8.2500000000 -0.006000000 0.5727500319 2.5060000420 119.55709076 96.188003540 2.9609999657 56.775001526  -999.250000 3.0799999237
 2161.3701172 7.0000000000 8.2500000000 -0.009000000 0.5947300196 2.4939999580 115.84685516 95.376296997 2.8012561798 55.776599884  -999.250000 3.2766847610
 2161.5224609 7.0000000000 8.2500000000 -0.008000000 0.5722700357 2.5120000839 98.295875549 94.189903259 2.4455704689 55.026203156  -999.250000 3.7692098618
 2161.6750488 6.0000000000 8.2500000000 -0.002000000 0.5532199740 2.5199999809 87.606803894 91.749992371 1.9750000238 54.150001526  -999.250000 4.2579998970
 2161.8273926 6.0000000000 8.2189998627 -0.001000000 0.5092800260 2.5039999485 81.930290222 92.750000000 1.6100000143 52.400001526  -999.250000 3.6579999924
 2161.9797363 2.0000000000 8.2189998627 0.0000000000 0.5361300111 2.4839999676 77.107475281 93.187301636 1.3294496536 50.153602600  -999.250000 2.5607583523
 2162.1320801 2.0000000000 8.2189998627 -0.007000000 0.5180699825 2.4670000076 66.168724060 94.997093201 1.0724118948 46.343112946  -999.250000 1.7203460932
 2162.2846680 2.0000000000 8.2030000687 -0.003000000 0.5200200081 2.4839999676 54.127700806 98.188003540 0.8730000257 43.462001801  -999.250000 1.1729999781
 2162.4370117 2.0000000000 8.1879997253 0.0020000001 0.5146499872 2.4879999161 45.306789398 98.375000000 0.7419999838 41.400001526  -999.250000 0.9380000234
 2162.5893555 2.0000000000 8.1330003738 -0.002000000 0.5156300068 2.4430000782 41.435245514 100.74620056 0.6461536288 39.527999878  -999.250000 0.8880800009
 2162.7416992 2.0000000000 8.0159997940 -0.009000000 0.4741199911 2.3550000191 39.714946747 100.99959564 0.5701217651 39.150604248  -999.250000 0.8840064406
 2162.8940430 2.0000000000 8.0159997940 -0.010000000 0.4028300047 2.2869999409 37.188800812 101.56211090 0.5240737200 38.962303162  -999.250000 0.8979775906
 2163.0466309 2.0000000000 8.0159997940 -0.009000000 0.3540000021 2.2320001125 37.693897247 101.74999237 0.5049999952 39.150001526  -999.250000 0.9160000086
 2163.1989746 2.0000000000 8.0159997940 -0.006000000 0.3378900290 2.2070000172 39.536106110 101.56330872 0.5000079870 39.025199890  -999.250000 0.9179967642
 2163.3513184 2.0000000000 8.0159997940 -0.006000000 0.3242200017 2.1889998913 42.720005035 101.56301117 0.5029951930 39.025001526  -999.250000 0.9000288248
 2163.5036621 2.0000000000 8.0159997940 0.0000000000 0.3271499872 2.2049999237 43.342647552 101.74969482 0.5149807334 38.712501526  -999.250000 0.8640577197
 2163.6562500 2.0000000000 8.0159997940 0.0000000000 0.3286100030 2.2090001106 42.490299225 101.74999237 0.5320000052 38.650001526  -999.250000 0.8259999752
 2163.8085938 2.0000000000 8.0159997940 -0.001000000 0.3349599838 2.2030000687 39.467647552 101.74999237 0.5419999957 38.525001526  -999.250000 0.8050000072
 2163.9609375 2.0000000000 8.0159997940 -0.006000000 0.3354499936 2.1840000153 38.622295380 101.74999237 0.5569759607 38.275402069  -999.250000 0.8010063767
 2164.1132813 2.0000000000 8.0159997940 -0.010000000 0.3242200017 2.1700000763 36.945510864 101.00120544 0.5669839382 38.336902618  -999.250000 0.8089872003
 2164.2658691 2.0000000000 8.0159997940 -0.014000000 0.3198200166 2.1740000248 41.617000580 99.750000000 0.5789999962 38.650001526  -999.250000 0.8289999962
 2164.4182129 2.0000000000 8.0159997940 -0.007000000 0.3164100051 2.1800000668 39.130908966 98.188003540 0.5820000172 38.712001801  -999.250000 0.8659999967
 2164.5705566 2.0000000000 8.0159997940 -0.003000000 0.3164100051 2.1879999638 42.807540894 97.001899719 0.5800032020 37.901302338  -999.250000 0.8989471793
 2164.7229004 2.0000000000 8.0159997940 -0.001000000 0.3188500106 2.1840000153 39.410205841 96.563713074 0.5799999833 38.274398804  -999.250000 0.9149743915
