# LAS format log file from PETREL
# Project units are specified as depth units
#==================================================================
~Version information
VERS.   2.0:
WRAP.   NO:
#==================================================================
~Well
STRT .m      445.17501831 :
STOP .m      1838.8730469 :
STEP .m     0.00000000 :
NULL .        -999.250000 :
COMP.           : COMPANY
WELL.  31/2-10   : WELL
FLD.            : FIELD
LOC.            : LOCATION
SRVC.           : SERVICE COMPANY
DATE.  2018-09-11 14:48:32   : Log Export Date {yyyy-MM-dd HH:mm:ss}
PROV.           : PROVINCE
UWI.   31/2-10   : UNIQUE WELL ID
API.            : API NUMBER
#==================================================================
~Curve
DEPT .m                   : DEPTH
Lithology_geolink ._      : Lithology_geolink
CALI .in                  : CALI
DRHO .g/cm3               : DRHO
NPHI .m3/m3               : NPHI
RHOB .g/cm3               : RHOB
PEF .b/e                  : PEF
GR .gAPI                  : GR
DTC .us/ft                : DTC
RDEP .ohm.m               : RDEP
SP .mV                    : SP
RSHA .ohm.m               : RSHA
RMED .ohm.m               : RMED
~Parameter
#==================================================================
~Ascii
# ...
 723.15258789  -999.250000 15.211001396 0.0230000000 0.3717900217 2.2349998951 4.0320000648 52.342876434 131.13412476 2.8829967976 53.499599457  -999.250000 2.4860081673
 723.30499268  -999.250000 15.121999741 0.0230000000 0.3687300086 2.2170000076 5.0399999619 45.536457062 124.05814362 2.8889951706 52.001201630  -999.250000 2.4899969101
 723.45739746  -999.250000 15.086000443 0.0460000001 0.3772700131 2.2349998951 6.3429999352 50.496021271 122.82791138 2.8850030899 52.499599457  -999.250000 2.5099840164
 723.60980225  -999.250000 15.086000443 0.0460000001 0.4046200216 2.2650001049 6.9949998856 49.094566345 125.49499512 2.8710057735 52.500000000  -999.250000 2.5209956169
 723.76220703  -999.250000 15.088000298 0.0370000005 0.4343899786 2.2980000973 6.0120000839 54.497833252 122.06697845 2.8690006733 52.999801636  -999.250000 2.5389928818
 723.91461182  -999.250000 15.114999771 0.0240000002 0.4058299959 2.2899999619 5.1469998360 51.314277649 130.63839722 2.8630023003 53.000000000  -999.250000 2.4960172176
 724.06701660  -999.250000 15.359000206 0.0209999997 0.3526600003 2.2550001144 4.5190000534 53.562099457 132.35394287 2.8540036678 53.000000000  -999.250000 2.4610140324
 724.21942139  -999.250000 15.789999962 0.0299999993 0.3386799991 2.2309999466 4.6779999733 49.939453125 128.66117859 2.8649957180 52.500198364  -999.250000 2.4430072308
 724.37182617  -999.250000 15.597000122 0.0340000018 0.3601300120 2.2179999352 5.9359998703 50.687698364 128.47053528 2.8630006313 52.000198364  -999.250000 2.4729881287
 724.52423096  -999.250000 15.491999626 0.0439999998 0.3844499886 2.2219998837 8.0959997177 51.062850952 130.70320129 2.8550031185 52.000000000  -999.250000 2.4550070763
 724.67663574  -999.250000 15.517000198 0.0419999994 0.3674899936 2.2279999256 7.9439997673 48.345088959 127.62622070 2.8460035324 52.000000000  -999.250000 2.5099780560
 724.82904053  -999.250000 15.583999634 0.0299999993 0.3496799767 2.2360000610 5.2480001450 46.625686646 125.20304108 2.8340048790 51.500198364  -999.250000 2.5020031929
 724.98144531  -999.250000 15.383999825 0.0149999997 0.3361200094 2.2330000401 3.9509999752 41.221168518 127.32437897 2.8140079975 51.999801636  -999.250000 2.4490211010
 725.13385010  -999.250000 15.376000404 0.0140000004 0.3402200043 2.2269999981 3.8729999065 45.029472351 127.12493134 2.8110013008 52.000000000  -999.250000 2.4140141010
 725.28619385  -999.250000 15.465999603 0.0160000008 0.3415800035 2.2179999352 4.4829998016 49.090747833 127.89853668 2.8050048351 52.000000000  -999.250000 2.3910183907
 725.43859863  -999.250000 15.395000458 0.0199999996 0.3517299891 2.2100000381 5.2969999313 55.400943756 127.41831970 2.7890129089 52.000000000  -999.250000 2.3979942799
 725.59100342  -999.250000 15.250000000 0.0260000005 0.3513499796 2.2209999561 4.9889998436 52.627227783 127.76990509 2.7830047607 52.000000000  -999.250000 2.4139871597
 725.74340820  -999.250000 15.239999771 0.0260000005 0.3483200073 2.2279999256 4.9320001602 52.281135559 128.21557617 2.7790017128 52.499797821  -999.250000 2.4040040970
 725.89581299  -999.250000 15.189000130 0.0230000000 0.3508999944 2.2219998837 5.4070000648 51.438339233 126.68800354 2.7849977016 52.000198364  -999.250000 2.3910052776
 726.04821777  -999.250000 15.263000488 0.0179999992 0.3629600108 2.2019999027 6.5659999847 52.280658722 127.87902069 2.8029928207 52.999599457  -999.250000 2.4039947987
 726.20062256  -999.250000 15.266000748 0.0109999999 0.3758700192 2.1800000668 8.0039997101 55.279796600 127.42437744 2.8159947395 52.000400543  -999.250000 2.4020006657
 726.35302734  -999.250000 15.267000198 0.0140000004 0.3729200065 2.1840000153 7.3940000534 54.688236237 126.40197754 2.8279953003 52.000000000  -999.250000 2.4839670658
 726.50543213  -999.250000 15.286998749 0.0149999997 0.3750299811 2.2030000687 5.9079999924 55.937500000 127.55562592 2.8379960060 52.000000000  -999.250000 2.4410171509
 726.65783691  -999.250000 15.139999390 0.0160000008 0.4008300006 2.2260000706 4.2670001984 51.032962799 127.42130280 2.8499951363 52.000000000  -999.250000 2.5099723339
 726.81024170  -999.250000 15.250000000 0.0089999996 0.4305700064 2.2390000820 3.4170000553 50.344276428 128.11148071 2.8539984226 52.499801636  -999.250000 2.5020031929
 726.96264648  -999.250000 15.324999809 0.0080000004 0.4247499704 2.2509999275 3.7000000477 50.593902588 128.22184753 2.8649957180 52.500000000  -999.250000 2.5449829102
 727.11505127  -999.250000 15.210000038 0.0080000004 0.3863199949 2.2509999275 4.2179999352 51.624588013 123.96932220 2.8999860287 52.500000000  -999.250000 2.5330047607
 727.26745605  -999.250000 15.168000221 0.0080000004 0.3430199921 2.2379999161 4.2290000916 54.811721802 124.15428925 2.9139943123 52.500000000  -999.250000 2.5629880428
 727.41979980  -999.250000 15.227999687 0.0070000002 0.3387099802 2.2249999046 3.9230000973 55.218677521 124.70284271 2.9259905815 52.500000000  -999.250000 2.5959734917
 727.57220459  -999.250000 15.192999840 0.0060000001 0.3404700160 2.2200000286 3.9210000038 53.532348633 124.13916779 2.9319951534 52.500000000  -999.250000 2.5700206757
 727.72460938  -999.250000 15.194000244 0.0099999998 0.3494499922 2.2209999561 4.3470001221 51.751426697 128.93383789 2.9240064621 52.500000000  -999.250000 2.5759952068
 727.87701416  -999.250000 15.149999619 0.0140000004 0.3509799838 2.2190001011 4.5260000229 49.438926697 126.21530914 2.8890140057 52.500000000  -999.250000 2.5160241127
 728.02941895  -999.250000 15.206999779 0.0219999999 0.3613600135 2.2200000286 4.6479997635 49.437999725 124.22075653 2.8670089245 52.999801636  -999.250000 2.5160000324
 728.18182373  -999.250000 15.505000114 0.0219999999 0.3626500070 2.2139999866 5.3340001106 50.999374390 124.19584656 2.8540053368 52.000400543  -999.250000 2.4860119820
 728.33422852  -999.250000 15.706000328 0.0199999996 0.3554199934 2.2009999752 5.6890001297 51.905635834 125.10723877 2.8400056362 51.500198364  -999.250000 2.4360201359
 728.48663330  -999.250000 15.494001389 0.0179999992 0.3516299725 2.1979999542 5.1059999466 55.498561859 127.63768005 2.8360016346 51.500000000  -999.250000 2.3440370560
 728.63903809  -999.250000 15.487998962 0.0120000001 0.3657599986 2.1989998817 4.5219998360 54.813274384 123.97887421 2.8399982452 51.500000000  -999.250000 2.3200094700
 728.79144287  -999.250000 15.750000954 0.0140000004 0.3779200017 2.2149999142 4.2350001335 54.843990326 117.61515808 2.8380007744 51.500000000  -999.250000 2.3809757233
 728.94384766  -999.250000 15.625000000 0.0149999997 0.3810699880 2.2379999161 4.0390000343 52.938762665 104.30254364 2.8050131798 51.500000000  -999.250000 2.4159858227
 729.09625244  -999.250000 15.487998962 0.0209999997 0.3701200187 2.2679998875 3.7809998989 49.407413483 102.36727142 2.7810094357 51.999801636  -999.250000 2.4789748192
 729.24865723  -999.250000 15.684000015 0.0250000004 0.3492699862 2.2899999619 3.7339999676 54.466972351 104.05974579 2.7750024796 52.000000000  -999.250000 2.5309791565
 729.40100098  -999.250000 15.661999702 0.0179999992 0.3274999857 2.2679998875 4.2160000801 56.373474121 109.52927399 2.7730016708 52.000000000  -999.250000 2.5759639740
 729.55340576  -999.250000 15.520000458 0.0189999994 0.3124600053 2.2309999466 5.0539999008 53.907974243 125.92054749 2.7909855843 52.499599457  -999.250000 2.4471032619
 729.70581055  -999.250000 15.498999596 0.0299999993 0.3334099948 2.2100000381 6.1149997711 48.785102844 127.90218353 2.8279705048 52.500000000  -999.250000 2.3810529709
 729.85821533  -999.250000 15.517999649 0.0419999994 0.3676399887 2.2170000076 5.7880001068 44.564689636 127.97869110 2.8110070229 52.500000000  -999.250000 2.3790006638
 730.01062012  -999.250000 15.395000458 0.0390000008 0.3975500166 2.2230000496 5.1180000305 48.686347961 125.87725830 2.7910079956 52.500000000  -999.250000 2.4039900303
 730.16302490  -999.250000 15.513999939 0.0299999993 0.4006000161 2.2239999771 4.6279997826 51.779758453 125.38450623 2.7870016098 52.500000000  -999.250000 2.4339880943
 730.31542969  -999.250000 15.736000061 0.0209999997 0.3900299966 2.2219998837 4.4409999847 55.623458862 127.73754120 2.7790031433 52.500000000  -999.250000 2.4260032177
