# LAS format log file from PETREL
# Project units are specified as depth units
#==================================================================
~Version information
VERS.   2.0:
WRAP.   NO:
#==================================================================
~Well
STRT .m      445.17501831 :
STOP .m      1838.8730469 :
STEP .m     0.00000000 :
NULL .        -999.250000 :
COMP.           : COMPANY
WELL.  31/2-10   : WELL
FLD.            : FIELD
LOC.            : LOCATION
SRVC.           : SERVICE COMPANY
DATE.  2018-09-11 14:48:32   : Log Export Date {yyyy-MM-dd HH:mm:ss}
PROV.           : PROVINCE
UWI.   31/2-10   : UNIQUE WELL ID
API.            : API NUMBER
#==================================================================
~Curve
DEPT .m                   : DEPTH
Lithology_geolink ._      : Lithology_geolink
CALI .in                  : CALI
DRHO .g/cm3               : DRHO
NPHI .m3/m3               : NPHI
RHOB .g/cm3               : RHOB
PEF .b/e                  : PEF
GR .gAPI                  : GR
DTC .us/ft                : DTC
RDEP .ohm.m               : RDEP
SP .mV                    : SP
RSHA .ohm.m               : RSHA
RMED .ohm.m               : RMED
~Parameter
#==================================================================
~Ascii
# ...
 1096.2277832  -999.250000 18.437999725 0.0000000000 0.5210800171 1.9680000544 2.5710000992 54.284900665 162.44129944 0.8269855976 54.081226349  -999.250000 0.9209951758
 1096.3802490  -999.250000 18.464000702 0.0030000000 0.4880000055 1.9739999771 2.5750000477 59.159603119 162.57418823 0.8089888096 54.362998962  -999.250000 0.9149863720
 1096.5325928  -999.250000 18.507999420 0.0070000002 0.5048099756 1.9859999418 2.5369999409 63.659629822 162.65281677 0.7949944139 54.363201141  -999.250000 0.8979920149
 1096.6850586  -999.250000 18.516000748 0.0089999996 0.4678099751 1.9930000305 2.6119999886 68.185501099 162.70080566 0.7879839540 54.612197876  -999.250000 0.8879967928
 1096.8374023  -999.250000 18.516000748 0.0080000004 0.4838899970 1.9930000305 2.6830000877 66.625755310 162.57174683 0.7779943943 54.112796783  -999.250000 0.8860064149
 1096.9898682  -999.250000 18.516000748 0.0070000002 0.4289500117 1.9869999886 2.6619999409 67.559997559 162.45281982 0.7710000277 53.862949371  -999.250000 0.8939967752
 1097.1422119  -999.250000 18.516000748 0.0060000001 0.4397799969 1.9830000401 2.6730000973 65.685348511 162.15408325 0.7710016370 53.830627441  -999.250000 0.8920032382
 1097.2946777  -999.250000 18.476999283 0.0099999998 0.4345600009 1.9839999676 2.6949999332 62.376201630 161.19079590 0.7730144262 53.362949371  -999.250000 0.8959920406
 1097.4470215  -999.250000 18.443000793 0.0070000002 0.4277299941 1.9750000238 2.8340001106 63.121669769 159.88783264 0.7820112109 53.330600739  -999.250000 0.8909983635
 1097.5993652  -999.250000 18.437999725 0.0099999998 0.4345000088 1.9769999981 2.7569999695 58.969978333 158.78979492 0.7960104346 52.830802917  -999.250000 0.8889983892
 1097.7518311  -999.250000 18.437999725 0.0070000002 0.4592300057 1.9750000238 2.7850000858 60.189350128 158.42831421 0.8090104461 52.581203461  -999.250000 0.8870056272
 1097.9041748  -999.250000 18.358999252 0.0080000004 0.4654899836 1.9910000563 2.7269999981 61.877201080 158.80479431 0.8220040202 52.830600739  -999.250000 0.8940207958
 1098.0566406  -999.250000 18.343999863 0.0080000004 0.4361099899 2.0039999485 2.6589999199 64.623901367 158.72149658 0.8269951940 52.331802368  -999.250000 0.9200184345
 1098.2089844  -999.250000 18.343999863 0.0099999998 0.4220399857 2.0069999695 2.5799999237 63.246520996 158.06227112 0.8210031986 53.330802917  -999.250000 0.9430176616
 1098.3614502  -999.250000 18.343999863 0.0120000001 0.4318099916 1.9950000048 2.5910000801 58.905723572 157.47509766 0.8250072002 53.081226349  -999.250000 0.9649911523
 1098.5137939  -999.250000 18.409000397 0.0089999996 0.4536100030 1.9730000496 2.6459999084 58.565551758 157.07926941 0.8340095878 53.363201141  -999.250000 0.9539976120
 1098.6662598  -999.250000 18.434999466 0.0030000000 0.4388000071 1.9659999609 2.6710000038 61.749900818 156.90637207 0.8460144401 53.613746643  -999.250000 0.9509759545
 1098.8186035  -999.250000 18.437999725 0.0000000000 0.4350599945 1.9700000286 2.8139998913 61.687824249 155.64971924 0.8549968004 54.081428528  -999.250000 0.9359976053
 1098.9710693  -999.250000 18.437999725 0.0020000001 0.4106400013 2.0290000439 3.6070001125 61.468402863 152.39288330 0.8509792089 54.612548828  -999.250000 0.9330144525
 1099.1234131  -999.250000 18.437999725 -0.001000000 0.4008800089 2.1080000401 3.7109999657 61.090896606 150.69638062 0.8379815817 54.331203461  -999.250000 0.9420464635
 1099.2758789  -999.250000 18.437999725 0.0020000001 0.3970500231 2.1619999409 3.2920000553 57.224758148 151.30679321 0.8149904013 54.581802368  -999.250000 1.0000176430
 1099.4282227  -999.250000 18.437999725 -0.006000000 0.3875299692 2.0950000286 2.8949999809 60.815853119 154.16780090 0.8089935780 55.080226898  -999.250000 1.0109479427
 1099.5805664  -999.250000 18.437999725 -0.003000000 0.4020200074 2.0199999809 2.8559999466 64.377655029 157.02667236 0.8009983897 54.113597870  -999.250000 0.9459327459
 1099.7330322  -999.250000 18.437999725 -0.003000000 0.4008000195 1.9750000238 2.8519999981 67.684898376 159.88168335 0.7989935875 54.861797333  -999.250000 0.8619815707
 1099.8853760  -999.250000 18.437999725 -0.003000000 0.4552399814 1.9700000286 2.7309999466 63.807868958 162.48890686 0.7909864187 53.363597870  -999.250000 0.8390055895
 1100.0378418  -999.250000 18.437999725 -0.001000000 0.4589799941 1.9659999609 2.5950000286 57.404872894 162.64125061 0.7739920020 54.112796783  -999.250000 0.8460104465
 1100.1901855  -999.250000 18.437999725 -0.005000000 0.4611800015 1.9600000381 2.6180000305 55.998973846 162.49205017 0.7640039921 53.862598419  -999.250000 0.8589951992
 1100.3426514  -999.250000 18.451000214 -0.002000000 0.4110400081 1.9600000381 2.5720000267 54.717800140 162.94442749 0.7690144181 53.363399506  -999.250000 0.8529967666
 1100.4949951  -999.250000 18.517999649 -0.003000000 0.4008800089 1.9709999561 2.9100000858 53.221202850 161.98699951 0.7870056033 53.862598419  -999.250000 0.8490104079
 1100.6474609  -999.250000 18.621999741 -0.002000000 0.4228599966 2.0280001163 3.5209999084 55.967750549 158.02513123 0.7939984202 53.363174438  -999.250000 0.8620568514
 1100.7998047  -999.250000 18.770999908 0.0000000000 0.4715999961 2.1110000610 3.7880001068 54.409355164 153.13784790 0.7919960022 53.581001282  -999.250000 0.9330625534
 1100.9522705  -999.250000 18.875000000 0.0060000001 0.4910500050 2.1270000935 3.3810000420 58.584491730 150.75032043 0.7869839668 53.581001282  -999.250000 1.0109952688
 1101.1046143  -999.250000 18.930000305 0.0049999999 0.4667200148 2.0620000362 3.0130000114 52.656375885 151.53793335 0.7770007849 53.581401825  -999.250000 1.0079438686
 1101.2570801  -999.250000 18.819999695 0.0010000000 0.4565399885 1.9889999628 2.8870000839 53.122947693 155.24468994 0.7780128121 54.079399109  -999.250000 0.9378895164
 1101.4094238  -999.250000 18.861999512 -0.003000000 0.4608599842 1.9709999561 2.8829998970 51.847255707 160.64396667 0.7860032320 53.081428528  -999.250000 0.8689832091
 1101.5618896  -999.250000 18.875000000 0.0000000000 0.4631299973 1.9780000448 2.7379999161 55.911705017 163.84509277 0.7899808288 53.613800049  -999.250000 0.8479967713
 1101.7142334  -999.250000 18.836000443 0.0040000002 0.4373099804 1.9809999466 2.7950000763 59.469604492 164.23455811 0.7780023813 54.112773895  -999.250000 0.8460048437
 1101.8665771  -999.250000 18.802000046 0.0080000004 0.4235800207 1.9809999466 2.8599998951 60.220401764 163.87756348 0.7810032368 53.831401825  -999.250000 0.8520119786
 1102.0190430  -999.250000 18.797000885 0.0080000004 0.4454999864 1.9809999466 2.9769999981 61.971130371 163.34179688 0.7850032449 54.330024719  -999.250000 0.8670048118
 1102.1713867  -999.250000 18.797000885 0.0070000002 0.4591500163 1.9869999886 2.9230000973 64.626754761 162.67216492 0.7890135646 53.113597870  -999.250000 0.8730112314
 1102.3238525  -999.250000 18.757999420 0.0049999999 0.4597200155 1.9900000095 2.8429999352 66.811950684 161.93849182 0.8060151935 53.863025665  -999.250000 0.8870056272
 1102.4761963  -999.250000 18.684999466 0.0000000000 0.4838899970 1.9859999418 2.7620000839 65.495674133 160.92643738 0.8250135779 53.894199371  -999.250000 0.8940055966
 1102.6286621  -999.250000 18.620000839 -0.004000000 0.4912099838 1.9830000401 2.7920000553 60.094001770 159.75918579 0.8420176506 54.144401550  -999.250000 0.9010048509
 1102.7810059  -999.250000 18.608999252 -0.008000000 0.4624000192 1.9859999418 3.1900000572 60.095954895 158.16171265 0.8640152216 54.643798828  -999.250000 0.9070072174
 1102.9334717  -999.250000 18.569999695 -0.001000000 0.4121499956 2.0569999218 4.5529999733 62.530048370 155.65673828 0.8829888105 54.394451141  -999.250000 0.9160656333
 1103.0858154  -999.250000 18.483999252 0.0060000001 0.4061700106 2.1470000744 4.2579998970 61.936546326 153.20291138 0.8759887815 54.674571991  -999.250000 0.9570384622
 1103.2382813  -999.250000 18.443000793 0.0179999992 0.4446200132 2.1909999847 3.6480000019 60.128253937 152.21083069 0.8619871736 54.145252228  -999.250000 1.0050208569
 1103.3906250  -999.250000 18.437999725 0.0130000003 0.4460400045 2.1180000305 2.9690001011 62.158077240 153.24658203 0.8539871573 54.925174713  -999.250000 1.0179390907
