# LAS format log file from PETREL
# Project units are specified as depth units
#==================================================================
~Version information
VERS.   2.0:
WRAP.   NO:
#==================================================================
~Well
STRT .m      445.17501831 :
STOP .m      1838.8730469 :
STEP .m     0.00000000 :
NULL .        -999.250000 :
COMP.           : COMPANY
WELL.  31/2-10   : WELL
FLD.            : FIELD
LOC.            : LOCATION
SRVC.           : SERVICE COMPANY
DATE.  2018-09-11 14:48:32   : Log Export Date {yyyy-MM-dd HH:mm:ss}
PROV.           : PROVINCE
UWI.   31/2-10   : UNIQUE WELL ID
API.            : API NUMBER
#==================================================================
~Curve
DEPT .m                   : DEPTH
Lithology_geolink ._      : Lithology_geolink
CALI .in                  : CALI
DRHO .g/cm3               : DRHO
NPHI .m3/m3               : NPHI
RHOB .g/cm3               : RHOB
PEF .b/e                  : PEF
GR .gAPI                  : GR
DTC .us/ft                : DTC
RDEP .ohm.m               : RDEP
SP .mV                    : SP
RSHA .ohm.m               : RSHA
RMED .ohm.m               : RMED
~Parameter
#==================================================================
~Ascii
 445.17501831  -999.250000 23.093999863 0.1299999952 0.5424799919 1.8700000048 2.5859999657 24.032716751 179.75729370 2000.0000000 6.0000000000  -999.250000 0.2919909954
 445.32742310  -999.250000 23.093999863 0.1199999973 0.5239300132 1.8450000286 2.6129999161 24.499248505 179.75729370 2000.0000000 6.4991989136  -999.250000 0.2959935963
 445.47982788  -999.250000 23.093999863 0.1120000035 0.5029299855 1.8229999542 2.5350000858 20.786956787 179.75729370 2000.0000000 8.4967966080  -999.250000 0.3039871752
 445.63223267  -999.250000 23.093999863 0.1000000015 0.5043900013 1.7990000248 2.4630000591 24.993242264 179.75729370 2000.0000000 9.4983978271  -999.250000 0.3099903762
 445.78460693  -999.250000 23.093999863 0.0939999968 0.5307599902 1.7849999666 2.3750000000 24.547817230 179.75729370 2000.0000000 9.9990987778  -999.250000 0.3119964004
 445.93701172  -999.250000 23.093999863 0.0790000036 0.5200200081 1.7569999695 2.3650000095 25.030128479 179.75729370 2000.0000000 9.5009012222  -999.250000 0.3139964044
 446.08941650  -999.250000 23.093999863 0.0740000010 0.5429700017 1.7389999628 2.3440001011 25.873479843 179.75729370 2000.0000000 10.498197556  -999.250000 0.3140000105
 446.24182129  -999.250000 23.093999863 0.0599999987 0.5444300175 1.7139999866 2.3550000191 26.748422623 179.75729370 2000.0000000 11.997296333  -999.250000 0.3110053837
 446.39422607  -999.250000 23.093999863 0.0520000011 0.5864300132 1.6979999542 2.3199999332 24.862030029 179.75729370 2000.0000000 12.998397827  -999.250000 0.3040111959
 446.54663086  -999.250000 23.093999863 0.0450000018 0.5742200017 1.6779999733 2.3750000000 22.550704956 179.75729370 2000.0000000 14.497596741  -999.250000 0.2960128188
 446.69903564  -999.250000 23.093999863 0.0439999998 0.5541999936 1.6660000086 2.3589999676 22.453149796 179.75729370 2000.0000000 15.997596741  -999.250000 0.2880128026
 446.85140991  -999.250000 23.093999863 0.0540000014 0.5483400226 1.6629999876 2.3889999390 24.683971405 179.75729370 2000.0000000 15.001802444  -999.250000 0.2840072215
 447.00381470  -999.250000 23.093999863 0.0549999997 0.5800799727 1.6599999666 2.3239998817 23.283535004 179.75729370 2000.0000000 15.499098778  -999.250000 0.2820036113
 447.15621948  -999.250000 23.093999863 0.0480000004 0.5957000256 1.6510000229 2.3139998913 19.709447861 179.75729370 2000.0000000 15.000901222  -999.250000 0.2869910002
 447.30862427  -999.250000 23.093999863 0.0370000005 0.5752000213 1.6419999599 2.2829999924 18.845548630 179.75729370 2000.0000000 15.000000000  -999.250000 0.2899945974
 447.46102905  -999.250000 23.093999863 0.0270000007 0.5219699740 1.6269999743 2.2950000763 21.168270111 179.75729370 2000.0000000 14.500801086  -999.250000 0.2959903777
 447.61343384  -999.250000 23.093999863 0.0160000008 0.5234400034 1.6119999886 2.3069999218 22.076547623 179.75729370 2000.0000000 14.999198914  -999.250000 0.2940032184
 447.76583862  -999.250000 23.093999863 0.0120000001 0.5278300047 1.6019999981 2.3029999733 19.769704819 179.75729370 2000.0000000 14.500801086  -999.250000 0.2979936004
 447.91821289  -999.250000 23.093999863 0.0120000001 0.5512700081 1.5970000029 2.3629999161 21.637620926 179.75729370 2000.0000000 14.000901222  -999.250000 0.2960036099
 448.07061768  -999.250000 23.093999863 0.0130000003 0.5766599774 1.5930000544 2.3980000019 22.997550964 179.75729370 2000.0000000 13.500901222  -999.250000 0.2890126109
 448.22302246  -999.250000 23.093999863 0.0260000005 0.6010699868 1.6009999514 2.4609999657 25.791959763 179.75729370 2000.0000000 13.500000000  -999.250000 0.2770216465
 448.37542725  -999.250000 23.093999863 0.0240000002 0.6206099987 1.5939999819 2.4360001087 19.743713379 179.75729370 2000.0000000 12.501602173  -999.250000 0.2710096240
 448.52783203  -999.250000 23.093999863 0.0250000004 0.6308599710 1.5859999657 2.4360001087 19.688074112 179.75729370 358.63357544 12.500000000  -999.250000 0.2729967833
 448.68023682  -999.250000 23.093999863 0.0160000008 0.6108400226 1.5679999590 2.4549999237 21.902446747 179.75729370 67.213356018 12.500000000  -999.250000 0.2720016241
 448.83264160  -999.250000 23.093999863 0.0160000008 0.5791000128 1.5590000153 2.4530000687 25.588092804 179.75729370 44.785243988 11.002403259  -999.250000 0.2710016072
 448.98501587  -999.250000 23.093999863 0.0240000002 0.5366199613 1.5629999638 2.4200000763 27.901834488 179.75729370 34.737079620 10.001802444  -999.250000 0.2690035999
 449.13742065  -999.250000 23.093999863 0.0230000000 0.5429700017 1.5579999685 2.3420000076 26.690195084 179.75729370 28.230714798 9.5009012222  -999.250000 0.2699982226
 449.28982544  -999.250000 23.093999863 0.0250000004 0.5517599583 1.5599999428 2.3239998817 27.592367172 179.75729370 28.593324661 10.997296333  -999.250000 0.2680036128
 449.44223022  -999.250000 23.093999863 0.0240000002 0.5375999808 1.5609999895 2.3380000591 24.895332336 179.75729370 66.751770020 12.497596741  -999.250000 0.2699967921
 449.59463501  -999.250000 23.093999863 0.0240000002 0.5000000000 1.5659999847 2.3650000095 26.216873169 179.75729370 406.20544434 13.498397827  -999.250000 0.2590176165
 449.74703979  -999.250000 23.093999863 0.0250000004 0.4975599945 1.5690000057 2.3810000420 23.987579346 179.75729370 558.25689697 15.496796608  -999.250000 0.2500144243
 449.89941406  -999.250000 23.093999863 0.0140000004 0.5224599838 1.5609999895 2.3220000267 25.372493744 179.75729370 596.93060303 15.999098778  -999.250000 0.2470054030
 450.05181885  -999.250000 23.093999863 0.0140000004 0.5546900034 1.5629999638 2.3069999218 23.971252441 179.75729370 1997.7520752 17.996795654  -999.250000 0.2499951869
 450.20422363  -999.250000 23.093999863 0.0120000001 0.5703099966 1.5659999847 2.2990000248 25.372747421 179.75729370 396.32308960 19.497596741  -999.250000 0.2569887936
 450.35662842  -999.250000 23.093999863 0.0120000001 0.5332000256 1.5650000572 2.3519999981 24.875701904 179.75729370 134.36416626 20.498598099  -999.250000 0.2520070076
 450.50903320  -999.250000 23.093999863 0.0120000001 0.5361300111 1.5629999638 2.3829998970 25.764751434 179.75729370 136.62132263 22.996496201  -999.250000 0.2490042001
 450.66143799  -999.250000 23.093999863 0.0140000004 0.5317400098 1.5640000105 2.3889999390 26.265300751 179.75729370 292.78082275 23.499300003  -999.250000 0.2499985993
 450.81384277  -999.250000 23.093999863 0.0240000002 0.5131800175 1.5809999704 2.4340000153 25.859569550 179.75729370 1997.6072998 24.498598099  -999.250000 0.2480027974
 450.96621704  -999.250000 23.093999863 0.0199999996 0.5136700273 1.5750000477 2.4260001183 22.708055496 179.75729370 2000.0000000 24.000801086  -999.250000 0.2390144169
 451.11862183  -999.250000 23.093999863 0.0149999997 0.4951200187 1.5629999638 2.4509999752 20.846977234 179.75729370 2000.0000000 22.003204346  -999.250000 0.2290160209
 451.27102661  -999.250000 23.093999863 0.0140000004 0.5141599774 1.5570000410 2.4219999313 23.105823517 179.75729370 2000.0000000 19.503505707  -999.250000 0.2220098227
 451.42343140  -999.250000 23.093999863 0.0199999996 0.5483400226 1.5659999847 2.4389998913 27.244195938 179.75729370 2000.0000000 16.004905701  -999.250000 0.2190041989
 451.57583618  -999.250000 23.093999863 0.0359999985 0.5444300175 1.5939999819 2.4119999409 28.170707703 179.75729370 301.63391113 12.504905701  -999.250000 0.2150056064
 451.72824097  -999.250000 23.093999863 0.0359999985 0.5996099710 1.5970000029 2.3910000324 27.298227310 179.75729370 106.52052307 8.0063076019  -999.250000 0.2060126215
 451.88064575  -999.250000 23.093999863 0.0390000008 0.5395500064 1.6039999723 2.4000000954 23.130847931 179.75729370 66.993103027 4.5049057007  -999.250000 0.1980112195
 452.03302002  -999.250000 23.093999863 0.0370000005 0.5727500319 1.6130000353 2.4389998913 23.577274323 179.75729370 55.892723083 4.5000000000  -999.250000 0.1950048059
 452.18542480  -999.250000 23.093999863 0.0390000008 0.5292999744 1.6339999437 2.4470000267 22.595575333 179.75729370 175.18356323 4.0008010864  -999.250000 0.1999919862
 452.33782959  -999.250000 23.093999863 0.0469999984 0.5317400098 1.6499999762 2.4240000248 25.340145111 179.75729370 1997.4418945 3.5007009506  -999.250000 0.2039943933
