# LAS format log file from PETREL
# Project units are specified as depth units
#==================================================================
~Version information
VERS.   2.0:
WRAP.   NO:
#==================================================================
~Well
STRT .m      447.54394531 :
STOP .m      3384.4443359 :
STEP .m     0.00000000 :
NULL .        -999.250000 :
COMP.           : COMPANY
WELL.  31/2-8   : WELL
FLD.            : FIELD
LOC.            : LOCATION
SRVC.           : SERVICE COMPANY
DATE.  2018-09-11 14:48:34   : Log Export Date {yyyy-MM-dd HH:mm:ss}
PROV.           : PROVINCE
UWI.   31/2-8   : UNIQUE WELL ID
API.            : API NUMBER
#==================================================================
~Curve
DEPT .m                   : DEPTH
Lithology_geolink ._      : Lithology_geolink
CALI .in                  : CALI
DRHO .g/cm3               : DRHO
SGR .gAPI                 : SGR
NPHI .m3/m3               : NPHI
RHOB .g/cm3               : RHOB
PEF .b/e                  : PEF
GR .gAPI                  : GR
DTC .us/ft                : DTC
RDEP .ohm.m               : RDEP
SP .mV                    : SP
RSHA .ohm.m               : RSHA
RMED .ohm.m               : RMED
~Parameter
#==================================================================
~Ascii
# ...
 2398.8735352 6.0000000000 12.522998810 0.0080000004 83.747299194 0.3481700122 2.4479999542 3.3262035847 72.641006470 89.053947449 4.8460354805 76.176910400 5.8129682541 5.8129682541
 2399.0258789 6.0000000000 12.536999702 0.0000000000 84.873199463 0.3432400227 2.4419999123 3.2680928707 69.692718506 89.381958008 4.8130531311 75.687774658 5.8100047112 5.8100047112
 2399.1782227 6.0000000000 12.543999672 0.0010000000 86.494796753 0.3461500108 2.4549999237 3.2151694298 67.996429443 89.840583801 4.7820992470 75.327148438 5.8070096970 5.8070096970
 2399.3308105 6.0000000000 12.541999817 0.0080000004 84.690910339 0.3452000022 2.4649999142 3.3198316097 73.513137817 90.106674194 4.7580385208 73.491943359 5.7640690804 5.7640690804
 2399.4831543 6.0000000000 12.552000046 0.0060000001 82.938003540 0.3459900022 2.4590001106 3.4709999561 74.549354553 90.077453613 4.7639904022 75.207244873 5.7340483665 5.7340483665
 2399.6354980 6.0000000000 12.574999809 0.0080000004 82.001502991 0.3361299932 2.4570000172 3.5039472580 80.262832642 89.864898682 4.7590079308 77.470367432 5.7330012321 5.7330012321
 2399.7878418 6.0000000000 12.586999893 0.0179999992 83.560501099 0.3292199969 2.4739999771 3.4490880966 79.283172607 89.638259888 4.7649807930 78.000312805 5.7250256538 5.7250256538
 2399.9404297 6.0000000000 12.579999924 0.0370000005 85.313003540 0.3277699947 2.4990000725 3.3670001030 80.031791687 89.558509827 4.7620048523 77.890182495 5.7339859009 5.7339859009
 2400.0927734 6.0000000000 12.571999550 0.0419999994 84.000000000 0.3265800178 2.5039999485 3.4389998913 74.709541321 89.609947205 4.7330460548 77.650382996 5.7469792366 5.7469792366
 2400.2451172 6.0000000000 12.571999550 0.0340000018 82.876800537 0.3367300034 2.4890000820 3.4669551849 70.862167358 89.757278442 4.7280082703 78.907981873 5.7649712563 5.7649712563
 2400.3974609 6.0000000000 12.619000435 0.0209999997 82.001403809 0.3562900126 2.4700000286 3.4769840240 71.891334534 89.602981567 4.7669377327 77.470314026 5.7490258217 5.7490258217
 2400.5498047 6.0000000000 12.753000259 0.0179999992 81.813301086 0.3707400262 2.4639999866 3.3851473331 73.511802673 89.273323059 4.7889294624 78.509658813 5.7250766754 5.7250766754
 2400.7023926 6.0000000000 12.819001198 0.0280000009 78.500000000 0.3649000227 2.4830000401 3.3540000916 73.748626709 89.153388977 4.8379211426 74.631233215 5.7259984016 5.7259984016
 2400.8547363 5.0000000000 12.838999748 0.0390000008 75.193305969 0.3567499816 2.5060000420 3.3400223255 69.253219604 89.363800049 4.8719458580 73.322090149 5.7579483986 5.7579483986
 2401.0070801 5.0000000000 12.843999863 0.0359999985 75.000297546 0.3539300263 2.4969999790 3.5955896378 62.390007019 89.879615784 4.8769917488 76.417022705 5.7589983940 5.7589983940
 2401.1594238 5.0000000000 12.843999863 0.0219999999 77.620796204 0.3616000116 2.4660000801 3.6269505024 62.474689484 90.144493103 4.8650383949 76.739974976 5.7709612846 5.7709612846
 2401.3120117 5.0000000000 12.843999863 0.0049999999 77.625000000 0.3679099977 2.4400000572 3.5899999142 64.191246033 90.078536987 4.8380432129 76.282730103 5.7979564667 5.7979564667
 2401.4643555 5.0000000000 12.847000122 -0.002000000 75.125000000 0.3586100042 2.4370000362 3.4609999657 71.097915649 89.973121643 4.8280162811 76.639427185 5.8319454193 5.8319454193
 2401.6166992 5.0000000000 12.862999916 0.0000000000 72.567100525 0.3720700145 2.4419999123 3.4550094604 69.620384216 89.932205200 4.8250045776 76.823699951 5.8240127563 5.8240127563
 2401.7690430 6.0000000000 12.880998611 0.0060000001 73.311798096 0.3873400092 2.4479999542 3.4510064125 67.824760437 89.985313416 4.8299837112 77.137992859 5.7801408768 5.7801408768
 2401.9216309 6.0000000000 12.884000778 0.0140000004 73.188003540 0.4106299877 2.4549999237 3.3069999218 64.615142822 90.024368286 4.8559584618 77.150978088 5.7540416718 5.7540416718
 2402.0739746 6.0000000000 12.916000366 0.0070000002 76.250000000 0.4128400087 2.4519999027 3.2620000839 66.241386414 89.971824646 4.8839550018 77.031188965 5.7639837265 5.7639837265
 2402.2263184 6.0000000000 12.977000237 0.0000000000 78.621200562 0.4124000072 2.4430000782 3.3668320179 71.626365662 89.718238831 4.8879938126 77.656990051 5.7949504852 5.7949504852
 2402.3786621 6.0000000000 13.026999474 -0.005000000 80.684700012 0.4109799862 2.4349999428 3.4608492851 73.086669922 89.452560425 4.9019775391 77.282600403 5.8079791069 5.8079791069
 2402.5310059 6.0000000000 13.067000389 -0.003000000 78.628303528 0.4150799811 2.4330000877 3.5268940926 72.108154297 89.531166077 4.9129648209 77.544158936 5.8089966774 5.8089966774
 2402.6835938 6.0000000000 13.078001022 0.0010000000 75.938003540 0.4089199901 2.4330000877 3.4549999237 66.492012024 89.701347351 4.9219856262 76.942970276 5.7760529518 5.7760529518
 2402.8359375 5.0000000000 13.078001022 0.0000000000 75.314002991 0.4054099917 2.4300000668 3.5119087696 64.782730103 89.635971069 4.9589409828 77.365318298 5.7320704460 5.7320704460
 2402.9882813 5.0000000000 13.078001022 0.0010000000 74.501304626 0.3926199973 2.4370000362 3.4101636410 63.423179626 89.504951477 4.9829611778 77.424911499 5.6990528107 5.6990528107
 2403.1406250 5.0000000000 13.061000824 0.0040000002 75.935699463 0.3905099928 2.4549999237 3.4549279213 66.406417847 89.286125183 4.9979519844 77.483810425 5.6989998817 5.6989998817
 2403.2932129 5.0000000000 13.003001213 0.0120000001 73.813003540 0.3958100080 2.4700000286 3.4570000172 63.775238037 89.028076172 5.0239586830 77.414115906 5.7319469452 5.7319469452
 2403.4455566 5.0000000000 12.959000587 0.0040000002 74.375000000 0.4006200135 2.4639999866 3.6129999161 62.807544708 88.934326172 5.0520000458 72.866302490 5.7459998131 5.7459998131
 2403.5979004 5.0000000000 12.916999817 -0.005000000 75.935501099 0.4039599895 2.4530000687 3.6559309959 61.888473511 88.931228638 5.0569920540 75.340019226 5.7569823265 5.7569823265
 2403.7502441 5.0000000000 12.850999832 -0.004000000 77.871894836 0.3921400011 2.4519999027 3.6130688190 65.682815552 89.163040161 5.0440211296 76.041755676 5.7579984665 5.7579984665
 2403.9028320 5.0000000000 12.775000572 0.0070000002 78.875000000 0.3798400164 2.4649999142 3.5629999638 66.891075134 89.512664795 5.0000000000 77.302978516 5.7569999695 5.7569999695
 2404.0551758 5.0000000000 12.777000427 0.0149999997 77.813003540 0.3790599704 2.4739999771 3.4379999638 66.918960571 89.700340271 4.9549999237 77.319976807 5.7480001450 5.7480001450
 2404.2075195 5.0000000000 12.867000580 0.0160000008 79.185806274 0.3869200051 2.4820001125 3.3910751343 68.237884521 89.850028992 4.9300398827 74.522491455 5.7190461159 5.7190461159
 2404.3598633 5.0000000000 12.897998810 0.0160000008 80.685600281 0.4037099779 2.4839999676 3.3790192604 73.871955872 89.769592285 4.9100317955 73.942924500 5.6960368156 5.6960368156
 2404.5122070 5.0000000000 12.909000397 0.0250000004 82.185600281 0.4084799886 2.4860000610 3.3460528851 79.101234436 89.598411560 4.8870368004 71.371253967 5.6860160828 5.6860160828
 2404.6647949 6.0000000000 12.942000389 0.0320000015 80.500000000 0.4001300037 2.4860000610 3.3889999390 76.491218567 89.611785889 4.8699998856 74.079635620 5.7010002136 5.7010002136
 2404.8171387 6.0000000000 12.953000069 0.0240000002 78.815704346 0.3895899951 2.4769999981 3.2661967278 74.086853027 89.542160034 4.8430433273 75.602569580 5.7309517860 5.7309517860
 2404.9694824 6.0000000000 12.956000328 0.0160000008 77.065811157 0.3789799809 2.4679999352 3.2300577164 70.136329651 89.341224670 4.8080563545 76.464622498 5.7309999466 5.7309999466
 2405.1218262 6.0000000000 12.966000557 0.0070000002 77.873695374 0.3731700182 2.4519999027 3.2270047665 72.261154175 89.015785217 4.7670660019 78.217376709 5.7030448914 5.7030448914
 2405.2744141 6.0000000000 12.972000122 0.0080000004 78.438003540 0.3668099940 2.4509999752 3.2149999142 74.156974792 88.841651917 4.7389998436 76.446853638 5.7010002136 5.7010002136
 2405.4267578 6.0000000000 12.980999947 0.0089999996 78.375000000 0.3570199907 2.4630000591 3.3929998875 74.896820068 88.732215881 4.7179999352 75.354743958 5.7170000076 5.7170000076
