# LAS format log file from PETREL
# Project units are specified as depth units
#==================================================================
~Version information
VERS.   2.0:
WRAP.   NO:
#==================================================================
~Well
STRT .m      1309.8798828 :
STOP .m      4086.9138184 :
STEP .m     0.00000000 :
NULL .        -999.250000 :
COMP.           : COMPANY
WELL.  31/2-19 S   : WELL
FLD.            : FIELD
LOC.            : LOCATION
SRVC.           : SERVICE COMPANY
DATE.  2018-09-11 14:48:33   : Log Export Date {yyyy-MM-dd HH:mm:ss}
PROV.           : PROVINCE
UWI.   31/2-19 S   : UNIQUE WELL ID
API.            : API NUMBER
#==================================================================
~Curve
DEPT .m                   : DEPTH
Lithology_geolink ._      : Lithology_geolink
CALI .in                  : CALI
BS .in                    : BS
DRHO .g/cm3               : DRHO
NPHI .m3/m3               : NPHI
RHOB .g/cm3               : RHOB
GR .gAPI                  : GR
DTC .us/ft                : DTC
DTS .us/ft                : DTS
RDEP .ohm.m               : RDEP
SP .mV                    : SP
RSHA .ohm.m               : RSHA
RMIC .ohm.m               : RMIC
RMED .ohm.m               : RMED
~Parameter
#==================================================================
~Ascii
# ...
 2040.9429932 11.000000000 12.461001396 12.250000954 -0.024168000 0.2280299962 2.4779999256 27.448547363 86.133628845 111.49381256 3.4560000896 164.18800354 3.0959999561 2.1548733711 3.0961697102
 2041.0953369 11.000000000 12.451999664 12.250000954 -0.023342000 0.2291900069 2.4609999657 24.321653366 83.192359924 117.52738953 3.5999999046 164.31300354 3.2019999027 1.6868894100 3.2018997669
 2041.2478027 11.000000000 12.470999718 12.250000954 -0.026860001 0.2112420052 2.4300000668 22.517759323 79.313102722 119.50984192 3.4419999123 164.50000000 3.0769999027 1.6176229715 3.0768125057
 2041.4001465 11.000000000 12.501000404 12.250000954 -0.026671000 0.2168650031 2.4019999504 15.635638237 79.629737854 118.44271851 3.2899999619 163.93800354 2.9600000381 1.4606666565 2.9599976540
 2041.5524902 11.000000000 12.526000977 12.250000954 -0.023355000 0.2113199979 2.3980000019 26.209356308 79.272575378 113.31135559 3.2839999199 164.06300354 2.9570000172 1.2528126240 2.9569959641
 2041.7049561 11.000000000 12.538000107 12.250000954 -0.021751998 0.2089149952 2.4049999714 28.119495392 82.801170349 133.27992249 3.2780001163 164.62500000 2.9519999027 1.1353830099 2.9519975185
 2041.8572998 11.000000000 12.555999756 12.250000954 -0.020578999 0.2008810043 2.4110000134 24.502580643 84.670005798 130.60949707 3.2720000744 165.25000000 2.9489998817 0.7509967685 2.9490103722
 2042.0097656 11.000000000 12.564000130 12.250000954 -0.014089000 0.2089260072 2.4159998894 22.769905090 86.516517639 119.40697479 3.2809998989 163.56300354 2.9619998932 0.7489111423 2.9620151520
 2042.1621094 11.000000000 12.559000015 12.250000954 -0.016231000 0.2307399958 2.4070000648 27.636396408 85.569519043 119.74913025 3.2839999199 163.87500000 2.9809999466 0.7119759917 2.9809992313
 2042.3145752 11.000000000 12.503999710 12.250000954 -0.015329000 0.2423429936 2.4070000648 27.016569138 85.896736145 118.19450378 3.3050000668 163.87500000 2.9800000191 0.6969783902 2.9797549248
 2042.4669189 11.000000000 12.492000580 12.250000954 -0.011900000 0.2521930039 2.4110000134 25.904462814 77.901412964 121.17282104 2.8570001125 163.81300354 2.6740000248 0.6880128384 2.6739342213
 2042.6193848 11.000000000 12.489999771 12.250000954 -0.008995000 0.2552829981 2.4079999924 27.697774887 77.658187866 120.19657898 2.7460000515 163.37500000 2.5920000076 0.6960936785 2.5920081139
 2042.7717285 11.000000000 12.472999573 12.250000954 -0.012782000 0.2604959905 2.3919999599 32.056495667 78.885017395 119.75805664 2.7439999580 162.43800354 2.5969998837 0.7351843119 2.5970158577
 2042.9241943 11.000000000 12.461999893 12.250000954 -0.013904000 0.2429540008 2.3829998970 32.236347198 82.022491455 118.36324310 2.7639999390 162.37500000 2.6170001030 0.8504779935 2.6169407368
 2043.0765381 11.000000000 12.470000267 12.250000954 -0.012734000 0.2195010036 2.4049999714 36.313602448 80.383323669 113.19942474 2.7049999237 162.31300354 2.5799999237 1.0490336418 2.5798437595
 2043.2290039 13.000000000 12.510000229 12.250000954 -0.011670000 0.2076299936 2.4300000668 43.268688202 80.225120544 105.55425262 2.4790000916 161.56300354 2.3849999905 1.0694500208 2.3846893311
 2043.3813477 13.000000000 12.526000977 12.250000954 -0.012665000 0.2033050060 2.4230000973 59.650245667 83.596298218 131.60217285 2.2539999485 161.50000000 2.1909999847 0.8405753374 2.1908781528
 2043.5336914 13.000000000 12.560999870 12.250000954 -0.008119000 0.2002920061 2.3940000534 57.952095032 78.569061279 131.92332458 2.0899999142 157.93800354 2.0390000343 0.5765844584 2.0388591290
 2043.6861572 13.000000000 12.555999756 12.250000954 -0.000479000 0.2328570038 2.3699998856 61.862255096 78.821792603 133.91081238 1.8919999599 157.81300354 1.8630000353 0.9405015707 1.8628718853
 2043.8385010 13.000000000 12.557999611 12.250000954 0.0057839998 0.2906669974 2.3680000305 59.383037567 79.286254883 120.72874451 1.7220000029 158.06300354 1.7029999495 0.6300064325 1.7028125525
 2043.9909668 13.000000000 12.559999466 12.250000954 0.0088979993 0.3441919982 2.3710000515 71.590888977 96.412269592 131.06434631 1.4830000401 156.50000000 1.4689999819 0.6352609992 1.4691089392
 2044.1433105 13.000000000 12.559999466 12.250000954 0.0075659999 0.3637869954 2.3840000629 80.481430054 97.070960999 213.92852783 1.6210000515 153.12500000 1.6050000191 1.1591587067 1.6050320864
 2044.2957764 13.000000000 12.559000015 12.250000954 0.0034040001 0.3390310109 2.4279999733 63.466529846 98.193099976 211.68991089 1.6670000553 152.68800354 1.6449999809 1.2587206364 1.6451666355
 2044.4481201 13.000000000 12.541999817 12.250000954 -0.002513000 0.3146899939 2.4730000496 58.772605896 97.827301025 210.99665833 1.8869999647 152.12500000 1.8530000448 1.5585336685 1.8530489206
 2044.6005859 13.000000000 12.541000366 12.250000954 -0.006592000 0.2891159952 2.5060000420 58.718143463 94.300819397 189.24891663 1.9600000381 150.93800354 1.9140000343 1.8928015232 1.9141089916
 2044.7529297 13.000000000 12.541999817 12.250000954 -0.013094000 0.2740629911 2.4900000095 56.932182312 93.954277039 185.92291260 2.1140000820 149.56300354 2.0499999523 2.6410706043 2.0502467155
 2044.9053955 13.000000000 12.538999557 12.250000954 -0.015900001 0.2603740096 2.4939999580 58.239715576 84.463607788 182.42359924 2.4489998817 148.75000000 2.3580000401 2.6848630905 2.3583090305
 2045.0577393 13.000000000 12.545000076 12.250000954 -0.016898001 0.2321400046 2.4949998856 59.482025146 83.596687317 182.54071045 2.6480000019 149.31300354 2.5510001183 2.6281330585 2.5511186123
 2045.2102051 13.000000000 12.536001205 12.250000954 -0.013926000 0.2178470045 2.5120000839 57.741611481 83.075416565 182.42019653 2.8150000572 148.68800354 2.6989998817 2.7125661373 2.6990816593
 2045.3625488 13.000000000 12.538999557 12.250000954 -0.011787000 0.2113759965 2.5179998875 48.430404663 82.609375000 171.64331055 2.8440001011 149.12500000 2.7500000000 3.3636088371 2.7499895096
 2045.5150146 13.000000000 12.534999847 12.250000954 -0.008793000 0.2252479941 2.5260000229 47.182891846 79.979103088 177.35581970 2.8210000992 148.75000000 2.7369999886 3.7385923862 2.7371551991
 2045.6673584 13.000000000 12.539999008 12.250000954 -0.006289000 0.2517600060 2.5280001163 69.258255005 81.242988586 184.66227722 2.9890000820 148.87500000 2.8340001106 1.9057563543 2.8333895206
 2045.8197021 13.000000000 12.541999817 12.250000954 -0.006133000 0.2788189948 2.5179998875 74.412620544 80.795715332 208.83981323 2.1410000324 148.68800354 2.0720000267 0.5090849400 2.0719959736
 2045.9721680 13.000000000 12.552000046 12.250000954 -0.008333000 0.3053750098 2.4869999886 96.335968018 87.545578003 216.71743774 2.1480000019 148.12500000 2.0669999123 1.1843129396 2.0670046806
 2046.1245117 13.000000000 12.597000122 12.250000954 -0.010218000 0.3290050030 2.4739999771 100.84919739 87.084747314 226.79476929 2.1610000134 149.06300354 2.0729999542 0.8993557692 2.0727150440
 2046.2769775 13.000000000 12.612999916 12.250000954 -0.013539000 0.3566580117 2.4670000076 96.187805176 91.795234680 225.54100037 1.7640000582 148.68800354 1.7170000076 1.1207695007 1.7170224190
 2046.4293213 13.000000000 12.607000351 12.250000954 -0.011288000 0.3120490015 2.4849998951 98.904991150 103.32151794 257.74435425 1.7819999456 147.75000000 1.7450000048 1.0274053812 1.7449887991
 2046.5817871 13.000000000 12.616999626 12.250000954 -0.009081000 0.2521420121 2.4790000916 96.382186890 99.412147522 262.12451172 1.7630000114 148.50000000 1.7309999466 2.5273594856 1.7309814692
 2046.7341309 13.000000000 12.607000351 12.250000954 -0.004966000 0.1905190051 2.4679999352 94.307312012 99.585853577 262.97933960 1.7309999466 147.81300354 1.7079999447 3.0887196064 1.7081786394
 2046.8865967 13.000000000 12.614000320 12.250000954 0.0013560000 0.1875880063 2.4530000687 93.233276367 102.64054871 237.41349792 1.9789999723 148.75000000 1.9309999943 1.0440968275 1.9314612150
 2047.0389404 13.000000000 12.609999657 12.250000954 0.0053800000 0.1923989952 2.4330000877 74.337989807 91.939582825 201.08811951 2.2850000858 147.81300354 2.2190001011 0.6695256829 2.2191026211
