# LAS format log file from PETREL
# Project units are specified as depth units
#==================================================================
~Version information
VERS.   2.0:
WRAP.   NO:
#==================================================================
~Well
STRT .m      445.17501831 :
STOP .m      1838.8730469 :
STEP .m     0.00000000 :
NULL .        -999.250000 :
COMP.           : COMPANY
WELL.  31/2-10   : WELL
FLD.            : FIELD
LOC.            : LOCATION
SRVC.           : SERVICE COMPANY
DATE.  2018-09-11 14:48:32   : Log Export Date {yyyy-MM-dd HH:mm:ss}
PROV.           : PROVINCE
UWI.   31/2-10   : UNIQUE WELL ID
API.            : API NUMBER
#==================================================================
~Curve
DEPT .m                   : DEPTH
Lithology_geolink ._      : Lithology_geolink
CALI .in                  : CALI
DRHO .g/cm3               : DRHO
NPHI .m3/m3               : NPHI
RHOB .g/cm3               : RHOB
PEF .b/e                  : PEF
GR .gAPI                  : GR
DTC .us/ft                : DTC
RDEP .ohm.m               : RDEP
SP .mV                    : SP
RSHA .ohm.m               : RSHA
RMED .ohm.m               : RMED
~Parameter
#==================================================================
~Ascii
# ...
 1184.0102539  -999.250000 18.093999863 0.0140000004 0.4505199790 1.9850000143 3.5160000324 77.060897827 156.45294189 0.7680048347 63.691780090  -999.250000 0.8470480442
 1184.1625977  -999.250000 18.004999161 0.0070000002 0.4248899817 1.9830000401 3.4470000267 75.751251221 155.76086426 0.7710072398 64.175193787  -999.250000 0.8769951463
 1184.3150635  -999.250000 17.944999695 0.0049999999 0.4313200116 1.9780000448 3.6329998970 77.308197021 156.06907654 0.7799983621 64.408622742  -999.250000 0.8709711432
 1184.4674072  -999.250000 17.923999786 0.0040000002 0.4112099707 1.9680000544 3.6640000343 74.304397583 156.77476501 0.7790144086 64.174224854  -999.250000 0.8530160189
 1184.6198730  -999.250000 18.038999557 0.0099999998 0.4051100016 1.9650000334 4.2109999657 68.938903809 157.75018311 0.7880272269 63.691379547  -999.250000 0.8629550934
 1184.7722168  -999.250000 18.193000793 0.0179999992 0.4344900250 1.9789999723 3.9260001183 69.503700256 157.80938721 0.8050256371 63.924198151  -999.250000 0.8350303769
 1184.9246826  -999.250000 17.971000671 0.0170000009 0.4611800015 1.9880000353 3.7530000210 71.820213318 156.81040955 0.8210127950 63.424968719  -999.250000 0.8539919853
 1185.0770264  -999.250000 18.038999557 0.0170000009 0.4844599962 1.9980000257 3.3550000191 76.306495667 156.31085205 0.8290144205 63.407825470  -999.250000 0.8490543962
 1185.2294922  -999.250000 17.892999649 0.0109999999 0.4772900045 1.9960000515 3.3399999142 72.246292114 156.51063538 0.8380095959 62.675373077  -999.250000 0.8829984069
 1185.3818359  -999.250000 17.846000671 0.0070000002 0.4649200141 1.9939999580 3.2379999161 69.935096741 156.15859985 0.8440144062 62.909378052  -999.250000 0.8820128441
 1185.5343018  -999.250000 17.870000839 0.0030000000 0.4539400041 1.9930000305 3.1630001068 68.128807068 157.09802246 0.8530176282 63.143218994  -999.250000 0.8899919987
 1185.6866455  -999.250000 17.913999557 -0.003000000 0.4598899782 1.9900000095 3.1830000877 70.501098633 156.76708984 0.8639984131 62.659755707  -999.250000 0.8849807978
 1185.8389893  -999.250000 17.922000885 -0.004000000 0.4919500053 1.9830000401 3.4839999676 71.190010071 156.31881714 0.8629975915 63.128013611  -999.250000 0.8729888201
 1185.9914551  -999.250000 18.000000000 0.0000000000 0.4984500110 1.9689999819 4.0900001526 73.688804626 156.88574219 0.8600160480 63.144371033  -999.250000 0.8589823842
 1186.1437988  -999.250000 17.819999695 0.0130000003 0.4708599746 1.9720000029 4.1279997826 74.189758301 156.60153198 0.8700023890 63.378410339  -999.250000 0.8479967713
 1186.2962646  -999.250000 17.924999237 0.0149999997 0.4938399792 1.9759999514 3.8039999008 76.372497559 156.73168945 0.8730096221 63.893978119  -999.250000 0.8440032005
 1186.4486084  -999.250000 17.809999466 0.0140000004 0.4946300089 1.9859999418 3.2699999809 74.810348511 156.89648438 0.8789960146 63.878211975  -999.250000 0.8460104465
 1186.6010742  -999.250000 17.833000183 0.0049999999 0.5001699924 1.9769999981 3.4849998951 71.497299194 156.27485657 0.8739920259 64.143669128  -999.250000 0.8590256572
 1186.7534180  -999.250000 17.986999512 0.0030000000 0.4615800083 1.9769999981 3.6040000916 69.809799194 156.15731812 0.8690192103 63.941051483  -999.250000 0.8750128150
 1186.9058838  -999.250000 17.976999283 -0.002000000 0.4641999900 1.9689999819 3.8580000401 67.820213318 156.44172668 0.8810192347 63.971977234  -999.250000 0.8829935789
 1187.0582275  -999.250000 17.825000763 -0.002000000 0.4663099945 1.9769999981 3.6259999275 72.310302734 156.25445557 0.8930112123 63.956001282  -999.250000 0.8789808154
 1187.2106934  -999.250000 17.861999512 -0.003000000 0.4479999840 1.9809999466 3.5390000343 70.627006531 156.09506226 0.9000239968 63.956378937  -999.250000 0.8669951558
 1187.3630371  -999.250000 17.888000488 0.0020000001 0.4516600072 1.9989999533 3.3050000668 71.870498657 155.44436646 0.9150000215 64.190177917  -999.250000 0.8640272617
 1187.5155029  -999.250000 17.798999786 0.0040000002 0.4722499847 2.0000000000 3.3489999771 69.060997009 154.19618225 0.9150160551 63.674976349  -999.250000 0.8810240030
 1187.6678467  -999.250000 17.806999207 0.0040000002 0.5167999864 1.9930000305 3.4570000172 67.817008972 153.77381897 0.9249920249 63.659374237  -999.250000 0.8960160613
 1187.8203125  -999.250000 17.839000702 0.0049999999 0.5358899832 1.9819999933 3.6180000305 70.318809509 153.94152832 0.9200112224 63.893577576  -999.250000 0.9060112238
 1187.9726563  -999.250000 17.961000443 0.0080000004 0.5156800151 1.9780000448 3.4800000191 73.942504883 152.73994446 0.9269807935 63.628372192  -999.250000 0.9130352139
 1188.1250000  -999.250000 18.322999954 0.0099999998 0.5034999847 1.9780000448 3.4000000954 76.746994019 152.11566162 0.9149951935 63.862400055  -999.250000 0.9350120425
 1188.2774658  -999.250000 17.947000504 0.0109999999 0.4990999997 1.9850000143 3.3680000305 72.995498657 152.65966797 0.9089599252 63.113018036  -999.250000 0.9499823451
 1188.4298096  -999.250000 17.976999283 0.0089999996 0.5420799851 1.9780000448 3.5209999084 70.184646606 153.66569519 0.8839831948 63.127613068  -999.250000 0.9389735460
 1188.5822754  -999.250000 18.000000000 0.0120000001 0.5577099919 1.9819999933 3.5050001144 65.997192383 155.32289124 0.8629823327 62.644420624  -999.250000 0.9059551358
 1188.7346191  -999.250000 17.961000443 0.0109999999 0.5468699932 1.9720000029 3.6099998951 64.249702454 156.53829956 0.8519695997 62.909828186  -999.250000 0.8779615760
 1188.8869629  -999.250000 18.110000610 0.0140000004 0.5330300331 1.9780000448 3.5629999638 64.067413330 156.23757935 0.8329775929 63.424819946  -999.250000 0.8539935350
 1189.0394287  -999.250000 17.983999252 0.0109999999 0.5511100292 1.9689999819 3.8759999275 69.567909241 156.40711975 0.8049904108 63.206378937  -999.250000 0.8459855914
 1189.1917725  -999.250000 17.979000092 0.0130000003 0.5893599987 1.9720000029 3.7850000858 72.626800537 157.57307434 0.7989912033 63.441028595  -999.250000 0.8369984031
 1189.3442383  -999.250000 17.931999207 0.0049999999 0.5848000050 1.9589999914 3.9219999313 74.866790771 158.24394226 0.7879999876 63.472377777  -999.250000 0.8349936008
 1189.4965820  -999.250000 17.934999466 0.0030000000 0.5393899679 1.9550000429 3.7760000229 69.749549866 158.48501587 0.7879911661 63.706401825  -999.250000 0.8310023546
 1189.6489258  -999.250000 18.159000397 0.0000000000 0.5018399954 1.9490000010 4.1560001373 69.184898376 158.47427368 0.7770063877 64.205589294  -999.250000 0.8339911699
 1189.8013916  -999.250000 18.125000000 0.0010000000 0.4895800054 1.9470000267 4.0789999962 65.312751770 158.00131226 0.7850000262 63.691394806  -999.250000 0.8230064511
 1189.9537354  -999.250000 18.044000626 0.0030000000 0.5115000010 1.9470000267 4.1119999886 65.001251221 157.53334045 0.7850032449 64.175018311  -999.250000 0.8309871554
 1190.1062012  -999.250000 18.004999161 0.0049999999 0.5315899849 1.9509999752 3.9119999409 66.566261292 158.54313660 0.7890048027 64.191230774  -999.250000 0.8150023818
 1190.2585449  -999.250000 17.986999512 0.0089999996 0.5053399801 1.9559999704 4.2550001144 70.626754761 160.24478149 0.7950040102 64.471160889  -999.250000 0.8179951906
 1190.4110107  -999.250000 18.076000214 0.0230000000 0.5019599795 1.9730000496 4.1919999123 72.809844971 160.59568787 0.7999960184 63.425384521  -999.250000 0.8119975924
 1190.5633545  -999.250000 18.016000748 0.0179999992 0.5020300150 1.9670000076 4.4930000305 68.872894287 160.17153931 0.7950104475 63.909389496  -999.250000 0.8090000153
 1190.7158203  -999.250000 18.169000626 0.0189999994 0.5015499592 1.9720000029 4.2519998550 66.249000549 160.30981445 0.8079904318 64.392768860  -999.250000 0.8090063930
 1190.8681641  -999.250000 18.007999420 0.0089999996 0.4872100055 1.9600000381 4.2960000038 65.630661011 159.77275085 0.8019983768 63.628383636  -999.250000 0.8129992485
 1191.0206299  -999.250000 17.943000793 0.0080000004 0.4713400006 1.9609999657 3.8589999676 72.687500000 160.21032715 0.8000032306 64.111602783  -999.250000 0.8120015860
 1191.1729736  -999.250000 18.080999374 0.0080000004 0.4874700308 1.9670000076 3.5380001068 72.379257202 160.72410583 0.8020039797 63.862613678  -999.250000 0.8129928112
