# LAS format log file from PETREL
# Project units are specified as depth units
#==================================================================
~Version information
VERS.   2.0:
WRAP.   NO:
#==================================================================
~Well
STRT .m      1999.6403809 :
STOP .m      3191.7131348 :
STEP .m     0.00000000 :
NULL .        -999.250000 :
COMP.           : COMPANY
WELL.  31/2-21 S   : WELL
FLD.            : FIELD
LOC.            : LOCATION
SRVC.           : SERVICE COMPANY
DATE.  2018-09-11 14:48:34   : Log Export Date {yyyy-MM-dd HH:mm:ss}
PROV.           : PROVINCE
UWI.   31/2-21 S   : UNIQUE WELL ID
API.            : API NUMBER
#==================================================================
~Curve
DEPT .m                   : DEPTH
Lithology_geolink ._      : Lithology_geolink
CALI .in                  : CALI
BS .in                    : BS
ROP .m/h                  : ROP
DRHO .g/cm3               : DRHO
NPHI .m3/m3               : NPHI
RHOB .g/cm3               : RHOB
PEF .b/e                  : PEF
GR .gAPI                  : GR
DTC .us/ft                : DTC
DTS .us/ft                : DTS
RDEP .ohm.m               : RDEP
RMED .ohm.m               : RMED
~Parameter
#==================================================================
~Ascii
# ...
 3025.5969238 6.0000000000 8.4948997498 8.5000000000 95.976051331 0.0503207967 0.2290249616 2.5380747318 3.4890632629 80.452133179 74.117393494 128.33650208 2.8550224304 3.0613920689
 3025.7495117 5.0000000000 8.4774999619 8.5000000000 88.670928955 0.0476043262 0.2084330022 2.4909753799 3.0643777847 69.753601074 73.731613159 127.16986084 2.6083953381 2.6930894852
 3025.9018555 5.0000000000 8.4836997986 8.5000000000 81.239173889 0.0588818900 0.2051052898 2.4498658180 2.7423160076 67.188987732 74.159210205 126.66410828 2.2227184772 2.1985926628
 3026.0541992 5.0000000000 8.5156002045 8.5000000000 89.263450623 0.0545070507 0.2067972720 2.4489014149 2.9792189598 71.895240784 75.042381287 127.02931213 1.8781520128 1.7760769129
 3026.2065430 5.0000000000 8.5242996216 8.5000000000 99.088905334 0.0553985573 0.2083974332 2.4711642265 3.1928577423 88.443450928 75.820358276 128.65869141 1.8032194376 1.7066104412
 3026.3588867 5.0000000000 8.4916000366 8.5000000000 99.137466431 0.0515124798 0.2186670452 2.4617304802 3.2862014771 98.625602722 76.961441040 130.88047791 1.6592618227 1.5608675480
 3026.5114746 6.0000000000 8.5143995285 8.5000000000 92.316932678 0.0467076935 0.2258884609 2.4588046074 3.3037724495 103.91915131 78.459800720 133.37242126 1.4880740643 1.3753969669
 3026.6638184 6.0000000000 8.5282001495 8.5000000000 80.220474243 0.0526903868 0.2314910293 2.4574022293 3.2292196751 98.442604065 79.274688721 134.44099426 1.4434711933 1.3275762796
 3026.8161621 6.0000000000 8.4855003357 8.5000000000 69.094490051 0.0506033637 0.2252101004 2.4445207119 2.8263466358 89.347984314 79.415672302 135.18180847 1.3936797380 1.2925561666
 3026.9685059 6.0000000000 8.5108003616 8.5000000000 62.668304443 0.0502012819 0.2149329633 2.4536707401 3.0575556755 86.000595093 79.617462158 135.88912964 1.2868427038 1.2267112732
 3027.1210938 6.0000000000 8.5142002106 8.5000000000 59.870735168 0.0488022417 0.2075118572 2.4575939178 3.2088582516 81.370712280 80.198768616 136.56251526 1.2215043306 1.1381418705
 3027.2734375 6.0000000000 8.4973001480 8.5000000000 62.556430817 0.0520947091 0.1987140924 2.4708788395 3.7328593731 83.397438049 80.407066345 136.99739075 1.2344790697 1.0737032890
 3027.4257813 6.0000000000 8.5170001984 8.5000000000 62.662403107 0.0504027233 0.2107806206 2.5062432289 3.6730973721 92.257087708 80.839607239 137.45787048 1.6752924919 1.4190455675
 3027.5781250 6.0000000000 8.5382995605 8.5000000000 59.329727173 0.0489047989 0.2347231954 2.5844492912 4.1191678047 98.452156067 81.021308899 137.89848328 2.6018278599 2.3074498177
 3027.7307129 6.0000000000 8.5585002899 8.5000000000 57.520011902 0.0638759658 0.2549676299 2.6436052322 4.0715785027 101.70491028 81.071998596 138.73605347 3.2047369480 3.0677840710
 3027.8830566 6.0000000000 8.5481996536 8.5000000000 53.760498047 0.0486245193 0.2758665085 2.6212360859 4.2324414253 84.961082458 79.680732727 138.07734680 3.3386867046 3.3446574211
 3028.0354004 6.0000000000 8.5361003876 8.5000000000 47.675525665 0.0585839748 0.2815908492 2.5608968735 3.5222404003 78.052146912 80.249092102 139.30981445 3.3446907997 3.5697395802
 3028.1877441 6.0000000000 8.5290002823 8.5000000000 54.833663940 0.0535081737 0.2419636250 2.4986999035 2.7839999199 82.304656982 79.869712830 139.06169128 3.1261506081 3.4098572731
 3028.3400879 6.0000000000 8.5597000122 8.5000000000 89.322830200 0.0597798377 0.2217646390 2.4907000065 2.8977000713 95.107620239 78.918762207 137.16090393 3.2137176991 3.5387854576
 3028.4926758 6.0000000000 8.5826997757 8.5000000000 101.22933197 0.0702831745 0.2104181051 2.5204999447 3.4089000225 101.11872101 77.443168640 135.13415527 3.4603047371 3.7072303295
 3028.6450195 6.0000000000 8.5487003326 8.5000000000 91.394027710 0.0652081743 0.2223807573 2.5398001671 4.1496000290 96.835891724 76.690505981 133.68321228 3.7715013027 3.9898467064
 3028.7973633 6.0000000000 8.5384998322 8.5000000000 76.514114380 0.0671967939 0.2309862226 2.5822000504 3.9277999401 94.628730774 76.845741272 133.62298584 3.8223192692 4.0322327614
 3028.9497070 6.0000000000 8.5256004333 8.5000000000 70.306106567 0.0553380810 0.2480452806 2.6168999672 4.2652001381 94.667564392 77.290672302 134.27072144 3.6213452816 3.7167129517
 3029.1022949 6.0000000000 8.5336999893 8.5000000000 79.593505859 0.0642855763 0.2645735741 2.6289999485 4.4261999130 101.98195648 77.450744629 134.88262939 3.2507936954 3.3275229931
 3029.2546387 6.0000000000 8.5034999847 8.5000000000 94.905838013 0.0569118559 0.2714889348 2.6036000252 3.8657000065 115.19780731 77.266197205 134.33248901 2.9402973652 3.0048170090
 3029.4069824 7.0000000000 8.4994001389 8.5000000000 88.259841919 0.0540046506 0.2469394356 2.5334000587 3.4923999310 128.67100525 77.146797180 133.67835999 3.0013012886 3.1406810284
 3029.5593262 7.0000000000 8.4926004410 8.5000000000 73.066604614 0.0522057600 0.2264655977 2.4505999088 2.8517999649 159.97508240 77.083007813 133.39311218 3.1246044636 3.4139235020
 3029.7119141 7.0000000000 8.4945001602 8.5000000000 61.893375397 0.0522000007 0.2168153822 2.4361999035 2.7227001190 173.02101135 77.593879700 134.34226990 2.4927148819 2.6589133739
 3029.8642578 7.0000000000 8.4853000641 8.5000000000 61.506561279 0.0851999968 0.2269836515 2.5392999649 2.8680000305 171.57046509 78.111267090 135.80166626 2.0860512257 2.1055862904
 3030.0166016 7.0000000000 8.4970998764 8.5000000000 75.394691467 0.0571999997 0.2397794873 2.4993000031 3.5011999607 172.63987732 77.615989685 136.22970581 1.9678885937 1.9088144302
 3030.1689453 7.0000000000 8.5169000626 8.5000000000 94.993766785 0.0421999991 0.2422959954 2.5920000076 4.6644001007 130.44313049 77.630378723 135.66390991 1.9796807766 1.8701615334
 3030.3212891 6.0000000000 8.5061998367 8.5000000000 105.44586945 0.0581000000 0.2365185618 2.6270000935 3.7797999382 107.42916107 77.348800659 135.24983215 2.2778429985 2.1544871330
 3030.4738770 6.0000000000 8.5150003433 8.5000000000 104.35367584 0.0612999983 0.2353019267 2.6250998974 3.6654000282 87.924285889 77.043586731 134.21125793 2.5657393932 2.4326548576
 3030.6262207 6.0000000000 8.5193996429 8.5000000000 92.420280457 0.0524999984 0.2309070528 2.6203999519 4.4532999992 102.24605560 76.282417297 132.73345947 2.6835117340 2.5347368717
 3030.7785645 6.0000000000 8.5340995789 8.5000000000 71.158790588 0.0886999965 0.2224136144 2.6024000645 3.1236000061 133.34751892 75.744964600 131.54290771 2.5832612514 2.4845807552
 3030.9309082 6.0000000000 8.5504999161 8.5000000000 57.313320160 0.0650999993 0.2209047973 2.5039000511 2.9774999619 146.40214539 74.953346252 130.69970703 2.5455205441 2.4520044327
 3031.0834961 7.0000000000 8.5285997391 8.5000000000 56.158794403 0.0520999990 0.2216987163 2.5037999153 3.1029999256 140.79208374 75.539756775 130.91435242 2.4759116173 2.4369239807
 3031.2358398 7.0000000000 8.5335998535 8.5000000000 65.468177795 0.0498999991 0.2175067365 2.5197999477 3.1219000816 133.91012573 76.169189453 130.66250610 2.6694891453 2.6939873695
 3031.3881836 7.0000000000 8.5375995636 8.5000000000 69.367454529 0.0601999983 0.2150040120 2.5206999779 3.1428999901 141.67912292 76.694061279 130.51803589 2.8926422596 2.9373102188
 3031.5405273 7.0000000000 8.5319004059 8.5000000000 70.727035522 0.0737000033 0.2111124843 2.5202000141 3.0492999554 139.94779968 76.859176636 130.03036499 2.9055597782 2.9403913021
 3031.6931152 7.0000000000 8.5073995590 8.5000000000 72.108268738 0.0575000010 0.2133963257 2.5415999889 2.9188001156 123.13138580 76.834236145 129.86605835 2.7642269135 2.7829527855
 3031.8454590 6.0000000000 8.4898004532 8.5000000000 73.839889526 0.0399000011 0.2102051228 2.5418000221 3.6835999489 92.369728088 77.411376953 130.09652710 2.6899189949 2.8560822010
 3031.9978027 6.0000000000 8.4784002304 8.5000000000 75.685363770 0.0604999997 0.2158908695 2.4972999096 3.4867000580 70.892990112 78.070640564 131.86956787 2.3169984818 2.5661656857
 3032.1501465 6.0000000000 8.4843997955 8.5000000000 94.118438721 0.0511000007 0.2144023925 2.3773000240 2.7548999786 56.128341675 79.754890442 136.33454895 1.1549643278 1.2123721838
