# LAS format log file from PETREL
# Project units are specified as depth units
#==================================================================
~Version information
VERS.   2.0:
WRAP.   NO:
#==================================================================
~Well
STRT .m      439.56304932 :
STOP .m      1665.9261475 :
STEP .m     0.00000000 :
NULL .        -999.250000 :
COMP.           : COMPANY
WELL.  31/2-7   : WELL
FLD.            : FIELD
LOC.            : LOCATION
SRVC.           : SERVICE COMPANY
DATE.  2018-09-11 14:48:34   : Log Export Date {yyyy-MM-dd HH:mm:ss}
PROV.           : PROVINCE
UWI.   31/2-7   : UNIQUE WELL ID
API.            : API NUMBER
#==================================================================
~Curve
DEPT .m                   : DEPTH
Lithology_geolink ._      : Lithology_geolink
CALI .in                  : CALI
DRHO .g/cm3               : DRHO
SGR .gAPI                 : SGR
NPHI .m3/m3               : NPHI
RHOB .g/cm3               : RHOB
PEF .b/e                  : PEF
GR .gAPI                  : GR
DTC .us/ft                : DTC
DTE .us/ft                : DTE
RDEP .ohm.m               : RDEP
SP .mV                    : SP
RSHA .ohm.m               : RSHA
RMED .ohm.m               : RMED
~Parameter
#==================================================================
~Ascii
# ...
 1576.7720947 2.0000000000 12.141000748 0.0000000000 47.255302429 0.3476599753 2.0659999847 4.7810001373 48.027141571 133.37817383 128.16921997 84.733673096 30.675199509 93.108474731 62.679668427
 1576.9245605 2.0000000000 12.163999557 0.0020000001 48.917419434 0.3798799813 2.0590000153 4.6209998131 48.468299866 131.59690857 126.46847534 97.480567932 32.546997070 93.125000000 70.457534790
 1577.0769043 2.0000000000 12.390999794 -0.014000000 52.469703674 0.4189499915 2.0490000248 4.3750000000 48.469001770 128.79481506 123.66521454 98.560295105 33.922794342 87.633811951 71.156890869
 1577.2292480 2.0000000000 12.156000137 -0.015000000 52.691604614 0.4433599710 2.0590000153 4.2340035439 48.469001770 127.85202026 122.64109802 96.604713440 35.421398163 77.462471008 70.375885010
 1577.3817139 2.0000000000 12.141000748 -0.014000000 54.183494568 0.4379900098 2.0680000782 4.2380256653 45.130359650 127.27322388 122.11189270 87.043342590 35.674598694 63.522335052 65.758407593
 1577.5340576 2.0000000000 12.133000374 -0.012000000 52.778972626 0.4331099987 2.0759999752 4.2700433731 50.175838470 126.61486053 121.43868256 70.129684448 36.797298431 50.625000000 54.931049347
 1577.6865234 2.0000000000 12.141000748 -0.009000000 51.928588867 0.4043000042 2.0840001106 4.3238749504 51.560794830 127.17611694 121.94335938 56.632598877 37.049598694 46.631359100 45.298419952
 1577.8388672 2.0000000000 12.133000374 -0.009000000 48.997146606 0.3701200187 2.0820000172 4.1678314209 55.365844727 128.10952759 123.00554657 51.265869141 37.673496246 50.147518158 41.019264221
 1577.9913330 2.0000000000 12.141000748 -0.006000000 47.810794830 0.3486299813 2.0780000687 3.9570560455 52.005409241 128.32081604 123.15087128 53.567283630 39.047794342 59.640773773 41.665946960
 1578.1436768 2.0000000000 12.133000374 -0.002000000 47.124698639 0.3666999936 2.0840001106 4.0271816254 48.851581573 128.70571899 123.59230804 57.625236511 38.426502228 67.730560303 43.762954712
 1578.2961426 1.0000000000 12.141000748 -0.001000000 46.994792938 0.3676800132 2.0820000172 4.2539811134 47.315452576 128.39021301 123.22008514 75.051048279 40.421794891 73.615585327 53.783924103
 1578.4484863 1.0000000000 12.194999695 0.0080000004 45.371894836 0.3579100072 2.0999999046 4.2417154312 45.036479950 126.95346832 121.74011993 86.359840393 41.173198700 80.546340942 60.277404785
 1578.6009521 1.0000000000 12.203000069 0.0130000003 44.408302307 0.3500999808 2.1019999981 3.8865902424 39.633663177 126.55750275 121.48070526 90.449478149 41.923797607 90.297378540 63.233280182
 1578.7532959 1.0000000000 12.250000954 0.0089999996 45.121398926 0.3540000021 2.0980000496 3.6310377121 35.011108398 125.75678253 120.66034698 104.68872833 39.929801941 102.72013092 71.526039124
 1578.9057617 1.0000000000 12.163999557 -0.008000000 43.998798370 0.3623000085 2.0699999332 3.6781024933 34.969051361 125.82791901 120.64614868 117.03324127 43.668991089 116.79046631 78.946121216
 1579.0581055 1.0000000000 12.156000137 -0.018999999 43.619998932 0.3432599902 2.0590000153 3.7421035767 39.306037903 126.77150726 121.53088379 130.01319885 44.922996521 129.35487366 84.691795349
 1579.2104492 1.0000000000 12.171998978 -0.018999999 42.065025330 0.3496099710 2.0610001087 3.8709471226 39.904575348 126.93437195 121.73948669 157.36718750 45.174400330 135.23588562 96.573410034
 1579.3629150 1.0000000000 12.203000069 -0.013000000 42.908802032 0.3276399970 2.0759999752 3.8050448895 40.873447418 126.33081055 121.07998657 168.53417969 46.422996521 132.25480652 101.11875153
 1579.5152588 1.0000000000 12.203000069 -0.013000000 43.779720306 0.3466799855 2.0820000172 3.8609864712 41.467575073 125.96546936 120.83683014 160.41358948 46.799098969 119.15652466 96.943069458
 1579.6677246 1.0000000000 12.187999725 -0.016000001 43.248897552 0.3295899928 2.0859999657 3.8440809250 42.841796875 124.27871704 119.10826874 150.44396973 48.047996521 114.57031250 93.164047241
 1579.8200684 1.0000000000 12.187999725 -0.010000000 42.897583008 0.3344699740 2.0799999237 3.9449486732 41.908252716 123.49576569 118.31131744 147.30152893 48.798198700 135.20031738 91.999794006
 1579.9725342 1.0000000000 12.171998978 -0.010000000 39.403495789 0.3334999979 2.0739998817 3.8810546398 38.942756653 122.99103546 117.80120850 152.81713867 49.423995972 156.46594238 95.195861816
 1580.1248779 1.0000000000 12.156000137 -0.001000000 38.624923706 0.3139599860 2.0799999237 3.9490656853 37.534378052 121.77123260 116.59342194 167.46076965 51.170795441 152.50961304 101.82904053
 1580.2773438 1.0000000000 12.163999557 -0.008000000 38.598304749 0.3017600179 2.0859999657 4.0319318771 38.154994965 121.19500732 115.96605682 179.87413025 51.299797058 116.87019348 107.15946960
 1580.4296875 1.0000000000 12.163999557 -0.004000000 39.943710327 0.2817400098 2.0999999046 4.6132225990 39.153594971 120.28495026 115.17427063 142.84719849 52.297595978 96.237541199 93.179679871
 1580.5821533 1.0000000000 12.156000137 -0.006000000 42.316902161 0.3076199889 2.1050000191 4.8909420967 41.527191162 118.88684845 113.69704437 121.55503845 53.672794342 93.129905701 82.600929260
 1580.7344971 1.0000000000 12.141000748 -0.003000000 43.540607452 0.3061499894 2.1229999065 4.8548188210 39.130779266 113.56712341 108.30524445 122.37394714 54.049098969 102.72688293 82.375503540
 1580.8869629 1.0000000000 12.102000237 0.0040000002 46.539413452 0.2543900013 2.1740000248 4.6290192604 40.029544830 105.03933716 99.910881042 100.69480133 55.672393799 108.36598206 70.352294922
 1581.0393066 16.000000000 12.039000511 0.0340000018 49.167907715 0.1958000064 2.2579998970 4.6412153244 38.283802032 104.19378662 99.029968262 100.60208893 55.799797058 106.44110870 70.788269043
 1581.1916504 16.000000000 12.039000511 0.0340000018 52.885066986 0.1982399970 2.2599999905 4.9100880623 44.298511505 106.51558685 101.33810425 109.92654419 58.169296265 80.625152588 80.539527893
 1581.3441162 1.0000000000 12.039000511 0.0230000000 57.066101074 0.2519499958 2.1989998817 5.0198740959 50.583934784 113.00701904 107.88183594 74.263282776 59.298194885 50.642028809 50.642028809
 1581.4964600 1.0000000000 12.039000511 -0.002000000 58.030097961 0.3139599860 2.1289999485 4.8627500534 58.262535095 124.34288788 119.20400238 45.277652740 60.546997070 32.481609344 32.481609344
 1581.6489258 5.0000000000 12.022999763 0.0040000002 57.645988464 0.3408200145 2.1459999084 4.5508308411 62.556137085 126.10074615 120.92407990 31.888380051 62.172393799 25.324417114 25.324417114
 1581.8012695 5.0000000000 12.007999420 0.0109999999 54.529346466 0.3691400290 2.1600000858 4.3400282860 62.126052856 125.56748199 120.47225952 25.560184479 62.798496246 24.892013550 24.892013550
 1581.9537354 5.0000000000 12.015999794 0.0160000008 53.845504761 0.3681600094 2.1500000954 4.3753252029 60.377803802 124.50433350 119.38392639 25.422197342 64.671997070 29.711261749 29.711261749
 1582.1060791 2.0000000000 12.015999794 0.0170000009 54.320209503 0.3579100072 2.1370000839 4.7811098099 54.452259064 123.58736420 118.32917023 23.083629608 65.298500061 37.294757843 37.294757843
 1582.2585449 2.0000000000 12.022999763 0.0099999998 57.321807861 0.3378900290 2.1289999485 4.9179439545 53.595355988 123.43440247 118.29855347 22.688625336 66.797599792 35.128505707 35.128505707
 1582.4108887 2.0000000000 12.022999763 0.0049999999 60.065250397 0.3588899970 2.1449999809 4.8478493690 55.620121002 124.09413910 118.89501953 23.311498642 67.298805237 27.175140381 27.175140381
 1582.5633545 2.0000000000 12.022999763 -0.003000000 60.994792938 0.3872100115 2.1429998875 4.6607570648 58.370594025 125.50026703 120.24122620 24.232522964 68.048797607 22.819959641 22.819959641
 1582.7156982 2.0000000000 12.022999763 -0.006000000 59.371997833 0.4301800132 2.1389999390 5.1330904961 60.713371277 126.96026611 121.80987549 22.706676483 68.922904968 22.282278061 22.282278061
 1582.8681641 2.0000000000 12.022999763 -0.007000000 58.437797546 0.4111299813 2.1170001030 5.2458558083 59.751552582 127.21629333 122.07243347 20.831003189 68.675407410 22.624448776 22.624448776
