# LAS format log file from PETREL
# Project units are specified as depth units
#==================================================================
~Version information
VERS.   2.0:
WRAP.   NO:
#==================================================================
~Well
STRT .m      447.54394531 :
STOP .m      3384.4443359 :
STEP .m     0.00000000 :
NULL .        -999.250000 :
COMP.           : COMPANY
WELL.  31/2-8   : WELL
FLD.            : FIELD
LOC.            : LOCATION
SRVC.           : SERVICE COMPANY
DATE.  2018-09-11 14:48:34   : Log Export Date {yyyy-MM-dd HH:mm:ss}
PROV.           : PROVINCE
UWI.   31/2-8   : UNIQUE WELL ID
API.            : API NUMBER
#==================================================================
~Curve
DEPT .m                   : DEPTH
Lithology_geolink ._      : Lithology_geolink
CALI .in                  : CALI
DRHO .g/cm3               : DRHO
SGR .gAPI                 : SGR
NPHI .m3/m3               : NPHI
RHOB .g/cm3               : RHOB
PEF .b/e                  : PEF
GR .gAPI                  : GR
DTC .us/ft                : DTC
RDEP .ohm.m               : RDEP
SP .mV                    : SP
RSHA .ohm.m               : RSHA
RMED .ohm.m               : RMED
~Parameter
#==================================================================
~Ascii
# ...
 642.00634766  -999.250000 15.579998970 0.0379999988  -999.250000 0.4687500000 2.1289999485  -999.250000 54.524219513 140.96539307 2.4720141888 56.863536835 2.0569856167 2.0569856167
 642.15875244  -999.250000 16.795999527 0.0209999997  -999.250000 0.4829100072 2.1070001125  -999.250000 55.001266479 142.15187073 2.4670181274 56.643798828 2.0540106297 2.0540106297
 642.31115723  -999.250000 17.919000626 0.0230000000  -999.250000 0.4663099945 2.1150000095  -999.250000 53.416736603 143.19479370 2.4600253105 56.892101288 2.0390541553 2.0390541553
 642.46356201  -999.250000 17.066999435 0.0410000011  -999.250000 0.4443399906 2.1429998875  -999.250000 53.804576874 143.40393066 2.4600000381 56.956771851 2.0200684071 2.0200684071
 642.61596680  -999.250000 16.284000397 0.0469983965  -999.250000 0.4150400162 2.1509971619  -999.250000 51.945728302 142.86016846 2.4629893303 56.336246490 2.0120289326 2.0120289326
 642.76837158  -999.250000 15.635999680 0.0429992005  -999.250000 0.3959999979 2.1439976692  -999.250000 53.909870148 142.20275879 2.4749567509 54.068199158 2.0189747810 2.0189747810
 642.92077637  -999.250000 14.980000496 0.0410000011  -999.250000 0.4125999808 2.1380012035  -999.250000 58.789375305 142.02050781 2.4959244728 53.879653931 2.0459027290 2.0459027290
 643.07318115  -999.250000 14.876999855 0.0410044082  -999.250000 0.4169900119 2.1410007477  -999.250000 66.124473572 142.46629333 2.5129454136 58.344642639 2.0210800171 2.0210800171
 643.22558594  -999.250000 14.654000282 0.0520060100  -999.250000 0.4414099753 2.1430006027  -999.250000 70.100296021 143.16772461 2.5149936676 59.204284668 1.9631859064 1.9631859064
 643.37799072  -999.250000 14.572999954 0.0670012012  -999.250000 0.4106400013 2.1449930668  -999.250000 69.057395935 143.63429260 2.5050320625 57.656982422 2.0417468548 2.0417468548
 643.53039551  -999.250000 14.298999786 0.0699931905  -999.250000 0.4301800132 2.1279871464  -999.250000 69.434776306 143.55847168 2.4890513420 55.122131348 2.1347019672 2.1347019672
 643.68280029  -999.250000 14.423000336 0.0529839806  -999.250000 0.4106400013 2.0959718227  -999.250000 68.496017456 143.13990784 2.4770383835 54.708305359 2.2057726383 2.2057726383
 643.83520508  -999.250000 15.085000038 0.0329935923  -999.250000 0.4731400013 2.0609889030  -999.250000 63.933654785 143.30635071 2.4889616966 54.921310425 2.1342308521 2.1342308521
 643.98760986  -999.250000 16.462999344 0.0249991994  -999.250000 0.4335900247 2.0469968319  -999.250000 57.183647156 145.03706360 2.4949805737 55.455287933 2.0283396244 2.0283396244
 644.13995361  -999.250000 16.232000351 0.0239967965  -999.250000 0.4223600030 2.0429947376  -999.250000 51.965793610 147.20657349 2.4840395451 55.578559875 1.9961154461 1.9961154461
 644.29235840  -999.250000 14.672999382 0.0160004012  -999.250000 0.4189499915 2.0300006866  -999.250000 49.439071655 148.03967285 2.4570972919 55.862972260 1.9860359430 1.9860359430
 644.44476318  -999.250000 15.543999672 0.0169979986  -999.250000 0.4550800025 2.0320048332  -999.250000 46.884208679 147.57260132 2.4281044006 56.200782776 1.9481369257 1.9481369257
 644.59716797  -999.250000 15.440000534 0.0120020024  -999.250000 0.5043900013 2.0440130234  -999.250000 46.400714874 147.53376770 2.4030902386 57.203376770 1.9519855976 1.9519855976
 644.74957275  -999.250000 15.102998734 0.0170012023  -999.250000 0.4941400290 2.0770063400  -999.250000 47.394397736 144.70274353 2.3970217705 56.865234375 1.9360576868 1.9360576868
 644.90197754  -999.250000 15.435000420 0.0200052056  -999.250000 0.4926800132 2.0930011272  -999.250000 49.311080933 142.17372131 2.3999893665 56.830123901 1.9280288219 1.9280288219
 645.05432129  -999.250000 15.539000511 0.0329999998  -999.250000 0.4536100030 2.0959999561  -999.250000 51.429508209 141.71064758 2.4039840698 57.390747070 1.9319840670 1.9319840670
 645.20672607  -999.250000 15.729000092 0.0280000009  -999.250000 0.4570299983 2.0780000687  -999.250000 50.733547211 142.69384766 2.4119710922 57.456771851 1.9240288734 1.9240288734
 645.35913086  -999.250000 16.107999802 0.0170000009  -999.250000 0.4394499958 2.0659999847  -999.250000 50.980098724 145.35621643 2.4279422760 57.300563812 1.9190180302 1.9190180302
 645.51153564  -999.250000 16.339000702 0.0070000002  -999.250000 0.4614300132 2.0729999542  -999.250000 49.831157684 147.07673645 2.4399569035 57.207336426 1.9209928513 1.9209928513
 645.66387939  -999.250000 16.420000076 0.0140000004  -999.250000 0.4599599838 2.1040000916  -999.250000 49.215461731 147.43218994 2.4479680061 57.050628662 1.9190080166 1.9190080166
 645.81628418  -999.250000 16.625999451 0.0270000007  -999.250000 0.4477500021 2.1240000725  -999.250000 47.184158325 146.88345337 2.4559681416 56.957374573 1.9289599657 1.9289599657
 645.96868896  -999.250000 16.600000381 0.0350000001  -999.250000 0.4155300260 2.1059999466  -999.250000 45.175045013 143.69911194 2.4639680386 56.615371704 1.9538998604 1.9538998604
 646.12109375  -999.250000 16.437999725 0.0340000018  -999.250000 0.4018599987 2.0789999962  -999.250000 43.889137268 142.52897644 2.4759519100 56.393886566 1.9659519196 1.9659519196
 646.27349854  -999.250000 15.635999680 0.0329999998  -999.250000 0.4389599860 2.0739998817  -999.250000 47.287315369 144.27528381 2.4969158173 56.271488190 1.9948838949 1.9948838949
 646.42590332  -999.250000 15.723000526 0.0309999995  -999.250000 0.4765599966 2.0940001011  -999.250000 54.187309265 144.61892700 2.5209038258 55.709259033 1.9920120239 1.9920120239
 646.57830811  -999.250000 16.118000031 0.0289999992  -999.250000 0.4609400034 2.1250000000  -999.250000 58.889205933 142.71661377 2.5389280319 55.550628662 1.9830360413 1.9830360413
 646.73071289  -999.250000 15.848999023 0.0250000004  -999.250000 0.4155300260 2.1440000534  -999.250000 58.215785980 138.31265259 2.5409917831 55.085865021 2.0078997612 2.0078997612
 646.88311768  -999.250000 15.925999641 0.0260000005  -999.250000 0.3750000000 2.1730000973  -999.250000 53.276847839 133.00915527 2.5390081406 54.395767212 2.0378799438 2.0378799438
 647.03552246  -999.250000 16.117000580 0.0439999998  -999.250000 0.3940399885 2.2130000591  -999.250000 51.876548767 129.80732727 2.5300359726 54.456745148 2.0429799557 2.0429799557
 647.18792725  -999.250000 16.736000061 0.0619999990  -999.250000 0.4028300047 2.2449998856  -999.250000 51.572082520 130.37203979 2.5210323334 54.207901001 2.0260612965 2.0260612965
 647.34033203  -999.250000 17.135999680 0.0630000010  -999.250000 0.4262699783 2.2430000305  -999.250000 48.484165192 134.00044250 2.5249857903 54.143230438 1.9751838446 1.9751838446
 647.49273682  -999.250000 17.146999359 0.0430000015  -999.250000 0.4213899970 2.2070000172  -999.250000 45.865432739 137.26344299 2.5329711437 54.206771851 1.9510865211 1.9510865211
 647.64514160  -999.250000 17.409000397 0.0230000000  -999.250000 0.4448199868 2.1640000343  -999.250000 43.315189362 138.75628662 2.5369856358 54.235897064 1.9380468130 1.9380468130
 647.79748535  -999.250000 17.964000702 0.0089999996  -999.250000 0.4287099838 2.1270000935  -999.250000 42.749240875 138.42369080 2.5360040665 54.641372681 1.9499520063 1.9499520063
 647.94989014  -999.250000 17.750999451 0.0030000000  -999.250000 0.4477500021 2.1129999161  -999.250000 41.651405334 136.74702454 2.5320160389 54.892002106 1.9400401115 1.9400401115
 648.10229492  -999.250000 17.176000595 0.0089999996  -999.250000 0.4575199783 2.1319999695  -999.250000 40.660964966 136.91731262 2.5270199776 55.142002106 1.9439840317 1.9439840317
 648.25469971  -999.250000 17.565000534 0.0230000000  -999.250000 0.4531300068 2.1530001163  -999.250000 41.716739655 137.76045227 2.5260040760 54.928863525 1.9609318972 1.9609318972
 648.40710449  -999.250000 17.599000931 0.0359999985  -999.250000 0.4459100068 2.1730000973  -999.250000 42.463016510 137.90972900 2.5269958973 54.766647339 1.9669759274 1.9669759274
 648.55950928  -999.250000 17.523000717 0.0509999990  -999.250000 0.4320800006 2.1900000572  -999.250000 43.079532623 137.96452332 2.5389518738 55.639488220 1.9739719629 1.9739719629
