# LAS format log file from PETREL
# Project units are specified as depth units
#==================================================================
~Version information
VERS.   2.0:
WRAP.   NO:
#==================================================================
~Well
STRT .m      439.56304932 :
STOP .m      1665.9261475 :
STEP .m     0.00000000 :
NULL .        -999.250000 :
COMP.           : COMPANY
WELL.  31/2-7   : WELL
FLD.            : FIELD
LOC.            : LOCATION
SRVC.           : SERVICE COMPANY
DATE.  2018-09-11 14:48:34   : Log Export Date {yyyy-MM-dd HH:mm:ss}
PROV.           : PROVINCE
UWI.   31/2-7   : UNIQUE WELL ID
API.            : API NUMBER
#==================================================================
~Curve
DEPT .m                   : DEPTH
Lithology_geolink ._      : Lithology_geolink
CALI .in                  : CALI
DRHO .g/cm3               : DRHO
SGR .gAPI                 : SGR
NPHI .m3/m3               : NPHI
RHOB .g/cm3               : RHOB
PEF .b/e                  : PEF
GR .gAPI                  : GR
DTC .us/ft                : DTC
DTE .us/ft                : DTE
RDEP .ohm.m               : RDEP
SP .mV                    : SP
RSHA .ohm.m               : RSHA
RMED .ohm.m               : RMED
~Parameter
#==================================================================
~Ascii
# ...
 845.70916748  -999.250000 21.812999725 -0.015000000  -999.250000 0.6855499744 1.7530000210  -999.250000 84.626876831 163.75198364 159.85250854 1.0579378605 55.280509949 1.0800681114 1.0800681114
 845.86157227  -999.250000 21.641000748 -0.026000001  -999.250000 0.5639600158 1.7230000496  -999.250000 84.687873840 164.10957336 160.22387695 1.1009138823 57.769996643 1.0041521788 1.0041521788
 846.01397705  -999.250000 21.452999115 -0.021000000  -999.250000 0.4604499936 1.7330000401  -999.250000 80.945510864 164.38439941 160.49877930 1.1119779348 58.274002075 0.9461160898 0.9461160898
 846.16638184  -999.250000 21.297000885 -0.012000000  -999.250000 0.5146499872 1.7439999580  -999.250000 75.386138916 164.34301758 160.46453857 1.0770701170 59.522499084 0.9440039992 0.9440039992
 846.31878662  -999.250000 20.858999252 -0.003000000  -999.250000 0.5473600030 1.7589999437  -999.250000 73.878005981 164.15042114 160.30529785 1.0819900036 59.400253296 0.9459959865 0.9459959865
 846.47119141  -999.250000 20.922000885 0.0030000000  -999.250000 0.5273399949 1.7610000372  -999.250000 72.502754211 163.89822388 160.03210449 1.0939759016 59.275253296 0.9440039992 0.9440039992
 846.62359619  -999.250000 21.047000885 0.0049999999  -999.250000 0.5161100030 1.7619999647  -999.250000 73.311378479 163.80860901 159.91624451 1.0710459948 59.774002075 0.9569739699 0.9569739699
 846.77600098  -999.250000 21.172000885 -0.009000000  -999.250000 0.5004900098 1.7400000095  -999.250000 73.998626709 164.29756165 160.41279602 1.0650120974 59.525501251 0.9649839401 0.9649839401
 846.92840576  -999.250000 21.391002655 -0.012000000  -999.250000 0.5537099838 1.7350000143  -999.250000 74.249595642 164.49479675 160.63551331 1.1029391289 59.400203705 0.9739855528 0.9739855528
 847.08081055  -999.250000 21.516000748 -0.016000001  -999.250000 0.5566400290 1.7309999466  -999.250000 76.434501648 164.94407654 161.09643555 1.1229679585 59.025600433 0.9759967923 0.9759967923
 847.23315430  -999.250000 22.266000748 -0.004000000  -999.250000 0.5317400098 1.7450000048  -999.250000 76.063751221 165.13623047 161.29335022 1.1080300808 59.648750305 0.9750020504 0.9750020504
 847.38555908  -999.250000 22.266000748 -0.009000000  -999.250000 0.4746099710 1.7489999533  -999.250000 74.128883362 164.54533386 160.72068787 1.0850460529 59.151000977 0.9759979844 0.9759979844
 847.53796387  -999.250000 22.266000748 -0.004000000  -999.250000 0.4897499979 1.7489999533  -999.250000 74.873497009 164.04681396 160.15460205 1.0151401758 58.401504517 0.9580360651 0.9580360651
 847.69036865  -999.250000 22.233999252 -0.013000000  -999.250000 0.4760699868 1.7369999886  -999.250000 74.064628601 165.75035095 161.86326599 0.9700901508 60.271247864 0.9420320392 0.9420320392
 847.84277344  -999.250000 22.266000748 -0.003000000  -999.250000 0.4731400013 1.7410000563  -999.250000 73.002128601 165.24153137 161.37541199 0.9500400424 58.029506683 0.9390060306 0.9390060306
 847.99517822  -999.250000 22.266000748 0.0000000000  -999.250000 0.4389599860 1.7460000515  -999.250000 68.633758545 165.08645630 161.19415283 0.9549899697 59.397247314 0.9419939518 0.9419939518
 848.14758301  -999.250000 22.233999252 0.0130000003  -999.250000 0.4584999979 1.7450000048  -999.250000 68.188880920 165.48434448 161.60807800 0.9849399328 55.283260345 0.9539759755 0.9539759755
 848.29998779  -999.250000 22.281000137 0.0040000002  -999.250000 0.5185499787 1.7220000029  -999.250000 71.618118286 163.93194580 160.11885071 1.0518659353 56.771999359 0.9649779201 0.9649779201
 848.45239258  -999.250000 22.233999252 -0.008000000  -999.250000 0.5478500128 1.7029999495  -999.250000 74.681869507 158.16059875 154.28077698 1.0919198990 58.147247314 1.0029239655 1.0029239655
 848.60479736  -999.250000 22.281000137 -0.014000000  -999.250000 0.5625000000 1.7170000076  -999.250000 78.242866516 150.29498291 146.43240356 1.1109619141 58.025253296 0.9970120192 0.9970120192
 848.75720215  -999.250000 21.141000748 -0.016000001  -999.250000 0.5839799643 1.7300000191  -999.250000 81.618240356 149.82421875 145.95875549 1.1129959822 59.272499084 1.0309319496 1.0309319496
 848.90960693  -999.250000 21.125000000 -0.012000000  -999.250000 0.5830099583 1.7460000515  -999.250000 80.876205444 154.10510254 150.25990295 1.1060111523 56.654209137 1.0329967737 1.0329967737
 849.06201172  -999.250000 21.062999725 -0.012000000  -999.250000 0.5893599987 1.7519999743  -999.250000 75.945915222 164.25251770 160.39450073 1.1708959341 57.897998810 1.0529679060 1.0529679060
 849.21435547  -999.250000 21.452999115 -0.011000000  -999.250000 0.5805699825 1.7549999952  -999.250000 71.072761536 165.35635376 161.47073364 1.2787837982 58.024749756 1.0420221090 1.0420221090
 849.36676025  -999.250000 21.437999725 -0.008000000  -999.250000 0.5561500192 1.7610000372  -999.250000 73.183746338 165.31547546 161.47387695 1.3209159374 58.399250031 1.0330179930 1.0330179930
 849.51916504  -999.250000 21.452999115 -0.009000000  -999.250000 0.5322300196 1.7539999485  -999.250000 76.057243347 165.61006165 161.73297119 1.3589239120 58.524749756 1.0260140896 1.0260140896
 849.67156982  -999.250000 21.391002655 -0.008000000  -999.250000 0.5253900290 1.7530000210  -999.250000 73.380378723 165.13574219 161.28836060 1.3210760355 58.899250031 1.0250020027 1.0250020027
 849.82397461  -999.250000 21.358997345 -0.003000000  -999.250000 0.5029299855 1.7560000420  -999.250000 69.383010864 163.86180115 160.00120544 1.2481461763 58.650501251 1.0299899578 1.0299899578
 849.97637939  -999.250000 21.202999115 0.0040000002  -999.250000 0.5004900098 1.7680000067  -999.250000 70.497749329 163.93518066 160.03536987 1.1482002735 59.024250031 1.0309979916 1.0309979916
 850.12878418  -999.250000 20.906000137 0.0099999998  -999.250000 0.4799800217 1.7760000229  -999.250000 71.872245789 164.08198547 160.20199585 1.1030901670 59.149749756 1.0250120163 1.0250120163
 850.28112793  -999.250000 20.937999725 -0.005000000  -999.250000 0.5249000192 1.7580000162  -999.250000 76.114784241 164.52688599 160.67417908 1.0790576935 59.898200989 1.0329807997 1.0329807997
 850.43353271  -999.250000 21.062999725 -0.002000000  -999.250000 0.5249000192 1.7599999905  -999.250000 74.691459656 165.45433044 161.56349182 1.0730143785 58.154205322 1.0280120373 1.0280120373
 850.58593750  -999.250000 21.141000748 -0.007000000  -999.250000 0.5263699889 1.7419999838  -999.250000 72.505256653 165.58615112 161.68901062 1.0829758644 58.648799896 1.0240097046 1.0240097046
 850.73834229  -999.250000 20.843999863 -0.007000000  -999.250000 0.5107400417 1.7380000353  -999.250000 69.756607056 165.50787354 161.62925720 1.0899832249 60.520496368 0.9830985069 0.9830985069
 850.89068604  -999.250000 20.797000885 -0.011000000  -999.250000 0.5683599710 1.7289999723  -999.250000 75.048110962 165.81951904 161.93667603 1.0780335665 59.278507233 0.9530841112 0.9530841112
 851.04309082  -999.250000 20.500000000 -0.009000000  -999.250000 0.5571300387 1.7359999418  -999.250000 76.434700012 165.69108582 161.81330872 1.0301153660 59.898498535 0.9290577173 0.9290577173
 851.19549561  -999.250000 20.422000885 -0.010000000  -999.250000 0.5522499681 1.7369999886  -999.250000 75.128158569 165.80577087 161.93424988 1.0010697842 59.401203156 0.9240120649 0.9240120649
 851.34790039  -999.250000 20.391000748 -0.017999999  -999.250000 0.5156300068 1.7309999466  -999.250000 69.388816833 165.59027100 161.75000000 0.9810480475 58.651802063 0.9240000248 0.9240000248
 851.50030518  -999.250000 20.468999863 -0.027000001  -999.250000 0.4853500128 1.7230000496  -999.250000 74.238288879 165.65144348 161.76216125 0.9710240364 59.024101257 0.9040480256 0.9040480256
 851.65270996  -999.250000 20.594001770 -0.016000001  -999.250000 0.4902299941 1.7330000401  -999.250000 73.938751221 165.97639465 162.08049011 0.9680072069 58.276802063 0.8740720749 0.8740720749
 851.80511475  -999.250000 21.358997345 -0.008000000  -999.250000 0.4873000085 1.7389999628  -999.250000 76.182594299 166.91534424 163.03289795 0.9949351549 58.649101257 0.8590360880 0.8590360880
