# LAS format log file from PETREL
# Project units are specified as depth units
#==================================================================
~Version information
VERS.   2.0:
WRAP.   NO:
#==================================================================
~Well
STRT .m      326.13598633 :
STOP .m      1938.6804199 :
STEP .m     0.00000000 :
NULL .        -999.250000 :
COMP.           : COMPANY
WELL.  31/2-17 A   : WELL
FLD.            : FIELD
LOC.            : LOCATION
SRVC.           : SERVICE COMPANY
DATE.  2018-09-11 14:48:33   : Log Export Date {yyyy-MM-dd HH:mm:ss}
PROV.           : PROVINCE
UWI.   31/2-17 A   : UNIQUE WELL ID
API.            : API NUMBER
#==================================================================
~Curve
DEPT .m                   : DEPTH
Lithology_geolink ._      : Lithology_geolink
CALI .in                  : CALI
DRHO .g/cm3               : DRHO
RHOB .g/cm3               : RHOB
GR .gAPI                  : GR
DTC .us/ft                : DTC
RDEP .ohm.m               : RDEP
RMED .ohm.m               : RMED
~Parameter
#==================================================================
~Ascii
 326.13598633  -999.250000 8.6134996414 -1.004699945 1.0000000000 45.891101837 206.22460938  -999.250000  -999.250000
 326.28839111  -999.250000 8.6134996414 -1.004699945 1.0000000000 48.543800354 206.22460938  -999.250000  -999.250000
 326.44079590  -999.250000 8.6134996414 -1.004699945 1.0000000000 51.765499115 206.22460938  -999.250000  -999.250000
 326.59317017  -999.250000 8.6134996414 -1.004699945 1.0000000000 55.042400360 206.22460938  -999.250000  -999.250000
 326.74557495  -999.250000 8.6134996414 -1.004699945 1.0000000000 55.859001160 206.22460938  -999.250000  -999.250000
 326.89797974  -999.250000 8.6134996414 -1.004699945 1.0000000000 54.731899261 206.22460938  -999.250000  -999.250000
 327.05038452  -999.250000 8.6134996414 -1.004699945 1.0000000000 52.573200226 206.22460938  -999.250000  -999.250000
 327.20278931  -999.250000 8.6134996414 -1.004699945 1.0000000000 48.092800140 206.22460938  -999.250000  -999.250000
 327.35519409  -999.250000 8.6134996414 -1.004699945 1.0000000000 47.257099152 206.22460938  -999.250000  -999.250000
 327.50759888  -999.250000 8.6134996414 -1.004699945 1.0000000000 50.194698334 206.22460938  -999.250000  -999.250000
 327.65997314  -999.250000 8.6134996414 -1.004699945 1.0000000000 50.471401215 206.22460938  -999.250000  -999.250000
 327.81237793  -999.250000 8.6134996414 -1.004699945 1.0000000000 50.926200867 206.22460938  -999.250000  -999.250000
 327.96478271  -999.250000 8.6134996414 -1.004699945 1.0000000000 44.773601532 206.22460938  -999.250000  -999.250000
 328.11718750  -999.250000 8.6134996414 -1.004699945 1.0000000000 49.800800323 206.22460938  -999.250000  -999.250000
 328.26959229  -999.250000 8.6134996414 -1.004699945 1.0000000000 49.311199188 206.22460938  -999.250000  -999.250000
 328.42199707  -999.250000 8.6134996414 -1.004699945 1.0000000000 49.588500977 206.22460938  -999.250000  -999.250000
 328.57440186  -999.250000 8.6134996414 -1.004699945 1.0000000000 47.448799133 206.22460938  -999.250000  -999.250000
 328.72677612  -999.250000 8.6134996414 -1.004699945 1.0000000000 49.612499237 206.22460938  -999.250000  -999.250000
 328.87918091  -999.250000 8.6134996414 -1.004699945 1.0000000000 50.381698608 206.22460938  -999.250000  -999.250000
 329.03158569  -999.250000 8.6134996414 -1.004699945 1.0000000000 49.452598572 206.22460938  -999.250000  -999.250000
 329.18399048  -999.250000 8.6134996414 -1.004699945 1.0000000000 45.820098877 206.22460938  -999.250000  -999.250000
 329.33639526  -999.250000 8.6134996414 -1.004699945 1.0000000000 49.405300140 206.22460938  -999.250000  -999.250000
 329.48880005  -999.250000 8.6134996414 -1.004699945 1.0000000000 48.181301117 206.22460938  -999.250000  -999.250000
 329.64117432  -999.250000 8.6134996414 -1.004699945 1.0000000000 47.691699982 206.22460938  -999.250000  -999.250000
 329.79357910  -999.250000 8.6134996414 -1.004699945 1.0000000000 47.009300232 206.22460938  -999.250000  -999.250000
 329.94598389  -999.250000 8.6134996414 -1.004699945 1.0000000000 47.779701233 206.22460938  -999.250000  -999.250000
 330.09838867  -999.250000 8.6134996414 -1.004699945 1.0000000000 51.218498230 206.22460938  -999.250000  -999.250000
 330.25079346  -999.250000 8.6134996414 -1.004699945 1.0000000000 49.467498779 206.22460938  -999.250000  -999.250000
 330.40319824  -999.250000 8.6134996414 -1.004699945 1.0000000000 50.448898315 206.22460938  -999.250000  -999.250000
 330.55560303  -999.250000 8.6134996414 -1.004699945 1.0000000000 48.933799744 206.22460938  -999.250000  -999.250000
 330.70797729  -999.250000 8.6134996414 -1.004699945 1.0000000000 52.443801880 206.22460938  -999.250000  -999.250000
 330.86038208  -999.250000 8.6134996414 -1.004699945 1.0000000000 54.364200592 206.22460938  -999.250000  -999.250000
 331.01278687  -999.250000 8.6134996414 -1.004699945 1.0000000000 57.539501190 206.22460938  -999.250000  -999.250000
 331.16519165  -999.250000 8.6134996414 -1.004699945 1.0000000000 51.896198273 206.22460938  -999.250000  -999.250000
 331.31759644  -999.250000 8.6134996414 -1.004699945 1.0000000000 50.632598877 206.22460938  -999.250000  -999.250000
 331.47000122  -999.250000 8.6134996414 -1.004699945 1.0000000000 48.362499237 206.22460938  -999.250000  -999.250000
 331.62240601  -999.250000 8.6134996414 -1.004699945 1.0000000000 49.763000488 206.22460938  -999.250000  -999.250000
 331.77478027  -999.250000 8.6134996414 -1.004699945 1.0000000000 51.559898376 206.22460938  -999.250000  -999.250000
 331.92718506  -999.250000 8.6134996414 -1.004699945 1.0000000000 51.875900269 206.22460938  -999.250000  -999.250000
 332.07958984  -999.250000 8.6134996414 -1.004699945 1.0000000000 50.363201141 206.22460938  -999.250000  -999.250000
 332.23199463  -999.250000 8.6134996414 -1.004699945 1.0000000000 50.809101105 206.22460938  -999.250000  -999.250000
 332.38439941  -999.250000 8.6134996414 -1.004699945 1.0000000000 49.867298126 206.22460938  -999.250000  -999.250000
 332.53680420  -999.250000 8.6134996414 -1.004699945 1.0000000000 49.212600708 206.22460938  -999.250000  -999.250000
 332.68920898  -999.250000 8.6134996414 -1.004699945 1.0000000000 45.576999664 206.22460938  -999.250000  -999.250000
 332.84158325  -999.250000 8.6134996414 -1.004699945 1.0000000000 48.132198334 206.22460938  -999.250000  -999.250000
 332.99398804  -999.250000 8.6134996414 -1.004699945 1.0000000000 49.144599915 206.22460938  -999.250000  -999.250000
 333.14639282  -999.250000 8.6134996414 -1.004699945 1.0000000000 47.361999512 206.22460938  -999.250000  -999.250000
 333.29879761  -999.250000 8.6134996414 -1.004699945 1.0000000000 45.823600769 206.22460938  -999.250000  -999.250000
 333.45120239  -999.250000 8.6134996414 -1.004699945 1.0000000000 45.268901825 206.22460938  -999.250000  -999.250000
 333.60360718  -999.250000 8.6134996414 -1.004699945 1.0000000000 49.750400543 206.22460938  -999.250000  -999.250000
 333.75601196  -999.250000 8.6134996414 -1.004699945 1.0000000000 50.611099243 206.22460938  -999.250000  -999.250000
 333.90838623  -999.250000 8.6134996414 -1.004699945 1.0000000000 52.601398468 206.22460938  -999.250000  -999.250000
 334.06079102  -999.250000 8.6134996414 -1.004699945 1.0000000000 49.866001129 206.22460938  -999.250000  -999.250000
 334.21319580  -999.250000 8.6134996414 -1.004699945 1.0000000000 45.050899506 206.22460938  -999.250000  -999.250000
 334.36560059  -999.250000 8.6134996414 -1.004699945 1.0000000000 43.304798126 206.22460938  -999.250000  -999.250000
 334.51800537  -999.250000 8.6134996414 -1.004699945 1.0000000000 42.114498138 206.22460938  -999.250000  -999.250000
 334.67041016  -999.250000 8.6134996414 -1.004699945 1.0000000000 50.437801361 206.22460938  -999.250000  -999.250000
 334.82281494  -999.250000 8.6134996414 -1.004699945 1.0000000000 53.571800232 206.22460938  -999.250000  -999.250000
 334.97518921  -999.250000 8.6134996414 -1.004699945 1.0000000000 50.355598450 206.22460938  -999.250000  -999.250000
 335.12759399  -999.250000 8.6134996414 -1.004699945 1.0000000000 42.277099609 206.22460938  -999.250000  -999.250000
 335.27999878  -999.250000 8.6134996414 -1.004699945 1.0000000000 39.698898315 206.22460938  -999.250000  -999.250000
 335.43240356  -999.250000 8.6134996414 -1.004699945 1.0000000000 45.329399109 206.22460938  -999.250000  -999.250000
 335.58480835  -999.250000 8.6134996414 -1.004699945 1.0000000000 51.449501038 206.22460938  -999.250000  -999.250000
 335.73721313  -999.250000 8.6134996414 -1.004699945 1.0000000000 53.419200897 206.22460938  -999.250000  -999.250000
 335.88958740  -999.250000 8.6134996414 -1.004699945 1.0000000000 52.891601563 206.22460938  -999.250000  -999.250000
 336.04199219  -999.250000 8.6134996414 -1.004699945 1.0000000000 50.443500519 206.22460938  -999.250000  -999.250000
 336.19439697  -999.250000 8.6134996414 -1.004699945 1.0000000000 48.929798126 206.22460938  -999.250000  -999.250000
 336.34680176  -999.250000 8.6134996414 -1.004699945 1.0000000000 47.254100800 206.22460938  -999.250000  -999.250000
