# LAS format log file from PETREL
# Project units are specified as depth units
#==================================================================
~Version information
VERS.   2.0:
WRAP.   NO:
#==================================================================
~Well
STRT .m      416.08499146 :
STOP .m      2599.3679199 :
STEP .m     0.00000000 :
NULL .        -999.250000 :
COMP.           : COMPANY
WELL.  31/2-2 R   : WELL
FLD.            : FIELD
LOC.            : LOCATION
SRVC.           : SERVICE COMPANY
DATE.  2018-09-11 14:48:33   : Log Export Date {yyyy-MM-dd HH:mm:ss}
PROV.           : PROVINCE
UWI.   31/2-2 R   : UNIQUE WELL ID
API.            : API NUMBER
#==================================================================
~Curve
DEPT .m                   : DEPTH
Lithology_geolink ._      : Lithology_geolink
CALI .in                  : CALI
DRHO .g/cm3               : DRHO
NPHI .m3/m3               : NPHI
RHOB .g/cm3               : RHOB
GR .gAPI                  : GR
DTC .us/ft                : DTC
RDEP .ohm.m               : RDEP
SP .mV                    : SP
RSHA .ohm.m               : RSHA
RMED .ohm.m               : RMED
~Parameter
#==================================================================
~Ascii
# ...
 1434.2696533 12.000000000 18.406000137 0.0230000000 0.4199199975 2.3480000496 38.776512146 116.99266815 1.8330208063 19.924003601  -999.250000 1.6739687920
 1434.4219971 12.000000000 18.468999863 0.0329999998 0.4121099710 2.3570001125 40.663139343 114.97683716 1.8050223589 19.920003891  -999.250000 1.7159663439
 1434.5744629 12.000000000 18.250000000 0.0219999999 0.4208999872 2.3459999561 43.332965851 115.58102417 1.7940088511 19.915004730  -999.250000 1.6940176487
 1434.7268066 12.000000000 18.422000885 0.0120000001 0.4150400162 2.3110001087 44.538005829 117.14523315 1.7820096016 19.910003662  -999.250000 1.6030730009
 1434.8792725 12.000000000 18.656000137 -0.007000000 0.4072299898 2.2769999504 44.546089172 120.14319611 1.7750055790 19.906003952  -999.250000 1.5320568085
 1435.0316162 12.000000000 18.500000000 -0.004000000 0.4125999808 2.2699999809 44.600826263 123.11086273 1.7749999762 19.901002884  -999.250000 1.4910329580
 1435.1840820 12.000000000 18.406000137 -0.005000000 0.3896499872 2.2709999084 45.636230469 124.08644104 1.7560153008 19.958953857  -999.250000 1.5039895773
 1435.3364258 12.000000000 18.297000885 -0.003000000 0.3969699740 2.2850000858 47.027751923 122.02731323 1.7280224562 20.114873886  -999.250000 1.5779407024
 1435.4888916 12.000000000 18.468999863 -0.008000000 0.4174800217 2.2869999409 46.716453552 119.35527802 1.7010215521 20.270875931  -999.250000 1.6449463367
 1435.6412354 12.000000000 18.797000885 0.0070000002 0.4462900162 2.3239998817 45.127025604 119.62655640 1.6670273542 19.954254150  -999.250000 1.6499959230
 1435.7935791 12.000000000 19.000000000 0.0340000018 0.4423799813 2.3399999142 43.914241791 124.24687958 1.6320559978 19.679441452  -999.250000 1.5821088552
 1435.9460449 12.000000000 18.891000748 0.0579999983 0.4375000000 2.3540000916 44.213932037 129.24099731 1.5990264416 19.674003601  -999.250000 1.4860768318
 1436.0983887 13.000000000 18.812999725 0.0460000001 0.4047900140 2.3069999218 45.375854492 133.90478516 1.5670512915 20.595521927  -999.250000 1.3871585131
 1436.2508545 13.000000000 18.281000137 0.0520000011 0.4101599753 2.3010001183 48.939834595 137.64900208 1.5290304422 20.981691360  -999.250000 1.3320441246
 1436.4031982 13.000000000 18.062999725 0.0399999991 0.3994100094 2.2869999409 51.228023529 139.68312073 1.5130256414 20.947055817  -999.250000 1.3000512123
 1436.5556641 13.000000000 17.733999252 0.0209999997 0.4370099902 2.2790000439 52.503620148 140.85014343 1.5060056448 20.800117493  -999.250000 1.2800159454
 1436.7080078 13.000000000 17.641000748 0.0040000002 0.4174800217 2.2599999905 53.276897430 139.96513367 1.5079984665 20.654115677  -999.250000 1.3089767694
 1436.8604736 13.000000000 17.608999252 -0.003000000 0.4160200059 2.2520000935 53.145092010 138.54028320 1.5219887495 20.064472198  -999.250000 1.3449711800
 1437.0128174 13.000000000 17.781000137 0.0040000002 0.3925800025 2.2620000839 50.079887390 135.18905640 1.5279952288 19.827190399  -999.250000 1.4239367247
 1437.1652832 13.000000000 17.750000000 0.0149999997 0.3901399970 2.2909998894 46.197017670 130.07919312 1.5279999971 21.032035828  -999.250000 1.5089318752
 1437.3176270 13.000000000 18.297000885 0.0329999998 0.3867200017 2.3050000668 44.337612152 127.49021912 1.5150103569 21.028003693  -999.250000 1.5639559031
 1437.4700928 13.000000000 18.733999252 0.0340000018 0.4873000085 2.2969999313 46.358448029 127.09462738 1.4980136156 20.786193848  -999.250000 1.5450152159
 1437.6224365 13.000000000 18.672000885 0.0419999994 0.5170900226 2.2869999409 50.381210327 131.86933899 1.4520368576 20.466255188  -999.250000 1.4730577469
 1437.7747803 13.000000000 18.437999725 0.0049999999 0.5419900417 2.2339999676 55.634090424 140.14508057 1.4060736895 19.997751236  -999.250000 1.3561873436
 1437.9272461 13.000000000 17.781000137 0.0160000008 0.4799800217 2.2379999161 58.245410919 141.89222717 1.3560400009 19.644281387  -999.250000 1.2350969315
 1438.0795898 13.000000000 17.391000748 0.0199999996 0.4668000042 2.2400000095 58.756797791 145.23596191 1.3070784807 19.798751831  -999.250000 1.1850800514
 1438.2320557 13.000000000 17.375000000 0.0500000007 0.5058599710 2.2809998989 58.502712250 146.80848694 1.2620359659 19.954874039  -999.250000 1.1919944286
 1438.3843994 13.000000000 17.608999252 0.0340000018 0.4887699783 2.2679998875 58.148040771 146.66334534 1.2450271845 20.110750198  -999.250000 1.2019840479
 1438.5368652 13.000000000 17.875000000 0.0240000002 0.5024399757 2.2500000000 58.200557709 146.20773315 1.2420023680 20.266874313  -999.250000 1.1930071115
 1438.6892090 13.000000000 18.218999863 0.0189999994 0.4746099710 2.2070000172 58.896453857 146.14016724 1.2400015593 20.465839386  -999.250000 1.1810096502
 1438.8416748 13.000000000 18.093999863 0.0230000000 0.5009800196 2.1889998913 60.713294983 146.41755676 1.2340047359 20.822713852  -999.250000 1.1740056276
 1438.9940186 13.000000000 17.781000137 0.0060000001 0.5283200145 2.1640000343 62.768272400 146.08679199 1.2200112343 20.868963242  -999.250000 1.1799951792
 1439.1464844 13.000000000 17.608999252 0.0149999997 0.5366199613 2.1970000267 63.100143433 144.97178650 1.2110071182 20.672159195  -999.250000 1.1869944334
 1439.2988281 13.000000000 17.733999252 0.0160000008 0.5146499872 2.2190001011 60.070796967 144.82534790 1.2040055990 20.474159241  -999.250000 1.1929951906
 1439.4512939 13.000000000 17.343999863 0.0329999998 0.5102500319 2.2560000420 57.318252563 145.41004944 1.2049992085 20.277158737  -999.250000 1.1989952326
 1439.6036377 13.000000000 17.983999252 0.0149999997 0.4833999872 2.2360000610 56.227191925 145.41598511 1.2129936218 20.139110565  -999.250000 1.2049952745
 1439.7559814 13.000000000 18.312999725 0.0140000004 0.4653300047 2.2379999161 55.214962006 145.03092957 1.2259790897 20.082092285  -999.250000 1.2089935541
 1439.9084473 13.000000000 18.297000885 0.0140000004 0.4438499808 2.2439999580 52.671569824 142.83651733 1.2379903793 20.025045395  -999.250000 1.2129968405
 1440.0607910 13.000000000 18.625000000 0.0289999992 0.4614300132 2.2769999504 49.642662048 140.26219177 1.2439903021 19.968091965  -999.250000 1.2169935703
 1440.2132568 13.000000000 19.000000000 0.0430000015 0.4765599966 2.3010001183 49.217224121 138.76640320 1.2410024405 19.819120407  -999.250000 1.2209967375
 1440.3656006 13.000000000 18.906000137 0.0209999997 0.4907199740 2.2639999390 49.498920441 138.48666382 1.2390031815 19.613330841  -999.250000 1.2239952087
 1440.5180664 13.000000000 18.922000885 0.0130000003 0.4594699740 2.2360000610 50.648887634 140.48680115 1.2389999628 19.644975662  -999.250000 1.2210023403
 1440.6704102 13.000000000 18.468999863 -0.004000000 0.4882799983 2.2049999237 51.758369446 140.50994873 1.2389999628 19.811866760  -999.250000 1.2170032263
 1440.8228760 13.000000000 18.281000137 -0.003000000 0.4931600094 2.2070000172 53.469600677 142.12940979 1.2429968119 19.987859726  -999.250000 1.2140023708
 1440.9752197 13.000000000 18.172000885 -0.001000000 0.5097700357 2.2230000496 56.712711334 143.78701782 1.2469967604 20.183843613  -999.250000 1.2149991989
 1441.1276855 13.000000000 18.218999863 0.0020000001 0.4868199825 2.2300000191 57.594707489 144.47090149 1.2509968281 20.313894272  -999.250000 1.2189967632
 1441.2800293 13.000000000 18.781000137 0.0209999997 0.4482400119 2.2460000515 56.788139343 143.72879028 1.2559959888 20.310003281  -999.250000 1.2219976187
 1441.4324951 13.000000000 18.343999863 0.0170000009 0.4594699740 2.2300000191 55.714740753 143.41848755 1.2609959841 20.305004120  -999.250000 1.2259967327
 1441.5848389 13.000000000 18.172000885 0.0049999999 0.4848600030 2.2170000076 55.552532196 144.63204956 1.2659959793 19.986255646  -999.250000 1.2299968004
 1441.7373047 13.000000000 18.108999252 -0.008000000 0.5083000064 2.2090001106 56.219028473 145.46965027 1.2719951868 19.610301971  -999.250000 1.2329976559
 1441.8896484 13.000000000 17.687999725 -0.008000000 0.5117200017 2.2009999752 57.484569550 145.92726135 1.2710008621 19.606004715  -999.250000 1.2300024033
