# LAS format log file from PETREL
# Project units are specified as depth units
#==================================================================
~Version information
VERS.   2.0:
WRAP.   NO:
#==================================================================
~Well
STRT .m      399.05941772 :
STOP .m      2436.9521484 :
STEP .m     0.00000000 :
NULL .        -999.250000 :
COMP.           : COMPANY
WELL.  31/2-1   : WELL
FLD.            : FIELD
LOC.            : LOCATION
SRVC.           : SERVICE COMPANY
DATE.  2018-09-11 14:48:32   : Log Export Date {yyyy-MM-dd HH:mm:ss}
PROV.           : PROVINCE
UWI.   31/2-1   : UNIQUE WELL ID
API.            : API NUMBER
#==================================================================
~Curve
DEPT .m                   : DEPTH
Lithology_geolink ._      : Lithology_geolink
CALI .in                  : CALI
BS .in                    : BS
DRHO .g/cm3               : DRHO
NPHI .m3/m3               : NPHI
RHOB .g/cm3               : RHOB
GR .gAPI                  : GR
DTC .us/ft                : DTC
DTE .us/ft                : DTE
RDEP .ohm.m               : RDEP
SP .mV                    : SP
RSHA .ohm.m               : RSHA
RMED .ohm.m               : RMED
~Parameter
#==================================================================
~Ascii
# ...
 808.10095215  -999.250000 18.596359253 17.500000000 -0.043381657 0.5558155179 2.0225889683 30.004579544 150.11509705 150.10780334 1.1384190321 17.916353226 0.8639002442 0.8639002442
 808.25335693  -999.250000 19.105800629 17.500000000 -0.050763316 0.5774086118 2.0225720406 27.960496902 150.11520386 150.10783386 1.1221190691 18.290870667 0.8363292217 0.8363292217
 808.40576172  -999.250000 20.126249313 17.500000000 -0.052000001 0.5898991227 2.0225560665 27.031103134 150.11529541 150.10792542 1.1073168516 18.612543106 0.8077467084 0.8077467084
 808.55816650  -999.250000 21.276021957 17.500000000 -0.050308496 0.5885062814 2.0225389004 27.264186859 150.11540222 150.10803223 1.0925109386 17.785360336 0.8013087511 0.8013087511
 808.71057129  -999.250000 22.270282745 17.500000000 -0.050845813 0.5986977220 2.0225229263 27.766038895 150.11540222 150.10809326 1.0778228045 16.922298431 0.8012021780 0.8012021780
 808.86297607  -999.250000 22.739479065 17.500000000 -0.048462555 0.5948938727 2.0225059986 27.825864792 150.11549377 150.10813904 1.0822972059 16.030845642 0.8045982122 0.8045982122
 809.01538086  -999.250000 22.531469345 17.500000000 -0.050537445 0.5840047002 2.0224900246 27.729438782 150.11560059 150.10824585 1.0878957510 15.358501434 0.8099993467 0.8099993467
 809.16778564  -999.250000 22.276348114 17.500000000 -0.052691631 0.5930082798 2.0224740505 26.608648300 150.11560059 150.10830688 1.0935016870 15.049389839 0.8228870034 0.8228870034
 809.32019043  -999.250000 22.174070358 17.500000000 -0.048770927 0.6097034812 2.0224568844 26.824625015 150.11570740 150.10835266 1.1124893427 15.009158134 0.8326909542 0.8326909542
 809.47259521  -999.250000 22.117738724 17.500000000 -0.041233480 0.6171891093 2.0224409103 28.161664963 150.11579895 150.10844421 1.1475669146 15.008158684 0.8423908353 0.8423908353
 809.62500000  -999.250000 21.990510941 17.500000000 -0.034079295 0.5919983983 2.0224239826 29.572355270 150.11579895 150.10855103 1.1826748848 15.817822456 0.8521054983 0.8521054983
 809.77740479  -999.250000 21.759258270 17.500000000 -0.033000000 0.5900124907 2.0224080086 30.568382263 150.11590576 150.10859680 1.2122532129 16.629978180 0.8759878874 0.8759878874
 809.92980957  -999.250000 21.443191528 17.500000000 -0.036383260 0.6063119769 2.0223910809 31.929285049 150.11599731 150.10864258 1.2047049999 16.401281357 0.9034820795 0.9034820795
 810.08215332  -999.250000 21.018859863 17.500000000 -0.033618342 0.6226115227 2.0223751068 32.689659119 150.11610413 150.10874939 1.1971111298 15.576047897 0.9309679270 0.9309679270
 810.23455811  -999.250000 20.534217834 17.500000000 -0.027082099 0.6389111280 2.0223579407 32.998950958 150.11610413 150.10879517 1.1939225197 14.506236076 0.9551678300 0.9551678300
 810.38696289  -999.250000 20.269939423 17.500000000 -0.022618342 0.6553103924 2.0223419666 32.999191284 150.11619568 150.10884094 1.2186721563 13.897625923 0.9712713361 0.9712713361
 810.53936768  -999.250000 20.323129654 17.500000000 -0.024536245 0.6713969707 2.0223250389 32.358844757 150.11619568 150.10890198 1.2434811592 13.562615395 0.9711022377 0.9711022377
 810.69177246  -999.250000 20.527719498 17.500000000 -0.027537260 0.6664873958 2.0223090649 32.132202148 150.11630249 150.10894775 1.2681840658 13.428293228 0.9744026661 0.9744026661
 810.84417725  -999.250000 20.901659012 17.500000000 -0.023770925 0.6448884010 2.0222918987 33.142665863 150.11640930 150.10903931 1.2998774052 14.837183952 0.9869907498 0.9869907498
 810.99658203  -999.250000 21.372680664 17.500000000 -0.017079296 0.6237974763 2.0222759247 34.533344269 150.11651611 150.10914612 1.3388663530 16.032674789 1.0016871691 1.0016871691
 811.14898682  -999.250000 21.718250275 17.500000000 -0.011770925 0.6190068722 2.0222589970 35.607490540 150.11651611 150.10920715 1.3779643774 17.217172623 1.0163061619 1.0163061619
 811.30139160  -999.250000 21.610200882 17.500000000 -0.007616740 0.6331015229 2.0222430229 36.358978271 150.11659241 150.10925293 1.4168634415 17.550949097 1.0714489222 1.0714489222
 811.45379639  -999.250000 20.957429886 17.500000000 -0.005308370 0.6363916993 2.0222270489 36.839927673 150.11669922 150.10934448 1.4555624723 17.324615479 1.1269408464 1.1269408464
 811.60620117  -999.250000 20.559190750 17.500000000 -0.003308370 0.6168910861 2.0222098827 37.056823730 150.11669922 150.10940552 1.4942615032 17.721475601 1.1695539951 1.1695539951
 811.75860596  -999.250000 20.795410156 17.500000000 -0.006383260 0.5941841006 2.0221939087 36.839668274 150.11680603 150.10945129 1.5329794884 18.214962006 1.2028687000 1.2028687000
 811.91101074  -999.250000 20.678709030 17.500000000 -0.012074891 0.5732954741 2.0221769810 35.742549896 150.11689758 150.10954285 1.5763715506 18.558012009 1.2218543291 1.2218543291
 812.06341553  -999.250000 20.140222549 17.500000000 -0.018074889 0.5670914054 2.0221610069 34.423080444 150.11689758 150.10960388 1.6206692457 18.915260315 1.1950287819 1.1950287819
 812.21575928  -999.250000 19.889970779 17.500000000 -0.018154584 0.5548081994 2.0221440792 33.798439026 150.11700439 150.10964966 1.6650475264 18.218793869 1.1828247309 1.1828247309
 812.36816406  -999.250000 19.995429993 17.500000000 -0.011236683 0.5671117902 2.0221281052 34.442115784 150.11709595 150.10974121 1.7052538395 17.016319275 1.1878910065 1.1878910065
 812.52056885  -999.250000 19.887180328 17.500000000 -0.003236684 0.5857182741 2.0221109390 35.781837463 150.11720276 150.10984802 1.7445855141 16.351478577 1.1878181696 1.1878181696
 812.67297363  -999.250000 19.691410065 17.500000000 -0.001154586 0.6160107255 2.0220949650 35.971992493 150.11720276 150.10989380 1.6722619534 15.316963196 1.2179739475 1.2179739475
 812.82537842  -999.250000 19.529760361 17.500000000 -0.005228766 0.6345949769 2.0220780373 34.317783356 150.11729431 150.10993958 1.6069691181 15.159203529 1.2455629110 1.2455629110
 812.97778320  -999.250000 19.454679489 17.500000000 -0.003462555 0.6254916191 2.0220620632 32.110614777 150.11740112 150.11004639 1.5695320368 15.239604950 1.2469904423 1.2469904423
 813.13018799  -999.250000 19.404479980 17.500000000 0.0003832600 0.6090921760 2.0220448971 31.484979630 150.11740112 150.11010742 1.5321350098 15.312085152 1.2316142321 1.2316142321
 813.28259277  -999.250000 19.356449127 17.500000000 0.0001541850 0.5927987099 2.0220289230 31.955921173 150.11747742 150.11015320 1.4987473488 14.930716515 1.2162121534 1.2162121534
 813.43499756  -999.250000 19.246290207 17.500000000 -0.003383260 0.5897074938 2.0220119953 32.127971649 150.11758423 150.11024475 1.5022845268 14.602773666 1.1955183744 1.1955183744
 813.58740234  -999.250000 19.226440430 17.500000000 -0.009920705 0.6078016758 2.0219960213 31.657178879 150.11758423 150.11035156 1.4777139425 14.301614761 1.1700252295 1.1700252295
 813.73980713  -999.250000 19.596420288 17.500000000 -0.016074890 0.6122961044 2.0219800472 30.702972412 150.11769104 150.11041260 1.4271432161 14.380271912 1.1445173025 1.1445173025
 813.89221191  -999.250000 20.222280502 17.500000000 -0.018691629 0.6012920737 2.0219628811 30.218303680 150.11779785 150.11045837 1.4233005047 15.184358597 1.1282085180 1.1282085180
 814.04461670  -999.250000 20.892568588 17.500000000 -0.016462555 0.5902923942 2.0219469070 29.767292023 150.11779785 150.11051941 1.4195005894 15.245135307 1.1200013161 1.1200013161
 814.19702148  -999.250000 21.574760437 17.500000000 -0.014308371 0.5792961717 2.0219299793 29.744548798 150.11790466 150.11054993 1.4157055616 13.437627792 1.1117023230 1.1117023230
 814.34936523  -999.250000 22.122840881 17.500000000 -0.015690830 0.5735018849 2.0219140053 30.089973450 150.11799622 150.11064148 1.4192051888 14.313957214 1.1034116745 1.1034116745
 814.50177002  -999.250000 22.508119583 17.500000000 -0.016000001 0.5765066147 2.0218970776 31.540636063 150.11799622 150.11070251 1.4348894358 15.555540085 1.1051017046 1.1051017046
 814.65417480  -999.250000 22.709819794 17.500000000 -0.016000001 0.5875061750 2.0218811035 32.059654236 150.11810303 150.11074829 1.4506883621 16.656837463 1.1107964516 1.1107964516
