# LAS format log file from PETREL
# Project units are specified as depth units
#==================================================================
~Version information
VERS.   2.0:
WRAP.   NO:
#==================================================================
~Well
STRT .m      445.17501831 :
STOP .m      1838.8730469 :
STEP .m     0.00000000 :
NULL .        -999.250000 :
COMP.           : COMPANY
WELL.  31/2-10   : WELL
FLD.            : FIELD
LOC.            : LOCATION
SRVC.           : SERVICE COMPANY
DATE.  2018-09-11 14:48:32   : Log Export Date {yyyy-MM-dd HH:mm:ss}
PROV.           : PROVINCE
UWI.   31/2-10   : UNIQUE WELL ID
API.            : API NUMBER
#==================================================================
~Curve
DEPT .m                   : DEPTH
Lithology_geolink ._      : Lithology_geolink
CALI .in                  : CALI
DRHO .g/cm3               : DRHO
NPHI .m3/m3               : NPHI
RHOB .g/cm3               : RHOB
PEF .b/e                  : PEF
GR .gAPI                  : GR
DTC .us/ft                : DTC
RDEP .ohm.m               : RDEP
SP .mV                    : SP
RSHA .ohm.m               : RSHA
RMED .ohm.m               : RMED
~Parameter
#==================================================================
~Ascii
# ...
 906.03259277  -999.250000 17.812999725 -0.003000000 0.4547399879 1.7890000343 3.2809998989 69.125000000 158.08207703 1.0590000153 61.706001282  -999.250000 0.9629999995
 906.18499756  -999.250000 17.812999725 -0.006000000 0.4492200017 1.7710000277 3.2960000038 68.625000000 159.01591492 1.0549999475 62.191001892  -999.250000 0.9520000219
 906.33740234  -999.250000 17.760000229 -0.007000000 0.4964199960 1.7419999838 3.3120000362 65.625000000 159.91995239 1.0520000458 61.174999237  -999.250000 0.9279999733
 906.48980713  -999.250000 17.775999069 -0.005000000 0.5127800107 1.7309999466 3.1940000057 68.063003540 160.57183838 1.0449999571 62.409000397  -999.250000 0.9070000052
 906.64221191  -999.250000 17.923999786 -0.004000000 0.5117200017 1.7330000401 2.9370000362 69.688003540 160.79269409 1.0349999666 62.894001007  -999.250000 0.8960000277
 906.79461670  -999.250000 17.992000580 -0.002000000 0.4733700156 1.7549999952 2.6449999809 70.375000000 160.15446472 1.0230000019 62.409000397  -999.250000 0.8980000019
 906.94702148  -999.250000 17.974000931 -0.002000000 0.4727399945 1.7680000067 2.4230000973 62.219001770 159.98036194 1.0080000162 62.643997192  -999.250000 0.9079999924
 907.09942627  -999.250000 17.916999817 0.0000000000 0.4647600055 1.7730000019 2.2679998875 63.905998230 160.18139648 0.9950000048 62.377998352  -999.250000 0.9309999943
 907.25183105  -999.250000 17.840999603 0.0010000000 0.4690000117 1.7649999857 2.1740000248 63.719001770 160.14886475 0.9969999790 62.362998962  -999.250000 0.9449999928
 907.40423584  -999.250000 17.750000000 0.0000000000 0.4575899839 1.7589999437 2.1340000629 66.875000000 159.89721680 1.0019999743 61.831001282  -999.250000 0.9380000234
 907.55664063  -999.250000 17.733999252 -0.003000000 0.4705500007 1.7569999695 2.1389999390 61.062999725 159.51815796 1.0140000582 61.597000122  -999.250000 0.9269999862
 907.70898438  -999.250000 17.681999207 -0.007000000 0.4793299735 1.7630000114 2.1540000439 60.062999725 159.01643372 1.0230000019 61.612998962  -999.250000 0.9309999943
 907.86138916  -999.250000 17.711000443 -0.007000000 0.4922800064 1.7779999971 2.2179999352 61.655998230 159.00134277 1.0310000181 61.112998962  -999.250000 0.9430000186
 908.01379395  -999.250000 17.732000351 -0.008000000 0.4628900290 1.7920000553 2.2260000706 64.125000000 158.91790771 1.0310000181 60.877998352  -999.250000 0.9689999819
 908.16619873  -999.250000 17.773000717 -0.004000000 0.4374099970 1.8029999733 2.2290000916 64.313003540 159.01638794 1.0399999619 61.144001007  -999.250000 0.9890000224
 908.31860352  -999.250000 17.806999207 -0.003000000 0.4246399999 1.8070000410 2.1909999847 63.000000000 159.00068665 1.0379999876 60.644001007  -999.250000 1.0039999485
 908.47100830  -999.250000 17.864999771 -0.003000000 0.4354700148 1.8079999685 2.2309999466 62.250000000 158.92115784 1.0369999409 60.674999237  -999.250000 1.0190000534
 908.62341309  -999.250000 17.900999069 -0.005000000 0.4648599923 1.8070000410 2.2869999409 68.125000000 159.06054688 1.0340000391 59.924999237  -999.250000 1.0299999714
 908.77581787  -999.250000 17.906000137 -0.004000000 0.4922000170 1.7979999781 2.3440001011 72.563003540 159.36016846 1.0329999924 59.894001007  -999.250000 1.0260000229
 908.92822266  -999.250000 17.906000137 -0.001000000 0.4843699932 1.7899999619 2.3389999866 74.375000000 159.92530823 1.0290000439 60.112998962  -999.250000 1.0140000582
 909.08062744  -999.250000 17.906000137 -0.003000000 0.4542499781 1.7799999714 2.2690000534 68.375000000 159.73568726 1.0199999809 59.394001007  -999.250000 0.9969999790
 909.23303223  -999.250000 17.906000137 -0.006000000 0.4129000008 1.7819999456 2.3010001183 69.188003540 159.21054077 0.9969999790 60.674999237  -999.250000 1.0089999437
 909.38543701  -999.250000 17.906000137 -0.011000000 0.4309999943 1.7840000391 2.2960000038 63.625000000 158.99771118 0.9860000014 60.144001007  -999.250000 1.0210000277
 909.53784180  -999.250000 17.931999207 -0.010000000 0.4673799872 1.7920000553 2.2690000534 67.250000000 158.90069580 0.9800000191 59.612998962  -999.250000 1.0169999599
 909.69024658  -999.250000 18.016000748 -0.006000000 0.5037599802 1.8029999733 2.2119998932 63.405998230 158.89675903 0.9750000238 60.144001007  -999.250000 0.9779999852
 909.84259033  -999.250000 18.069999695 -0.004000000 0.4865599871 1.8200000525 2.1849999428 68.000000000 158.83956909 0.9750000238 59.362998962  -999.250000 0.9769999981
 909.99499512  -999.250000 18.077999115 -0.003000000 0.4969900250 1.8400000334 2.2170000076 67.688003540 158.55247498 0.9739999771 59.644001007  -999.250000 0.9929999709
 910.14739990  -999.250000 18.090999603 -0.007000000 0.4898199737 1.8530000448 2.1919999123 69.688003540 158.57072449 0.9710000157 59.612998962  -999.250000 1.0279999971
 910.29980469  -999.250000 18.159000397 -0.006000000 0.5004100204 1.8609999418 2.1919999123 74.875000000 158.64755249 0.9779999852 59.581001282  -999.250000 1.0410000086
 910.45220947  -999.250000 18.224000931 -0.005000000 0.4353500009 1.8650000095 2.1640000343 76.250000000 158.56492615 0.9860000014 59.862998962  -999.250000 1.0449999571
 910.60461426  -999.250000 18.260000229 -0.002000000 0.4133299887 1.8669999838 2.1549999714 79.500000000 158.54948425 0.9900000095 59.612998962  -999.250000 1.0440000296
 910.75701904  -999.250000 18.330999374 -0.002000000 0.4022600055 1.8700000048 2.1310000420 75.250000000 157.94895935 0.9929999709 60.144001007  -999.250000 1.0490000248
 910.90942383  -999.250000 18.343999863 -0.004000000 0.4203400016 1.8710000515 2.1480000019 74.000000000 157.33418274 0.9950000048 59.644001007  -999.250000 1.0540000200
 911.06182861  -999.250000 18.395999908 -0.008000000 0.4316400290 1.8730000257 2.1879999638 69.563003540 157.05055237 0.9879999757 59.644001007  -999.250000 1.0599999428
 911.21423340  -999.250000 18.431999207 -0.010000000 0.4925500154 1.8750000000 2.2520000935 71.563781738 156.52581787 0.9950056076 59.862800598  -999.250000 1.0630028248
 911.36663818  -999.250000 18.437999725 -0.013000000 0.5149800181 1.8810000420 2.3090000153 73.500999451 155.87017822 1.0090047121 59.363113403  -999.250000 1.0700024366
 911.51904297  -999.250000 18.437999725 -0.010000000 0.5170900226 1.8940000534 2.2660000324 75.999198914 155.87353516 1.0210088491 59.643775940  -999.250000 1.0760071278
 911.67144775  -999.250000 18.437999725 -0.010000000 0.4421799779 1.8980000019 2.2049999237 74.998649597 155.91928101 1.0320079327 59.362998962  -999.250000 1.0850000381
 911.82385254  -999.250000 18.607000351 -0.007000000 0.4276500046 1.8990000486 2.2000000477 73.309997559 156.12705994 1.0420080423 59.363197327  -999.250000 1.0849847794
 911.97619629  -999.250000 18.628000259 -0.008000000 0.4232600033 1.8930000067 2.2520000935 69.562225342 156.21437073 1.0520029068 59.612899780  -999.250000 1.0659967661
 912.12860107  -999.250000 18.468999863 -0.007000000 0.4329399765 1.8919999599 2.3299999237 67.625747681 156.14434814 1.0590008497 59.363098145  -999.250000 1.0580008030
 912.28100586  -999.250000 18.437999725 -0.003000000 0.4134899974 1.8910000324 2.3050000668 69.500701904 155.84146118 1.0610008240 59.612998962  -999.250000 1.0600043535
 912.43341064  -999.250000 18.398000717 -0.003000000 0.4091799855 1.8819999695 2.2720000744 71.249946594 155.69955444 1.0630003214 59.613010406  -999.250000 1.0710028410
 912.58581543  -999.250000 18.351999283 -0.005000000 0.4287200272 1.8680000305 2.3029999733 71.124549866 155.46965027 1.0640040636 59.643989563  -999.250000 1.0779983997
 912.73822021  -999.250000 18.278999329 -0.006000000 0.4696699977 1.8580000401 2.2760000229 70.000152588 155.28747559 1.0740044117 59.612899780  -999.250000 1.0739943981
 912.89062500  -999.250000 18.214000702 -0.009000000 0.5018900037 1.8530000448 2.3220000267 70.376098633 155.29492188 1.0850088596 59.363113403  -999.250000 1.0599967241
 913.04302979  -999.250000 18.125000000 -0.010000000 0.5060200095 1.8589999676 2.3369998932 73.124877930 155.38742065 1.1070120335 59.644001007  -999.250000 1.0520004034
 913.19543457  -999.250000 18.044000626 -0.011000000 0.5225499868 1.8600000143 2.4549999237 72.813575745 155.68789673 1.1370052099 59.644001007  -999.250000 1.0529996157
