# LAS format log file from PETREL
# Project units are specified as depth units
#==================================================================
~Version information
VERS.   2.0:
WRAP.   NO:
#==================================================================
~Well
STRT .m      447.54394531 :
STOP .m      3384.4443359 :
STEP .m     0.00000000 :
NULL .        -999.250000 :
COMP.           : COMPANY
WELL.  31/2-8   : WELL
FLD.            : FIELD
LOC.            : LOCATION
SRVC.           : SERVICE COMPANY
DATE.  2018-09-11 14:48:34   : Log Export Date {yyyy-MM-dd HH:mm:ss}
PROV.           : PROVINCE
UWI.   31/2-8   : UNIQUE WELL ID
API.            : API NUMBER
#==================================================================
~Curve
DEPT .m                   : DEPTH
Lithology_geolink ._      : Lithology_geolink
CALI .in                  : CALI
DRHO .g/cm3               : DRHO
SGR .gAPI                 : SGR
NPHI .m3/m3               : NPHI
RHOB .g/cm3               : RHOB
PEF .b/e                  : PEF
GR .gAPI                  : GR
DTC .us/ft                : DTC
RDEP .ohm.m               : RDEP
SP .mV                    : SP
RSHA .ohm.m               : RSHA
RMED .ohm.m               : RMED
~Parameter
#==================================================================
~Ascii
# ...
 1232.0991211  -999.250000 17.649999619 0.0060000001  -999.250000 0.4976699948 2.0309998989  -999.250000 79.707412720 162.12403870 0.7849615812 37.784507751 0.7660288215 0.7660288215
 1232.2515869  -999.250000 17.618999481 0.0029935949  -999.250000 0.4831499755 2.0259912014  -999.250000 74.059608459 161.15769958 0.7939783931 38.049358368 0.7650023699 0.7650023699
 1232.4039307  -999.250000 17.646999359 -0.005000000  -999.250000 0.4779700041 2.0150001049  -999.250000 73.220657349 160.27290344 0.7910096049 37.473850250 0.7809487581 0.7809487581
 1232.5563965  -999.250000 17.643999100 -0.014004804  -999.250000 0.4764100015 2.0150170326  -999.250000 71.933097839 160.16235352 0.7830192447 37.258514404 0.7969615459 0.7969615459
 1232.7087402  -999.250000 17.628000259 -0.020000000  -999.250000 0.4790999889 2.0360000134  -999.250000 68.064422607 160.42903137 0.7800095677 36.863265991 0.8039776087 0.8039776087
 1232.8612061  -999.250000 17.625000000 -0.013987991  -999.250000 0.4952200055 2.0770175457  -999.250000 65.791450500 160.74249268 0.7819951773 36.561725616 0.8000096083 0.8000096083
 1233.0135498  -999.250000 17.628000259 0.0010000000  -999.250000 0.5129299760 2.0989999771  -999.250000 63.786422729 160.92340088 0.7839936018 36.410484314 0.7970095873 0.7970095873
 1233.1660156  -999.250000 17.641000748 0.0190080125  -999.250000 0.4993099868 2.0989894867  -999.250000 67.617752075 160.87767029 0.7830023766 35.827404022 0.8029855490 0.8029855490
 1233.3183594  -999.250000 17.656000137 0.0289983973  -999.250000 0.4739099741 2.0859887600  -999.250000 66.075981140 161.01940918 0.7790127993 35.977512360 0.8069871664 0.8069871664
 1233.4708252  -999.250000 17.669000626 0.0269927885  -999.250000 0.4625799954 2.0719871521  -999.250000 65.498382568 161.27137756 0.7710192800 35.814392090 0.8060023785 0.8060023785
 1233.6231689  -999.250000 17.669000626 0.0179935936  -999.250000 0.4908100069 2.0559887886  -999.250000 66.729042053 161.24400330 0.7660160065 36.342304230 0.7970288396 0.7970288396
 1233.7755127  -999.250000 17.656000137 0.0099999998  -999.250000 0.5284399986 2.0420000553  -999.250000 76.763748169 160.91320801 0.7600192428 36.851367950 0.7870320678 0.7870320678
 1233.9279785  -999.250000 17.649999619 0.0090024015  -999.250000 0.5171400309 2.0380072594  -999.250000 80.908782959 160.73320007 0.7560127974 36.890876770 0.7770320177 0.7770320177
 1234.0803223  -999.250000 17.666000366 0.0120000001  -999.250000 0.4827899933 2.0469999313  -999.250000 78.957313538 160.77874756 0.7500144243 37.182064056 0.7740072012 0.7740072012
 1234.2327881  -999.250000 17.662000656 0.0089959968  -999.250000 0.4670399725 2.0510017872  -999.250000 69.521293640 160.91639709 0.7450119853 37.197952271 0.7720048428 0.7720048428
 1234.3851318  -999.250000 17.634000778 0.0040000002  -999.250000 0.4430600107 2.0529999733  -999.250000 67.674835205 161.07539368 0.7440024018 37.462150574 0.7710024118 0.7710024118
 1234.5375977  -999.250000 17.625000000 -0.000000801  -999.250000 0.4700400233 2.0500006676  -999.250000 68.004188538 161.22703552 0.7449976206 37.661521912 0.7700023651 0.7700023651
 1234.6899414  -999.250000 17.625000000 -0.001000000  -999.250000 0.4782600105 2.0510001183  -999.250000 70.584716797 161.36225891 0.7509855628 37.890266418 0.7729927897 0.7729927897
 1234.8424072  -999.250000 17.628000259 0.0030016012  -999.250000 0.4876599908 2.0560030937  -999.250000 72.695930481 161.21620178 0.7609759569 38.366851807 0.7829759717 0.7829759717
 1234.9947510  -999.250000 17.646999359 0.0049999999  -999.250000 0.4556399882 2.0599999428  -999.250000 71.315444946 160.83430481 0.7639927864 38.053009033 0.7929759622 0.7929759622
 1235.1472168  -999.250000 17.672000885 0.0109983971  -999.250000 0.4150600135 2.0609936714  -999.250000 74.236953735 159.96563721 0.7669928074 38.310379028 0.7979879975 0.7979879975
 1235.2995605  -999.250000 17.666000366 0.0090016006  -999.250000 0.3882699907 2.0529975891  -999.250000 69.753425598 159.31471252 0.7670000196 38.694766998 0.7989976406 0.7989976406
 1235.4520264  -999.250000 17.674999237 0.0110016027  -999.250000 0.4032700062 2.0500016212  -999.250000 72.280876160 159.62428284 0.7580216527 37.861011505 0.7960072160 0.7960072160
 1235.6043701  -999.250000 17.700000763 0.0130032031  -999.250000 0.4284899831 2.0520064831  -999.250000 73.340614319 160.44847107 0.7480240464 37.512115479 0.7900144458 0.7900144458
 1235.7567139  -999.250000 17.715999603 0.0170000009  -999.250000 0.4287300110 2.0599999428  -999.250000 77.199600220 161.29151917 0.7529839873 37.590744019 0.7770416141 0.7770416141
 1235.9091797  -999.250000 17.700000763 0.0239991993  -999.250000 0.3900699914 2.0720000267  -999.250000 77.895805359 161.83692932 0.7549951673 38.066474915 0.7640312314 0.7640312314
 1236.0615234  -999.250000 17.646999359 0.0230000000  -999.250000 0.4125199914 2.0720000267  -999.250000 73.464256287 161.74543762 0.7569952011 37.805843353 0.7560192347 0.7560192347
 1236.2139893  -999.250000 17.636999130 0.0279983990  -999.250000 0.4562500119 2.0689918995  -999.250000 71.551101685 161.10627747 0.7599927783 37.606636047 0.7659759521 0.7659759521
 1236.3663330  -999.250000 17.641000748 0.0260000005  -999.250000 0.4916599989 2.0590000153  -999.250000 68.746994019 160.42160034 0.7530168295 37.463459015 0.7889446616 0.7889446616
 1236.5187988  -999.250000 17.643999100 0.0290008001  -999.250000 0.4739400148 2.0590071678  -999.250000 65.234443665 159.68518066 0.7460168004 37.267471313 0.8139399886 0.8139399886
 1236.6711426  -999.250000 17.656000137 0.0299999993  -999.250000 0.4760299921 2.0680000782  -999.250000 62.992176056 159.32781982 0.7489928007 37.417514801 0.8209831715 0.8209831715
 1236.8236084  -999.250000 17.669000626 0.0309975967  -999.250000 0.4728799760 2.0790047646  -999.250000 65.048027039 159.64701843 0.7499976158 37.620510101 0.8090288639 0.8090288639
 1236.9759521  -999.250000 17.666000366 0.0280000009  -999.250000 0.4911700189 2.0850000381  -999.250000 68.103202820 159.91755676 0.7500000000 37.558200836 0.7950336933 0.7950336933
 1237.1284180  -999.250000 17.636999130 0.0269951969  -999.250000 0.5125100017 2.0859951973  -999.250000 71.311294556 160.24020386 0.7490023971 38.059791565 0.7930048108 0.7930048108
 1237.2807617  -999.250000 17.615999222 0.0209999997  -999.250000 0.5186299682 2.0799999237  -999.250000 71.642959595 160.51739502 0.7490000129 37.888553619 0.7929999828 0.7929999828
 1237.4332275  -999.250000 17.639999390 0.0139959939  -999.250000 0.5039399862 2.0639839172  -999.250000 72.890991211 160.56323242 0.7490000129 38.402759552 0.7870144248 0.7870144248
 1237.5855713  -999.250000 17.643999100 0.0090032024  -999.250000 0.4506000280 2.0439958572  -999.250000 69.857757568 160.27980042 0.7529904246 38.423934937 0.7790192366 0.7790192366
 1237.7380371  -999.250000 17.666000366 0.0130080134  -999.250000 0.4489899874 2.0390112400  -999.250000 63.358634949 159.38354492 0.7569904327 38.504806519 0.7780023813 0.7780023813
 1237.8903809  -999.250000 17.718000412 0.0230120104  -999.250000 0.4713799953 2.0530216694  -999.250000 61.196895599 158.56779480 0.7550048232 38.784103394 0.7889735103 0.7889735103
 1238.0427246  -999.250000 17.674999237 0.0379999988  -999.250000 0.5140799880 2.0799999237  -999.250000 63.868385315 158.18409729 0.7480168343 38.609565735 0.8079543710 0.8079543710
 1238.1951904  -999.250000 17.652999878 0.0409927964  -999.250000 0.5286700130 2.0919904709  -999.250000 67.496376038 158.18650818 0.7470023632 38.849227905 0.8129880428 0.8129880428
 1238.3475342  -999.250000 17.680999756 0.0320000015  -999.250000 0.5189700127 2.0799999237  -999.250000 71.869979858 158.76585388 0.7420120239 38.215042114 0.8090096116 0.8090096116
 1238.5000000  -999.250000 17.697000504 0.0109951962  -999.250000 0.4856499732 2.0519912243  -999.250000 72.901550293 159.46226501 0.7350168228 38.388576508 0.7990240455 0.7990240455
 1238.6523438  -999.250000 17.694000244 0.0049999999  -999.250000 0.4874700308 2.0409998894  -999.250000 74.364311218 160.04676819 0.7260216475 38.415912628 0.7940120697 0.7940120697
