# LAS format log file from PETREL
# Project units are specified as depth units
#==================================================================
~Version information
VERS.   2.0:
WRAP.   NO:
#==================================================================
~Well
STRT .m      452.86209106 :
STOP .m      2603.6831055 :
STEP .m     0.00000000 :
NULL .        -999.250000 :
COMP.           : COMPANY
WELL.  31/2-3   : WELL
FLD.            : FIELD
LOC.            : LOCATION
SRVC.           : SERVICE COMPANY
DATE.  2018-09-11 14:48:34   : Log Export Date {yyyy-MM-dd HH:mm:ss}
PROV.           : PROVINCE
UWI.   31/2-3   : UNIQUE WELL ID
API.            : API NUMBER
#==================================================================
~Curve
DEPT .m                   : DEPTH
Lithology_geolink ._      : Lithology_geolink
CALI .in                  : CALI
DRHO .g/cm3               : DRHO
NPHI .m3/m3               : NPHI
RHOB .g/cm3               : RHOB
GR .gAPI                  : GR
DTC .us/ft                : DTC
DTE .us/ft                : DTE
RDEP .ohm.m               : RDEP
SP .mV                    : SP
RSHA .ohm.m               : RSHA
RMED .ohm.m               : RMED
~Parameter
#==================================================================
~Ascii
# ...
 1023.4475708  -999.250000 18.339000702 0.0060048057 0.5056990981 1.9079915285 51.341999054 165.66537476 162.32133484 1.0679999590 40.736999512  -999.250000 1.2420120239
 1023.5999756  -999.250000 18.360000610 0.0079975976 0.5165169239 1.9079999924 52.844001770 166.17736816 162.84161377 1.0770000219 41.501998901  -999.250000 1.2230228186
 1023.7523804  -999.250000 18.365999222 0.0119951945 0.5273370147 1.9129879475 53.235000610 166.03085327 162.75900269 1.0839999914 42.027000427  -999.250000 1.1960324049
 1023.9047852  -999.250000 18.337999344 0.0149963954 0.5252724886 1.9179879427 53.020999908 165.51898193 162.28514099 1.0900000334 41.761001587  -999.250000 1.1830155849
 1024.0572510  -999.250000 18.302000046 0.0159991998 0.5217627883 1.9229879379 52.488998413 165.31188965 161.98857117 1.0939999819 41.356998444  -999.250000 1.1790032387
 1024.2095947  -999.250000 18.311000824 0.0110040065 0.5243479013 1.9220024347 50.708000183 165.45516968 162.08573914 1.0900000334 41.058998108  -999.250000 1.1710064411
 1024.3619385  -999.250000 18.343999863 0.0109999999 0.5369797349 1.9110352993 49.418998718 166.04804993 162.76942444 1.0809999704 40.853000641  -999.250000 1.1610159874
 1024.5144043  -999.250000 18.329999924 0.0109999999 0.5578433275 1.9030191898 49.935001373 166.47760010 163.24058533 1.0720000267 41.013000488  -999.250000 1.1590015888
 1024.6667480  -999.250000 18.239000320 0.0040112091 0.5619434118 1.8990097046 51.229999542 166.17631531 162.89054871 1.0629999638 41.236999512  -999.250000 1.1769711971
 1024.8192139  -999.250000 18.104999542 0.0030008012 0.5501495004 1.8900215626 50.979999542 165.40278625 162.17863464 1.0570000410 41.363998413  -999.250000 1.1999815702
 1024.9715576  -999.250000 17.979000092 0.0020016013 0.5446987152 1.8860096931 50.029998779 164.68550110 161.45715332 1.0529999733 41.422000885  -999.250000 1.2059903145
 1025.1240234  -999.250000 17.895999908 -0.000997596 0.5467483401 1.8869975805 49.061000824 164.44398499 161.14906311 1.0499999523 41.328998566  -999.250000 1.1870152950
 1025.2763672  -999.250000 17.861000061 -0.000000801 0.5597295761 1.8790191412 47.929000854 164.44412231 161.10636902 1.0509999990 41.198001862  -999.250000 1.1690144539
 1025.4288330  -999.250000 17.857999802 0.0069943955 0.5763966441 1.8770047426 46.430000305 164.26708984 160.98310852 1.0540000200 41.067001343  -999.250000 1.1610064507
 1025.5811768  -999.250000 17.867000580 0.0089983968 0.5790479183 1.8839831352 46.069999695 164.32191467 161.06875610 1.0559999943 40.937000275  -999.250000 1.1699928045
 1025.7336426  -999.250000 17.840000153 0.0050032022 0.5650012493 1.8879903555 46.611000061 164.56312561 161.24183655 1.0590000153 40.806999207  -999.250000 1.1919823885
 1025.8859863  -999.250000 17.795000076 0.0079975966 0.5543186069 1.8929879665 45.970001221 164.50444031 161.17260742 1.0650000572 40.780998230  -999.250000 1.2159807682
 1026.0384521  -999.250000 17.791999817 0.0070008007 0.5613244176 1.9009808302 44.669998169 164.67980957 161.37379456 1.0740000010 41.101001740  -999.250000 1.2279903889
 1026.1907959  -999.250000 17.840999603 0.0040024039 0.5779367089 1.9049903154 45.379001617 164.97981262 161.69816589 1.0820000172 41.230998993  -999.250000 1.2260015011
 1026.3432617  -999.250000 17.863000870 0.0059983986 0.5836954117 1.9000120163 45.360000610 165.39376831 162.06079102 1.0880000591 41.141998291  -999.250000 1.2140096426
 1026.4956055  -999.250000 17.819000244 0.0050008013 0.5730684996 1.8980047703 46.110000610 166.06358337 162.76655579 1.0839999914 41.148998260  -999.250000 1.1980128288
 1026.6479492  -999.250000 17.812000275 0.0020048039 0.5680979490 1.8970023394 46.573001862 167.06431580 163.79159546 1.0839999914 41.229999542  -999.250000 1.1870176792
 1026.8004150  -999.250000 17.825000763 -0.004994391 0.5716271400 1.8900167942 47.446998596 168.13545227 164.80267334 1.0880000591 40.937999725  -999.250000 1.1860008240
 1026.9527588  -999.250000 17.827999115 -0.002004804 0.5829418898 1.8800240755 47.338001251 168.61486816 165.29093933 1.0870000124 40.578998566  -999.250000 1.1989791393
 1027.1052246  -999.250000 17.822999954 0.0029959937 0.5918528438 1.8780047894 49.229000092 168.79434204 165.52697754 1.0750000477 40.556999207  -999.250000 1.2179847956
 1027.2575684  -999.250000 17.715999603 0.0049967975 0.5771635771 1.8829879761 49.229999542 169.03135681 165.77799988 1.0640000105 40.779998779  -999.250000 1.2339743376
 1027.4100342  -999.250000 17.613000870 0.0059991986 0.5548478961 1.8810048103 47.819999695 169.62487793 166.30853271 1.0579999685 40.960998535  -999.250000 1.2409944534
 1027.5623779  -999.250000 17.625999451 0.0040016025 0.5409211516 1.8829952478 46.305000305 170.87089539 167.50437927 1.0549999475 41.515998840  -999.250000 1.2300088406
 1027.7148438  -999.250000 17.650999069 0.0049991994 0.5308480263 1.8849952221 46.078998566 172.18716431 168.88420105 1.0579999685 40.969001770  -999.250000 1.2030215263
 1027.8671875  -999.250000 17.624000549 0.0059991986 0.5346569419 1.8830047846 45.154998779 172.96368408 169.68908691 1.0640000105 40.768001556  -999.250000 1.1740232706
 1028.0196533  -999.250000 17.579000473 0.0030024019 0.5442923307 1.8810048103 43.763999939 173.08828735 169.77928162 1.0690000057 40.942001343  -999.250000 1.1420255899
 1028.1719971  -999.250000 17.527000427 -0.000996795 0.5456089377 1.8780071735 42.611999512 172.55455017 169.25558472 1.0750000477 41.303001404  -999.250000 1.1429991722
 1028.3244629  -999.250000 17.430000305 -0.003997598 0.5444309711 1.8760048151 43.039001465 171.77957153 168.50572205 1.0800000429 41.150001526  -999.250000 1.1629840136
 1028.4768066  -999.250000 17.274000168 -0.004000000 0.5439404249 1.8769975901 43.201000214 171.19903564 167.91539001 1.0880000591 41.192001343  -999.250000 1.2039670944
 1028.6291504  -999.250000 17.183000565 -0.003001601 0.5462462902 1.8760032654 41.851001740 170.89179993 167.57334900 1.0939999819 41.277999878  -999.250000 1.2339519262
 1028.7816162  -999.250000 17.187000275 0.0019959938 0.5483883023 1.8730071783 41.719001770 170.64389038 167.34194946 1.0950000286 41.106998444  -999.250000 1.2399952412
 1028.9339600  -999.250000 17.253000259 0.0059935949 0.5477409959 1.8779879808 43.208000183 170.34700012 167.08853149 1.0950000286 40.794998169  -999.250000 1.2439935207
 1029.0864258  -999.250000 17.361000061 0.0069991988 0.5424942374 1.8889735937 44.724998474 169.92993164 166.63934326 1.0980000496 40.735000610  -999.250000 1.2420015335
 1029.2387695  -999.250000 17.461000443 0.0030064052 0.5361002684 1.8959832191 45.714000702 169.33599854 166.01437378 1.1039999723 40.736999512  -999.250000 1.2400032282
 1029.3912354  -999.250000 17.559999466 -0.000996795 0.5379185081 1.8999903202 47.646999359 168.62002563 165.40031433 1.1059999466 40.776000977  -999.250000 1.2380015850
 1029.5435791  -999.250000 17.684999466 0.0009983975 0.5445647240 1.8980047703 47.063999176 168.14097595 164.90060425 1.1059999466 40.965999603  -999.250000 1.2360014915
 1029.6960449  -999.250000 17.777000427 0.0069951965 0.5448298454 1.8940097094 45.426998138 167.90220642 164.55543518 1.1039999723 41.498001099  -999.250000 1.2369991541
 1029.8483887  -999.250000 17.840000153 0.0070000002 0.5377756953 1.8920047283 44.384998322 167.78189087 164.42532349 1.1019999981 42.037998199  -999.250000 1.2459928989
 1030.0008545  -999.250000 17.913999557 0.0000056045 0.5314050913 1.8919999599 43.458999634 167.42797852 164.17182922 1.1000000238 40.721000671  -999.250000 1.2559920549
 1030.1531982  -999.250000 17.989999771 -0.003996795 0.5363060832 1.8900047541 41.799999237 166.83119202 163.59846497 1.0980000496 40.766998291  -999.250000 1.2819790840
 1030.3056641  -999.250000 17.986000061 -0.006997598 0.5580925345 1.8840143681 42.726001740 166.35379028 163.04609680 1.0959999561 40.950000763  -999.250000 1.3159728050
 1030.4580078  -999.250000 17.878999710 -0.007000000 0.5833597183 1.8750215769 43.985000610 165.94309998 162.59808350 1.0950000286 41.194999695  -999.250000 1.3449767828
 1030.6103516  -999.250000 17.702999115 -0.005003202 0.5878228545 1.8660289049 44.044998169 165.40252686 162.10000610 1.0930000544 41.791999817  -999.250000 1.3320208788
