# LAS format log file from PETREL
# Project units are specified as depth units
#==================================================================
~Version information
VERS.   2.0:
WRAP.   NO:
#==================================================================
~Well
STRT .m      443.33587646 :
STOP .m      1778.0548096 :
STEP .m     0.00000000 :
NULL .        -999.250000 :
COMP.           : COMPANY
WELL.  31/2-9   : WELL
FLD.            : FIELD
LOC.            : LOCATION
SRVC.           : SERVICE COMPANY
DATE.  2018-09-11 14:48:35   : Log Export Date {yyyy-MM-dd HH:mm:ss}
PROV.           : PROVINCE
UWI.   31/2-9   : UNIQUE WELL ID
API.            : API NUMBER
#==================================================================
~Curve
DEPT .m                   : DEPTH
Lithology_geolink ._      : Lithology_geolink
CALI .in                  : CALI
DRHO .g/cm3               : DRHO
SGR .gAPI                 : SGR
NPHI .m3/m3               : NPHI
RHOB .g/cm3               : RHOB
PEF .b/e                  : PEF
GR .gAPI                  : GR
DTC .us/ft                : DTC
RDEP .ohm.m               : RDEP
SP .mV                    : SP
RSHA .ohm.m               : RSHA
RMED .ohm.m               : RMED
~Parameter
#==================================================================
~Ascii
# ...
 1328.4749756 19.000000000 17.827999115 -0.010995192  -999.250000 0.4629539847 2.0960094929 4.3338961601 65.748649597 130.75059509 0.8220296502 63.791534424 1.0969727039 1.0969727039
 1328.6273193 19.000000000 17.827999115 -0.010002402  -999.250000 0.4405337572 2.0950024128 4.4187960625 64.064102173 131.49989319 0.8590328693 63.457798004 1.0629823208 1.0629823208
 1328.7797852 6.0000000000 17.827999115 -0.006006410  -999.250000 0.4180459976 2.1129710674 4.7534632683 65.454017639 131.37339783 0.9000768661 63.469978333 1.0410608053 1.0410608053
 1328.9321289 6.0000000000 17.827999115 -0.004004804  -999.250000 0.4029363096 2.1419303417 5.0253467560 75.439506531 130.36889648 0.9480216503 63.913932800 1.0791466236 1.0791466236
 1329.0845947 6.0000000000 17.827999115 0.0009919872  -999.250000 0.4507631660 2.1739487648 5.3095450401 77.311302185 122.74970245 0.9750480652 64.359291077 1.2623778582 1.2623778582
 1329.2369385 6.0000000000 17.825000763 0.0029951963  -999.250000 0.4630206823 2.1789879799 5.4795918465 76.241935730 122.56095123 1.0050303936 64.691200256 1.4980521202 1.4980521202
 1329.3894043 6.0000000000 17.815999985 0.0020016027  -999.250000 0.4866620600 2.1750063896 5.3701763153 66.176391602 119.99579620 1.0430624485 64.449386597 1.5629198551 1.5629198551
 1329.5417480 19.000000000 17.812999725 0.0000032051  -999.250000 0.5259369612 2.1720046997 5.1503524780 58.936847687 117.38111115 1.0820441246 64.207389832 1.5129455328 1.5129455328
 1329.6940918 19.000000000 17.812999725 -0.003990393  -999.250000 0.5546709895 2.1650168896 4.9255404472 57.502353668 124.99679565 1.1370368004 63.965579987 1.4449375868 1.4449375868
 1329.8465576 19.000000000 17.815000534 -0.004000000  -999.250000 0.5658321977 2.1560142040 4.9130191803 60.442256927 121.00095367 1.1829967499 63.708412170 1.3669831753 1.3669831753
 1329.9989014 19.000000000 17.830999374 -0.006992795  -999.250000 0.5389348269 2.1460239887 4.9329519272 65.749496460 122.18655396 1.1790000200 63.449623108 1.3460359573 1.3460359573
 1330.1513672 19.000000000 17.847000122 -0.005003205  -999.250000 0.5071709156 2.1479969025 4.9649486542 65.125152588 120.37390137 1.1789840460 63.190414429 1.3911081553 1.3911081553
 1330.3037109 19.000000000 17.833999634 -0.005000000  -999.250000 0.4914677143 2.1559805870 4.9909377098 65.315902710 118.99759674 1.1589936018 63.318687439 1.5260304213 1.5260304213
 1330.4561768 19.000000000 17.827999115 -0.004001603  -999.250000 0.4954535365 2.1649856567 5.0219502449 68.934600830 115.99614716 1.1510208845 63.702384949 1.5639631748 1.5639631748
 1330.6085205 19.000000000 17.830999374 -0.006992795  -999.250000 0.4924073815 2.1719830036 5.0718798637 64.689857483 111.18655396 1.1770129204 64.086074829 1.5179511309 1.5179511309
 1330.7609863 19.000000000 17.837999344 -0.007998398  -999.250000 0.4758765101 2.1680064201 5.2357373238 67.002906799 109.37340546 1.1929951906 64.307647705 1.4569439888 1.4569439888
 1330.9133301 19.000000000 17.833999634 -0.008997598  -999.250000 0.4721189439 2.1590216160 5.2280192375 68.815505981 108.37725067 1.1899920702 64.186286926 1.4220504761 1.4220504761
 1331.0657959 19.000000000 17.840999603 -0.009998397  -999.250000 0.4800672233 2.1500144005 5.1461315155 71.938705444 111.19210815 1.1799775362 64.064201355 1.4850752354 1.4850752354
 1331.2181396 19.000000000 17.837999344 -0.009002401  -999.250000 0.4859758019 2.1539905071 4.9404950142 72.369140625 113.75080109 1.1659775972 63.948284149 1.5320070982 1.5320070982
 1331.3706055 19.000000000 17.819000244 -0.010996795  -999.250000 0.4839832187 2.1549983025 5.0917563438 65.057197571 114.75550842 1.1379647255 63.965969086 1.5408591032 1.5408591032
 1331.5229492 19.000000000 17.812999725 -0.010001603  -999.250000 0.4902898669 2.1530032158 5.1359295845 61.439502716 118.19105530 1.1159960032 63.983966827 1.4529166222 1.4529166222
 1331.6752930 19.000000000 17.815000534 -0.009002401  -999.250000 0.5025703907 2.1470143795 4.9723939896 63.314502716 122.00109863 1.1109919548 64.002952576 1.3489359617 1.3489359617
 1331.8277588 19.000000000 17.830999374 -0.006004808  -999.250000 0.5048663616 2.1489968300 4.8861379623 65.190910339 123.37310028 1.1009984016 64.175727844 1.2689912319 1.2689912319
 1331.9801025 19.000000000 17.853000641 -0.003007206  -999.250000 0.4657242596 2.1549856663 4.8490886688 68.812652588 120.99759674 1.0989999771 64.397468567 1.2580657005 1.2580657005
 1332.1325684 19.000000000 17.882999420 -0.005995193  -999.250000 0.4449432194 2.1559982300 5.0846219063 68.371696472 117.99819183 1.0990120173 64.620643616 1.3400906324 1.3400906324
 1332.2849121 19.000000000 17.972000122 -0.006000000  -999.250000 0.4500176609 2.1629831791 5.2925004959 64.249046326 115.74699402 1.1140176058 64.655914307 1.4530656338 1.4530656338
 1332.4373779 19.000000000 18.041000366 -0.005001602  -999.250000 0.4590854645 2.1719856262 5.4257869720 63.062923431 112.00205231 1.1360336542 64.487266541 1.5350208282 1.5350208282
 1332.5897217 19.000000000 18.056999207 -0.005000000  -999.250000 0.4692854583 2.1710023880 5.4998221397 62.969001770 114.56365204 1.1780264378 64.319404602 1.5610424280 1.5610424280
 1332.7421875 19.000000000 17.988000870 -0.005998398  -999.250000 0.4755399823 2.1660079956 5.2873415947 62.972183228 115.37435150 1.2110103369 64.092369080 1.6139614582 1.6139614582
 1332.8945313 19.000000000 17.885999680 -0.008992794  -999.250000 0.4822338820 2.1540288925 5.0775046349 66.934219360 114.56685638 1.2240071297 63.630115509 1.5659646988 1.5659646988
 1333.0469971 19.000000000 17.858999252 -0.009998397  -999.250000 0.4981943965 2.1460127831 4.8323922157 62.215049744 119.37440491 1.2330240011 63.166744232 1.5219215155 1.5219215155
 1333.1993408 19.000000000 17.858999252 -0.011995196  -999.250000 0.5093631744 2.1360239983 4.6464467049 59.751754761 119.00015259 1.2479991913 62.705108643 1.4730041027 1.4730041027
 1333.3518066 19.000000000 17.864999771 -0.012998397  -999.250000 0.5089906454 2.1310081482 4.7927646637 61.941501617 119.18990326 1.2470303774 63.040458679 1.4780817032 1.4780817032
 1333.5041504 19.000000000 17.881999969 -0.012001603  -999.250000 0.4658392668 2.1369905472 4.9806985855 64.125152588 120.37595367 1.2660144567 63.448348999 1.5290673971 1.5290673971
 1333.6566162 19.000000000 17.881000519 -0.012000000  -999.250000 0.4411195517 2.1459856033 5.1127886772 64.298393250 121.56301117 1.2840288877 63.856346130 1.6129808426 1.6129808426
 1333.8089600 19.000000000 17.888000488 -0.011001603  -999.250000 0.4484681487 2.1539871693 4.8354454041 55.187572479 121.56060791 1.3019952774 63.973812103 1.6010479927 1.6010479927
 1333.9613037 19.000000000 17.888000488 -0.006012009  -999.250000 0.4549145103 2.1689639091 4.6863579750 54.657398224 118.56155396 1.2959903479 63.926109314 1.6610825062 1.6610825062
 1334.1137695 19.000000000 17.868999481 -0.001008013  -999.250000 0.4736798704 2.1739919186 4.8387551308 56.407901764 116.74999237 1.2839784622 63.878074646 1.7640593052 1.7640593052
 1334.2661133 19.000000000 17.836999893 -0.000002402  -999.250000 0.4791868031 2.1640241146 5.0016083717 58.780097961 116.75129700 1.2569679022 64.417701721 1.8378983736 1.8378983736
 1334.4185791 19.000000000 17.827999115 -0.004991987  -999.250000 0.4745175242 2.1370432377 5.1916952133 57.657276154 118.37820435 1.2169831991 66.021430969 1.7108565569 1.7108565569
 1334.5709229 19.000000000 17.827999115 -0.005997598  -999.250000 0.4709984660 2.1290192604 5.2718076706 59.251327515 122.37595367 1.1959984303 67.624145508 1.5319110155 1.5319110155
 1334.7233887 19.000000000 17.827999115 -0.005001602  -999.250000 0.4754328728 2.1379857063 5.4626936913 60.908329010 123.56220245 1.1939991713 69.074684143 1.4209687710 1.4209687710
 1334.8757324 19.000000000 17.827999115 -0.002007206  -999.250000 0.4907231927 2.1519663334 5.4669904709 63.811096191 122.56235504 1.1930152178 68.626083374 1.3820447922 1.3820447922
 1335.0281982 19.000000000 17.827999115 -0.001001603  -999.250000 0.5211811662 2.1609857082 5.4999470711 61.436145782 121.74909210 1.2120784521 68.173721313 1.4381600618 1.4381600618
