# LAS format log file from PETREL
# Project units are specified as depth units
#==================================================================
~Version information
VERS.   2.0:
WRAP.   NO:
#==================================================================
~Well
STRT .m      447.54394531 :
STOP .m      3384.4443359 :
STEP .m     0.00000000 :
NULL .        -999.250000 :
COMP.           : COMPANY
WELL.  31/2-8   : WELL
FLD.            : FIELD
LOC.            : LOCATION
SRVC.           : SERVICE COMPANY
DATE.  2018-09-11 14:48:34   : Log Export Date {yyyy-MM-dd HH:mm:ss}
PROV.           : PROVINCE
UWI.   31/2-8   : UNIQUE WELL ID
API.            : API NUMBER
#==================================================================
~Curve
DEPT .m                   : DEPTH
Lithology_geolink ._      : Lithology_geolink
CALI .in                  : CALI
DRHO .g/cm3               : DRHO
SGR .gAPI                 : SGR
NPHI .m3/m3               : NPHI
RHOB .g/cm3               : RHOB
PEF .b/e                  : PEF
GR .gAPI                  : GR
DTC .us/ft                : DTC
RDEP .ohm.m               : RDEP
SP .mV                    : SP
RSHA .ohm.m               : RSHA
RMED .ohm.m               : RMED
~Parameter
#==================================================================
~Ascii
# ...
 3183.4287109 3.0000000000 8.0920000076 0.0230000000 23.516176224 0.2067399919 2.3689999580 3.4955720901 20.880466461 88.597694397 1.2740000486 66.173858643 1.7680000067 1.7680000067
 3183.5810547 3.0000000000 8.0939998627 0.0289999992 22.360853195 0.2021999955 2.3840000629 3.7805430889 18.903173447 89.680747986 1.3389999866 66.438575745 1.8609999418 1.8609999418
 3183.7333984 3.0000000000 8.0939998627 0.0289999992 20.362203598 0.1887599975 2.3940000534 3.7829968929 18.638420105 89.603576660 1.4079999924 66.506896973 2.0520000458 2.0520000458
 3183.8857422 3.0000000000 8.0939998627 0.0230000000 18.583698273 0.1798800081 2.4040000439 3.6175312996 18.617067337 89.301940918 1.4759999514 66.430244446 2.3750000000 2.3750000000
 3184.0383301 3.0000000000 8.0979995728 0.0140000004 16.877729416 0.1736599952 2.4070000648 3.4083349705 17.616605759 89.519180298 1.5260000229 66.551803589 2.6789999008 2.6789999008
 3184.1906738 3.0000000000 8.1110000610 0.0130000003 17.280349731 0.1687199920 2.4040000439 3.2133126259 15.494403839 89.552162170 1.5570000410 66.394248962 2.7290000916 2.7290000916
 3184.3430176 3.0000000000 8.1169996262 0.0179999992 17.296976089 0.1639699936 2.3910000324 3.2988622189 14.490606308 88.885025024 1.5629999638 66.180343628 2.4939999580 2.4939999580
 3184.4953613 3.0000000000 8.1169996262 0.0230000000 19.446100235 0.1657500118 2.3750000000 3.3299007416 14.880742073 87.941696167 1.5180000067 66.235824585 2.2300000191 2.2300000191
 3184.6479492 3.0000000000 8.1169996262 0.0240000002 21.138296127 0.1768099964 2.3610000610 3.3958940506 16.308710098 86.951324463 1.4459999800 66.495582581 2.0339999199 2.0339999199
 3184.8002930 3.0000000000 8.1169996262 0.0270000007 23.105844498 0.1971800029 2.3559999466 3.2522308826 17.977325439 86.234977722 1.3780000210 66.500991821 1.8999999762 1.8999999762
 3184.9526367 3.0000000000 8.1169996262 0.0250000004 24.170297623 0.2092300057 2.3450000286 3.1521601677 18.191659927 86.313652039 1.3209999800 66.078681946 1.7500000000 1.7500000000
 3185.1049805 3.0000000000 8.1210002899 0.0140000004 25.091049194 0.2096699923 2.3259999752 2.9715790749 21.154489517 86.532676697 1.2860000134 64.165138245 1.6849999428 1.6849999428
 3185.2575684 3.0000000000 8.1350002289 0.0000000000 27.683843613 0.1967099905 2.3139998913 2.8911283016 20.851501465 86.407852173 1.2869999409 63.647823334 1.7059999704 1.7059999704
 3185.4099121 3.0000000000 8.1409997940 -0.006000000 30.838941574 0.1939999908 2.3280000687 2.9568941593 24.894508362 86.068664551 1.3240000010 62.693531036 1.7589999437 1.7589999437
 3185.5622559 3.0000000000 8.1420001984 -0.002000000 34.649890900 0.1958799958 2.3640000820 3.3194181919 26.794960022 84.682052612 1.3990000486 61.470962524 1.9060000181 1.9060000181
 3185.7145996 3.0000000000 8.1479997635 0.0089999996 36.028793335 0.2054000050 2.4030001163 3.6834166050 30.855485916 82.643318176 1.5190000534 64.291465759 2.3080000877 2.3080000877
 3185.8669434 3.0000000000 8.1510000229 0.0189999994 36.218399048 0.2016200125 2.4270000458 3.6620702744 30.900875092 80.706443787 1.6779999733 66.071304321 2.8640000820 2.8640000820
 3186.0195313 3.0000000000 8.1499996185 0.0189999994 36.967800140 0.1945099980 2.4360001087 3.6130783558 31.769605637 78.718658447 1.8480000496 66.536262512 3.1540000439 3.1540000439
 3186.1718750 5.0000000000 8.1739997864 0.0120000001 40.806838989 0.1879599988 2.4409999847 3.7128398418 37.088466644 77.853988647 1.9889999628 66.944343567 3.3029999733 3.3029999733
 3186.3242188 5.0000000000 8.2119998932 0.0089999996 44.774639130 0.1912899911 2.4519999027 3.7359631062 45.142086029 78.656768799 2.0429999828 67.223548889 3.8369998932 3.8369998932
 3186.4765625 5.0000000000 8.2270002365 0.0130000003 45.902397156 0.1982699931 2.4619998932 3.2944176197 51.441818237 80.034591675 1.9980000257 67.498123169 4.4460000992 4.4460000992
 3186.6291504 5.0000000000 8.2209997177 0.0140000004 43.878253937 0.2009000033 2.4389998913 2.9655256271 51.240356445 81.472854614 1.9029999971 67.007789612 4.0489997864 4.0489997864
 3186.7814941 5.0000000000 8.1960000992 0.0089999996 41.691505432 0.1976600140 2.3919999599 2.8072531223 46.105243683 83.449081421 1.7869999409 66.335075378 3.0439999104 3.0439999104
 3186.9338379 5.0000000000 8.1660003662 0.0049999999 38.099761963 0.2001499981 2.3499999046 2.9767274857 39.132179260 85.454254150 1.6619999409 66.138313293 2.3499999046 2.3499999046
 3187.0861816 5.0000000000 8.1579999924 0.0070000002 34.480602264 0.2104199976 2.3380000591 2.9750063419 33.994457245 86.485771179 1.5319999456 65.942626953 2.0780000687 2.0780000687
 3187.2387695 3.0000000000 8.1649999619 0.0080000004 28.822063446 0.2128199935 2.3459999561 3.0428910255 30.722225189 86.720947266 1.4220000505 66.027862549 1.9850000143 1.9850000143
 3187.3911133 3.0000000000 8.1780004501 0.0040000002 24.772485733 0.2008100003 2.3489999771 2.9980719090 27.604995728 86.338165283 1.3639999628 65.739463806 1.9739999771 1.9739999771
 3187.5434570 3.0000000000 8.1909999847 0.0000000000 20.756435394 0.1815599948 2.3399999142 3.1367774010 23.891952515 84.973396301 1.3789999485 66.107406616 2.0099999905 2.0099999905
 3187.6958008 3.0000000000 8.1949996948 0.0030000000 19.330278397 0.1673699915 2.3329999447 3.2248587608 21.600667953 82.892982483 1.4709999561 66.295700073 2.1159999371 2.1159999371
 3187.8481445 3.0000000000 8.1940002441 0.0099999998 18.860500336 0.1577499956 2.3499999046 3.2788271904 21.158407211 81.274482727 1.6540000439 67.124336243 2.2590000629 2.2590000629
 3188.0007324 3.0000000000 8.1909999847 0.0230000000 20.045097351 0.1419200003 2.4089999199 3.3728492260 19.404813766 80.176612854 1.9259999990 67.907745361 2.6380000114 2.6380000114
 3188.1530762 3.0000000000 8.1929998398 0.0590000004 24.414989471 0.1093600020 2.4890000820 4.1397690773 17.842502594 79.179061890 2.2620000839 69.272811890 3.5260000229 3.5260000229
 3188.3054199 3.0000000000 8.2299995422 0.1199999973 45.871570587 0.0758500025 2.5409998894 5.0026173592 17.225986481 78.397483826 2.6860001087 70.733657837 5.8559999466 5.8559999466
 3188.4577637 3.0000000000 8.3979997635 0.1729999930 77.025100708 0.0525199994 2.5460000038 5.9698991776 24.250446320 77.079315186 3.2090001106 72.351814270 12.083999634 12.083999634
 3188.6103516 3.0000000000 8.6590003967 0.1749999970 106.01663208 0.0801799968 2.5099999905 6.7217979431 40.154506683 76.668647766 3.8269999027 73.707832336 22.530000687 22.530000687
 3188.7626953 3.0000000000 8.8210000992 0.1180000007 117.35687256 0.1674000025 2.4560000896 6.9875750542 65.069053650 77.801437378 4.5970001221 75.457191467 20.462999344 20.462999344
 3188.9150391 3.0000000000 8.8509998322 0.0689999983 116.25180054 0.2724100053 2.4400000572 8.0063657761 92.056747437 80.646995544 5.4939999580 76.745933533 11.029000282 11.029000282
 3189.0673828 7.0000000000 8.8050003052 0.0920000002 105.84640503 0.3369500041 2.5039999485 9.8919515610 106.64331818 84.219512939 6.2270002365 78.193359375 6.9029998779 6.9029998779
 3189.2199707 7.0000000000 8.6870002747 0.1729999930 98.761322021 0.3660100102 2.6129999161 14.157162666 111.65602875 85.935409546 6.3530001640 79.029663086 5.8090000153 5.8090000153
 3189.3723145 7.0000000000 8.6540002823 0.2249999940 92.135620117 0.3668000102 2.6610000134 13.961325645 104.60133362 85.660522461 6.1180000305 79.812751770 6.0339999199 6.0339999199
 3189.5246582 7.0000000000 8.7500000000 0.2080000043 92.811897278 0.3654499948 2.6259999275 12.690039635 97.380577087 84.507102966 5.7659997940 80.399063110 6.4879999161 6.4879999161
 3189.6770020 7.0000000000 8.8120002747 0.1749999970 90.566612244 0.3552100062 2.5720000267 12.133890152 89.360855103 83.611373901 5.4939999580 80.938140869 6.5149998665 6.5149998665
 3189.8293457 6.0000000000 8.8269996643 0.1539999992 88.071006775 0.3510699868 2.5360000134 14.889151573 83.051216125 82.530387878 5.3940000534 81.279907227 6.4219999313 6.4219999313
 3189.9819336 6.0000000000 8.8739995956 0.1169999987 84.319015503 0.3651300073 2.4820001125 14.539574623 80.421188354 80.502723694 5.4340000153 81.614463806 6.3629999161 6.3629999161
