# LAS format log file from PETREL
# Project units are specified as depth units
#==================================================================
~Version information
VERS.   2.0:
WRAP.   NO:
#==================================================================
~Well
STRT .m      1999.6403809 :
STOP .m      3191.7131348 :
STEP .m     0.00000000 :
NULL .        -999.250000 :
COMP.           : COMPANY
WELL.  31/2-21 S   : WELL
FLD.            : FIELD
LOC.            : LOCATION
SRVC.           : SERVICE COMPANY
DATE.  2018-09-11 14:48:34   : Log Export Date {yyyy-MM-dd HH:mm:ss}
PROV.           : PROVINCE
UWI.   31/2-21 S   : UNIQUE WELL ID
API.            : API NUMBER
#==================================================================
~Curve
DEPT .m                   : DEPTH
Lithology_geolink ._      : Lithology_geolink
CALI .in                  : CALI
BS .in                    : BS
ROP .m/h                  : ROP
DRHO .g/cm3               : DRHO
NPHI .m3/m3               : NPHI
RHOB .g/cm3               : RHOB
PEF .b/e                  : PEF
GR .gAPI                  : GR
DTC .us/ft                : DTC
DTS .us/ft                : DTS
RDEP .ohm.m               : RDEP
RMED .ohm.m               : RMED
~Parameter
#==================================================================
~Ascii
# ...
 2160.5747070 7.0000000000 8.5773000717 8.5000000000 2.3431758881 0.0878000036 0.3680999875 2.3921000957 3.8092999458 143.38710022 98.540802002 177.78250122 3.4755001068 3.4723000526
 2160.7272949 7.0000000000 8.5925998688 8.5000000000 1.1345144510 0.0816999972 0.3657999933 2.3893001080 3.9135999680 144.08419800 97.317207336 173.97590637 3.4463000298 3.4202001095
 2160.8796387 7.0000000000 8.5647001266 8.5000000000 1.6604330540 0.0830999985 0.3700999916 2.3910000324 3.8201999664 143.76139832 96.813392639 173.38499451 3.4274001122 3.4159998894
 2161.0319824 7.0000000000 8.5531997681 8.5000000000 3.0242784023 0.0815000013 0.3648000062 2.3900001049 3.8087999821 143.17860413 96.252288818 173.88241577 3.4247000217 3.4096000195
 2161.1843262 7.0000000000 8.5692996979 8.5000000000 3.4215879440 0.0807000026 0.3641999960 2.3768000603 3.5950999260 142.40609741 95.433601379 174.03601074 3.4158000946 3.3789000511
 2161.3369141 7.0000000000 8.4511003494 8.5000000000 3.1866798401 0.0844999999 0.3700000048 2.3754000664 3.7697999477 149.28579712 95.967010498 174.26069641 3.4154999256 3.3882999420
 2161.4892578 7.0000000000 8.4582996368 8.5000000000 1.6578084230 0.0874999985 0.3688000143 2.3703999519 3.8598999977 145.84530640 95.043899536 174.44140625 3.4240999222 3.4156999588
 2161.6416016 7.0000000000 8.5450000763 8.5000000000 1.8845144510 0.0907000005 0.3700000048 2.3738000393 3.7913000584 146.08500671 95.261199951 175.35690308 3.4102001190 3.4084000587
 2161.7939453 7.0000000000 8.4982995987 8.5000000000 3.5442910194 0.0869000033 0.3697000146 2.3777000904 3.9356999397 149.57220459 95.478599548 176.27239990 3.4539999962 3.4249000549
 2161.9462891 7.0000000000 8.5078001022 8.5000000000 3.9927821159 0.0820000023 0.3693000078 2.3805000782 3.9080998898 146.69400024 96.516700745 177.08580017 3.4161000252 3.4010000229
 2162.0988770 7.0000000000 8.6052999496 8.5000000000 4.2063646317 0.0844999999 0.3693999946 2.3836998940 3.9734001160 148.06599426 95.548698425 181.13299561 3.4068999290 3.3982000351
 2162.2512207 7.0000000000 8.7103996277 8.5000000000 4.2985563278 0.0777999982 0.3634999990 2.3722999096 3.7534999847 147.50010681 98.743095398 177.51498413 3.4339001179 3.4518001080
 2162.4035645 7.0000000000 8.6803998947 8.5000000000 4.3389105797 0.0784000009 0.3652000129 2.3780999184 3.6895000935 150.48980713 99.798400879 173.46080017 3.4918999672 3.5336999893
 2162.5559082 7.0000000000 8.7629995346 8.5000000000 4.3343176842 0.0825000033 0.3668999970 2.3868000507 3.8150999546 150.16940308 96.070198059 173.63288879 3.5789999962 3.6626000404
 2162.7084961 7.0000000000 8.8456001282 8.5000000000 4.8418636322 0.0865999982 0.3686999977 2.3956000805 3.9407000542 149.98899841 94.307899475 176.18150330 3.5731000900 3.7132000923
 2162.8608398 7.0000000000 8.7475004196 8.5000000000 6.7024283409 0.0851000026 0.3673999906 2.4010000229 3.8917999268 151.72210693 93.740196228 176.98359680 3.5453999043 3.6389999390
 2163.0131836 7.0000000000 8.5184001923 8.5000000000 6.9553804398 0.0854000002 0.3722000122 2.3975999355 3.8907001019 148.88009644 94.027801514 175.99110413 3.5443999767 3.6005001068
 2163.1655273 7.0000000000 8.6520996094 8.5000000000 5.3054461479 0.0856999978 0.3756000102 2.3887999058 3.9040000439 148.20500183 95.595199585 175.87440491 3.5285000801 3.5292000771
 2163.3181152 7.0000000000 8.5595998764 8.5000000000 4.7398295403 0.0839999989 0.3537999988 2.3854999542 3.8831999302 147.07220459 97.842399597 181.73719788 3.6217000484 3.5768001080
 2163.4704590 7.0000000000 8.6107997894 8.5000000000 4.6437010765 0.0811000019 0.3492999971 2.3952000141 3.7959001064 151.56579590 99.408798218 184.51989746 3.7283000946 3.6517000198
 2163.6228027 7.0000000000 8.5775995255 8.5000000000 4.6952099800 0.0885999948 0.3521000147 2.4138000011 3.9268000126 141.93699646 100.05520630 185.67880249 3.8115000725 3.7079999447
 2163.7751465 7.0000000000 8.5731000900 8.5000000000 4.9032154083 0.0866999999 0.3420000076 2.4182000160 4.0448999405 154.21220398 100.03900146 184.16841125 3.8605999947 3.7671000957
 2163.9274902 7.0000000000 8.5745000839 8.5000000000 5.2001314163 0.0804999992 0.3574000001 2.4077999592 4.1501002312 157.23019409 98.628303528 183.70880127 3.8315000534 3.7581999302
 2164.0800781 7.0000000000 8.5309000015 8.5000000000 4.8369421959 0.0802000016 0.3564000130 2.3958001137 3.8224999905 150.10360718 97.819999695 181.32827759 3.7897999287 3.7344999313
 2164.2324219 7.0000000000 8.4961996078 8.5000000000 4.2746062279 0.0671000034 0.3637999892 2.3829998970 3.6303999424 149.45660400 99.065200806 180.06779480 3.7894001007 3.7620999813
 2164.3847656 7.0000000000 8.5242996216 8.5000000000 3.3815615177 0.0700000003 0.3571999967 2.3831000328 3.4886999130 150.30200195 98.322990417 178.24179077 3.7874000072 3.7878000736
 2164.5371094 7.0000000000 8.5572996140 8.5000000000 1.6715880632 0.0766000003 0.3648999929 2.3736000061 3.4477000237 153.13420105 98.024208069 178.04370117 3.7679998875 3.7753000259
 2164.6896973 7.0000000000 8.5173997879 8.5000000000 0.5101705790 0.0718000010 0.3637000024 2.3722000122 3.5071001053 153.62590027 97.483001709 178.76481628 3.7435998917 3.7678999901
 2164.8420410 7.0000000000 8.5901002884 8.5000000000 0.1545275599 0.0659999996 0.3481999934 2.3740000725 3.7107000351 153.40780640 97.408401489 177.82751465 3.6661999226 3.6800999641
 2164.9943848 7.0000000000 8.5502996445 8.5000000000 0.2270341218 0.0669000000 0.3616000116 2.3754000664 3.5817999840 152.45449829 97.187110901 169.80850220 3.6507999897 3.6679999828
 2165.1467285 7.0000000000 8.5103998184 8.5000000000 0.6463254690 0.0678000003 0.3750999868 2.3766999245 3.4530000687 152.63389587 97.340400696 168.89129639 3.6024000645 3.6059000492
 2165.2993164 7.0000000000 8.5024995804 8.5000000000 1.4704724550 0.0753000006 0.3601000011 2.3926999569 3.7186999321 150.56120300 96.581901550 175.28302002 3.5309998989 3.5350999832
 2165.4516602 7.0000000000 8.5395002365 8.5000000000 0.5990813971 0.0744000003 0.3605999947 2.3926999569 3.8236000538 152.06880188 97.200103760 176.74011230 3.4282000065 3.4293000698
 2165.6040039 7.0000000000 8.5628995895 8.5000000000 0.1578083932 0.0768999979 0.3673000038 2.3975999355 3.8738000393 154.74339294 98.709999084 175.46757507 3.3743999004 3.3635001183
 2165.7563477 7.0000000000 8.6484003067 8.5000000000 0.0062335958 0.0734999999 0.3626999855 2.3938000202 3.8722000122 153.32650757 98.823310852 179.46670532 3.3606998920 3.3547999859
 2165.9089355 7.0000000000 8.6905002594 8.5000000000 0.7385170460 0.0803000033 0.3596999943 2.3994998932 3.8822000027 155.74380493 98.795303345 181.90080261 3.3405001163 3.3292000294
 2166.0612793 7.0000000000 8.5780000687 8.5000000000 4.3359580040 0.0820999965 0.3450999856 2.4102001190 3.9814999104 152.44459534 99.446510315 179.30758667 3.3203999996 3.3041999340
 2166.2136230 7.0000000000 8.5635004044 8.5000000000 8.1624021530 0.0762000009 0.3454000056 2.4049000740 3.6379001141 152.30039978 99.491409302 178.80009460 3.2623000145 3.2428998947
 2166.3659668 7.0000000000 8.5938997269 8.5000000000 5.2729659081 0.0762000009 0.3499000072 2.4052000046 3.8884999752 153.82260132 98.510398865 178.13151550 3.2646000385 3.2609000206
 2166.5183105 7.0000000000 8.6336002350 8.5000000000 1.8864828348 0.0806000009 0.3470000029 2.4110999107 4.0313000679 153.63200378 98.140403748 177.86309814 3.2634000778 3.2855000496
 2166.6708984 7.0000000000 8.6850004196 8.5000000000 0.4648050964 0.0751999989 0.3314999938 2.4038000107 3.7009000778 158.23599243 97.168998718 172.09519958 3.2736999989 3.3359999657
 2166.8232422 7.0000000000 8.7527999878 8.5000000000 0.0000477690 0.0777999982 0.3251000047 2.4000999928 3.5975000858 160.79040527 96.814102173 172.67079163 3.2514998913 3.3354001045
 2166.9755859 7.0000000000 8.6417999268 8.5000000000 0.0298556443 0.0846000016 0.3048999906 2.4026000500 3.8034000397 165.07969666 97.261199951 175.76420593 3.1833999157 3.2650001049
 2167.1279297 7.0000000000 8.6791000366 8.5000000000 0.6397637725 0.0864999965 0.3061000109 2.4070000648 3.8808000088 166.86160278 96.013397217 178.05200195 3.0587000847 3.1073000431
