# LAS format log file from PETREL
# Project units are specified as depth units
#==================================================================
~Version information
VERS.   2.0:
WRAP.   NO:
#==================================================================
~Well
STRT .m      1999.6403809 :
STOP .m      3191.7131348 :
STEP .m     0.00000000 :
NULL .        -999.250000 :
COMP.           : COMPANY
WELL.  31/2-21 S   : WELL
FLD.            : FIELD
LOC.            : LOCATION
SRVC.           : SERVICE COMPANY
DATE.  2018-09-11 14:48:34   : Log Export Date {yyyy-MM-dd HH:mm:ss}
PROV.           : PROVINCE
UWI.   31/2-21 S   : UNIQUE WELL ID
API.            : API NUMBER
#==================================================================
~Curve
DEPT .m                   : DEPTH
Lithology_geolink ._      : Lithology_geolink
CALI .in                  : CALI
BS .in                    : BS
ROP .m/h                  : ROP
DRHO .g/cm3               : DRHO
NPHI .m3/m3               : NPHI
RHOB .g/cm3               : RHOB
PEF .b/e                  : PEF
GR .gAPI                  : GR
DTC .us/ft                : DTC
DTS .us/ft                : DTS
RDEP .ohm.m               : RDEP
RMED .ohm.m               : RMED
~Parameter
#==================================================================
~Ascii
# ...
 2871.3684082 6.0000000000 8.4805002213 8.5000000000 81.307785034 0.0456000008 0.3176000118 2.5453000069 3.1233000755 112.94889832 86.333198547 150.82858276 4.6795001030 4.3488001823
 2871.5209961 6.0000000000 8.4708003998 8.5000000000 81.727119446 0.0414999984 0.3206999898 2.5485999584 3.1201999187 104.95760345 87.472198486 151.42329407 4.5033001900 4.2090997696
 2871.6733398 6.0000000000 8.4729995728 8.5000000000 77.867187500 0.0432999991 0.3328999877 2.5404999256 3.6617999077 126.93530273 85.749893188 153.79510498 4.4366998672 4.1585998535
 2871.8256836 6.0000000000 8.4744997025 8.5000000000 75.870040894 0.0452000014 0.3494000137 2.5452001095 3.9693000317 118.66989899 85.662002563 155.13909912 4.2670001984 4.0033998489
 2871.9780273 7.0000000000 8.4795999527 8.5000000000 80.135513306 0.0562000014 0.3147999942 2.5706999302 4.0385999680 113.15309906 86.010498047 157.15130615 3.9491999149 3.6249001026
 2872.1303711 7.0000000000 8.4792003632 8.5000000000 78.501617432 0.0564000010 0.2966000140 2.5731000900 3.6222999096 108.40830231 86.566902161 157.35099792 3.9860000610 3.5392000675
 2872.2829590 7.0000000000 8.4785995483 8.5000000000 74.588996887 0.0461000018 0.2836999893 2.5531001091 3.2876000404 115.11000061 87.062095642 156.23191833 4.2753000259 3.8685998917
 2872.4353027 7.0000000000 8.5011997223 8.5000000000 70.631370544 0.0454999991 0.2944000065 2.5436000824 3.2286999226 125.14900208 86.728996277 154.67460632 4.2702999115 3.8919000626
 2872.5876465 7.0000000000 8.5017995834 8.5000000000 71.130867004 0.0568000004 0.3034999967 2.5515000820 3.5248000622 132.07659912 85.421905518 152.13090515 4.1525001526 3.7827999592
 2872.7399902 7.0000000000 8.5130996704 8.5000000000 73.772529602 0.0575000010 0.2942999899 2.5378000736 3.4384000301 122.18099976 83.077896118 148.34390259 4.1511001587 3.7815999985
 2872.8925781 7.0000000000 8.5134000778 8.5000000000 79.232070923 0.0593000017 0.2709000111 2.5336999893 3.4381000996 121.88659668 81.055099487 145.34320068 4.1180000305 3.8053998947
 2873.0449219 7.0000000000 8.5099000931 8.5000000000 82.029106140 0.0617000014 0.2684000134 2.5392999649 3.5362000465 141.48129272 80.030693054 143.52490234 4.0791001320 3.8050999641
 2873.1972656 7.0000000000 8.4886999130 8.5000000000 84.015281677 0.0648000017 0.2725000083 2.5485999584 3.3991999626 151.17390442 79.801094055 142.46539307 4.1459999084 3.9505999088
 2873.3496094 7.0000000000 8.4911003113 8.5000000000 82.288902283 0.0647000000 0.2653000057 2.5501000881 3.3450999260 123.45349884 79.560897827 141.50289917 4.1100997925 3.9523999691
 2873.5021973 7.0000000000 8.5079002380 8.5000000000 79.136131287 0.0687000006 0.2544000149 2.5627000332 3.4544000626 122.99160004 79.127403259 140.75959778 4.1545000076 4.0093002319
 2873.6545410 7.0000000000 8.4998998642 8.5000000000 80.470397949 0.0619000010 0.2569999993 2.5567998886 3.5536000729 126.03489685 78.987907410 140.37080383 4.1223001480 4.0162000656
 2873.8068848 7.0000000000 8.4843997955 8.5000000000 87.788642883 0.0540000014 0.2691999972 2.5599999428 3.6473000050 117.93250275 79.180496216 140.36740112 4.1255002022 3.9849998951
 2873.9592285 7.0000000000 8.4649000168 8.5000000000 92.853668213 0.0544999987 0.2718000114 2.5731000900 4.4913001060 116.85070038 79.545997620 140.54499817 3.9665000439 3.6728000641
 2874.1115723 7.0000000000 8.4600000381 8.5000000000 93.869430542 0.0555000007 0.2800000012 2.5811998844 4.1416001320 107.98290253 79.946899414 141.02059937 4.1545000076 3.8805000782
 2874.2641602 7.0000000000 8.4820003510 8.5000000000 91.830078125 0.0630000010 0.2736999989 2.5815000534 3.7402000427 111.45649719 80.059593201 141.63420105 4.3060002327 4.0611000061
 2874.4165039 7.0000000000 8.4699001312 8.5000000000 93.902000427 0.0612999983 0.2585999966 2.5687999725 3.4981999397 114.69979858 80.001296997 142.64010620 4.4710001945 4.1972999573
 2874.5688477 7.0000000000 8.4729003906 8.5000000000 102.55448151 0.0573999994 0.2666000128 2.5611999035 3.6860001087 123.99569702 79.857910156 143.42359924 4.6023998260 4.3273000717
 2874.7211914 7.0000000000 8.4735002518 8.5000000000 106.23138428 0.0498000011 0.2802000046 2.5478000641 3.2565000057 121.69920349 79.740600586 144.27569580 4.5559000969 4.3259000778
 2874.8737793 7.0000000000 8.4750995636 8.5000000000 97.071868896 0.0505999997 0.2818000019 2.5573000908 3.3466999531 133.99369812 79.419197083 145.06280518 4.5630002022 4.3285999298
 2875.0261230 6.0000000000 8.4715995789 8.5000000000 93.197036743 0.0507999994 0.2840999961 2.5662000179 3.4447000027 118.06529999 79.198501587 145.30239868 4.5658001900 4.4071002007
 2875.1784668 6.0000000000 8.4688997269 8.5000000000 93.514328003 0.0483999997 0.2842999995 2.5576999187 3.5072999001 112.72760010 79.779800415 145.39250183 4.3182997704 4.1880002022
 2875.3308105 6.0000000000 8.4722995758 8.5000000000 89.144210815 0.0533999987 0.2843999863 2.5755000114 3.6817998886 107.94280243 80.021499634 144.67469788 4.2353000641 4.0604000092
 2875.4833984 6.0000000000 8.4735002518 8.5000000000 83.119239807 0.0500000007 0.2671000063 2.5792000294 4.0518999100 112.52680206 79.914802551 143.67359924 4.1254000664 3.8891000748
 2875.6357422 7.0000000000 8.4701995850 8.5000000000 82.863014221 0.0518000014 0.2509999871 2.5659999847 3.5255999565 110.80049896 79.718696594 141.94470215 4.2062997818 4.0109000206
 2875.7878418 7.0000000000 8.4753999710 8.5000000000 85.614173889 0.0518998392 0.2448099405 2.5457327366 2.9831707478 119.17246246 79.559852600 140.96586609 4.2063999176 3.9411120415
 2875.9401855 7.0000000000 8.4891996384 8.5000000000 83.027885437 0.0481060892 0.2386099398 2.5360155106 2.8639900684 115.02128601 79.485610962 140.31573486 4.2256689072 3.9745461941
 2876.0925293 6.0000000000 8.4805002213 8.5000000000 87.102035522 0.0527849607 0.2282332778 2.5400869846 2.8537323475 119.45384979 79.407348633 139.94308472 4.1430649757 3.8820970058
 2876.2451172 6.0000000000 8.4795999527 8.5000000000 93.626968384 0.0526003204 0.2417781949 2.5467891693 3.1002042294 114.75816345 79.083618164 139.47415161 4.2751874924 4.0447387695
 2876.3974609 6.0000000000 8.4925003052 8.5000000000 97.834648132 0.0579913445 0.2513846159 2.5553860664 3.1676921844 108.11196136 78.740745544 138.70901489 4.2906756401 4.0700597763
 2876.5498047 6.0000000000 8.5074996948 8.5000000000 100.57841492 0.0557036847 0.2524982393 2.5531036854 3.2328956127 104.61649323 78.361709595 138.31402588 4.1164793968 3.8621337414
 2876.7021484 6.0000000000 8.5039997101 8.5000000000 94.342193604 0.0541025624 0.2521006465 2.5492062569 3.3118734360 108.11507416 78.390151978 138.00468445 4.2187356949 3.9597427845
 2876.8544922 7.0000000000 8.4963998795 8.5000000000 82.310699463 0.0565920025 0.2410355210 2.5660457611 3.1414473057 120.86338806 78.351722717 137.91120911 4.1863045692 3.8993942738
 2877.0070801 7.0000000000 8.4877004623 8.5000000000 77.716865540 0.0602940693 0.2494863868 2.5773818493 3.8116233349 118.84600067 78.247062683 138.43556213 4.3504362106 3.9858610630
 2877.1594238 7.0000000000 8.4781999588 8.5000000000 84.970138550 0.0485189110 0.2603825331 2.5729072094 3.7004802227 104.00092316 78.306701660 138.78034973 4.6728825569 4.3238577843
 2877.3117676 7.0000000000 8.4495000839 8.5000000000 93.079071045 0.0508961566 0.2568057775 2.5683073997 3.6477844715 103.62406158 78.203765869 138.87965393 4.9621367455 4.6024537086
 2877.4641113 6.0000000000 8.4497003555 8.5000000000 91.205711365 0.0549868792 0.2424460799 2.5787663460 3.6761085987 107.78404236 78.008628845 138.63439941 5.1948542595 4.9050302505
 2877.6166992 6.0000000000 8.4643001556 8.5000000000 78.167976379 0.0542012826 0.2505868673 2.5756051540 3.4525589943 100.93132782 77.469963074 138.09027100 5.2017898560 4.9481325150
 2877.7690430 6.0000000000 8.4570999146 8.5000000000 60.601703644 0.0528022423 0.2517980635 2.5884792805 3.3811142445 101.03082275 77.026306152 137.61964417 5.2191724777 4.9534912109
 2877.9213867 6.0000000000 8.4612998962 8.5000000000 45.950458527 0.0449126586 0.2254423052 2.6207482815 3.9326145649 104.26980591 76.315040588 136.91702271 5.5478725433 5.4286375046
