# LAS format log file from PETREL
# Project units are specified as depth units
#==================================================================
~Version information
VERS.   2.0:
WRAP.   NO:
#==================================================================
~Well
STRT .m      445.17501831 :
STOP .m      1838.8730469 :
STEP .m     0.00000000 :
NULL .        -999.250000 :
COMP.           : COMPANY
WELL.  31/2-10   : WELL
FLD.            : FIELD
LOC.            : LOCATION
SRVC.           : SERVICE COMPANY
DATE.  2018-09-11 14:48:32   : Log Export Date {yyyy-MM-dd HH:mm:ss}
PROV.           : PROVINCE
UWI.   31/2-10   : UNIQUE WELL ID
API.            : API NUMBER
#==================================================================
~Curve
DEPT .m                   : DEPTH
Lithology_geolink ._      : Lithology_geolink
CALI .in                  : CALI
DRHO .g/cm3               : DRHO
NPHI .m3/m3               : NPHI
RHOB .g/cm3               : RHOB
PEF .b/e                  : PEF
GR .gAPI                  : GR
DTC .us/ft                : DTC
RDEP .ohm.m               : RDEP
SP .mV                    : SP
RSHA .ohm.m               : RSHA
RMED .ohm.m               : RMED
~Parameter
#==================================================================
~Ascii
# ...
 1739.9654541 6.0000000000 8.2729997635 -0.014000000 0.3754900098 2.2249999046 3.6989998817 83.186248779 105.62419128 1.3369679451 84.311790466 2.0329999924 1.3900737762
 1740.1177979 6.0000000000 8.2729997635 -0.015000000 0.3823199868 2.2320001125 3.7230000496 82.751502991 106.08782196 1.3289319277 84.256683350 2.2829999924 1.6582008600
 1740.2702637 6.0000000000 8.2729997635 -0.012000000 0.3891600072 2.2460000515 3.6110000610 83.114738464 106.11920929 1.3120441437 83.184844971 2.3810000420 1.9569959641
 1740.4226074 6.0000000000 8.2729997635 -0.013000000 0.3696300089 2.2420001030 3.5409998894 80.575263977 106.05601501 1.3231320381 83.642181396 2.2850000858 1.9557077885
 1740.5750732 6.0000000000 8.2729997635 -0.012000000 0.3764599860 2.2439999580 3.4609999657 83.618492126 105.73000336 1.3560359478 83.192092896 2.0429999828 1.8829479218
 1740.7274170 5.0000000000 8.2729997635 -0.010000000 0.3603500128 2.2500000000 3.5799999237 81.987739563 105.41768646 1.3649280071 83.457946777 2.2170000076 1.8699719906
 1740.8798828 5.0000000000 8.2729997635 -0.008000000 0.3706099987 2.2520000935 3.5820000172 78.906455994 105.33856964 1.3469479084 81.962463379 2.1389999390 1.8628116846
 1741.0322266 5.0000000000 8.2729997635 -0.004000000 0.3676800132 2.2439999580 3.5759999752 71.082015991 105.13225555 1.3339478970 84.571594238 2.1480000019 1.8151112795
 1741.1846924 5.0000000000 8.2729997635 -0.003000000 0.3769499958 2.2339999676 3.3889999390 75.826026917 105.20422363 1.3208757639 86.948074341 1.9349999428 1.5932868719
 1741.3370361 5.0000000000 8.2729997635 -0.003000000 0.3769499958 2.2290000916 3.3180000782 79.078514099 105.73915863 1.2899079323 83.982696533 1.6169999838 1.4164283276
 1741.4895020 5.0000000000 8.2729997635 -0.005000000 0.3876999915 2.2379999161 3.3810000420 82.920478821 106.28821564 1.2669398785 83.657463074 1.9819999933 1.5236810446
 1741.6418457 5.0000000000 8.2729997635 -0.006000000 0.3837900162 2.2500000000 3.4769999981 78.562004089 106.53983307 1.2521281242 83.276451111 2.1500000954 1.6930639744
 1741.7941895 5.0000000000 8.2729997635 -0.005000000 0.3867200017 2.2560000420 3.4900000095 78.301788330 106.67980194 1.2841025591 83.141075134 1.9609999657 1.7086249590
 1741.9466553 5.0000000000 8.2729997635 -0.009000000 0.3769499958 2.2420001030 3.4489998817 74.814750671 106.57765198 1.3158518076 83.473449707 1.8789999485 1.5917718410
 1742.0989990 5.0000000000 8.2729997635 -0.013000000 0.3847700059 2.2360000610 3.4179999828 75.257614136 106.36417389 1.2787179947 82.832748413 1.4680000544 1.5353941917
 1742.2514648 5.0000000000 8.2729997635 -0.017999999 0.3779299855 2.2339999676 3.4790000916 77.615486145 106.41152954 1.1904751062 80.903472900 2.4159998894 1.6586209536
 1742.4038086 5.0000000000 8.2729997635 -0.009000000 0.3754900098 2.2420001030 3.4449999332 75.263259888 106.50296021 1.0594274998 84.256088257 2.5179998875 1.8125996590
 1742.5562744 5.0000000000 8.3050003052 -0.007000000 0.3627899885 2.2379999161 3.4530000687 78.560745239 106.38964844 0.9167516232 85.029853821 1.8739999533 1.7118421793
 1742.7086182 5.0000000000 8.3669996262 -0.007000000 0.3618199825 2.2170000076 3.4730000496 78.021018982 106.23546600 0.8549839854 86.226089478 1.5279999971 1.4225789309
 1742.8610840 6.0000000000 8.3669996262 -0.008000000 0.3979499936 2.1889998913 3.4879999161 83.245994568 106.14274597 0.8508918285 83.773757935 1.7489999533 1.0679303408
 1743.0134277 6.0000000000 8.3669996262 -0.008000000 0.4052700102 2.1659998894 3.4769999981 82.243995667 106.14881134 0.8238838911 86.933860779 1.4279999733 0.8018838763
 1743.1658936 6.0000000000 8.3669996262 -0.008000000 0.4028300047 2.1740000248 3.3959999084 80.740486145 106.42292023 0.7949239016 84.164741516 0.6690000296 0.7739254832
 1743.3182373 6.0000000000 8.3669996262 -0.012000000 0.3535200059 2.1949999332 3.3710000515 78.358741760 106.86695862 0.7758598924 84.597251892 1.5110000372 1.0051368475
 1743.4707031 5.0000000000 8.3669996262 -0.011000000 0.3334999979 2.2249999046 3.2699999809 74.293724060 106.85655212 0.7410400510 84.656990051 1.7020000219 1.2883405685
 1743.6230469 5.0000000000 8.3669996262 -0.008000000 0.3144499958 2.2360000610 3.1519999504 69.482482910 106.25688934 0.7512201667 84.157234192 1.3519999981 1.3726477623
 1743.7753906 5.0000000000 8.3669996262 -0.009000000 0.3041999936 2.2339999676 3.1500000954 65.118888855 105.20090485 0.8061538339 83.708877563 1.4379999638 1.2847564220
 1743.9278564 5.0000000000 8.3669996262 -0.006000000 0.2900399864 2.2320001125 3.1540000439 63.223381042 103.90930939 0.8541280627 80.880119324 1.2189999819 1.2090040445
 1744.0802002 5.0000000000 8.3669996262 -0.007000000 0.2973600030 2.2290000916 3.1840000153 64.304191589 103.03466797 0.8861153722 83.400390625 1.3589999676 1.2101539373
 1744.2326660 5.0000000000 8.3669996262 -0.003000000 0.2949199975 2.2300000191 3.0959999561 61.559116364 102.50376129 0.9221842885 84.147598267 1.5260000229 1.2577395439
 1744.3850098 5.0000000000 8.3669996262 -0.005000000 0.2973600030 2.2269999981 3.0490000248 60.612140656 102.04549408 0.9682762027 85.033462524 1.4459999800 1.1925115585
 1744.5374756 5.0000000000 8.3669996262 -0.006000000 0.2890599966 2.2190001011 3.2660000324 65.149291992 101.98011017 1.0374126434 82.917106628 1.1859999895 1.0711802244
 1744.6898193 5.0000000000 8.3669996262 -0.014000000 0.2973600030 2.2269999981 3.5199999809 71.206268311 102.24262238 1.1402641535 84.925460815 1.3519999981 1.1176693439
 1744.8422852 5.0000000000 8.3669996262 -0.012000000 0.3369100094 2.2520000935 3.8929998875 75.757514954 102.50601959 1.2064366341 83.050971985 2.0039999485 1.5347387791
 1744.9946289 6.0000000000 8.3669996262 -0.013000000 0.3715800047 2.2709999084 3.8980000019 77.635009766 102.84750366 1.3156565428 83.291221619 3.0880000591 1.9686893225
 1745.1470947 6.0000000000 8.3669996262 -0.003000000 0.3999000192 2.2869999409 3.9920001030 80.144027710 103.36443329 1.4794245958 83.093696594 2.9709999561 2.3888196945
 1745.2994385 6.0000000000 8.3669996262 -0.007000000 0.4096699953 2.2750000954 3.9879999161 84.873001099 103.96623230 1.5853803158 82.272346497 3.0569999218 2.3437879086
 1745.4519043 6.0000000000 8.3669996262 -0.004000000 0.4111299813 2.2850000858 3.9839999676 84.398292542 104.76052856 1.6803004742 82.103691101 2.7599999905 2.2909758091
 1745.6042480 6.0000000000 8.3669996262 -0.006000000 0.4047900140 2.2790000439 3.8340001106 90.182998657 105.55493927 1.7552001476 80.783622742 2.8889999390 2.2849400043
 1745.7567139 6.0000000000 8.3669996262 -0.003000000 0.3959999979 2.2809998989 3.7109999657 88.953025818 105.91989899 1.8050240278 80.707748413 2.9979999065 2.2693870068
 1745.9090576 6.0000000000 8.3669996262 -0.007000000 0.3891600072 2.2699999809 3.6070001125 92.669738770 106.05948639 1.8109239340 84.860961914 2.6779999733 2.1162955761
 1746.0614014 6.0000000000 8.3669996262 -0.007000000 0.3886699975 2.2679998875 3.7929999828 88.122398376 105.99105835 1.7918173075 82.614181519 2.1889998913 1.9410223961
 1746.2138672 6.0000000000 8.3669996262 -0.002000000 0.3964799941 2.2829999924 3.8870000839 87.286460876 105.65404510 1.7346755266 83.301376343 2.3910000324 1.9491378069
 1746.3662109 5.0000000000 8.3669996262 -0.003000000 0.4043000042 2.2929999828 3.8280000687 80.682502747 105.57304382 1.6536917686 85.631736755 3.0680000782 2.2326726913
 1746.5186768 5.0000000000 8.3669996262 -0.005000000 0.4033200145 2.3029999733 3.7209999561 79.303985596 105.54281616 1.5767596960 85.560958862 2.8849999905 2.3990626335
 1746.6710205 5.0000000000 8.3669996262 -0.006000000 0.3720700145 2.2950000763 3.6679999828 77.080520630 105.20226288 1.5167957544 84.304962158 2.5039999485 2.1649670601
 1746.8234863 5.0000000000 8.3669996262 -0.002000000 0.3735400140 2.2890000343 3.8589999676 81.443511963 104.93190765 1.4658277035 83.549224854 2.2300000191 1.9075151682
 1746.9758301 5.0000000000 8.3669996262 -0.001000000 0.3579100072 2.2790000439 3.8359999657 82.818504333 104.70750427 1.4228518009 83.352966309 2.0639998913 1.7866957188
 1747.1282959 5.0000000000 8.3669996262 -0.002000000 0.3608399928 2.2679998875 3.8280000687 84.159454346 104.51375580 1.3858237267 82.842582703 2.1410000324 1.7107394934
