# LAS format log file from PETREL
# Project units are specified as depth units
#==================================================================
~Version information
VERS.   2.0:
WRAP.   NO:
#==================================================================
~Well
STRT .m      326.13598633 :
STOP .m      1938.6804199 :
STEP .m     0.00000000 :
NULL .        -999.250000 :
COMP.           : COMPANY
WELL.  31/2-17 A   : WELL
FLD.            : FIELD
LOC.            : LOCATION
SRVC.           : SERVICE COMPANY
DATE.  2018-09-11 14:48:33   : Log Export Date {yyyy-MM-dd HH:mm:ss}
PROV.           : PROVINCE
UWI.   31/2-17 A   : UNIQUE WELL ID
API.            : API NUMBER
#==================================================================
~Curve
DEPT .m                   : DEPTH
Lithology_geolink ._      : Lithology_geolink
CALI .in                  : CALI
DRHO .g/cm3               : DRHO
RHOB .g/cm3               : RHOB
GR .gAPI                  : GR
DTC .us/ft                : DTC
RDEP .ohm.m               : RDEP
RMED .ohm.m               : RMED
~Parameter
#==================================================================
~Ascii
# ...
 968.65441895  -999.250000  -999.250000  -999.250000 2.2200000286 38.286499023 152.25840759 1.1520999670  -999.250000
 968.80682373  -999.250000  -999.250000  -999.250000 2.2200000286 32.441699982 152.25840759 1.1322000027  -999.250000
 968.95922852  -999.250000  -999.250000  -999.250000 2.2200000286 32.717498779 152.25840759 1.1108000278  -999.250000
 969.11163330  -999.250000  -999.250000  -999.250000 2.2200000286 36.033000946 152.25840759 1.0363999605  -999.250000
 969.26397705  -999.250000  -999.250000  -999.250000 2.2200000286 37.398700714 152.25840759 1.0835000277  -999.250000
 969.41638184  -999.250000  -999.250000  -999.250000 2.2200000286 36.738300323 152.25840759 1.1115000248  -999.250000
 969.56878662  -999.250000  -999.250000  -999.250000 2.2200000286 37.396301270 152.25840759 1.1524000168  -999.250000
 969.72119141  -999.250000  -999.250000  -999.250000 2.2200000286 35.861099243 152.25840759 1.1907000542  -999.250000
 969.87359619  -999.250000  -999.250000  -999.250000 2.2200000286 34.072898865 152.25840759 1.2177000046  -999.250000
 970.02600098  -999.250000  -999.250000  -999.250000 2.2200000286 31.035100937 152.25840759 1.1462999582  -999.250000
 970.17840576  -999.250000  -999.250000  -999.250000 2.2200000286 31.760999680 152.25840759 1.1139999628  -999.250000
 970.33081055  -999.250000  -999.250000  -999.250000 2.2200000286 36.476100922 152.25840759 1.0789999962  -999.250000
 970.48321533  -999.250000  -999.250000  -999.250000 2.2200000286 39.125400543 152.25840759 1.0494999886  -999.250000
 970.63562012  -999.250000  -999.250000  -999.250000 2.2200000286 40.196800232 152.25840759 1.0230000019  -999.250000
 970.78802490  -999.250000  -999.250000  -999.250000 2.2200000286 35.679500580 152.25840759 0.9923999906  -999.250000
 970.94042969  -999.250000  -999.250000  -999.250000 2.2200000286 32.837100983 152.25840759 0.9715999961  -999.250000
 971.09283447  -999.250000  -999.250000  -999.250000 2.2200000286 31.467199326 152.25840759 0.9700999856  -999.250000
 971.24517822  -999.250000  -999.250000  -999.250000 2.2200000286 33.871700287 152.25840759 0.9884999990  -999.250000
 971.39758301  -999.250000  -999.250000  -999.250000 2.2200000286 34.982898712 152.25840759 1.0362000465  -999.250000
 971.54998779  -999.250000  -999.250000  -999.250000 2.2200000286 36.110801697 152.25840759 1.1045000553  -999.250000
 971.70239258  -999.250000  -999.250000  -999.250000 2.2200000286 33.358001709 152.25840759 1.1283999681  -999.250000
 971.85479736  -999.250000  -999.250000  -999.250000 2.2200000286 34.954898834 152.25840759 1.1115000248  -999.250000
 972.00720215  -999.250000  -999.250000  -999.250000 2.2200000286 32.879901886 152.25840759 1.0915000439  -999.250000
 972.15960693  -999.250000  -999.250000  -999.250000 2.2200000286 34.221900940 152.25840759 1.0532000065  -999.250000
 972.31201172  -999.250000  -999.250000  -999.250000 2.2200000286 33.209598541 152.25840759 1.0406999588  -999.250000
 972.46441650  -999.250000  -999.250000  -999.250000 2.2200000286 33.791999817 152.25840759 1.0032999516  -999.250000
 972.61682129  -999.250000  -999.250000  -999.250000 2.2200000286 34.689201355 152.25840759 1.0460000038  -999.250000
 972.76922607  -999.250000  -999.250000  -999.250000 2.2200000286 36.952499390 152.25840759 1.0462000370  -999.250000
 972.92163086  -999.250000  -999.250000  -999.250000 2.2200000286 38.686798096 152.25840759 1.0374000072  -999.250000
 973.07403564  -999.250000  -999.250000  -999.250000 2.2200000286 38.784500122 152.25840759 0.9844999909  -999.250000
 973.22644043  -999.250000  -999.250000  -999.250000 2.2200000286 38.997898102 152.25840759 0.9893000126  -999.250000
 973.37878418  -999.250000  -999.250000  -999.250000 2.2200000286 35.584999084 152.25840759 1.0269000530  -999.250000
 973.53118896  -999.250000  -999.250000  -999.250000 2.2200000286 38.625499725 152.25840759 1.0667999983  -999.250000
 973.68359375  -999.250000  -999.250000  -999.250000 2.2200000286 37.436500549 152.25840759 1.0671999454  -999.250000
 973.83599854  -999.250000  -999.250000  -999.250000 2.2200000286 38.612998962 152.25840759 1.0628999472  -999.250000
 973.98840332  -999.250000  -999.250000  -999.250000 2.2200000286 32.191398621 152.25840759 1.0233999491  -999.250000
 974.14080811  -999.250000  -999.250000  -999.250000 2.2200000286 28.899000168 152.25840759 1.0292999744  -999.250000
 974.29321289  -999.250000  -999.250000  -999.250000 2.2200000286 30.264499664 152.25840759 1.0667999983  -999.250000
 974.44561768  -999.250000  -999.250000  -999.250000 2.2200000286 31.743499756 152.25840759 1.0699000359  -999.250000
 974.59802246  -999.250000  -999.250000  -999.250000 2.2200000286 31.077199936 152.25840759 1.0499999523  -999.250000
 974.75042725  -999.250000  -999.250000  -999.250000 2.2200000286 29.430200577 152.25840759 1.0426000357  -999.250000
 974.90283203  -999.250000  -999.250000  -999.250000 2.2200000286 26.253000259 152.25840759 1.0408999920  -999.250000
 975.05523682  -999.250000  -999.250000  -999.250000 2.2200000286 26.864200592 152.25840759 1.0676000118  -999.250000
 975.20764160  -999.250000  -999.250000  -999.250000 2.2200000286 28.374500275 152.25840759 1.0426000357  -999.250000
 975.36004639  -999.250000  -999.250000  -999.250000 2.2200000286 33.109699249 152.25840759 1.1137000322  -999.250000
 975.51239014  -999.250000  -999.250000  -999.250000 2.2200000286 38.092998505 152.25840759 1.1053999662  -999.250000
 975.66479492  -999.250000  -999.250000  -999.250000 2.2200000286 37.846801758 152.25840759 1.0853999853  -999.250000
 975.81719971  -999.250000  -999.250000  -999.250000 2.2200000286 37.929298401 152.25840759 1.0708999634  -999.250000
 975.96960449  -999.250000  -999.250000  -999.250000 2.2200000286 31.820199966 152.25840759 1.0379999876  -999.250000
 976.12200928  -999.250000  -999.250000  -999.250000 2.2200000286 31.608800888 152.25840759 1.0398999453  -999.250000
 976.27441406  -999.250000  -999.250000  -999.250000 2.2200000286 30.664499283 152.25840759 1.0492999554  -999.250000
 976.42681885  -999.250000  -999.250000  -999.250000 2.2200000286 32.816398621 152.25840759 1.0773999691  -999.250000
 976.57922363  -999.250000  -999.250000  -999.250000 2.2200000286 36.123001099 152.25840759 1.0247000456  -999.250000
 976.73162842  -999.250000  -999.250000  -999.250000 2.2200000286 41.547100067 152.25840759 0.9739999771  -999.250000
 976.88403320  -999.250000  -999.250000  -999.250000 2.2200000286 43.210098267 152.25840759 0.9700999856  -999.250000
 977.03643799  -999.250000  -999.250000  -999.250000 2.2200000286 38.226600647 152.25840759 0.9977999926  -999.250000
 977.18884277  -999.250000  -999.250000  -999.250000 2.2200000286 34.407199860 152.25840759 1.0623999834  -999.250000
 977.34124756  -999.250000  -999.250000  -999.250000 2.2200000286 34.404998779 152.25840759 1.1026999950  -999.250000
 977.49359131  -999.250000  -999.250000  -999.250000 2.2200000286 35.350898743 152.25840759 1.1554000378  -999.250000
 977.64599609  -999.250000  -999.250000  -999.250000 2.2200000286 32.770198822 152.25840759 1.0858000517  -999.250000
 977.79840088  -999.250000  -999.250000  -999.250000 2.2200000286 31.187799454 152.25840759 1.0463000536  -999.250000
 977.95080566  -999.250000  -999.250000  -999.250000 2.2200000286 32.307300568 152.25840759 1.0183000565  -999.250000
 978.10321045  -999.250000  -999.250000  -999.250000 2.2200000286 33.844398499 152.25840759 1.0010999441  -999.250000
 978.25561523  -999.250000  -999.250000  -999.250000 2.2200000286 34.666400909 152.25840759 0.9855999947  -999.250000
 978.40802002  -999.250000  -999.250000  -999.250000 2.2200000286 35.242599487 152.25840759 0.9751999974  -999.250000
 978.56042480  -999.250000  -999.250000  -999.250000 2.2200000286 34.936599731 152.25840759 0.9610999823  -999.250000
 978.71282959  -999.250000  -999.250000  -999.250000 2.2200000286 34.146301270 152.25840759 0.9508000016  -999.250000
 978.86523438  -999.250000  -999.250000  -999.250000 2.2200000286 32.738700867 152.25840759 0.9671999812  -999.250000
