# LAS format log file from PETREL
# Project units are specified as depth units
#==================================================================
~Version information
VERS.   2.0:
WRAP.   NO:
#==================================================================
~Well
STRT .m      399.05941772 :
STOP .m      2436.9521484 :
STEP .m     0.00000000 :
NULL .        -999.250000 :
COMP.           : COMPANY
WELL.  31/2-1   : WELL
FLD.            : FIELD
LOC.            : LOCATION
SRVC.           : SERVICE COMPANY
DATE.  2018-09-11 14:48:32   : Log Export Date {yyyy-MM-dd HH:mm:ss}
PROV.           : PROVINCE
UWI.   31/2-1   : UNIQUE WELL ID
API.            : API NUMBER
#==================================================================
~Curve
DEPT .m                   : DEPTH
Lithology_geolink ._      : Lithology_geolink
CALI .in                  : CALI
BS .in                    : BS
DRHO .g/cm3               : DRHO
NPHI .m3/m3               : NPHI
RHOB .g/cm3               : RHOB
GR .gAPI                  : GR
DTC .us/ft                : DTC
DTE .us/ft                : DTE
RDEP .ohm.m               : RDEP
SP .mV                    : SP
RSHA .ohm.m               : RSHA
RMED .ohm.m               : RMED
~Parameter
#==================================================================
~Ascii
# ...
 2296.7441406 3.0000000000 8.4134998322 8.5000000000 -0.018756410 0.2766104937 2.3552999496 42.957225800 87.869392395 88.304824829 0.4769680500 37.302684784 1.9217333794 1.9217333794
 2296.8964844 3.0000000000 8.4122991562 8.5000000000 -0.009865385 0.3036221862 2.3547620773 44.481681824 90.802742004 91.342468262 0.5368317962 37.216342926 1.6213524342 1.6213524342
 2297.0490723 3.0000000000 8.4111995697 8.5000000000 0.0038272000 0.3329311013 2.3047809601 42.844238281 95.856811523 95.468894958 0.5996447802 37.489974976 1.0630209446 1.0630209446
 2297.2014160 3.0000000000 8.4100980759 8.5000000000 0.0043108976 0.3605254889 2.1991798878 41.987369537 99.511276245 98.600532532 0.6623674035 38.335945129 0.7191675901 0.7191675901
 2297.3537598 3.0000000000 8.4089975357 8.5000000000 -0.001067308 0.3775264919 2.1858448982 45.650577545 99.668624878 99.587959290 0.7252282500 40.302307129 0.9464644790 0.9464644790
 2297.5061035 3.0000000000 8.4078989029 8.5000000000 0.0005336539 0.3917273879 2.1561810970 53.477985382 99.276519775 100.95236969 0.8733622432 42.558219910 1.7381876707 1.7381876707
 2297.6586914 3.0000000000 8.4066991806 8.5000000000 0.0052307695 0.4349404871 2.1267828941 61.971519470 105.28960419 105.56481934 1.0281660557 44.832492828 3.0247640610 3.0247640610
 2297.8110352 3.0000000000 8.4060468674 8.5000000000 0.0414815992 0.4753175974 2.1094350815 69.332427979 112.50839996 111.12712097 1.3329149485 47.520233154 4.6072068214 4.6072068214
 2297.9633789 6.0000000000 8.4403438568 8.5000000000 0.0623573698 0.4880709946 2.0623390675 74.715621948 114.63498688 112.80696106 2.0746643543 50.429191589 6.9438943863 6.9438943863
 2298.1157227 6.0000000000 8.4658002853 8.5000000000 0.0523317307 0.4713922143 2.0847959518 76.151100159 109.97987366 108.32113647 2.8177511692 51.919757843 8.4790964127 8.4790964127
 2298.2680664 6.0000000000 8.4667348862 8.5000000000 0.0153733976 0.4559918940 2.2733559608 74.923728943 99.043930054 98.987548828 4.5763649940 53.623218536 8.1962833405 8.1962833405
 2298.4206543 6.0000000000 8.5060634613 8.5000000000 0.0056208000 0.4467900097 2.4510869980 72.113059998 87.851524353 88.901702881 7.2135162354 55.113418579 7.9274291992 7.9274291992
 2298.5729980 6.0000000000 8.5557794571 8.5000000000 0.0210464746 0.4388060868 2.5203709602 73.765350342 80.544914246 82.564460754 8.1178331375 55.878307343 8.0116882324 8.0116882324
 2298.7253418 6.0000000000 8.6049013138 8.5000000000 0.0273782052 0.4426024854 2.5025019646 77.747764587 81.034370422 81.442741394 7.3258838654 56.240818024 8.1304960251 8.1304960251
 2298.8776855 6.0000000000 8.6070995331 8.5000000000 0.0322227553 0.4491055012 2.5078029633 80.507209778 83.021095276 83.729461670 6.4619755745 56.979064941 8.1792058945 8.1792058945
 2299.0302734 6.0000000000 8.6073999405 8.5000000000 0.0329999998 0.4564146101 2.5121500492 82.784271240 87.808067322 87.275375366 5.7145328522 58.170272827 7.3941688538 7.3941688538
 2299.1826172 7.0000000000 8.6077995300 8.5000000000 0.0304663461 0.4694289863 2.4670488834 84.401786804 90.571540833 90.186836243 5.3490719795 58.681919098 6.2705030441 6.2705030441
 2299.3349609 7.0000000000 8.6081008911 8.5000000000 0.0308445506 0.4888902009 2.4326989651 87.173759460 91.963920593 91.127983093 5.2553520203 58.885711670 5.5798807144 5.5798807144
 2299.4873047 7.0000000000 8.6086120605 8.5000000000 0.0242435895 0.4835830033 2.4322249889 90.787292480 90.219192505 89.741531372 5.1592211723 58.918045044 5.5379815102 5.5379815102
 2299.6398926 7.0000000000 8.6269235611 8.5000000000 0.0128461542 0.4564779103 2.4719450474 91.200889587 86.650009155 86.779884338 4.9692749977 58.827117920 5.9320321083 5.9320321083
 2299.7922363 7.0000000000 8.6497192383 8.5000000000 0.0000175999 0.4342724085 2.5173149109 88.570762634 83.605323792 83.821205139 4.7765498161 58.692173004 6.7953009605 6.7953009605
 2299.9445801 7.0000000000 8.6635417938 8.5000000000 -0.004533654 0.4140861034 2.5282089710 85.869293213 81.370933533 81.777976990 4.6847958565 58.542957306 7.2405614853 7.2405614853
 2300.0969238 7.0000000000 8.6301832199 8.5000000000 0.0051346156 0.4060972929 2.5332999229 83.842437744 80.703926086 80.926383972 4.6674537659 58.352413177 7.5025525093 7.5025525093
 2300.2492676 7.0000000000 8.5963945389 8.5000000000 0.0112227565 0.4006950855 2.5342869759 85.901115417 80.882881165 81.131538391 4.6517562866 58.324367523 7.6689915657 7.6689915657
 2300.4018555 7.0000000000 8.5897006989 8.5000000000 0.0077760001 0.3950164020 2.5190060139 87.613082886 82.040916443 81.998802185 4.6520318985 58.554283142 7.7637968063 7.7637968063
 2300.5541992 7.0000000000 8.5897121429 8.5000000000 0.0146009624 0.4082291126 2.5233891010 86.014656067 83.056480408 82.949180603 4.5978369713 58.707248688 7.5902771950 7.5902771950
 2300.7065430 6.0000000000 8.5969028473 8.5000000000 0.0160000008 0.4263057113 2.5161969662 84.370841980 83.680442810 83.565460205 4.3818745613 58.303119659 7.2024230957 7.2024230957
 2300.8588867 6.0000000000 8.6044006348 8.5000000000 0.0185336526 0.4416134059 2.5085840225 84.072990417 83.875816345 83.855491638 4.1343908310 57.638263702 6.7884554863 6.7884554863
 2301.0114746 6.0000000000 8.6038799286 8.5000000000 0.0156207997 0.4595980048 2.4869608879 82.788619995 83.926177979 84.499748230 3.8867130280 56.843524933 6.3739280701 6.3739280701
 2301.1638184 6.0000000000 8.5856676102 8.5000000000 0.0006426281 0.4577935040 2.4520919323 79.562637329 86.108512878 86.788055420 3.6521720886 55.706077576 5.5507869720 5.5507869720
 2301.3161621 6.0000000000 8.5639896393 8.5000000000 -0.004533654 0.4534013867 2.3794760704 75.678047180 90.611389160 92.526466370 3.5286247730 54.707466125 4.5049409866 4.5049409866
 2301.4685059 6.0000000000 8.5208635330 8.5000000000 0.0017564103 0.4591018856 2.2831308842 73.673164368 102.75432587 100.37242126 3.4733574390 54.597908020 3.8225247860 3.8225247860
 2301.6210938 6.0000000000 8.4613313675 8.5000000000 0.0055384617 0.4621860981 2.1715469360 72.781227112 105.92220306 103.89669800 3.4106900692 54.221614838 4.5290570259 4.5290570259
 2301.7734375 6.0000000000 8.3915386200 8.5000000000 0.0119136004 0.4480660856 2.1181230545 72.076370239 101.31449127 100.96552277 3.3783531189 54.718082428 5.8481168747 5.8481168747
 2301.9257813 6.0000000000 8.4934263229 8.5000000000 0.0003317307 0.4230546951 2.1356909275 73.981781006 95.474502563 95.000434875 3.4449243546 55.155647278 6.5458617210 6.5458617210
 2302.0781250 6.0000000000 8.6244430542 8.5000000000 0.0056009619 0.3967939019 2.3044741154 75.879455566 87.748107910 88.663375854 3.5996618271 54.651771545 6.6891345978 6.6891345978
 2302.2304688 6.0000000000 8.7110834122 8.5000000000 0.0129118590 0.3843094110 2.4545190334 79.145706177 83.486618042 84.578254700 3.8367459774 54.463390350 6.5683279037 6.5683279037
 2302.3830566 7.0000000000 8.6908426285 8.5000000000 0.0114655998 0.3952116072 2.4767680168 82.209877014 83.266212463 84.772628784 4.0634880066 56.210605621 6.3359160423 6.3359160423
 2302.5354004 7.0000000000 8.5633125305 8.5000000000 0.0143782049 0.4046266973 2.4509658813 85.751205444 88.969032288 88.079620361 4.1708917618 56.339538574 6.0667834282 6.0667834282
 2302.6877441 7.0000000000 8.5092153549 8.5000000000 0.0251346156 0.4213089049 2.4298009872 92.433647156 91.465148926 89.875778198 4.0322966576 55.839260101 5.9583144188 5.9583144188
 2302.8400879 7.0000000000 8.5518274307 8.5000000000 0.0202435888 0.4455921054 2.4331169128 91.232757568 87.840774536 87.969100952 3.7726495266 55.642627716 6.3233661652 6.3233661652
 2302.9926758 7.0000000000 8.5882921219 8.5000000000 0.0113968002 0.4348559976 2.4566569328 89.760673523 84.477607727 86.261886597 3.4165799618 55.031936646 6.8440380096 6.8440380096
 2303.1450195 6.0000000000 8.5808887482 8.5000000000 0.0142227560 0.3950735033 2.5083749294 86.419021606 88.048675537 87.774169922 3.0610399246 54.146045685 6.8022990227 6.8022990227
 2303.2973633 6.0000000000 8.5728940964 8.5000000000 0.0158445518 0.3771046102 2.4913918972 82.346885681 90.604118347 90.337646484 2.8930871487 53.434616089 5.6400156021 5.6400156021
