# LAS format log file from PETREL
# Project units are specified as depth units
#==================================================================
~Version information
VERS.   2.0:
WRAP.   NO:
#==================================================================
~Well
STRT .m      349.62512207 :
STOP .m      2379.4997559 :
STEP .m     0.00000000 :
NULL .        -999.250000 :
COMP.           : COMPANY
WELL.  31/3-1   : WELL
FLD.            : FIELD
LOC.            : LOCATION
SRVC.           : SERVICE COMPANY
DATE.  2018-09-11 14:48:35   : Log Export Date {yyyy-MM-dd HH:mm:ss}
PROV.           : PROVINCE
UWI.   31/3-1   : UNIQUE WELL ID
API.            : API NUMBER
#==================================================================
~Curve
DEPT .m                   : DEPTH
Lithology_geolink ._      : Lithology_geolink
CALI .in                  : CALI
BS .in                    : BS
DRHO .g/cm3               : DRHO
NPHI .m3/m3               : NPHI
RHOB .g/cm3               : RHOB
GR .gAPI                  : GR
DTC .us/ft                : DTC
DTE .us/ft                : DTE
RDEP .ohm.m               : RDEP
SP .mV                    : SP
RSHA .ohm.m               : RSHA
RMIC .ohm.m               : RMIC
RMED .ohm.m               : RMED
~Parameter
#==================================================================
~Ascii
# ...
 1574.4998779 2.0000000000 12.494999886 12.250000954 -0.018999999 0.2382699996 2.2324326038 72.682273865 113.55465698 108.28022003 1.2389999628 119.74500275 1.6220126152 1.2829999924 1.6220126152
 1574.6250000 2.0000000000 12.493000031 12.250000954 -0.010000000 0.2369899899 2.2410829067 75.013740540 113.33518219 108.12336731 1.2280000448 119.65699768 1.6350253820 1.3080409765 1.6350253820
 1574.7500000 2.0000000000 12.491000175 12.250000954 0.0020000001 0.2413999885 2.2566466331 76.928596497 113.06251526 107.96715546 1.2189999819 119.84999847 1.6479990482 1.3289941549 1.6479990482
 1574.8748779 2.0000000000 12.489000320 12.250000954 0.0109912110 0.2535281479 2.2767956257 78.560997009 113.16022491 107.89728546 1.2130059004 120.03500366 1.6469999552 1.3229999542 1.6469999552
 1574.9998779 2.0000000000 12.487000465 12.250000954 0.0119990231 0.2720918655 2.2911643982 78.916000366 113.10556030 107.87723541 1.2070058584 120.17500305 1.6180000305 1.2929999828 1.6180000305
 1575.1248779 2.0000000000 12.484000206 12.250000954 0.0050068358 0.2894300222 2.2960281372 78.476997375 112.93468475 107.71384430 1.2000068426 120.30999756 1.5770000219 1.2460000515 1.5770000219
 1575.2498779 2.0000000000 12.482000351 12.250000954 -0.006000000 0.3018499911 2.2928869724 77.838996887 112.64926147 107.42343903 1.1920000315 120.48200226 1.5369999409 1.1990000010 1.5369999409
 1575.3748779 2.0000000000 12.479999542 12.250000954 -0.011000000 0.3085399866 2.2861568928 77.335563660 112.24861145 107.05130005 1.1849999428 120.75399780 1.5099999905 1.1640000343 1.5099999905
 1575.4998779 2.0000000000 12.477999687 12.250000954 -0.009000000 0.3116099834 2.2825591564 76.889839172 111.73622131 106.61999512 1.1779999733 120.63800049 1.4939862490 1.1469999552 1.4939862490
 1575.6248779 5.0000000000 12.474999428 12.250000954 0.0010000000 0.3110600114 2.2892873287 76.725524902 111.27172852 106.06188202 1.1759999990 120.43399811 1.4799970388 1.1449999809 1.4799970388
 1575.7500000 5.0000000000 12.472999573 12.250000954 0.0099999998 0.3066099882 2.2990076542 77.262954712 110.69027710 105.45038605 1.1759999990 120.23500061 1.4770039320 1.1560000181 1.4770039320
 1575.8750000 5.0000000000 12.470999718 12.250000954 0.0149999997 0.3012999892 2.3071596622 78.262199402 110.10758972 104.86635590 1.1799999475 120.18299866 1.4790136814 1.1720331907 1.4790136814
 1575.9998779 5.0000000000 12.470000267 12.250000954 0.0179970693 0.2997815013 2.3125402927 79.385002136 109.66654968 104.41177368 1.1849950552 120.17700195 1.4859999418 1.1890000105 1.4859999418
 1576.1248779 5.0000000000 12.472000122 12.250000954 0.0239941403 0.3040857911 2.3164384365 79.917999268 109.43901825 104.15166473 1.1929920912 120.17099762 1.4780000448 1.2000000477 1.4780000448
 1576.2498779 5.0000000000 12.473999977 12.250000954 0.0329912119 0.3107999861 2.3227512836 79.835998535 109.17181396 103.98047638 1.2049883604 120.16600037 1.4750000238 1.2109999657 1.4750000238
 1576.3748779 5.0000000000 12.475999832 12.250000954 0.0390000008 0.3140799999 2.3298180103 79.530998230 109.03539276 103.76676178 1.2170000076 120.16000366 1.4759999514 1.2300000191 1.4759999514
 1576.4998779 5.0000000000 12.477999687 12.250000954 0.0350000001 0.3113999963 2.3320569992 79.695350647 108.81214905 103.54012299 1.2430000305 120.13400269 1.4919999838 1.2640000582 1.4919999838
 1576.6248779 5.0000000000 12.479999542 12.250000954 0.0230000000 0.3022800088 2.3284394741 80.053955078 108.56648254 103.31299591 1.2719999552 120.05400085 1.5280293226 1.3129999638 1.5280293226
 1576.7498779 5.0000000000 12.482000351 12.250000954 0.0099999998 0.2886900008 2.3208119869 80.010742188 108.37619781 103.11209869 1.3049999475 119.96099854 1.5580223799 1.3689999580 1.5580223799
 1576.8750000 5.0000000000 12.484000206 12.250000954 0.0020000001 0.2755800188 2.3137700558 79.747177124 108.28298950 102.98278809 1.3380000591 119.80699921 1.5810078382 1.4049999714 1.5810078382
 1577.0000000 5.0000000000 12.486000061 12.250000954 0.0040000002 0.2680200040 2.3156571388 79.324310303 108.30966187 103.02028656 1.3730000257 119.62200165 1.5850000381 1.4099726677 1.5850000381
 1577.1250000 5.0000000000 12.487999916 12.250000954 0.0130000003 0.2690099776 2.3242526054 78.459930420 108.29269409 103.11070251 1.4190000296 119.57599640 1.5850000381 1.3959981203 1.5850000381
 1577.2498779 5.0000000000 12.491000175 12.250000954 0.0209921878 0.2767424285 2.3348221779 77.370002747 108.41479492 103.21726990 1.4659540653 119.66799927 1.5850000381 1.3940000534 1.5850000381
 1577.3748779 5.0000000000 12.493000031 12.250000954 0.0259951185 0.2850918472 2.3439610004 76.369003296 108.57982635 103.32534790 1.5129541159 119.75700378 1.6019999981 1.4309999943 1.6019999981
 1577.4998779 5.0000000000 12.494999886 12.250000954 0.0240000002 0.2854500115 2.3490562439 75.459999084 108.64398956 103.41601563 1.5549589396 119.83999634 1.6299999952 1.4989999533 1.6299999952
 1577.6248779 5.0000000000 12.496999741 12.250000954 0.0170000009 0.2754600048 2.3481538296 74.877998352 108.67032623 103.42864227 1.5880000591 119.88300323 1.6529999971 1.5740000010 1.6529999971
 1577.7498779 5.0000000000 12.499000549 12.250000954 0.0060000001 0.2609199882 2.3414638042 74.484146118 108.55507660 103.33139801 1.6150000095 119.81099701 1.6670000553 1.6269999743 1.6670000553
 1577.8748779 5.0000000000 12.501000404 12.250000954 -0.001000000 0.2500199974 2.3351807594 74.634788513 108.32808685 103.16778564 1.6360000372 119.73999786 1.6710000038 1.6519999504 1.6710000038
 1577.9998779 5.0000000000 12.503000259 12.250000954 -0.001000000 0.2462199926 2.3336415291 75.439888000 108.07012939 102.92003632 1.6519999504 119.68399811 1.6710019112 1.6599999666 1.6710019112
 1578.1250000 5.0000000000 12.505000114 12.250000954 0.0089999996 0.2470400035 2.3393347263 76.350692749 107.79561615 102.59659576 1.6670000553 119.67700195 1.6730293036 1.6679999828 1.6730293036
 1578.2500000 5.0000000000 12.506999969 12.250000954 0.0219999999 0.2475299984 2.3523259163 77.728874207 107.44702148 102.22448730 1.6770000458 119.69799805 1.6880195141 1.6910409927 1.6880195141
 1578.3748779 5.0000000000 12.509000778 12.250000954 0.0329892561 0.2461413592 2.3682281971 79.649002075 106.93117523 101.67708588 1.6799969673 119.82900238 1.7079999447 1.7330000401 1.7079999447
 1578.4998779 5.0000000000 12.512000084 12.250000954 0.0379951149 0.2448113114 2.3794953823 81.138999939 106.04901886 100.82852936 1.6160625219 119.94699860 1.7070000172 1.7710000277 1.7070000172
 1578.6248779 5.0000000000 12.513999939 12.250000954 0.0330048837 0.2453100085 2.3813998699 82.385002136 105.12484741 99.989807129 1.5131006241 120.05200195 1.6330000162 1.7489999533 1.6330000162
 1578.7498779 5.0000000000 12.515000343 12.250000954 0.0149999997 0.2480199933 2.3689084053 82.749000549 104.54539490 99.412422180 1.4179999828 120.16799927 1.5269999504 1.6200000048 1.5269999504
 1578.8748779 5.0000000000 12.513999939 12.250000954 -0.020000000 0.2520599961 2.3373541832 81.757446289 104.59898376 99.333953857 1.3400000334 120.23600006 1.4229999781 1.4079999924 1.4229999781
 1578.9998779 5.0000000000 12.510999680 12.250000954 -0.064000003 0.2561799884 2.2818875313 80.159797668 105.31250763 100.01457214 1.2640000582 120.23300171 1.3118984699 1.1940000057 1.3118984699
 1579.1248779 5.0000000000 12.509000778 12.250000954 -0.103000000 0.2613999844 2.2109918594 77.902381897 106.91641998 101.65986633 1.1940000057 120.22699738 1.2079423666 1.0369999409 1.2079423666
 1579.2500000 5.0000000000 12.506999969 12.250000954 -0.119000003 0.2701900005 2.1509625912 76.244064331 108.52011108 103.23970032 1.1250000000 120.18000031 1.1489257813 0.9391540289 1.1489257813
 1579.3750000 5.0000000000 12.505000114 12.250000954 -0.109999999 0.2815800011 2.1133399010 75.251785278 109.77239990 104.56178284 1.0809999704 120.09799957 1.1109297276 0.8894473910 1.1109297276
 1579.4998779 5.0000000000 12.503000259 12.250000954 -0.083026364 0.2912904918 2.1012654305 74.630996704 110.67853546 105.54977417 1.0620186329 120.02200317 1.0750000477 0.8625149727 1.0750000477
