# LAS format log file from PETREL
# Project units are specified as depth units
#==================================================================
~Version information
VERS.   2.0:
WRAP.   NO:
#==================================================================
~Well
STRT .m      1287.9324951 :
STOP .m      2115.3120117 :
STEP .m     0.00000000 :
NULL .        -999.250000 :
COMP.           : COMPANY
WELL.  31/3-4   : WELL
FLD.            : FIELD
LOC.            : LOCATION
SRVC.           : SERVICE COMPANY
DATE.  2018-09-11 14:48:36   : Log Export Date {yyyy-MM-dd HH:mm:ss}
PROV.           : PROVINCE
UWI.   31/3-4   : UNIQUE WELL ID
API.            : API NUMBER
#==================================================================
~Curve
DEPT .m                   : DEPTH
Lithology_geolink ._      : Lithology_geolink
CALI .in                  : CALI
BS .in                    : BS
ROP .m/h                  : ROP
DRHO .g/cm3               : DRHO
NPHI .m3/m3               : NPHI
RHOB .g/cm3               : RHOB
PEF .b/e                  : PEF
GR .gAPI                  : GR
DTC .us/ft                : DTC
DTS .us/ft                : DTS
RDEP .ohm.m               : RDEP
RSHA .ohm.m               : RSHA
RMIC .ohm.m               : RMIC
RMED .ohm.m               : RMED
~Parameter
#==================================================================
~Ascii
# ...
 1668.3228760 6.0000000000 8.2854003906 8.5000000000 89.731620789 -0.009597597 0.3966000080 2.1928145885 5.3610563278 116.54446411 105.09339905 212.82879639 0.9655735493 0.8668791652 0.5794288516 0.9322000146
 1668.4752197 6.0000000000 8.2634000778 8.5000000000 94.626281738 -0.006599280 0.3650999963 2.2110035419 5.3062295914 120.37316895 104.46829987 212.84385681 0.9326226115 0.8409163952 0.6153923869 0.9017000198
 1668.6276855 6.0000000000 8.2781000137 8.5000000000 90.491561890 -0.005701122 0.3422000110 2.2154953480 5.3434557915 121.58452606 103.21482849 211.29287720 0.9607962966 0.8613856435 0.6058964133 0.9289000034
 1668.7800293 6.0000000000 8.2634000778 8.5000000000 86.122802734 -0.007102242 0.3409000039 2.2095894814 5.4128456116 120.61665344 101.12444305 210.75495911 0.9559991956 0.8433348536 0.6013458371 0.9215000272
 1668.9324951 6.0000000000 8.2559995651 8.5000000000 105.89968109 -0.009902163 0.3240000010 2.1965982914 5.4697422981 110.06655121 97.814865112 208.45520020 0.7054228187 0.6372104883 0.5336590409 0.6848000288
 1669.0848389 6.0000000000 8.2781000137 8.5000000000 104.77051544 -0.012603446 0.3151000142 2.1945943832 5.3974471092 94.785202026 95.787590027 207.44622803 0.7338097095 0.6502132416 0.4825500846 0.7172999978
 1669.2373047 2.0000000000 8.2634000778 8.5000000000 104.17288971 -0.016899038 0.3145999908 2.1873998642 5.3315367699 79.188201904 97.523040771 206.85049438 0.6211016774 0.5419207215 0.4202767909 0.6054999828
 1669.3896484 2.0000000000 8.2340002060 8.5000000000 108.04969025 -0.016297838 0.2998000085 2.1872975826 5.2297692299 69.528762817 99.417617798 206.85319519 0.5598210096 0.4925169945 0.4058071375 0.5453000069
 1669.5421143 2.0000000000 8.2412996292 8.5000000000 101.68230438 -0.013587991 0.2646999955 2.1843383312 5.1908359528 70.487915039 99.696617126 208.06938171 0.5860091448 0.5137081742 0.4147214592 0.5708000064
 1669.6944580 2.0000000000 8.2449998856 8.5000000000 99.565826416 -0.006098317 0.2492000014 2.2083175182 5.0884356499 74.866622925 97.833282471 210.79411316 0.5917437077 0.5188347697 0.4280914962 0.5756999850
 1669.8466797 2.0000000000 8.2671003342 8.5000000000 92.863845825 -0.004000000 0.2655737400 2.2300000191 5.0081000328 81.125297546 95.455200195 213.41850281 0.6462000012 0.5622000098 0.4174999893 0.6267181635
 1669.9991455 2.0000000000 8.2468996048 8.5000000000 92.120407104 -0.005200000 0.2863833308 2.2409999371 4.9979000092 78.153503418 95.514602661 214.07839966 0.6134999990 0.5396000147 0.3907000124 0.5934267640
 1670.1514893 2.0000000000 8.2449998856 8.5000000000 91.376968384 -0.008900000 0.2663160861 2.2256000042 5.0837001801 79.007797241 97.006896973 218.14169312 0.5827999711 0.5110999942 0.4072000086 0.5590275526
 1670.3039551 2.0000000000 8.2340002060 8.5000000000 93.734909058 -0.012800000 0.2830865681 2.1935000420 5.2484002113 76.545898438 99.488700867 219.19079590 0.5884000063 0.5087000132 0.4235000014 0.5588001609
 1670.4562988 2.0000000000 8.2412996292 8.5000000000 99.145996094 -0.019099999 0.2742071152 2.1649999619 5.3045997620 77.514602661 102.38870239 221.10940552 0.5540000200 0.4792999923 0.4320000112 0.5238280892
 1670.6087646 2.0000000000 8.2487001419 8.5000000000 99.735893250 -0.028899999 0.2688043118 2.1468999386 5.2863998413 75.628799438 105.61970520 221.98680115 0.5655000210 0.4821999967 0.4072000086 0.5258983374
 1670.7611084 2.0000000000 8.2854003906 8.5000000000 93.028869629 -0.032000002 0.2620054483 2.1517000198 5.2263998985 74.088996887 107.94750214 221.27659607 0.5339999795 0.4537999928 0.3892999887 0.4920271635
 1670.9135742 2.0000000000 8.2781000137 8.5000000000 94.898620605 -0.027200000 0.2551055253 2.1658000946 5.2049999237 75.211196899 107.02420044 218.88310242 0.5461000204 0.4596000016 0.3980000019 0.5002933741
 1671.0659180 2.0000000000 8.2927999496 8.5000000000 90.962272644 -0.012100000 0.2707874179 2.1884999275 5.1371002197 78.091903687 106.10089874 216.48950195 0.5292000175 0.4444999993 0.3815000057 0.4826141894
 1671.2182617 2.0000000000 8.2707004547 8.5000000000 86.378936768 0.0035000001 0.2824812531 2.2025001049 4.9549999237 75.484199524 101.57849884 211.67369080 0.5412999988 0.4494999945 0.3684000075 0.4882908762
 1671.3707275 2.0000000000 8.2707004547 8.5000000000 82.311683655 0.0015000000 0.3051818311 2.1939001083 4.7687001228 77.690299988 99.692390442 206.00418091 0.5363000035 0.4442000091 0.3418999910 0.4816053510
 1671.5230713 2.0000000000 8.2559995651 8.5000000000 81.304130554 -0.012300000 0.3160825372 2.1677999496 4.7557001114 74.601303101 100.25430298 203.24020386 0.5336999893 0.4397000074 0.3409000039 0.4792038500
 1671.6755371 2.0000000000 8.2559995651 8.5000000000 79.081039429 -0.025699999 0.3402805924 2.1417996883 4.9169001579 76.942199707 100.34439850 203.75868225 0.5325999856 0.4395999908 0.3359000087 0.4787003994
 1671.8278809 2.0000000000 8.2412996292 8.5000000000 72.261482239 -0.028999999 0.3252241611 2.1282000542 5.0791997910 71.551696777 100.03691101 204.16891479 0.5329999924 0.4384000003 0.3355000019 0.4787998497
 1671.9803467 2.0000000000 8.2634000778 8.5000000000 69.502624512 -0.027100001 0.3409873247 2.1243999004 5.1161999702 73.001296997 99.914390564 204.03030396 0.5360000134 0.4429999888 0.3364000022 0.4823971093
 1672.1326904 2.0000000000 8.3002004623 8.5000000000 69.731300354 -0.026500000 0.3276999891 2.1294999123 5.0152997971 74.458396912 99.951187134 203.75860596 0.5389999747 0.4445999861 0.3377999961 0.4849979281
 1672.2851563 2.0000000000 8.2781000137 8.5000000000 67.071517944 -0.029400000 0.3420000076 2.1301000118 4.9741997719 77.420600891 103.05103302 203.69110107 0.5411999822 0.4478000104 0.3312999904 0.4865987301
 1672.4375000 2.0000000000 8.2854003906 8.5000000000 65.892723083 -0.033199999 0.3318000138 2.1328001022 5.0366997719 80.595298767 102.56735992 204.00849915 0.5221999884 0.4365999997 0.3195999861 0.4717119634
 1672.5899658 2.0000000000 8.2927999496 8.5000000000 68.806434631 -0.037200000 0.3264000118 2.1256000996 5.2628002167 81.930900574 98.523635864 204.42300415 0.5175999999 0.4375000000 0.3113999963 0.4735984802
 1672.7423096 2.0000000000 8.2854003906 8.5000000000 74.722770691 -0.032699998 0.3120000064 2.1305000782 5.4036998749 84.461303711 98.048927307 204.66209412 0.5175999999 0.4390999973 0.3100000024 0.4744000137
 1672.8947754 2.0000000000 8.3002004623 8.5000000000 77.007217407 -0.027000001 0.2948000133 2.1331999302 5.4222998619 81.931800842 98.078125000 204.54580688 0.5189999938 0.4377999902 0.3156000078 0.4749999940
 1673.0471191 2.0000000000 8.2707004547 8.5000000000 70.868110657 -0.023000000 0.3133000135 2.1347999573 5.2681999207 82.420600891 97.717956543 204.13439941 0.5212000012 0.4392000139 0.3206000030 0.4767999947
 1673.1994629 2.0000000000 8.2854003906 8.5000000000 73.482940674 -0.022200000 0.3149000108 2.1335000992 5.1146998405 78.898696899 97.302955627 203.79290771 0.5216000080 0.4397999942 0.3239000142 0.4771000147
 1673.3519287 2.0000000000 8.3332004547 8.5000000000 73.624671936 -0.022000000 0.3059000075 2.1245000362 4.9221000671 77.317901611 97.375480652 203.47711182 0.5213999748 0.4417999983 0.3321999907 0.4776000082
 1673.5042725 2.0000000000 8.3002004623 8.5000000000 73.766731262 -0.019200001 0.2903000116 2.1157000065 4.8480000496 77.925598145 97.980995178 203.52229309 0.5225999951 0.4422000051 0.3276999891 0.4785000086
 1673.6567383 2.0000000000 8.2340002060 8.5000000000 75.789367676 -0.018600000 0.2705000043 2.1098001003 4.9300999641 76.003097534 98.847564697 203.65280151 0.5135999918 0.4359000027 0.3183000088 0.4709999859
 1673.8090820 2.0000000000 8.2634000778 8.5000000000 70.285102844 -0.022600001 0.2745999992 2.1110000610 5.0645999908 78.772499084 99.176353455 203.97149658 0.5058000088 0.4291000068 0.3111000061 0.4641000032
 1673.9615479 2.0000000000 8.2781000137 8.5000000000 76.420936584 -0.026300000 0.2782999873 2.1157000065 5.1350998878 77.121398926 98.996520996 204.23629761 0.4853999913 0.4135999978 0.3106000125 0.4472000003
 1674.1138916 2.0000000000 8.2707004547 8.5000000000 71.934387207 -0.027000001 0.2818999887 2.1171000004 5.1291999817 80.499603271 100.89287567 204.32609558 0.5033000112 0.4282000065 0.3120000064 0.4641000032
