# LAS format log file from PETREL
# Project units are specified as depth units
#==================================================================
~Version information
VERS.   2.0:
WRAP.   NO:
#==================================================================
~Well
STRT .m      793.37487793 :
STOP .m      2575.0000000 :
STEP .m     0.00000000 :
NULL .        -999.250000 :
COMP.           : COMPANY
WELL.  31/3-3   : WELL
FLD.            : FIELD
LOC.            : LOCATION
SRVC.           : SERVICE COMPANY
DATE.  2018-09-11 14:48:36   : Log Export Date {yyyy-MM-dd HH:mm:ss}
PROV.           : PROVINCE
UWI.   31/3-3   : UNIQUE WELL ID
API.            : API NUMBER
#==================================================================
~Curve
DEPT .m                   : DEPTH
Lithology_geolink ._      : Lithology_geolink
CALI .in                  : CALI
BS .in                    : BS
DRHO .g/cm3               : DRHO
NPHI .m3/m3               : NPHI
RHOB .g/cm3               : RHOB
GR .gAPI                  : GR
DTC .us/ft                : DTC
DTE .us/ft                : DTE
RDEP .ohm.m               : RDEP
SP .mV                    : SP
RSHA .ohm.m               : RSHA
RMED .ohm.m               : RMED
~Parameter
#==================================================================
~Ascii
# ...
 2212.3750000 6.0000000000 13.107999802  -999.250000 0.1749999970 0.3437900245 2.4979999065 67.992996216 94.681137085 91.631248474 2.9379999638 94.566001892 4.0890002251 4.0890002251
 2212.5000000 6.0000000000 13.182000160  -999.250000 0.1909999996 0.3402200043 2.4860000610 68.335998535 94.314453125 91.461341858 3.1640000343 96.365997314 4.0999999046 4.0999999046
 2212.6250000 6.0000000000 13.204999924  -999.250000 0.1959999949 0.3362500072 2.4769999981 69.241996765 94.438423157 91.331367493 3.3459999561 97.742996216 4.1020002365 4.1020002365
 2212.7500000 6.0000000000 13.166000366  -999.250000 0.1850000024 0.3349200189 2.4760000706 70.972000122 94.202903748 91.346687317 3.4820001125 98.745002747 4.1199998856 4.1199998856
 2212.8750000 6.0000000000 13.083999634  -999.250000 0.1689999998 0.3354499936 2.4830000401 73.084999084 94.309242249 91.477668762 3.5759999752 99.444000244 4.1750001907 4.1750001907
 2213.0000000 6.0000000000 13.003999710  -999.250000 0.1599999964 0.3343899846 2.4930000305 74.733001709 94.669761658 91.639518738 3.6449999809 100.02600098 4.2490000725 4.2490000725
 2213.1250000 6.0000000000 12.956999779  -999.250000 0.1580000073 0.3314199746 2.5000000000 75.537002563 94.891838074 91.744354248 3.6970000267 100.54599762 4.3189997673 4.3189997673
 2213.2500000 6.0000000000 12.946000099  -999.250000 0.1560000032 0.3274700046 2.5009999275 75.697998047 94.448593140 91.723121643 3.7400000095 100.93399811 4.3569998741 4.3569998741
 2213.3750000 6.0000000000 12.958000183  -999.250000 0.1469999999 0.3216799796 2.5020000935 75.819000244 94.448593140 91.587173462 3.7780001163 100.97799683 4.3439998627 4.3439998627
 2213.5000000 6.0000000000 12.977999687  -999.250000 0.1350000054 0.3117299974 2.5109999180 76.174003601 94.550712585 91.519554138 3.8069999218 100.65799713 4.2979998589 4.2979998589
 2213.6250000 6.0000000000 12.994999886  -999.250000 0.1289999932 0.2997599840 2.5290000439 76.474998474 94.568313599 91.613014221 3.8210000992 100.05300140 4.2550001144 4.2550001144
 2213.7500000 6.0000000000 12.999999046  -999.250000 0.1319999993 0.2888799906 2.5490000248 76.288002014 94.733009338 91.829002380 3.8139998913 99.273002625 4.2600002289 4.2600002289
 2213.8750000 6.0000000000 12.987999916  -999.250000 0.1350000054 0.2815600038 2.5599999428 75.124000549 95.099891663 92.019302368 3.7839999199 98.364997864 4.3709998131 4.3709998131
 2214.0000000 6.0000000000 12.961000443  -999.250000 0.1220000014 0.2791000009 2.5490000248 73.019996643 94.708511353 91.868156433 3.7439999580 97.399002075 4.5760002136 4.5760002136
 2214.1250000 5.0000000000 12.934999466  -999.250000 0.0970000029 0.2799699903 2.5220000744 70.081001282 93.947143555 91.133438110 3.7060000896 96.473999023 4.8229999542 4.8229999542
 2214.2500000 5.0000000000 12.921999931  -999.250000 0.0750000030 0.2830400169 2.4890000820 66.697998047 93.165275574 90.085914612 3.6819999218 95.760002136 5.0100002289 5.0100002289
 2214.3750000 5.0000000000 12.923999786  -999.250000 0.0630000010 0.2874200046 2.4619998932 63.770999908 92.124450684 89.080413818 3.6879999638 95.513000488 5.0069999695 5.0069999695
 2214.5000000 5.0000000000 12.937999725  -999.250000 0.0570000000 0.2926300168 2.4509999752 62.398998260 91.214591980 88.452568054 3.7290000916 95.721000671 4.8550000191 4.8550000191
 2214.6250000 5.0000000000 12.951000214  -999.250000 0.0480000004 0.2976000011 2.4570000172 63.187999725 91.314476013 88.449195862 3.7999999523 96.254997253 4.6669998169 4.6669998169
 2214.7500000 5.0000000000 12.963999748  -999.250000 0.0359999985 0.3015600145 2.4769999981 65.806999207 92.172904968 89.037254333 3.8870000839 96.898002625 4.5510001183 4.5510001183
 2214.8750000 6.0000000000 12.979999542  -999.250000 0.0250000004 0.3052400053 2.5030000210 69.096000671 92.634056091 89.654655457 3.9660000801 97.417999268 4.5770001411 4.5770001411
 2215.0000000 6.0000000000 13.001000404  -999.250000 0.0240000002 0.3076899946 2.5250000954 71.641998291 92.825332642 89.887039185 4.0260000229 97.737998962 4.6999998093 4.6999998093
 2215.1250000 6.0000000000 13.019999504  -999.250000 0.0419999994 0.3072499931 2.5460000038 72.935997009 92.517456055 89.554756165 4.0720000267 97.855003357 4.8429999352 4.8429999352
 2215.2500000 6.0000000000 13.029999733  -999.250000 0.0829999968 0.3034199774 2.5650000572 73.269996643 91.600257874 88.697341919 4.1160001755 97.836997986 4.9140000343 4.9140000343
 2215.3750000 6.0000000000 13.026000023  -999.250000 0.1309999973 0.2968199849 2.5810000896 73.263000488 90.426101685 87.653152466 4.1649999619 97.791000366 4.8449997902 4.8449997902
 2215.5000000 6.0000000000 13.008999825  -999.250000 0.1589999944 0.2884100080 2.5850000381 73.180999756 89.938552856 86.933853149 4.2129998207 97.777000427 4.7069997787 4.7069997787
 2215.6250000 6.0000000000 12.989998817  -999.250000 0.1509999931 0.2788200080 2.5750000477 72.713996887 89.586463928 86.567047119 4.2529997826 97.758003235 4.5869998932 4.5869998932
 2215.7500000 6.0000000000 12.975000381  -999.250000 0.1099999994 0.2677699924 2.5550000668 71.583999634 89.273178101 86.384300232 4.2800002098 97.635002136 4.5489997864 4.5489997864
 2215.8750000 5.0000000000 12.969000816  -999.250000 0.0549999997 0.2555899918 2.5339999199 69.815002441 89.034004211 86.146614075 4.2950000763 97.205001831 4.6329998970 4.6329998970
 2216.0000000 5.0000000000 12.969000816  -999.250000 0.0199999996 0.2461400032 2.5239999294 67.848999023 88.831893921 85.613410950 4.3080000877 96.396003723 4.8060002327 4.8060002327
 2216.1250000 5.0000000000 12.972000122  -999.250000 0.0120000001 0.2431599945 2.5220000744 65.873001099 87.461967468 84.696083069 4.3260002136 95.217002869 5.0240001678 5.0240001678
 2216.2500000 5.0000000000 12.973999977  -999.250000 0.0179999992 0.2466799915 2.5220000744 63.924999237 86.608047485 83.644760132 4.3480000496 93.811996460 5.2309999466 5.2309999466
 2216.3750000 5.0000000000 12.976000786  -999.250000 0.0219999999 0.2554799914 2.5179998875 62.076999664 85.752105713 82.745117188 4.3660001755 92.442001343 5.3520002365 5.3520002365
 2216.5000000 5.0000000000 12.977000237  -999.250000 0.0230000000 0.2662900090 2.5130000114 60.867000580 85.089714050 82.187355042 4.3649997711 91.370002747 5.3699998856 5.3699998856
 2216.6250000 5.0000000000 12.979999542  -999.250000 0.0209999997 0.2754800022 2.5109999180 60.972000122 84.909828186 82.063240051 4.3420000076 90.716003418 5.3039999008 5.3039999008
 2216.7500000 5.0000000000 12.980999947  -999.250000 0.0199999996 0.2811900079 2.5109999180 62.548000336 85.385398865 82.328102112 4.3039999008 90.442001343 5.1950001717 5.1950001717
 2216.8750000 5.0000000000 12.979999542  -999.250000 0.0209999997 0.2831900120 2.5150001049 64.803001404 85.776153564 82.877624512 4.2620000839 90.370002747 5.0789999962 5.0789999962
 2217.0000000 5.0000000000 12.970999718  -999.250000 0.0250000004 0.2829400003 2.5199999809 66.222000122 86.383590698 83.550399780 4.2259998322 90.246002197 4.9739999771 4.9739999771
 2217.1250000 5.0000000000 12.956999779  -999.250000 0.0299999993 0.2826000154 2.5209999084 66.099998474 87.289855957 84.349807739 4.1929998398 89.932998657 4.8889999390 4.8889999390
 2217.2500000 5.0000000000 12.937000275  -999.250000 0.0340000018 0.2829000056 2.5190000534 64.755996704 88.343368530 85.276725769 4.1589999199 89.404998779 4.8449997902 4.8449997902
 2217.3750000 5.0000000000 12.916999817  -999.250000 0.0350000001 0.2840200067 2.5120000839 63.180000305 89.336326599 86.306571960 4.1199998856 88.738998413 4.8750000000 4.8750000000
 2217.5000000 5.0000000000 12.902000427  -999.250000 0.0350000001 0.2853699923 2.5069999695 62.056999207 90.432090759 87.306732178 4.0850000381 88.126998901 4.9600000381 4.9600000381
 2217.6250000 5.0000000000 12.892000198  -999.250000 0.0350000001 0.2863699794 2.5079998970 61.354000092 90.961410522 88.027580261 4.0619997978 87.708999634 5.0679998398 5.0679998398
 2217.7500000 5.0000000000 12.887999535  -999.250000 0.0359999985 0.2867600024 2.5150001049 60.888000488 91.161323547 88.374542236 4.0570001602 87.569000244 5.1599998474 5.1599998474
