# LAS format log file from PETREL
# Project units are specified as depth units
#==================================================================
~Version information
VERS.   2.0:
WRAP.   NO:
#==================================================================
~Well
STRT .m      433.43811035 :
STOP .m      2093.8361816 :
STEP .m     0.00000000 :
NULL .        -999.250000 :
COMP.           : COMPANY
WELL.  31/3-2   : WELL
FLD.            : FIELD
LOC.            : LOCATION
SRVC.           : SERVICE COMPANY
DATE.  2018-09-11 14:48:35   : Log Export Date {yyyy-MM-dd HH:mm:ss}
PROV.           : PROVINCE
UWI.   31/3-2   : UNIQUE WELL ID
API.            : API NUMBER
#==================================================================
~Curve
DEPT .m                   : DEPTH
Lithology_geolink ._      : Lithology_geolink
CALI .in                  : CALI
BS .in                    : BS
DRHO .g/cm3               : DRHO
NPHI .m3/m3               : NPHI
RHOB .g/cm3               : RHOB
PEF .b/e                  : PEF
GR .gAPI                  : GR
DTC .us/ft                : DTC
DTE .us/ft                : DTE
RDEP .ohm.m               : RDEP
SP .mV                    : SP
RSHA .ohm.m               : RSHA
RMIC .ohm.m               : RMIC
RMED .ohm.m               : RMED
~Parameter
#==================================================================
~Ascii
# ...
 1645.9324951 1.0000000000 12.187999725 12.250000954 -0.006004007 0.3212900162 2.1370065212  -999.250000 70.487998962 106.79300690 101.61783600 0.4309983850 170.41825867 0.4831559956  -999.250000 0.4200215936
 1646.0849609 1.0000000000 12.187999725 12.250000954 -0.011000000 0.3213087320 2.1450016499  -999.250000 73.311996460 107.54092407 102.38311768 0.4299952090 169.94984436 0.4807569981  -999.250000 0.4199999869
 1646.2373047 1.0000000000 12.173999786 12.250000954 -0.010998397 0.3329874575 2.1460030079  -999.250000 71.319999695 108.29132080 102.95069885 0.4279935956 169.88745117 0.4925610125  -999.250000 0.4289783835
 1646.3897705 1.0000000000 12.137000084 12.250000954 -0.008996797 0.3422534168 2.1500129700  -999.250000 70.061996460 108.30516052 102.98760223 0.4239951968 170.16714478 0.5103979707  -999.250000 0.4449743629
 1646.5421143 1.0000000000 12.104000092 12.250000954 -0.007003205 0.3194103539 2.1580095291  -999.250000 65.711997986 108.32548523 103.13760376 0.4219919741 169.39179993 0.5399119854  -999.250000 0.4669647515
 1646.6945801 1.0000000000 12.093999863 12.250000954 -0.011006405 0.2949091196 2.1700031757  -999.250000 64.441001892 108.25292206 102.94994354 0.4170216024 169.88360596 0.5519319773  -999.250000 0.4779823720
 1646.8469238 1.0000000000 12.093999863 12.250000954 -0.014997596 0.2881328464 2.1720016003  -999.250000 63.000000000 107.12081146 101.88758850 0.4260432720 168.88739014 0.5686060190  -999.250000 0.4919775724
 1646.9992676 1.0000000000 12.097999573 12.250000954 -0.011999199 0.3041461408 2.1739888191  -999.250000 66.424003601 104.09679413 98.877014160 0.4530673027 169.13681030 0.5875650048  -999.250000 0.5069640279
 1647.1517334 1.0000000000 12.116999626 12.250000954 -0.010995192 0.2993195951 2.1599984169  -999.250000 68.122001648 99.733863831 94.426399231 0.4951369166 169.63421631 0.6030899882  -999.250000 0.5189807415
 1647.3040771 1.0000000000 12.144000053 12.250000954 -0.005000800 0.2988342941 2.1579983234  -999.250000 68.435997009 95.819374084 90.644248962 0.5521426201 168.89219666 0.5983769894  -999.250000 0.5170048475
 1647.4565430 1.0000000000 12.163999557 12.250000954 -0.006000000 0.3042101562 2.1559982300  -999.250000 65.008003235 90.326751709 85.154693604 0.6411440969 169.63439941 0.5959799886  -999.250000 0.5179983974
 1647.6088867 16.000000000 12.180000305 12.250000954 -0.006000801 0.3168587685 2.1539969444  -999.250000 64.250000000 81.814109802 76.469230652 0.7011314034 169.38778687 0.6185989976  -999.250000 0.5399471521
 1647.7613525 16.000000000 12.171998978 12.250000954 -0.007000802 0.3028358221 2.1499929428  -999.250000 65.178001404 74.022544861 68.744148254 0.7833771110 169.88021851 0.6740459800  -999.250000 0.5779390931
 1647.9136963 16.000000000 12.142999649 12.250000954 -0.008000000 0.2851436138 2.1410071850  -999.250000 61.785999298 71.230384827 66.022613525 0.9403285384 169.13800049 0.7103629708  -999.250000 0.6149111390
 1648.0661621 2.0000000000 12.145000458 12.250000954 -0.008008007 0.2647112906 2.1500849724  -999.250000 59.324001312 73.871551514 68.742218018 1.1456245184 169.13699341 0.7983909845  -999.250000 0.6918765903
 1648.2185059 2.0000000000 12.173999786 12.250000954 -0.012998397 0.2592570782 2.2030920982  -999.250000 58.472000122 79.956314087 74.699279785 1.4060592651 169.13699341 1.0240000486  -999.250000 0.9443923235
 1648.3709717 2.0000000000 12.187999725 12.250000954 -0.010987190 0.2181238234 2.3182129860  -999.250000 61.219001770 86.299568176 81.005752563 2.0669822693 169.13758850 1.7380000353  -999.250000 1.4741506577
 1648.5233154 2.0000000000 12.187999725 12.250000954 -0.003000801 0.1768485755 2.4510576725  -999.250000 62.340000153 89.711761475 84.422279358 2.4749021530 169.38600159 2.4630000591  -999.250000 2.1433906555
 1648.6757813 2.0000000000 12.187999725 12.250000954 -0.003993595 0.1626147926 2.5230383873  -999.250000 62.437999725 87.830398560 82.532508850 2.4137623310 169.39006042 3.6229999065  -999.250000 3.0814967155
 1648.8281250 2.0000000000 12.187999725 12.250000954 -0.000001603 0.1718447059 2.5470080376  -999.250000 63.183998108 84.089218140 78.755783081 2.3145689964 170.66201782 4.5640001297  -999.250000 3.7968542576
 1648.9804688 2.0000000000 12.201000214 12.250000954 -0.001995997 0.1777074933 2.5570030212  -999.250000 66.740997314 84.860382080 79.676681519 2.0455400944 170.66935730 4.3940000534  -999.250000 3.5645618439
 1649.1329346 2.0000000000 12.211000443 12.250000954 0.0029967949 0.1620960981 2.5609529018  -999.250000 72.188003540 90.386108398 86.510948181 1.7585387230 170.88699341 3.0339999199  -999.250000 2.5596122742
 1649.2852783 2.0000000000 12.181999207 12.250000954 -0.001001601 0.1572571993 2.5019111633  -999.250000 76.985000610 96.291076660 95.730781555 1.5666618347 170.88619995 1.5149999857  -999.250000 1.3768438101
 1649.4377441 5.0000000000 12.158000946 12.250000954 -0.003003205 0.1787474155 2.3909118176  -999.250000 82.365997314 103.08674622 103.12243652 1.3554426432 170.38792419 0.9731050134  -999.250000 0.8488429189
 1649.5900879 5.0000000000 12.141000748 12.250000954 -0.007000000 0.2254474759 2.2809455395  -999.250000 86.166999817 107.16984558 107.18581390 1.1236393452 170.35395813 0.8556709886  -999.250000 0.7462449670
 1649.7425537 5.0000000000 12.093999863 12.250000954 -0.006998398 0.2847001553 2.2129857540  -999.250000 84.566001892 110.13347626 110.12165070 0.8986108899 169.07800293 0.8371250033  -999.250000 0.7150496244
 1649.8948975 5.0000000000 12.074000359 12.250000954 -0.004998398 0.3223140240 2.1949911118  -999.250000 87.061996460 113.43797302 113.37637329 0.7368413210 169.07499695 0.8083909750  -999.250000 0.6930528879
 1650.0473633 5.0000000000 12.088000298 12.250000954 -0.003006405 0.3397820890 2.1839776039  -999.250000 87.061996460 116.15815735 116.18972778 0.6379135251 169.07499695 0.7798240185  -999.250000 0.6700368524
 1650.1997070 5.0000000000 12.093999863 12.250000954 -0.007005609 0.3286212981 2.1699857712  -999.250000 87.624000549 117.76187897 117.77116394 0.6019823551 169.07539368 0.7761319876  -999.250000 0.6650120020
 1650.3521729 5.0000000000 12.093999863 12.250000954 -0.014004804 0.3427232206 2.1519968510  -999.250000 85.073997498 118.09471130 118.09896088 0.5909832120 169.32281494 0.7630479932  -999.250000 0.6560144424
 1650.5045166 5.0000000000 12.093999863 12.250000954 -0.017002406 0.3447366357 2.1500048637  -999.250000 85.061996460 117.82230377 117.91192627 0.5840016007 168.82846069 0.7534530163  -999.250000 0.6510120034
 1650.6569824 5.0000000000 12.093999863 12.250000954 -0.019998398 0.3530370295 2.1560158730  -999.250000 86.125000000 117.45266724 117.44040680 0.5850071907 170.35540771 0.7677670121  -999.250000 0.6599856019
 1650.8093262 5.0000000000 12.093999863 12.250000954 -0.019001601 0.3573967218 2.1660063267  -999.250000 88.241996765 115.26316071 115.36542511 0.5880032182 170.10739136 0.7891899943  -999.250000 0.6769727468
 1650.9616699 6.0000000000 12.093999863 12.250000954 -0.021000801 0.3408098817 2.1740016937  -999.250000 87.811996460 110.97943878 110.99987793 0.5900160074 170.35520935 0.8107910156  -999.250000 0.6929615736
 1651.1141357 6.0000000000 12.093999863 12.250000954 -0.022000801 0.3281488717 2.1760001183  -999.250000 93.157997131 108.01492310 107.98109436 0.6000208855 169.85774231 0.8155469894  -999.250000 0.6969935894
 1651.2664795 5.0000000000 12.093999863 12.250000954 -0.022995997 0.3017988205 2.1760001183  -999.250000 90.755996704 107.54177094 107.42444611 0.6130192280 169.07699585 0.8108050227  -999.250000 0.6979976296
 1651.4189453 5.0000000000 12.093999863 12.250000954 -0.017992787 0.3003336489 2.1760032177  -999.250000 92.688003540 107.43652344 107.49337769 0.6250312328 169.07455444 0.8275319934  -999.250000 0.7079839706
 1651.5712891 5.0000000000 12.093999863 12.250000954 -0.008995997 0.3173521459 2.1799983978  -999.250000 89.886001587 107.09825897 107.19778442 0.6380304694 168.88969421 0.8215789795  -999.250000 0.7020144463
 1651.7237549 5.0000000000 12.093999863 12.250000954 -0.004000000 0.3325332105 2.1780064106  -999.250000 91.497001648 105.86609650 105.83413696 0.6570792794 169.94853210 0.7953019738  -999.250000 0.6820320487
