# LAS format log file from PETREL
# Project units are specified as depth units
#==================================================================
~Version information
VERS.   2.0:
WRAP.   NO:
#==================================================================
~Well
STRT .m      793.37487793 :
STOP .m      2575.0000000 :
STEP .m     0.00000000 :
NULL .        -999.250000 :
COMP.           : COMPANY
WELL.  31/3-3   : WELL
FLD.            : FIELD
LOC.            : LOCATION
SRVC.           : SERVICE COMPANY
DATE.  2018-09-11 14:48:36   : Log Export Date {yyyy-MM-dd HH:mm:ss}
PROV.           : PROVINCE
UWI.   31/3-3   : UNIQUE WELL ID
API.            : API NUMBER
#==================================================================
~Curve
DEPT .m                   : DEPTH
Lithology_geolink ._      : Lithology_geolink
CALI .in                  : CALI
BS .in                    : BS
DRHO .g/cm3               : DRHO
NPHI .m3/m3               : NPHI
RHOB .g/cm3               : RHOB
GR .gAPI                  : GR
DTC .us/ft                : DTC
DTE .us/ft                : DTE
RDEP .ohm.m               : RDEP
SP .mV                    : SP
RSHA .ohm.m               : RSHA
RMED .ohm.m               : RMED
~Parameter
#==================================================================
~Ascii
 793.37487793  -999.250000 18.721000671  -999.250000 -1.970000029 0.2023200095 1.0770000219 51.522209167 153.57061768 147.99256897 1.4740116596 48.100700378 1.6669898033 1.6669898033
 793.49987793  -999.250000 18.721000671  -999.250000 -1.970000029 0.2023200095 1.0770000219 49.683589935 153.66334534 148.12603760 1.4540390968 48.207790375 1.6779785156 1.6779785156
 793.62487793  -999.250000 18.721000671  -999.250000 -1.970000029 0.2023200095 1.0770000219 48.656002045 153.71386719 148.09757996 1.4270527363 48.270877838 1.6859843731 1.6859843731
 793.74987793  -999.250000 18.721000671  -999.250000 -1.970000029 0.2023200095 1.0770000219 48.543216705 153.67460632 148.05947876 1.3950624466 48.331882477 1.6840039492 1.6840039492
 793.87481689  -999.250000 18.721000671  -999.250000 -1.970000029 0.2023200095 1.0770000219 49.258598328 153.88691711 148.27090454 1.3630626202 48.371925354 1.6640391350 1.6640391350
 793.99987793  -999.250000 18.721000671  -999.250000 -1.970000029 0.2023200095 1.0770000219 50.323440552 154.53858948 148.94017029 1.3320454359 48.352031708 1.6300498247 1.6300498247
 794.12487793  -999.250000 18.721000671  -999.250000 -1.970000029 0.2023200095 1.0770000219 51.348999023 155.75871277 150.18395996 1.3010605574 48.240219116 1.5890799761 1.5890799761
 794.24987793  -999.250000 18.721000671  -999.250000 -1.970000029 0.2023200095 1.0770000219 52.205329895 157.61846924 151.98870850 1.2720565796 48.032405853 1.5540683270 1.5540683270
 794.37487793  -999.250000 18.721000671  -999.250000 -1.970000029 0.2023200095 1.0770000219 53.192073822 159.77407837 154.13922119 1.2440546751 47.728595734 1.5360351801 1.5360351801
 794.49981689  -999.250000 18.721000671  -999.250000 -1.970000029 0.2023200095 1.0770000219 54.580284119 161.76771545 156.14553833 1.2160546780 47.327781677 1.5320078135 1.5320078135
 794.62487793  -999.250000 18.721000671  -999.250000 -1.970000029 0.2023200095 1.0770000219 56.462242126 163.33079529 157.71243286 1.1950308084 46.806762695 1.5369926691 1.5369926691
 794.74987793  -999.250000 18.721000671  -999.250000 -1.970000029 0.2023200095 1.0770000219 58.592838287 164.18861389 158.59495544 1.1810272932 46.227134705 1.5409921408 1.5409921408
 794.87487793  -999.250000 18.721000671  -999.250000 -1.970000029 0.2023200095 1.0770000219 60.354560852 164.19122314 158.65811157 1.1790039539 45.778873444 1.5380058289 1.5380058289
 794.99993896  -999.250000 18.716999054  -999.250000 -1.947999954 0.1999099851 1.0909999609 61.416446686 163.54983521 157.94482422 1.1849911213 45.557323456 1.5310102701 1.5310102701
 795.12487793  -999.250000 18.715000153  -999.250000 -1.924000025 0.2011500001 1.1039999723 61.702583313 162.64921570 157.05061340 1.1979808807 45.534034729 1.5260072947 1.5260072947
 795.24987793  -999.250000 18.716999054  -999.250000 -1.904000044 0.2047400028 1.1100000143 61.364494324 162.09608459 156.50891113 1.2139765024 45.610885620 1.5260000229 1.5260000229
 795.37487793  -999.250000 18.719999313  -999.250000 -1.894000053 0.2086099982 1.1059999466 60.641414642 162.05299377 156.48291016 1.2319648266 45.684856415 1.5309902430 1.5309902430
 795.49987793  -999.250000 18.722000122  -999.250000 -1.904000044 0.2112599909 1.0909999609 59.787666321 162.41857910 156.85502625 1.2489666939 45.721927643 1.5379862785 1.5379862785
 795.62481689  -999.250000 18.724000931  -999.250000 -1.930999994 0.2117699981 1.0690000057 59.004528046 162.84770203 157.24203491 1.2629727125 45.741962433 1.5519727468 1.5519727468
 795.74987793  -999.250000 18.722999573  -999.250000 -1.965999961 0.2098200023 1.0460000038 58.394893646 162.89199829 157.29995728 1.2739839554 45.791927338 1.5769634247 1.5769634247
 795.87487793  -999.250000 18.724000931  -999.250000 -1.996999979 0.2057099938 1.0279999971 57.937892914 162.81985474 157.21415710 1.2819843292 45.882820129 1.6079394817 1.6079394817
 795.99987793  -999.250000 18.725000381  -999.250000 -2.010999918 0.2016600072 1.0190000534 57.509834290 162.69538879 157.08123779 1.2879883051 45.966835022 1.6279609203 1.6279609203
 796.12487793  -999.250000 18.725999832  -999.250000 -2.009999990 0.2015900016 1.0149999857 57.005985260 162.53108215 156.93748474 1.2939883471 46.006923676 1.6299960613 1.6299960613
 796.24981689  -999.250000 18.725999832  -999.250000 -1.998999953 0.2074399889 1.0160000324 56.584823608 162.34759521 156.79306030 1.3009862900 45.943126678 1.6130332947 1.6130332947
 796.37487793  -999.250000 18.721000671  -999.250000 -1.980999947 0.2184499949 1.0199999809 56.775718689 162.24967957 156.64855957 1.3099867105 45.713336945 1.5940277576 1.5940277576
 796.49987793  -999.250000 18.714000702  -999.250000 -1.955000043 0.2304400057 1.0269999504 57.756080627 162.10984802 156.50404358 1.3179843426 45.396617889 1.5840195417 1.5840195417
 796.62487793  -999.250000 18.704999924  -999.250000 -1.924999952 0.2395599931 1.0349999666 59.331920624 161.96122742 156.35957336 1.3229901791 45.119541168 1.5830018520 1.5830018520
 796.74993896  -999.250000 18.697999954  -999.250000 -1.901000023 0.2435600162 1.0399999619 60.906696320 161.81442261 156.21502686 1.3239985704 44.976211548 1.5839985609 1.5839985609
 796.87487793  -999.250000 18.694000244  -999.250000 -1.891999960 0.2416900098 1.0390000343 61.687854767 161.65560913 156.07057190 1.3200058937 44.958026886 1.5810043812 1.5810043812
 796.99987793  -999.250000 18.693000793  -999.250000 -1.904000044 0.2354999930 1.0379999876 61.704978943 161.46276855 155.92599487 1.3150073290 44.964988708 1.5760072470 1.5760072470
 797.12487793  -999.250000 18.690999985  -999.250000 -1.921000004 0.2291299999 1.0470000505 61.362670898 161.36903381 155.78158569 1.3110078573 44.935058594 1.5730057955 1.5730057955
 797.24987793  -999.250000 18.688999176  -999.250000 -1.929000020 0.2234300077 1.0720000267 61.157402039 161.23039246 155.63714600 1.3090039492 44.823219299 1.5729999542 1.5729999542
 797.37493896  -999.250000 18.687000275  -999.250000 -1.914999962 0.2186700106 1.1180000305 61.324836731 161.08100891 155.49264526 1.3109980822 44.639179230 1.5769960880 1.5769960880
 797.49987793  -999.250000 18.686000824  -999.250000 -1.883000016 0.2152400017 1.1720000505 61.558654785 160.91195679 155.34823608 1.3149942160 44.476242065 1.5819927454 1.5819927454
 797.62487793  -999.250000 18.684999466  -999.250000 -1.855000019 0.2135000080 1.2059999704 61.481151581 160.73561096 155.20373535 1.3179941177 44.395156860 1.5869902372 1.5869902372
 797.74987793  -999.250000 18.680000305  -999.250000 -1.842000008 0.2132399976 1.2059999704 61.042858124 160.64169312 155.05921936 1.3209941387 44.400989532 1.5899941921 1.5899941921
 797.87487793  -999.250000 18.663999557  -999.250000 -1.835999966 0.2130100131 1.1799999475 60.594875336 160.49279785 154.91476440 1.3209999800 44.432937622 1.5909980536 1.5909980536
 797.99981689  -999.250000 18.631000519  -999.250000 -1.812000036 0.2113599926 1.1579999924 60.563060760 160.34802246 154.77033997 1.3190039396 44.414039612 1.5919981003 1.5919981003
 798.12487793  -999.250000 18.583000183  -999.250000 -1.763000011 0.2094900012 1.1579999924 61.125175476 160.20097351 154.60879517 1.3140072823 44.312149048 1.5929986238 1.5929986238
 798.24987793  -999.250000 18.527000427  -999.250000 -1.697000027 0.2093800008 1.1809999943 62.110073090 159.95996094 154.37278748 1.3040195704 44.166286469 1.5920019150 1.5920019150
 798.37487793  -999.250000 18.475000381  -999.250000 -1.631000042 0.2133099884 1.2180000544 63.140987396 159.50646973 153.97741699 1.2900272608 44.117095947 1.5870097876 1.5870097876
 798.49993896  -999.250000 18.438999176  -999.250000 -1.585000038 0.2220999897 1.2560000420 63.962799072 158.92262268 153.30619812 1.2750219107 44.243812561 1.5790116787 1.5790116787
 798.62487793  -999.250000 18.419000626  -999.250000 -1.557999969 0.2302300036 1.2910000086 64.616043091 158.29087830 152.66671753 1.2600219250 44.537567139 1.5660190582 1.5660190582
 798.74987793  -999.250000 18.410999298  -999.250000 -1.541000009 0.2330600023 1.3220000267 65.287017822 158.00622559 152.38949585 1.2480175495 44.900470734 1.5500234365 1.5500234365
