# LAS format log file from PETREL
# Project units are specified as depth units
#==================================================================
~Version information
VERS.   2.0:
WRAP.   NO:
#==================================================================
~Well
STRT .m      1287.9324951 :
STOP .m      2115.3120117 :
STEP .m     0.00000000 :
NULL .        -999.250000 :
COMP.           : COMPANY
WELL.  31/3-4   : WELL
FLD.            : FIELD
LOC.            : LOCATION
SRVC.           : SERVICE COMPANY
DATE.  2018-09-11 14:48:36   : Log Export Date {yyyy-MM-dd HH:mm:ss}
PROV.           : PROVINCE
UWI.   31/3-4   : UNIQUE WELL ID
API.            : API NUMBER
#==================================================================
~Curve
DEPT .m                   : DEPTH
Lithology_geolink ._      : Lithology_geolink
CALI .in                  : CALI
BS .in                    : BS
ROP .m/h                  : ROP
DRHO .g/cm3               : DRHO
NPHI .m3/m3               : NPHI
RHOB .g/cm3               : RHOB
PEF .b/e                  : PEF
GR .gAPI                  : GR
DTC .us/ft                : DTC
DTS .us/ft                : DTS
RDEP .ohm.m               : RDEP
RSHA .ohm.m               : RSHA
RMIC .ohm.m               : RMIC
RMED .ohm.m               : RMED
~Parameter
#==================================================================
~Ascii
# ...
 1454.3531494 12.000000000 8.2118997574 8.5000000000 87.088584900 0.0071000000 0.3971999884 2.2348001003 4.0159997940 115.52400208 126.39630127 300.01458740 1.3061000109 1.2149000168 0.9678999782 1.2342000008
 1454.5054932 12.000000000 8.2265996933 8.5000000000 83.338256836 -0.002300000 0.4347000122 2.2469000816 3.6944999695 119.56580353 125.73190308 299.44409180 1.2344000340 1.1640000343 1.0163999796 1.1728999615
 1454.6579590 12.000000000 8.2412996292 8.5000000000 68.909774780 -0.010200000 0.4724000096 2.2276999950 3.5948998928 121.06349945 124.28388977 298.91400146 1.2851999998 1.2166999578 1.0692000389 1.2321000099
 1454.8103027 12.000000000 8.2412996292 8.5000000000 74.031494141 -0.012200000 0.4787999988 2.1977999210 3.7406001091 114.68360138 122.98680878 298.33801270 1.2480000257 1.1865999699 1.0583000183 1.2012000084
 1454.9627686 12.000000000 8.4399003983 8.5000000000 65.502296448 -0.009900000 0.5356000066 2.1756999493 3.9279000759 117.35530090 122.68170166 297.99899292 1.2806999683 1.2019000053 0.9750000238 1.2505999804
 1455.1151123 12.000000000 8.3002004623 8.5000000000 64.285758972 -0.006100000 0.5042999983 2.1744999886 4.0237998962 115.39669800 124.84928894 298.04360962 1.3240000010 1.2450000048 1.0166000128 1.3059999943
 1455.2675781 12.000000000 8.4324998856 8.5000000000 62.541015625 -0.004100000 0.4508000016 2.1865999699 4.0250000954 113.97820282 127.03579712 310.36828613 1.3236000538 1.2515000105 1.1560000181 1.3109999895
 1455.4199219 12.000000000 8.4399003983 8.5000000000 57.187995911 -0.006300000 0.4760999978 2.1947999001 3.9837999344 104.70459747 122.12449646 321.41461182 1.3091000319 1.2382999659 1.3365000486 1.3058999777
 1455.5723877 12.000000000 8.4546003342 8.5000000000 59.995082855 -0.011000000 0.4859000146 2.1965999603 3.9231998920 107.56349945 113.71218872 306.59210205 1.3137999773 1.2805000544 1.1340999603 1.3358000517
 1455.7247314 12.000000000 8.4471998215 8.5000000000 63.326118469 -0.010800000 0.4751000106 2.2023999691 3.8738999367 105.59190369 103.93550110 269.02801514 1.2371000051 1.2120000124 0.9200999737 1.2575999498
 1455.8770752 12.000000000 8.4324998856 8.5000000000 64.865486145 -0.009300000 0.4487999976 2.2107000351 3.8984000683 112.04740143 97.693992615 242.80601501 1.1355999708 1.1202000380 0.8819000125 1.1518000364
 1456.0295410 12.000000000 8.4324998856 8.5000000000 66.148956299 -0.004500000 0.4176000059 2.2620999813 3.9723999500 108.76999664 94.019798279 225.21139526 1.0951000452 1.0815000534 1.0752999783 1.1093000174
 1456.1818848 12.000000000 8.5281000137 8.5000000000 59.377296448 -0.000900000 0.4384999871 2.3382999897 4.1152000427 103.17050171 90.409896851 206.11747742 1.2467000484 1.2914999723 1.6879999638 1.2601000071
 1456.3343506 12.000000000 8.4104003906 8.5000000000 57.408466339 0.0000000000 0.3208000064 2.4337000847 4.3880000114 93.542503357 89.277496338 198.03109741 1.1901999712 1.2073999643 2.9686000347 1.1928999424
 1456.4866943 13.000000000 8.4693002701 8.5000000000 52.128608704 -0.005700000 0.2583000064 2.4451000690 4.6296000481 77.383102417 88.145103455 189.94479370 2.7534000874 2.6596000195 3.7211000919 2.7427999973
 1456.6391602 13.000000000 8.4399003983 8.5000000000 53.626972198 -0.007000000 0.2031999975 2.4460999966 4.7649002075 65.986297607 87.990188599 178.27191162 2.4363999367 2.3285000324 4.0528998375 2.4131000042
 1456.7915039 13.000000000 8.4434995651 8.5000000000 54.942260742 -0.006300000 0.2110999972 2.4451000690 4.7871999741 54.005100250 88.333190918 180.26409912 2.8364999294 2.6954998970 4.0858001709 2.7939999104
 1456.9439697 13.000000000 8.4399003983 8.5000000000 55.989173889 -0.005500000 0.2162999958 2.4433000088 4.7885999680 51.238300323 88.315093994 181.92828369 2.8443000317 2.7095000744 4.0873999596 2.8034999371
 1457.0963135 11.000000000 8.4434995651 8.5000000000 54.934383392 -0.005500000 0.2333000004 2.4367001057 4.8010001183 47.486801147 88.297004700 183.59240723 3.0144999027 2.8675000668 3.9725000858 2.9646000862
 1457.2487793 11.000000000 8.4471998215 8.5000000000 53.719161987 -0.004000000 0.2348999977 2.4272000790 4.7262997627 47.485000610 88.603401184 180.60910034 3.1340000629 2.9953000546 3.7955000401 3.0803000927
 1457.4011230 11.000000000 8.4546003342 8.5000000000 49.183399200 -0.002000000 0.2418999970 2.4193000793 4.5921001434 51.174598694 89.480293274 179.48930359 3.1415998936 3.0278000832 3.3522999287 3.0666000843
 1457.5535889 11.000000000 8.4876003265 8.5000000000 52.478019714 -0.001600000 0.2404000014 2.4121999741 4.4690999985 55.190898895 89.794601440 179.66670227 2.8556001186 2.7897000313 3.0471999645 2.7516000271
 1457.7059326 12.000000000 8.4765996933 8.5000000000 59.027233124 -0.001900000 0.2405000031 2.4135999680 4.4267997742 57.402900696 90.108901978 179.84419250 2.7971999645 2.7725999355 2.6419000626 2.7079999447
 1457.8583984 12.000000000 8.4399003983 8.5000000000 62.260829926 -0.002000000 0.2360000014 2.4221000671 4.4858999252 57.429901123 90.046401978 183.85481262 3.0706999302 3.0636999607 2.7005000114 2.9681000710
 1458.0107422 12.000000000 8.4765996933 8.5000000000 71.075454712 -0.001600000 0.2382999957 2.4296998978 4.5954999924 58.911998749 90.905113220 185.03280640 2.8691000938 2.8559000492 2.7290999889 2.7760000229
 1458.1630859 12.000000000 8.4693002701 8.5000000000 71.167655945 -0.002800000 0.2251999974 2.4242999554 4.7446999550 62.199298859 92.624298096 188.81739807 2.8594999313 2.8441998959 2.8708999157 2.7665998936
 1458.3155518 12.000000000 8.4765996933 8.5000000000 64.450790405 -0.003200000 0.1940000057 2.4226999283 4.7505998611 67.440803528 94.343391418 192.60212708 2.7739000320 2.7757000923 2.8826999664 2.6970000267
 1458.4678955 12.000000000 8.4693002701 8.5000000000 69.743110657 -0.002700000 0.1772000045 2.4233999252 4.6872000694 67.123802185 100.27100372 199.64720154 2.9937000275 2.9821000099 2.9735999107 2.9105999470
 1458.6203613 12.000000000 8.4765996933 8.5000000000 58.746719360 0.0000000000 0.1818999946 2.4298000336 4.5489001274 66.289596558 106.47699738 212.50979614 2.8478000164 2.8464000225 3.1551001072 2.7813000679
 1458.7727051 12.000000000 8.4693002701 8.5000000000 52.971126556 0.0034000000 0.1912000030 2.4351000786 4.4892001152 64.301002502 108.41680908 217.27189636 3.2348999977 3.2527999878 2.9026999474 3.1679999828
 1458.9251709 12.000000000 8.4876003265 8.5000000000 56.865158081 0.0030000000 0.1947000027 2.4423000813 4.4962000847 64.483200073 110.35659790 222.03411865 3.3643000126 3.3417999744 2.8447000980 3.3215999603
 1459.0775146 12.000000000 8.5318002701 8.5000000000 52.537399292 0.0001000000 0.1978999972 2.4491999149 4.6434998512 60.939998627 113.12001038 230.61109924 3.3561000824 3.3531999588 3.0148999691 3.3369998932
 1459.2299805 12.000000000 8.4693002701 8.5000000000 53.401901245 -0.004200000 0.1985999942 2.4474999905 4.8336000443 55.777400970 114.13829803 232.03080750 3.4133999348 3.3543999195 2.9730000496 3.3705999851
 1459.3823242 12.000000000 8.4399003983 8.5000000000 51.246391296 -0.006000000 0.2141000032 2.4454998970 4.9622998238 52.859298706 111.74060059 231.46710205 3.3926000595 3.3252000809 2.8893001080 3.3591001034
 1459.5347900 12.000000000 8.4399003983 8.5000000000 55.416336060 -0.007400000 0.2125999928 2.4377999306 5.0226998329 58.061000824 109.34291077 230.90330505 3.2606999874 3.1163001060 2.9702000618 3.2585999966
 1459.6871338 12.000000000 8.4546003342 8.5000000000 56.448490143 -0.007900000 0.2281000018 2.4344000816 5.0268998146 75.161499023 101.14949799 232.79377747 3.2527000904 3.0954000950 2.9542000294 3.2855000496
 1459.8395996 12.000000000 8.4546003342 8.5000000000 58.153545380 -0.004600000 0.2293999940 2.4121000767 5.0100002289 92.937400818 95.662406921 229.53419495 3.2820999622 3.1723999977 2.7588999271 3.3524999619
 1459.9919434 12.000000000 8.4765996933 8.5000000000 66.156166077 -0.001800000 0.2745999992 2.3566000462 4.9994997978 107.21510315 94.868598938 234.53070068 1.6480000019 1.6769000292 1.6938999891 1.7108000517
 1460.1442871 12.000000000 8.4399003983 8.5000000000 76.220802307 0.0000000000 0.3799999952 2.2820999622 5.0064997673 108.03589630 94.074691772 239.52728271 1.4321000576 1.4990999699 1.1895999908 1.4890999794
