# LAS format log file from PETREL
# Project units are specified as depth units
#==================================================================
~Version information
VERS.   2.0:
WRAP.   NO:
#==================================================================
~Well
STRT .m      1287.9324951 :
STOP .m      2115.3120117 :
STEP .m     0.00000000 :
NULL .        -999.250000 :
COMP.           : COMPANY
WELL.  31/3-4   : WELL
FLD.            : FIELD
LOC.            : LOCATION
SRVC.           : SERVICE COMPANY
DATE.  2018-09-11 14:48:36   : Log Export Date {yyyy-MM-dd HH:mm:ss}
PROV.           : PROVINCE
UWI.   31/3-4   : UNIQUE WELL ID
API.            : API NUMBER
#==================================================================
~Curve
DEPT .m                   : DEPTH
Lithology_geolink ._      : Lithology_geolink
CALI .in                  : CALI
BS .in                    : BS
ROP .m/h                  : ROP
DRHO .g/cm3               : DRHO
NPHI .m3/m3               : NPHI
RHOB .g/cm3               : RHOB
PEF .b/e                  : PEF
GR .gAPI                  : GR
DTC .us/ft                : DTC
DTS .us/ft                : DTS
RDEP .ohm.m               : RDEP
RSHA .ohm.m               : RSHA
RMIC .ohm.m               : RMIC
RMED .ohm.m               : RMED
~Parameter
#==================================================================
~Ascii
# ...
 1507.8455811 13.000000000 8.5281000137 8.5000000000 68.516624451 -0.013098720 0.3738000095 2.3001999855 3.9479846954 86.115142822 121.36004639 289.30316162 1.4930052757 1.5525060892 1.3748028278 1.5170999765
 1507.9980469 13.000000000 8.5096998215 8.5000000000 67.161239624 -0.011497997 0.3749000132 2.3003034592 3.9288685322 85.048049927 122.90847778 291.14971924 1.3747435808 1.4351632595 1.3783093691 1.3940000534
 1508.1503906 13.000000000 8.5354003906 8.5000000000 70.624511719 -0.008999599 0.3682000041 2.3046956062 3.8896079063 87.981597900 123.51087952 291.30661011 1.3043993711 1.3894028664 1.3900680542 1.3301999569
 1508.3028564 13.000000000 8.5574998856 8.5000000000 66.739448547 -0.008498478 0.3925000131 2.2992057800 3.8993878365 87.475028992 124.11320496 291.46325684 1.3036884069 1.3929905891 1.3501778841 1.3330999613
 1508.4552002 13.000000000 8.5796003342 8.5000000000 69.952690125 -0.006599039 0.4061000049 2.3063054085 3.8841001987 89.634529114 124.63108063 291.44305420 1.2891907692 1.3812953234 1.3224896193 1.3201999664
 1508.6076660 13.000000000 8.6090002060 8.5000000000 74.383079529 -0.005400321 0.3869000077 2.3135018349 3.8845145702 87.178634644 125.35991669 292.52676392 1.2777923346 1.3754917383 1.3095058203 1.3144999743
 1508.7600098 13.000000000 8.5868997574 8.5000000000 77.505187988 -0.005803445 0.3840000033 2.3158900738 3.9027502537 82.610656738 126.24263763 297.47665405 1.2682927847 1.3651931286 1.3168005943 1.3036999702
 1508.9124756 13.000000000 8.5868997574 8.5000000000 85.195030212 -0.010102882 0.3774000108 2.3034801483 3.9655821323 82.179870605 126.66172791 302.52941895 1.2592102289 1.3565006256 1.3174672127 1.2961000204
 1509.0648193 13.000000000 8.5868997574 8.5000000000 82.627090454 -0.011899840 0.3993000090 2.2911965847 4.0167217255 78.857376099 126.42965698 306.72229004 1.2655965090 1.3568973541 1.2969819307 1.2976000309
 1509.2172852 13.000000000 8.6015996933 8.5000000000 83.582977295 -0.011700160 0.4081000090 2.2870979309 4.0439019203 79.444869995 125.99711609 310.18469238 1.2613433599 1.3536238670 1.2743756771 1.2955000401
 1509.3696289 13.000000000 8.5979003906 8.5000000000 77.421897888 -0.011800962 0.4404999912 2.2857005596 4.0451760292 80.115722656 125.37146759 312.86199951 1.2884097099 1.3685066700 1.2592002153 1.3156000376
 1509.5220947 13.000000000 8.5868997574 8.5000000000 71.251914978 -0.013000160 0.4336999953 2.2863059044 4.0155205727 83.520103455 124.82698822 314.70938110 1.3004379272 1.3768229485 1.2595154047 1.3316999674
 1509.6744385 13.000000000 8.5979003906 8.5000000000 65.893676758 -0.013100481 0.4550000131 2.2900011539 3.9657824039 88.013252258 124.56842041 314.57516479 1.3240901232 1.3911910057 1.2691133022 1.3456000090
 1509.8267822 13.000000000 8.5979003906 8.5000000000 60.134471893 -0.013700481 0.4277999997 2.2915005684 3.9439134598 93.066490173 124.34082794 313.40234375 1.3118003607 1.3799989223 1.2857178450 1.3343000412
 1509.9792480 13.000000000 8.5648002625 8.5000000000 57.625656128 -0.014300240 0.3944000006 2.2920992374 3.9606337547 97.049461365 124.99626160 308.72384644 1.3122088909 1.3786033392 1.3080092669 1.3343000412
 1510.1315918 13.000000000 8.4765996933 8.5000000000 56.800846100 -0.014600641 0.3921999931 2.2912981510 4.0030279160 95.378013611 125.57701874 303.28619385 1.3233232498 1.3827073574 1.3196066618 1.3423999548
 1510.2840576 13.000000000 8.4912996292 8.5000000000 52.688907623 -0.015399920 0.3657000065 2.2889020443 4.0378756523 93.024452209 125.21501923 300.03067017 1.3522977829 1.3919981718 1.3279987574 1.3552000523
 1510.4364014 13.000000000 8.5059995651 8.5000000000 50.963008881 -0.015299760 0.3634999990 2.2916023731 4.0075664520 93.219383240 124.97389221 299.27740479 1.3493739367 1.3896921873 1.3265024424 1.3538000584
 1510.5888672 13.000000000 8.5059995651 8.5000000000 49.012893677 -0.014998557 0.3596000075 2.2947056293 3.9656596184 94.326087952 124.84005737 300.65316772 1.3168190718 1.3798135519 1.3295024633 1.3374999762
 1510.7412109 13.000000000 8.5059995651 8.5000000000 47.091140747 -0.013199039 0.3673999906 2.3018987179 3.9153010845 93.812446594 124.66007233 301.51062012 1.3406616449 1.3967376947 1.3326008320 1.3567999601
 1510.8936768 13.000000000 8.4987001419 8.5000000000 46.193859100 -0.011998557 0.3772999942 2.3005003929 3.9168045521 88.881065369 124.49830627 303.29080200 1.4175347090 1.4437370300 1.3337116241 1.4103000164
 1511.0460205 13.000000000 8.5059995651 8.5000000000 48.188930511 -0.010199280 0.3585999906 2.3010001183 3.9224021435 86.962196350 124.76709747 306.90188599 1.3361289501 1.3653211594 1.3483040333 1.3250000477
 1511.1984863 13.000000000 8.5096998215 8.5000000000 46.089984894 -0.009298719 0.3670000136 2.3009076118 3.9251673222 84.579956055 125.51380157 310.78802490 1.3721371889 1.3916847706 1.3533185720 1.3573000431
 1511.3508301 13.000000000 8.5574998856 8.5000000000 48.602718353 -0.008501523 0.3668000102 2.3055999279 3.9048066139 83.493415833 126.70153046 312.37460327 1.3329993486 1.3821979761 1.3648942709 1.3386000395
 1511.5032959 13.000000000 8.5648002625 8.5000000000 50.276546478 -0.010400320 0.3795999885 2.3057048321 3.9132454395 87.998512268 128.10127258 317.47628784 1.3322900534 1.3796402216 1.3576601744 1.3372000456
 1511.6556396 13.000000000 8.4987001419 8.5000000000 49.034355164 -0.010601282 0.3989000022 2.3086965084 3.9416475296 87.510360718 128.89248657 323.40527344 1.3883849382 1.4046980143 1.3327840567 1.3720999956
 1511.8081055 13.000000000 8.4987001419 8.5000000000 50.954002380 -0.012199519 0.4099999964 2.3041951656 4.0008449554 90.085273743 129.01153564 325.86993408 1.3695789576 1.4020543098 1.3128126860 1.3650000095
 1511.9604492 13.000000000 8.5207004547 8.5000000000 47.848373413 -0.011898798 0.4399999976 2.3011996746 4.0288033485 91.191497803 128.46685791 327.31356812 1.3563773632 1.3735809326 1.3206950426 1.3400000334
 1512.1127930 13.000000000 8.5207004547 8.5000000000 50.644084930 -0.010398159 0.4523000121 2.3009040356 4.0328855515 96.176856995 127.92140961 328.75659180 1.3281574249 1.3497540951 1.3144025803 1.3157000542
 1512.2652588 13.000000000 8.5207004547 8.5000000000 51.121585846 -0.008099760 0.4307999909 2.3059012890 4.0150909424 97.872528076 126.93666840 327.98330688 1.2751191854 1.2925108671 1.3177082539 1.2612999678
 1512.4176025 13.000000000 8.5427999496 8.5000000000 54.646625519 -0.007801841 0.4065000117 2.3074951172 4.0037775040 94.913597107 126.77338409 327.34454346 1.2989957333 1.3059916496 1.3279969692 1.2842999697
 1512.5700684 13.000000000 8.5501003265 8.5000000000 66.078361511 -0.010101282 0.3986999989 2.3015940189 3.9757747650 95.782958984 126.13570404 327.87698364 1.2936933041 1.2955925465 1.3242801428 1.2818000317
 1512.7224121 13.000000000 8.5648002625 8.5000000000 68.461997986 -0.011700160 0.4196000099 2.2941937447 3.9442889690 94.863967896 126.14716339 328.70285034 1.2852863073 1.2861967087 1.2994741201 1.2736999989
 1512.8748779 13.000000000 8.5281000137 8.5000000000 68.532730103 -0.011900321 0.4295000136 2.2865927219 3.9305803776 99.059577942 127.59419250 331.25643921 1.2682145834 1.2820017338 1.2671930790 1.2640000582
 1513.0272217 13.000000000 8.5059995651 8.5000000000 75.395164490 -0.012299839 0.4061000049 2.2773981094 3.9062783718 95.418281555 129.57290649 336.74893188 1.2862731218 1.2842816114 1.2586146593 1.2761000395
 1513.1796875 13.000000000 8.5427999496 8.5000000000 80.523773193 -0.012099519 0.4311000109 2.2749032974 3.8792417049 94.159095764 131.57730103 341.90390015 1.2528842688 1.2613816261 1.2769093513 1.2515000105
 1513.3320313 13.000000000 8.5501003265 8.5000000000 98.619323730 -0.011800161 0.3948999941 2.2769985199 3.8428092003 95.596000671 133.01765442 343.82174683 1.2430280447 1.2498378754 1.2826931477 1.2374000549
 1513.4844971 13.000000000 8.5537996292 8.5000000000 100.15242004 -0.012001121 0.3797999918 2.2752933502 3.8544621468 101.22177887 133.45843506 344.50640869 1.1532593966 1.1724500656 1.2741597891 1.1541999578
 1513.6368408 13.000000000 8.5537996292 8.5000000000 114.38523865 -0.012699840 0.3722999990 2.2710931301 3.8933396339 109.80836487 133.17199707 343.46252441 1.1904345751 1.2038085461 1.2490680218 1.1847000122
