# LAS format log file from PETREL
# Project units are specified as depth units
#==================================================================
~Version information
VERS.   2.0:
WRAP.   NO:
#==================================================================
~Well
STRT .m      1287.9324951 :
STOP .m      2115.3120117 :
STEP .m     0.00000000 :
NULL .        -999.250000 :
COMP.           : COMPANY
WELL.  31/3-4   : WELL
FLD.            : FIELD
LOC.            : LOCATION
SRVC.           : SERVICE COMPANY
DATE.  2018-09-11 14:48:36   : Log Export Date {yyyy-MM-dd HH:mm:ss}
PROV.           : PROVINCE
UWI.   31/3-4   : UNIQUE WELL ID
API.            : API NUMBER
#==================================================================
~Curve
DEPT .m                   : DEPTH
Lithology_geolink ._      : Lithology_geolink
CALI .in                  : CALI
BS .in                    : BS
ROP .m/h                  : ROP
DRHO .g/cm3               : DRHO
NPHI .m3/m3               : NPHI
RHOB .g/cm3               : RHOB
PEF .b/e                  : PEF
GR .gAPI                  : GR
DTC .us/ft                : DTC
DTS .us/ft                : DTS
RDEP .ohm.m               : RDEP
RSHA .ohm.m               : RSHA
RMIC .ohm.m               : RMIC
RMED .ohm.m               : RMED
~Parameter
#==================================================================
~Ascii
# ...
 2108.1491699 18.000000000 8.4850997925 8.5000000000 39.523948669 -0.008500000 0.6140000224 2.0223999023 3.1275000572 120.02760315  -999.250000  -999.250000 4.9340000153 5.3979001045  -999.250000 6.2199997902
 2108.3017578 18.000000000 8.5265998840 8.5000000000 40.821525574 -0.002614263 0.8382999897 1.7686949968 2.4193823338 105.59210968  -999.250000  -999.250000 6.5485801697 5.1289901733  -999.250000 6.4861001968
 2108.4541016 18.000000000 8.5486001968 8.5000000000 43.075313568 -0.011469071 0.6470000148 1.5162137747 1.9091114998 88.630004883  -999.250000  -999.250000 5.9124040604 4.6214842796  -999.250000 6.6157999039
 2108.6064453 18.000000000 8.5160999298 8.5000000000 47.281307220 0.0077948798 0.6097000241 1.4001700878 1.4178295135 75.415206909  -999.250000  -999.250000 5.4811592102 2.6817710400  -999.250000 6.7494997978
 2108.7587891 18.000000000 8.5310001373 8.5000000000 49.619094849 0.0046000001 0.6500999928 1.3815000057 1.3739000559 69.801002502  -999.250000  -999.250000 6.8907999992 3.5373001099  -999.250000 7.6181998253
 2108.9111328 18.000000000 8.5417003632 8.5000000000 53.765090942 -0.032800000 0.4778999984 1.5061999559 1.7596999407 75.694801331  -999.250000  -999.250000 5.9453001022 4.9770002365  -999.250000 5.7768001556
 2109.0637207 18.000000000 8.5059995651 8.5000000000 55.398582458 -0.044357210 0.4774000049 1.7912650108 2.2944052219 90.591514587  -999.250000  -999.250000 5.7875738144 5.2027959824  -999.250000 5.8140001297
 2109.2160645 18.000000000 8.4812002182 8.5000000000 56.385883331 -0.017662240 0.4602000117 2.2057054043 2.7340209484 109.42726898  -999.250000  -999.250000 5.3363432884 4.9524645805  -999.250000 5.5875000954
 2109.3684082 6.0000000000 8.4559001923 8.5000000000 51.714237213 0.0059000002 0.6065000296 2.2715001106 2.8719999790 118.39199829  -999.250000  -999.250000 6.1121001244 5.8041000366  -999.250000 6.0089998245
 2109.5207520 6.0000000000 8.4804000854 8.5000000000 62.691600800 0.0175000001 0.7098000050 2.0820000172 2.4130001068 116.08161926  -999.250000  -999.250000 7.4415001869 6.6125001907  -999.250000 7.0494999886
 2109.6733398 18.000000000 8.6082000732 8.5000000000 55.780639648 -0.010997917 0.6322000027 1.9007189274 2.6897466183 104.48983765  -999.250000  -999.250000 2.6588103771 1.8150465488  -999.250000 3.5590000153
 2109.8256836 18.000000000 8.6183996201 8.5000000000 58.301395416 -0.009729329 0.4083999991 1.9126698971 3.0321052074 98.926284790  -999.250000  -999.250000 2.2304761410 1.4096835852  -999.250000 1.3784999847
 2109.9780273 18.000000000 8.5490999222 8.5000000000 52.503677368 -0.027903840 0.4158000052 2.0189137459 4.0944576263 98.995811462  -999.250000  -999.250000 2.9603352547 2.5185911655  -999.250000 2.3334999084
 2110.1303711 18.000000000 8.5304002762 8.5000000000 49.884841919 0.0320999995 0.4027999938 2.2771000862 4.0680999756 108.60609436  -999.250000  -999.250000 1.1727000475 1.0779000521  -999.250000 1.6879999638
 2110.2829590 18.000000000 8.5816001892 8.5000000000 48.860279083 0.0525227562 0.3043999970 2.3410618305 3.8778696060 114.40449524  -999.250000  -999.250000 1.7335728407 1.1449673176  -999.250000 1.7575999498
 2110.4353027 6.0000000000 8.6305999756 8.5000000000 45.825305939 0.0666713119 0.3039999902 2.3794987202 3.7965259552 117.36024475  -999.250000  -999.250000 1.9689321518 1.8109514713  -999.250000 2.3896000385
 2110.5876465 6.0000000000 8.6174001694 8.5000000000 48.182357788 0.0488134399 0.3161000013 2.3787865639 3.7500834465 115.94615173  -999.250000  -999.250000 3.8535363674 2.4638571739  -999.250000 3.3770999908
 2110.7399902 5.0000000000 8.5913000107 8.5000000000 47.533466339 0.0571999997 0.3134999871 2.3703999519 3.6150000095 111.79532623  -999.250000  -999.250000 1.0681999922 1.1267000437  -999.250000 0.7465000153
 2110.8923340 5.0000000000 8.6085996628 8.5000000000 47.030181885 0.0472000018 0.3339999914 2.2990999222 3.3615999222 105.57707214  -999.250000  -999.250000 0.8116000295 0.8379999995  -999.250000 0.6571999788
 2111.0449219 5.0000000000 8.6107997894 8.5000000000 48.026428223 0.0565935895 0.3000000119 2.2756037712 3.1061706543 101.88320923  -999.250000  -999.250000 0.6337733865 0.5698875189  -999.250000 0.6916000247
 2111.1972656 5.0000000000 8.5965995789 8.5000000000 53.041782379 0.0526286401 0.2685999870 2.2781243324 3.1505818367 105.82888794  -999.250000  -999.250000 1.0607606173 1.3804265261  -999.250000 1.3272000551
 2111.3496094 5.0000000000 8.5942001343 8.5000000000 50.657810211 0.0705000013 0.2906999886 2.3557000160 3.4512000084 114.18529510  -999.250000  -999.250000 5.7161998749 6.6385998726  -999.250000 5.5728998184
 2111.5019531 5.0000000000 8.6019001007 8.5000000000 53.598423004 0.1032000035 0.3037000000 2.4235000610 3.8389999866 123.04100800  -999.250000  -999.250000 6.7709999084 6.8703999519  -999.250000 6.5341000557
 2111.6545410 6.0000000000 8.5989999771 8.5000000000 50.381881714 0.1392097771 0.3174000084 2.4868817329 4.0509543419 128.03193665  -999.250000  -999.250000 7.0189599991 7.1192870140  -999.250000 6.5882000923
 2111.8068848 6.0000000000 8.5951995850 8.5000000000 48.532611847 0.1452577561 0.3756000102 2.4754095078 4.2092914581 127.91120911  -999.250000  -999.250000 7.4294137955 5.2450828552  -999.250000 6.3190999031
 2111.9592285 6.0000000000 8.5993995667 8.5000000000 44.726047516 0.1189000010 0.3982000053 2.4189000130 4.2663998604 124.11036682  -999.250000  -999.250000 6.9387001991 7.1064000130  -999.250000 3.9828999043
 2112.1115723 6.0000000000 8.6197004318 8.5000000000 42.928806305 0.0850000009 0.3632000089 2.3605000973 4.1609997749 118.60580444  -999.250000  -999.250000 1.5108000040 2.8401000500  -999.250000 1.4392999411
 2112.2641602 6.0000000000 8.6044998169 8.5000000000 43.915615082 0.0777751580 0.3079000115 2.3406975269 3.9162075520 118.91576385  -999.250000  -999.250000 1.3906500340 1.2872394323  -999.250000 2.0109999180
 2112.4165039 6.0000000000 8.5795001984 8.5000000000 46.532642365 0.0622910261 0.3001999855 2.3391845226 3.7336163521 117.56726837  -999.250000  -999.250000 1.7322719097 1.5600913763  -999.250000 1.1700999737
 2112.5688477 6.0000000000 8.5643997192 8.5000000000 48.267490387 0.0566916801 0.2966000140 2.3295300007 3.5566253662 118.22811127  -999.250000  -999.250000 1.0915464163 0.9936593771  -999.250000 1.1742000580
 2112.7211914 6.0000000000 8.5633001328 8.5000000000 46.899276733 0.0515000001 0.3508000076 2.2857999802 3.3852999210 116.42938232  -999.250000  -999.250000 0.9333000183 0.7810999751  -999.250000 1.1158000231
 2112.8737793 6.0000000000 8.5832996368 8.5000000000 48.887897491 0.0577070527 0.3607999980 2.2808232307 3.3706686497 118.16957855  -999.250000  -999.250000 7.4312939644 7.4677491188  -999.250000 4.0123000145
 2113.0261230 6.0000000000 8.5692996979 8.5000000000 49.769908905 0.0621084943 0.4706000090 2.2953267097 3.3510575294 120.12975311  -999.250000  -999.250000 7.3004865646 7.4350810051  -999.250000 6.7058000565
 2113.1784668 6.0000000000 8.5556001663 8.5000000000 51.139625549 0.0674017593 0.4422000051 2.3118989468 3.2618029118 123.21804047  -999.250000  -999.250000 5.8002738953 6.8647174835  -999.250000 6.1444997787
 2113.3308105 6.0000000000 8.5964002609 8.5000000000 53.715225220 0.0684999973 0.4623999894 2.3113000393 3.0139000416 124.55655670  -999.250000  -999.250000 7.8432002068 8.2482004166  -999.250000 7.3252000809
 2113.4831543 6.0000000000 8.6014995575 8.5000000000 56.913383484 0.0696000010  -999.250000 2.3201999664 3.0092999935 127.64540863  -999.250000  -999.250000 7.9158000946 7.6034998894  -999.250000 5.8972001076
 2113.6357422 6.0000000000 8.5915002823 8.5000000000 61.620616913 0.0412458330  -999.250000 2.2948656082 3.2383351326 128.30865479  -999.250000  -999.250000 1.9727320671 6.6365132332  -999.250000 5.6680998802
 2113.7880859 6.0000000000 8.6096000671 8.5000000000 63.794822693 0.0074657598  -999.250000 2.1485514641 3.0726497173 119.88368988  -999.250000  -999.250000 5.6041622162 6.7051997185  -999.250000 2.1517000198
 2113.9404297 6.0000000000 8.6736001968 8.5000000000 60.237205505 -0.013900000  -999.250000 1.8687000275 2.6668999195 101.90303802  -999.250000  -999.250000 4.3949999809 5.5819997787  -999.250000 8.0425996780
