# LAS format log file from PETREL
# Project units are specified as depth units
#==================================================================
~Version information
VERS.   2.0:
WRAP.   NO:
#==================================================================
~Well
STRT .m      793.37487793 :
STOP .m      2575.0000000 :
STEP .m     0.00000000 :
NULL .        -999.250000 :
COMP.           : COMPANY
WELL.  31/3-3   : WELL
FLD.            : FIELD
LOC.            : LOCATION
SRVC.           : SERVICE COMPANY
DATE.  2018-09-11 14:48:36   : Log Export Date {yyyy-MM-dd HH:mm:ss}
PROV.           : PROVINCE
UWI.   31/3-3   : UNIQUE WELL ID
API.            : API NUMBER
#==================================================================
~Curve
DEPT .m                   : DEPTH
Lithology_geolink ._      : Lithology_geolink
CALI .in                  : CALI
BS .in                    : BS
DRHO .g/cm3               : DRHO
NPHI .m3/m3               : NPHI
RHOB .g/cm3               : RHOB
GR .gAPI                  : GR
DTC .us/ft                : DTC
DTE .us/ft                : DTE
RDEP .ohm.m               : RDEP
SP .mV                    : SP
RSHA .ohm.m               : RSHA
RMED .ohm.m               : RMED
~Parameter
#==================================================================
~Ascii
# ...
 2448.8750000 5.0000000000 12.333999634  -999.250000 0.0700000003 0.3152799904 2.3299999237 54.938999176 107.15483093 104.04309082 2.4639999866 125.09800720 2.4779999256 2.4779999256
 2449.0000000 5.0000000000 12.364999771  -999.250000 0.0670000017 0.2944499850 2.3570001125 55.833999634 103.04513550 100.07278442 2.6070001125 125.27899170 2.6270000935 2.6270000935
 2449.1250000 5.0000000000 12.392999649  -999.250000 0.0619999990 0.2801100016 2.3910000324 57.233001709 98.016288757 94.960197449 2.7720000744 125.64499664 2.8519999981 2.8519999981
 2449.2500000 5.0000000000 12.418000221  -999.250000 0.0590000004 0.2726199925 2.4279999733 58.777000427 92.560981750 89.598526001 2.9600000381 126.12600708 3.1410000324 3.1410000324
 2449.3750000 5.0000000000 12.435999870  -999.250000 0.0599999987 0.2700800002 2.4609999657 59.912998199 87.674621582 84.784965515 3.1770000458 126.65100098 3.4419999123 3.4419999123
 2449.5000000 5.0000000000 12.446000099  -999.250000 0.0640000030 0.2703900039 2.4809999466 60.465999603 84.064376831 81.108711243 3.4149999619 127.17400360 3.6840000153 3.6840000153
 2449.6250000 5.0000000000 12.451999664  -999.250000 0.0670000017 0.2712000012 2.4900000095 60.512001038 81.985145569 78.868721008 3.6619999409 127.66799164 3.8389999866 3.8389999866
 2449.7500000 5.0000000000 12.456000328  -999.250000 0.0680000037 0.2721100152 2.4920001030 60.263000488 81.006591797 78.009887695 3.9000000954 128.06500244 3.9289999008 3.9289999008
 2449.8750000 5.0000000000 12.457999229  -999.250000 0.0649999976 0.2736099958 2.4920001030 59.841999054 80.599273682 77.733772278 4.0939998627 128.24899292 4.0100002289 4.0100002289
 2450.0000000 5.0000000000 12.457999229  -999.250000 0.0560000017 0.2749499977 2.4909999371 59.379001617 80.552246094 77.554321289 4.2360000610 128.20100403 4.1129999161 4.1129999161
 2450.1250000 5.0000000000 12.457999229  -999.250000 0.0419999994 0.2747899890 2.4900000095 59.169998169 80.377845764 77.301452637 4.3319997787 127.93000031 4.2239999771 4.2239999771
 2450.2500000 5.0000000000 12.456999779  -999.250000 0.0230000000 0.2730299830 2.4860000610 59.664001465 79.899696350 76.977607727 4.3850002289 127.47000122 4.3099999428 4.3099999428
 2450.3750000 6.0000000000 12.457999229  -999.250000 0.0049999999 0.2707699835 2.4820001125 61.228000641 79.899696350 76.773384094 4.3909997940 126.82299042 4.3439998627 4.3439998627
 2450.5000000 6.0000000000 12.458999634  -999.250000 -0.006000000 0.2711800039 2.4820001125 63.321998596 79.798316956 76.875282288 4.3550000191 126.00900269 4.3470001221 4.3470001221
 2450.6250000 6.0000000000 12.461999893  -999.250000 -0.008000000 0.2753599882 2.4890000820 65.346000671 79.996368408 77.148780823 4.2709999084 125.01299286 4.3369998932 4.3369998932
 2450.7500000 6.0000000000 12.463000298  -999.250000 -0.005000000 0.2824699879 2.4960000515 66.838996887 80.447784424 77.537361145 4.1420001984 123.85299683 4.3189997673 4.3189997673
 2450.8750000 6.0000000000 12.465000153  -999.250000 0.0000000000 0.2902500033 2.5020000935 67.569000244 80.974472046 78.013984680 3.9730000496 122.56900024 4.2659997940 4.2659997940
 2451.0000000 6.0000000000 12.465000153  -999.250000 0.0049999999 0.2947800159 2.5020000935 67.736000061 81.401039124 78.575134277 3.7769999504 121.20999908 4.1579999924 4.1579999924
 2451.1250000 6.0000000000 12.467000008  -999.250000 0.0089999996 0.2949199975 2.4949998856 67.246002197 82.183891296 79.231132507 3.5769999027 119.71399689 3.9909999371 3.9909999371
 2451.2500000 6.0000000000 12.467999458  -999.250000 0.0099999998 0.2908900082 2.4800000191 65.777999878 83.041717529 79.924942017 3.3789999485 117.97799683 3.7780001163 3.7780001163
 2451.3750000 5.0000000000 12.468999863  -999.250000 0.0109999999 0.2837100029 2.4600000381 63.006999969 83.542594910 80.560562134 3.1900000572 115.89399719 3.5480000973 3.5480000973
 2451.5000000 5.0000000000 12.467999458  -999.250000 0.0130000003 0.2750799954 2.4400000572 59.516998291 83.969200134 81.079048157 3.0139999390 113.59799957 3.3350000381 3.3350000381
 2451.6250000 5.0000000000 12.465000153  -999.250000 0.0170000009 0.2677299976 2.4240000248 55.858001709 84.472961426 81.471992493 2.8550000191 111.25199890 3.1619999409 3.1619999409
 2451.7500000 5.0000000000 12.461001396  -999.250000 0.0219999999 0.2635099888 2.4140000343 52.471000671 84.668655396 81.805442810 2.7170000076 109.01599884 3.0409998894 3.0409998894
 2451.8750000 5.0000000000 12.457999229  -999.250000 0.0250000004 0.2627899945 2.4070000648 49.548999786 85.142013550 82.281158447 2.6059999466 107.00299835 2.9820001125 2.9820001125
 2452.0000000 3.0000000000 12.456000328  -999.250000 0.0240000002 0.2642300129 2.3989999294 46.950000763 85.941513062 82.975311279 2.5209999084 105.19000244 2.9690001011 2.9690001011
 2452.1250000 3.0000000000 12.453000069  -999.250000 0.0199999996 0.2651399970 2.3919999599 44.601001740 86.882141113 83.879547119 2.4630000591 103.54799652 2.9879999161 2.9879999161
 2452.2500000 3.0000000000 12.449000359  -999.250000 0.0199999996 0.2639399767 2.3840000629 42.477001190 87.860626221 84.946838379 2.4330000877 102.05999756 3.0260000229 3.0260000229
 2452.3750000 3.0000000000 12.442000389  -999.250000 0.0240000002 0.2603700161 2.3770000935 40.653999329 88.871124268 86.090660095 2.4300000668 100.77500153 3.0810000896 3.0810000896
 2452.5000000 3.0000000000 12.435000420  -999.250000 0.0280000009 0.2549799979 2.3719999790 39.224998474 90.122322083 87.140754700 2.4419999123 99.722000122 3.1519999504 3.1519999504
 2452.6250000 3.0000000000 12.428000450  -999.250000 0.0299999993 0.2491399944 2.3689999580 38.410999298 90.706901550 87.839881897 2.4660000801 98.987998962 3.2369999886 3.2369999886
 2452.7500000 3.0000000000 12.423000336  -999.250000 0.0289999992 0.2435099930 2.3680000305 38.365001678 91.003623962 88.054176331 2.4990000725 98.660003662 3.3210000992 3.3210000992
 2452.8750000 3.0000000000 12.418999672  -999.250000 0.0260000005 0.2378000021 2.3710000515 39.036998749 90.660400391 87.674964905 2.5399999619 98.815002441 3.3670001030 3.3670001030
 2453.0000000 3.0000000000 12.416000366  -999.250000 0.0230000000 0.2328700125 2.3770000935 39.917999268 89.587898254 86.717605591 2.5829999447 99.204002380 3.3670001030 3.3670001030
 2453.1250000 3.0000000000 12.414999962  -999.250000 0.0199999996 0.2295500040 2.3859999180 40.674999237 88.215530396 85.349739075 2.6170001030 99.513999939 3.3519999981 3.3519999981
 2453.2500000 3.0000000000 12.409999847  -999.250000 0.0179999992 0.2272599936 2.3970000744 41.138999939 86.732040405 83.732017517 2.6259999275 99.372001648 3.3829998970 3.3829998970
 2453.3750000 3.0000000000 12.397000313  -999.250000 0.0160000008 0.2246900052 2.4070000648 41.243000031 85.118873596 82.220733643 2.5759999752 98.235000610 3.5550000668 3.5550000668
 2453.5000000 3.0000000000 12.369999886  -999.250000 0.0160000008 0.2210800052 2.4130001068 40.943000793 83.975700378 81.053039551 2.4690001011 96.064002991 3.8710000515 3.8710000515
 2453.6250000 3.0000000000 12.331000328  -999.250000 0.0189999994 0.2179999948 2.4179999828 40.033000946 83.406211853 80.438056946 2.3199999332 93.022003174 4.2630000114 4.2630000114
 2453.7500000 3.0000000000 12.288999557  -999.250000 0.0240000002 0.2176899910 2.4200000763 38.465999603 83.364196777 80.530120850 2.1570000648 89.524002075 4.5479998589 4.5479998589
 2453.8750000 3.0000000000 12.253001213  -999.250000 0.0329999998 0.2210099995 2.4189999104 36.672000885 84.231811523 81.438018799 2.0000000000 86.069000244 4.4800000191 4.4800000191
 2454.0000000 3.0000000000 12.229000092  -999.250000 0.0399999991 0.2268700004 2.4089999199 35.401000977 86.207511902 83.120864868 1.8509999514 82.994003296 4.1560001373 4.1560001373
 2454.1250000 3.0000000000 12.217000008  -999.250000 0.0430000015 0.2323600054 2.3889999390 34.854999542 88.196235657 85.228240967 1.7200000286 80.410003662 3.7799999714 3.7799999714
 2454.2500000 3.0000000000 12.213000298  -999.250000 0.0390000008 0.2359600067 2.3629999161 34.741001129 90.438720703 87.586753845 1.6080000401 78.311996460 3.4969999790 3.4969999790
