# LAS format log file from PETREL
# Project units are specified as depth units
#==================================================================
~Version information
VERS.   2.0:
WRAP.   NO:
#==================================================================
~Well
STRT .m      1287.9324951 :
STOP .m      2115.3120117 :
STEP .m     0.00000000 :
NULL .        -999.250000 :
COMP.           : COMPANY
WELL.  31/3-4   : WELL
FLD.            : FIELD
LOC.            : LOCATION
SRVC.           : SERVICE COMPANY
DATE.  2018-09-11 14:48:36   : Log Export Date {yyyy-MM-dd HH:mm:ss}
PROV.           : PROVINCE
UWI.   31/3-4   : UNIQUE WELL ID
API.            : API NUMBER
#==================================================================
~Curve
DEPT .m                   : DEPTH
Lithology_geolink ._      : Lithology_geolink
CALI .in                  : CALI
BS .in                    : BS
ROP .m/h                  : ROP
DRHO .g/cm3               : DRHO
NPHI .m3/m3               : NPHI
RHOB .g/cm3               : RHOB
PEF .b/e                  : PEF
GR .gAPI                  : GR
DTC .us/ft                : DTC
DTS .us/ft                : DTS
RDEP .ohm.m               : RDEP
RSHA .ohm.m               : RSHA
RMIC .ohm.m               : RMIC
RMED .ohm.m               : RMED
~Parameter
#==================================================================
~Ascii
# ...
 1341.4248047 6.0000000000 9.3093004227 8.5000000000 47.850063324 -0.021600001 0.3046000004 2.0773000717 7.9096999168 84.558280945 124.79298401 293.39651489 0.5587999821 0.4241000116 0.2825999856 0.5108000040
 1341.5771484 6.0000000000 9.2412996292 8.5000000000 40.922245026 -0.023499999 0.3120000064 2.0869998932 7.4836997986 85.903594971 125.39486694 295.61239624 0.5584999919 0.4219000041 0.2849000096 0.5103999972
 1341.7296143 6.0000000000 9.3515996933 8.5000000000 31.637138367 -0.023800001 0.2980999947 2.0852999687 7.0998997688 77.413307190 125.47937012 298.60751343 0.5260999799 0.4102999866 0.2867000103 0.4947000146
 1341.8819580 6.0000000000 9.6604003906 8.5000000000 22.842519760 -0.020099999 0.3095000088 2.0894999504 6.8639998436 80.546264648 124.82375336 302.80108643 0.5202999711 0.4095000029 0.2897000015 0.4927000105
 1342.0344238 6.0000000000 9.6529998779 8.5000000000 21.314304352 -0.015699999 0.3210000098 2.0966000557 6.7196998596 80.621673584 124.13562775 305.00030518 0.5181000233 0.4083999991 0.2894999981 0.4912999868
 1342.1867676 6.0000000000 9.6236000061 8.5000000000 17.803478241 -0.013500000 0.3328999877 2.1043000221 6.4960999489 79.089157104 122.79233551 299.52371216 0.5609999895 0.4203999937 0.2872000039 0.5110999942
 1342.3392334 6.0000000000 9.6015996933 8.5000000000 17.691928864 -0.014300000 0.3626999855 2.1043999195 6.2758998871 80.785301208 121.33180237 304.11190796 0.5281999707 0.3977000117 0.2833999991 0.4808000028
 1342.4915771 6.0000000000 9.5904998779 8.5000000000 15.005249977 -0.020600000 0.3738000095 2.0987999439 6.1792998314 79.289360046 121.45257568 299.39648438 0.5259000063 0.4002999961 0.2802000046 0.4797999859
 1342.6440430 6.0000000000 9.5942001343 8.5000000000 12.978674889 -0.028600000 0.3808999956 2.0941998959 6.2508001328 80.984756470 122.79285431 295.50280762 0.5273000002 0.4011000097 0.2815000117 0.4810000062
 1342.7963867 6.0000000000 9.5868997574 8.5000000000 11.603346825 -0.044100001 0.3625000119 2.0836999416 6.6097998619 81.083633423 124.56626129 291.91369629 0.5292999744 0.4031000137 0.2987000048 0.4826999903
 1342.9488525 6.0000000000 9.6457004547 8.5000000000 9.3700790405 -0.050600000 0.3359000087 2.0771000385 7.5542998314 78.885551453 125.38957214 292.13708496 0.5239999890 0.3995000124 0.3190000057 0.4790999889
 1343.1011963 6.0000000000 9.0427999496 8.5000000000 8.8986225128 -0.042599998 0.3246999979 2.0787999630 8.5137996674 83.031394958 125.18235016 293.38229370 0.5425999761 0.4106999934 0.3231000006 0.4939000010
 1343.2536621 6.0000000000 8.9618997574 8.5000000000 9.3782806396 -0.026100000 0.3339999914 2.0938000679 9.1693000793 78.658271790 124.37566376 294.62759399 0.5177000165 0.3916999996 0.3199000061 0.4695999920
 1343.4060059 6.0000000000 8.9618997574 8.5000000000 10.735236168 -0.025300000 0.3431999981 2.0917000771 9.4061002731 76.207405090 123.72594452 295.76928711 0.5328999758 0.4059000015 0.3355000019 0.4833999872
 1343.5583496 6.0000000000 9.1089000702 8.5000000000 10.590223312 -0.030700000 0.3495999873 2.0855000019 9.0852003098 73.595428467 124.27952576 298.13061523 0.5297999978 0.4013999999 0.3510999978 0.4803000093
 1343.7108154 6.0000000000 9.3736000061 8.5000000000 10.951115608 -0.036200002 0.3819999993 2.0724000931 8.4210996628 77.007667542 125.81391144 304.68258667 0.5324000120 0.3998999894 0.3582000136 0.4819999933
 1343.8631592 6.0000000000 9.4251003265 8.5000000000 11.166338921 -0.031300001 0.3388999999 2.0769000053 8.0490999222 80.216560364 125.56183624 306.59851074 0.5358999968 0.3995999992 0.3591000140 0.4848999977
 1344.0156250 6.0000000000 9.4104003906 8.5000000000 12.712270737 -0.025000000 0.3310999870 2.0827999115 7.9876999855 78.293739319 124.85964203 305.71551514 0.5328000188 0.3948999941 0.3569999933 0.4823000133
 1344.1679688 6.0000000000 9.4029998779 8.5000000000 14.397965431 -0.020400001 0.3361999989 2.0866999626 8.2538995743 78.719001770 124.53659821 304.55859375 0.5430999994 0.4086000025 0.3348999918 0.4947000146
 1344.3204346 6.0000000000 8.9839000702 8.5000000000 16.268373489 -0.018700000 0.4050000012 2.0852999687 8.6868000031 81.478019714 124.78211212 303.02099609 0.5741999745 0.4329999983 0.3217999935 0.5228000283
 1344.4727783 6.0000000000 8.7193002701 8.5000000000 23.712270737 -0.018300001 0.3975000083 2.0792996883 8.9567003250 88.353073120 125.42388153 301.48336792 0.5120999813 0.3932000101 0.2912000120 0.4656000137
 1344.6252441 6.0000000000 8.7412996292 8.5000000000 30.331365585 -0.014700000 0.3576000035 2.0775001049 8.4226999283 85.695228577 126.14810181 300.09420776 0.5346999764 0.3957000077 0.2590999901 0.4744000137
 1344.7775879 6.0000000000 9.0335998535 8.5000000000 25.350393295 -0.011500000 0.3578000069 2.0818998814 7.4851999283 86.223037720 126.90177155 298.66940308 0.5248000026 0.3903999925 0.2467000037 0.4683000147
 1344.9300537 6.0000000000 9.2559995651 8.5000000000 24.456365585 -0.008400000 0.3578999937 2.0906999111 6.5306000710 80.907989502 126.86695862 298.21279907 0.5278000236 0.3901999891 0.2460999936 0.4702000022
 1345.0823975 6.0000000000 9.2707004547 8.5000000000 27.009185791 -0.006600000 0.3795000017 2.0952000618 5.8891000748 84.018836975 125.84329987 297.25561523 0.5236999989 0.3926999867 0.2409999967 0.4706000090
 1345.2348633 6.0000000000 9.1162996292 8.5000000000 35.453083038 -0.004600000 0.4320000112 2.0999000072 5.5338997841 85.683738708 124.96443176 295.69421387 0.5514000058 0.4079000056 0.2389999926 0.4871000051
 1345.3872070 6.0000000000 9.1273002625 8.5000000000 33.624015808 -0.010400000 0.3878000081 2.0955998898 5.4643001556 87.073921204 124.54255676 295.65078735 0.5554000139 0.4092999995 0.2520999908 0.4914999902
 1345.5396729 6.0000000000 9.2779998779 8.5000000000 35.274608612 -0.017000001 0.3732999861 2.0811998844 5.7772998810 85.351943970 124.60573578 295.73999023 0.6333000064 0.4487999976 0.2657999992 0.5436000228
 1345.6920166 6.0000000000 9.5279998779 8.5000000000 35.369422913 -0.022700001 0.3702999949 2.0669000149 6.3492999077 84.255622864 125.06768036 296.08441162 0.6061999798 0.4368999898 0.2702000141 0.5231000185
 1345.8443604 6.0000000000 8.7927999496 8.5000000000 37.456691742 -0.027700000 0.3948000073 2.0627999306 6.8930997849 81.668724060 126.03460693 296.58911133 0.6021999717 0.4334999919 0.2763000131 0.5202999711
 1345.9968262 6.0000000000 8.9251003265 8.5000000000 37.397636414 -0.033799998 0.3978999853 2.0655000210 7.0949997902 81.949211121 127.41147614 298.78448486 0.5972999930 0.4322000146 0.2901000082 0.5167000294
 1346.1491699 6.0000000000 9.3589000702 8.5000000000 38.109580994 -0.039500002 0.3795999885 2.0690000057 6.8849000931 81.587272644 128.12654114 299.79864502 0.5986999869 0.4286000133 0.3023000062 0.5156999826
 1346.3016357 6.0000000000 9.3368997574 8.5000000000 51.996719360 -0.041200001 0.3612000048 2.0706999302 6.4173002243 82.666152954 127.80937195 300.47369385 0.5877000093 0.4311000109 0.2818000019 0.5115000010
 1346.4539795 6.0000000000 9.2118997574 8.5000000000 48.238845825 -0.041999999 0.3625000119 2.0715000629 6.2007999420 79.731689453 127.03236389 300.99700928 0.5788000226 0.4275000095 0.2727000117 0.5115000010
 1346.6064453 6.0000000000 9.2192001343 8.5000000000 46.991798401 -0.042199999 0.3607999980 2.0643999577 6.2754998207 78.973403931 125.35240936 303.86370850 0.6277881861 0.4469999969 0.2815000117 0.5633000135
 1346.7587891 6.0000000000 9.2265996933 8.5000000000 32.260169983 -0.035399999 0.3492000103 2.0618999004 6.6010999680 79.106163025 124.86345673 305.36041260 0.6131196022 0.4390999973 0.3079000115 0.5568000078
 1346.9112549 6.0000000000 9.1457004547 8.5000000000 32.715877533 -0.025599999 0.3370000124 2.0636999607 7.1399998665 81.307441711 123.06297302 302.17330933 0.6375880241 0.4526000023 0.3084999919 0.5945000052
 1347.0635986 6.0000000000 8.9251003265 8.5000000000 33.140419006 -0.016400000 0.3244999945 2.0847001076 7.4643998146 83.390632629 120.10847473 295.49179077 0.6301040053 0.4503000081 0.3064999878 0.6055999994
 1347.2160645 5.0000000000 9.0721998215 8.5000000000 34.220474243 -0.013600000 0.3691000044 2.1157999039 7.2347998619 85.798645020 117.45101166 284.32620239 0.6351131201 0.4530000091 0.2969000041 0.6147000194
