# LAS format log file from PETREL
# Project units are specified as depth units
#==================================================================
~Version information
VERS.   2.0:
WRAP.   NO:
#==================================================================
~Well
STRT .m      1287.9324951 :
STOP .m      2115.3120117 :
STEP .m     0.00000000 :
NULL .        -999.250000 :
COMP.           : COMPANY
WELL.  31/3-4   : WELL
FLD.            : FIELD
LOC.            : LOCATION
SRVC.           : SERVICE COMPANY
DATE.  2018-09-11 14:48:36   : Log Export Date {yyyy-MM-dd HH:mm:ss}
PROV.           : PROVINCE
UWI.   31/3-4   : UNIQUE WELL ID
API.            : API NUMBER
#==================================================================
~Curve
DEPT .m                   : DEPTH
Lithology_geolink ._      : Lithology_geolink
CALI .in                  : CALI
BS .in                    : BS
ROP .m/h                  : ROP
DRHO .g/cm3               : DRHO
NPHI .m3/m3               : NPHI
RHOB .g/cm3               : RHOB
PEF .b/e                  : PEF
GR .gAPI                  : GR
DTC .us/ft                : DTC
DTS .us/ft                : DTS
RDEP .ohm.m               : RDEP
RSHA .ohm.m               : RSHA
RMIC .ohm.m               : RMIC
RMED .ohm.m               : RMED
~Parameter
#==================================================================
~Ascii
# ...
 1781.2512207 7.0000000000 8.3149003983 8.5000000000 66.176841736 -0.000600000 0.2321999967 2.4976999760 5.7418999672 114.81974030 69.931518555 175.53353882 77.317085266 106.33940125 2.2774968147 79.572700500
 1781.4035645 7.0000000000 8.3074998856 8.5000000000 61.267059326 0.0022000000 0.1620000005 2.5678999424 5.5602002144 98.642227173 70.333244324 173.18801880 77.294502258 111.08560181 4.0315580368 79.184898376
 1781.5560303 7.0000000000 8.3515996933 8.5000000000 52.680118561 0.0024000001 0.1358000040 2.6278998852 5.3818001747 86.208679199 71.261184692 168.57746887 73.796112061 110.05249786 19.361040115 75.140502930
 1781.7083740 5.0000000000 8.3443002701 8.5000000000 42.614173889 -0.000300000 0.1272999942 2.6535000801 5.2867999077 87.436752319 68.564788818 158.44819641 71.863563538 108.94989777 46.689258575 72.938003540
 1781.8608398 5.0000000000 8.3662996292 8.5000000000 38.814632416 -0.005700000 0.1251000017 2.6470999718 5.2428998947 84.748100281 64.176559448 144.71722412 65.589782715 104.74960327 38.906814575 64.233703613
 1782.0131836 5.0000000000 8.3809995651 8.5000000000 39.836288452 -0.005700000 0.1246000007 2.6452999115 5.2751998901 81.434371948 59.606143951 132.69380188 66.389266968 105.36150360 38.108535767 64.661399841
 1782.1656494 16.000000000 8.3774003983 8.5000000000 38.920604706 -0.002500000 0.1332000047 2.6500999928 5.2451000214 74.411926270 65.162384033 121.97348785 65.967895508 105.34999847 42.023830414 64.291900635
 1782.3179932 16.000000000 8.3809995651 8.5000000000 36.900260925 -0.000400000 0.1362999976 2.6538000107 5.2314000130 72.374893188 73.881958008 111.91700745 64.777000427 103.11740112 43.726127625 62.946800232
 1782.4703369 16.000000000 8.3662996292 8.5000000000 37.129592896 0.0005000000 0.1432999969 2.6524999142 5.2691001892 77.368927002 75.448013306 107.31321716 60.790042877 92.253196716 42.257499695 58.787300110
 1782.6228027 7.0000000000 8.3884000778 8.5000000000 34.529197693 -0.000400000 0.1515000015 2.6407001019 5.3239998817 96.267280579 76.083755493 107.96273041 57.593490601 80.537803650 33.622043610 55.881900787
 1782.7751465 7.0000000000 8.3737001419 8.5000000000 31.917978287 0.0005000000 0.1710000038 2.5787000656 5.5682997704 116.45855713 76.528190613 110.61987305 47.983741760 62.715499878 3.8711664677 46.391998291
 1782.9276123 7.0000000000 8.3957004547 8.5000000000 31.477691650 0.0002000000 0.2055999935 2.5055000782 5.7810001373 131.50651550 78.641662598 115.08157349 50.792423248 59.239799500 1.9566754103 48.932701111
 1783.0799561 7.0000000000 8.2412996292 8.5000000000 34.908790588 -0.001800000 0.2515000105 2.4318997860 5.9524002075 132.02633667 84.212882996 123.07553101 60.054492950 64.232498169 1.3023506403 57.793598175
 1783.2324219 7.0000000000 8.2340002060 8.5000000000 40.902889252 -0.006200000 0.2960000038 2.3763999939 6.0854997635 130.07650757 91.060058594 183.27229309 67.398849487 65.493797302 1.1158996820 64.798797607
 1783.3847656 7.0000000000 8.2265996933 8.5000000000 43.314304352 -0.009000000 0.2960000038 2.3682999611 6.1124000549 128.21237183 95.000724792 183.26753235 50.864501953 48.237400055 1.1155043840 49.440200806
 1783.5372314 7.0000000000 8.2229995728 8.5000000000 46.166339874 -0.007200000 0.3100000024 2.3754999638 6.1230001450 126.55819702 96.032508850 177.32452393 45.741847992 41.670299530 1.1209921837 44.617900848
 1783.6895752 7.0000000000 8.2340002060 8.5000000000 49.844161987 -0.006400000 0.3312000036 2.3775000572 6.1153998375 122.06854248 96.286186218 179.19677734 38.226177216 34.372100830 1.1160944700 37.498100281
 1783.8420410 7.0000000000 8.2193002701 8.5000000000 55.568901062 -0.007600000 0.3522999883 2.3743000031 6.0925998688 123.49514008 96.387901306 181.06875610 35.156455994 28.523399353 1.1091151237 34.495601654
 1783.9943848 7.0000000000 8.2229995728 8.5000000000 61.555114746 -0.008500000 0.3465999961 2.3742001057 6.0550999641 122.21247864 96.449241638 180.85430908 3.3905386925 3.0423998833 1.0561659336 3.4103999138
 1784.1468506 7.0000000000 8.2118997574 8.5000000000 76.890419006 -0.007700000 0.3535000086 2.3785998821 6.0514001846 123.81172943 96.628997803 180.89505005 1.6930373907 1.6468000412 1.0136418343 1.7676000595
 1784.2991943 7.0000000000 8.2118997574 8.5000000000 88.033798218 -0.007300000 0.3449000120 2.3796999454 6.0713000298 121.77363586 96.754249573 191.03016663 1.7787699699 1.6227999926 1.0397875309 1.8896000385
 1784.4515381 7.0000000000 8.2781000137 8.5000000000 95.839897156 -0.007500000 0.3585000038 2.3777000904 6.0595998764 123.31613922 96.699851990 191.87358093 1.8659942150 1.6756000519 1.1489710808 1.9879000187
 1784.6040039 7.0000000000 8.2854003906 8.5000000000 103.64599609 -0.006800000 0.3777999878 2.3843998909 5.8874998093 124.85708618 96.383995056 192.34385681 1.8586996794 1.6756999493 1.2376121283 1.9805999994
 1784.7563477 7.0000000000 8.3112001419 8.5000000000 97.150588989 -0.006200000 0.3691999912 2.3891999722 5.7526998520 123.47153473 95.632545471 192.17352295 1.8582074642 1.6751999855 1.2527657747 1.9805999994
 1784.9088135 7.0000000000 8.3002004623 8.5000000000 88.539039612 -0.005600000 0.3943000138 2.3926000595 5.6799998283 127.76167297 95.056930542 191.68789673 1.8676598072 1.6797000170 1.2099684477 1.9917999506
 1785.0611572 7.0000000000 8.2854003906 8.5000000000 92.786750793 -0.007000000 0.4000999928 2.3852999210 5.7355999947 130.22651672 94.980499268 191.18666077 1.9423868656 1.7237999439 1.1706050634 2.0720000267
 1785.2136230 7.0000000000 8.2927999496 8.5000000000 89.426177979 -0.008000000 0.3883000016 2.3817000389 5.7870998383 128.13279724 95.221717834 191.01821899 2.0509469509 1.7695000172 1.1769285202 2.1122000217
 1785.3659668 7.0000000000 8.2781000137 8.5000000000 90.939308167 -0.007600000 0.3826999962 2.3840999603 5.7651000023 127.24830627 95.110054016 190.91645813 2.1096262932 1.7616000175 1.2124744654 1.9900000095
 1785.5184326 6.0000000000 8.2781000137 8.5000000000 84.050529480 -0.008900000 0.3686000109 2.3798999786 5.7574000359 124.01174927 95.172927856 190.86941528 2.1422502995 1.7316000462 1.1806858778 1.9652999640
 1785.6707764 6.0000000000 8.2634000778 8.5000000000 85.331039429 -0.009700001 0.3889000118 2.3777000904 5.7705998421 121.57509613 95.828254700 191.13226318 2.0805213451 1.6674000025 1.1631144285 1.8932000399
 1785.8232422 6.0000000000 8.2265996933 8.5000000000 82.607612610 -0.011500000 0.3786000013 2.3728001118 5.8376002312 114.59004974 96.521286011 191.45791626 2.1073048115 1.6798000336 1.1811414957 1.9125000238
 1785.9755859 6.0000000000 8.2265996933 8.5000000000 83.208335876 -0.011900000 0.3824000061 2.3722000122 5.9239001274 119.30172729 97.819122314 191.96173096 2.1103239059 1.6783000231 1.2069300413 1.9134000540
 1786.1280518 6.0000000000 8.2412996292 8.5000000000 84.865486145 -0.011900000 0.3862000108 2.3680999279 6.0250000954 121.09685516 98.852119446 192.39076233 2.1402454376 1.6981999874 1.1196784973 1.9399000406
 1786.2803955 7.0000000000 8.2412996292 8.5000000000 78.042320251 -0.009200000 0.3874000013 2.3729000092 6.0739998817 129.05184937 98.679206848 193.10690308 2.1686804295 1.7145999670 1.1063438654 1.9621000290
 1786.4328613 7.0000000000 8.2487001419 8.5000000000 76.303474426 -0.007400000 0.3962000012 2.3759000301 6.1283001900 130.11233521 100.68451691 193.24362183 2.1441717148 1.6879999638 1.1611845493 1.9357000589
 1786.5852051 7.0000000000 8.2927999496 8.5000000000 81.072502136 -0.009900000 0.4126000106 2.3736000061 6.2266998291 132.37467957 101.56865692 194.24977112 2.0641608238 1.6141999960 1.2138980627 1.8521000147
 1786.7375488 7.0000000000 8.2781000137 8.5000000000 73.758529663 -0.012900000 0.4284999967 2.3714001179 6.2880997658 127.98551941 102.13965607 188.11711121 2.0153450966 1.5799000263 1.2114619017 1.8092999458
 1786.8900146 7.0000000000 8.2671003342 8.5000000000 71.178153992 -0.013800000 0.3964999914 2.3687000275 6.2939000130 127.63332367 103.95635986 180.30128479 2.0716369152 1.6283999681 1.1637734175 1.8720999956
 1787.0423584 7.0000000000 8.2340002060 8.5000000000 65.202758789 -0.013400000 0.3806000054 2.3608000278 6.2466998100 125.66849518 104.64566803 187.26638794 2.2424280643 1.7624000311 1.1305472851 2.0313000679
