# LAS format log file from PETREL
# Project units are specified as depth units
#==================================================================
~Version information
VERS.   2.0:
WRAP.   NO:
#==================================================================
~Well
STRT .m      349.62512207 :
STOP .m      2379.4997559 :
STEP .m     0.00000000 :
NULL .        -999.250000 :
COMP.           : COMPANY
WELL.  31/3-1   : WELL
FLD.            : FIELD
LOC.            : LOCATION
SRVC.           : SERVICE COMPANY
DATE.  2018-09-11 14:48:35   : Log Export Date {yyyy-MM-dd HH:mm:ss}
PROV.           : PROVINCE
UWI.   31/3-1   : UNIQUE WELL ID
API.            : API NUMBER
#==================================================================
~Curve
DEPT .m                   : DEPTH
Lithology_geolink ._      : Lithology_geolink
CALI .in                  : CALI
BS .in                    : BS
DRHO .g/cm3               : DRHO
NPHI .m3/m3               : NPHI
RHOB .g/cm3               : RHOB
GR .gAPI                  : GR
DTC .us/ft                : DTC
DTE .us/ft                : DTE
RDEP .ohm.m               : RDEP
SP .mV                    : SP
RSHA .ohm.m               : RSHA
RMIC .ohm.m               : RMIC
RMED .ohm.m               : RMED
~Parameter
#==================================================================
~Ascii
# ...
 1169.6248779 6.0000000000 17.625000000  -999.250000 0.0630058646  -999.250000 2.1374044418 92.658996582 151.14535522 149.22398376 0.7680000067 79.401000977 0.7739999890  -999.250000 0.7739999890
 1169.7500000 6.0000000000 17.646999359  -999.250000 0.0540000014  -999.250000 2.1282138824 92.942199707 151.30580139 149.43118286 0.7730000019 79.356002808 0.7719970942  -999.250000 0.7719970942
 1169.8750000 6.0000000000 17.690000534  -999.250000 0.0469999984  -999.250000 2.1198832989 94.170173645 150.39718628 148.53381348 0.7780058384 79.325996399 0.7689980268  -999.250000 0.7689980268
 1170.0000000 6.0000000000 17.740999222  -999.250000 0.0460000001  -999.250000 2.1154978275 95.373695374 148.50906372 146.62870789 0.7840068340 79.322998047 0.7669990659  -999.250000 0.7669990659
 1170.1250000 6.0000000000 17.781999588  -999.250000 0.0489970706  -999.250000 2.1164097786 96.084243774 145.91075134 144.12040710 0.7910087705 79.338996887 0.7660009265  -999.250000 0.7660009265
 1170.2500000 6.0000000000 17.784999847  -999.250000 0.0480000004  -999.250000 2.1201839447 96.334266663 143.75625610 141.86759949 0.8000000119 79.370002747 0.7670019865  -999.250000 0.7670019865
 1170.3750000 6.0000000000 17.763000488  -999.250000 0.0399999991  -999.250000 2.1192843914 96.606483459 142.19564819 140.33091736 0.8119999766 79.403999329 0.7690048814  -999.250000 0.7690048814
 1170.5000000 6.0000000000 17.725999832  -999.250000 0.0260000005  -999.250000 2.1129970551 97.101470947 141.23545837 139.39735413 0.8240126967 79.428001404 0.7740048766  -999.250000 0.7740048766
 1170.6250000 6.0000000000 17.697000504  -999.250000 0.0160097573  -999.250000 2.1035811901 97.585876465 140.80075073 138.96472168 0.8370117545 79.425003052 0.7790058255  -999.250000 0.7790058255
 1170.7500000 6.0000000000 17.681999207  -999.250000 0.0149999997  -999.250000 2.0950455666 97.462821960 140.76010132 138.91543579 0.8490087390 79.400001526 0.7850039601  -999.250000 0.7850039601
 1170.8750000 5.0000000000 17.681999207  -999.250000 0.0240000002  -999.250000 2.0928301811 96.258811951 140.96095276 139.14674377 0.8579999804 79.373001099 0.7890019417  -999.250000 0.7890019417
 1171.0000000 5.0000000000 17.684999466  -999.250000 0.0379999988  -999.250000 2.1029889584 94.014968872 141.43603516 139.58253479 0.8629999757 79.372001648 0.7909990549  -999.250000 0.7909990549
 1171.1250000 5.0000000000 17.679000854  -999.250000 0.0480000004  -999.250000 2.1160931587 91.442092896 141.92993164 140.10734558 0.8639960885 79.402999878 0.7899971008  -999.250000 0.7899971008
 1171.2500000 5.0000000000 17.659999847  -999.250000 0.0470009744  -999.250000 2.1246008873 89.487312317 142.63496399 140.77606201 0.8599931598 79.462997437 0.7869980335  -999.250000 0.7869980335
 1171.3750000 5.0000000000 17.639999390  -999.250000 0.0329999998  -999.250000 2.1237461567 88.782546997 143.57730103 141.68147278 0.8529921770 79.536003113 0.7849971056  -999.250000 0.7849971056
 1171.5000000 5.0000000000 17.636999130  -999.250000 0.0149999997  -999.250000 2.1121003628 89.345329285 144.71989441 142.91169739 0.8450000286 79.632003784 0.7819960713  -999.250000 0.7819960713
 1171.6250000 5.0000000000 17.666999817  -999.250000 0.0030000000  -999.250000 2.0938174725 90.701568604 146.37919617 144.45959473 0.8389999866 79.760002136 0.7779960632  -999.250000 0.7779960632
 1171.7500000 5.0000000000 17.733999252  -999.250000 0.0060000001  -999.250000 2.0831136703 92.308311462 147.60739136 145.79631042 0.8390048742 79.929000854 0.7739960551  -999.250000 0.7739960551
 1171.8750000 5.0000000000 17.846000671  -999.250000 0.0229834151  -999.250000 2.0860104561 93.649833679 148.32186890 146.51026917 0.8440097570 80.132003784 0.7699990273  -999.250000 0.7699990273
 1172.0000000 5.0000000000 17.978000641  -999.250000 0.0509999990  -999.250000 2.1064581871 94.499229431 148.32463074 146.48736572 0.8539999723 80.342002869 0.7690068483  -999.250000 0.7690068483
 1172.1250000 5.0000000000 18.079999924  -999.250000 0.0900000036  -999.250000 2.1474604607 94.730827332 147.62449646 145.79748535 0.8659999967 80.532997131 0.7760156393  -999.250000 0.7760156393
 1172.2500000 5.0000000000 18.108999252  -999.250000 0.1340000033  -999.250000 2.2112667561 94.550468445 146.55027771 144.68568420 0.8750039339 80.676002502 0.7920214534  -999.250000 0.7920214534
 1172.3750000 5.0000000000 18.047000885  -999.250000 0.1759590209  -999.250000 2.2966136932 94.000114441 145.67031860 143.79121399 0.8789960742 80.763000488 0.8140234351  -999.250000 0.8140234351
 1172.5000000 5.0000000000 17.912000656  -999.250000 0.1879999936  -999.250000 2.3655986786 93.090911865 145.49075317 143.65751648 0.8749912381 80.786003113 0.8380156159  -999.250000 0.8380156159
 1172.6250000 5.0000000000 17.750999451  -999.250000 0.1599999964  -999.250000 2.3893272877 91.969848633 146.16525269 144.33151245 0.8659999967 80.768997192 0.8539999723  -999.250000 0.8539999723
 1172.7500000 5.0000000000 17.604000092  -999.250000 0.0850000009  -999.250000 2.3559625149 90.791297913 147.51129150 145.67033386 0.8560000062 80.722999573 0.8539853096  -999.250000 0.8539853096
 1172.8750000 5.0000000000 17.482999802  -999.250000 0.0130000003  -999.250000 2.2714467049 89.920608521 149.17454529 147.37812805 0.8479951024 80.663002014 0.8389794827  -999.250000 0.8389794827
 1173.0000000 5.0000000000 17.385000229  -999.250000 -0.025961952  -999.250000 2.1708502769 89.522064209 150.83671570 148.96406555 0.8429990411 80.605003357 0.8179853559  -999.250000 0.8179853559
 1173.1250000 5.0000000000 17.313999176  -999.250000 -0.018999999  -999.250000 2.1078755856 89.582015991 151.69059753 149.85751343 0.8420009613 80.558998108 0.8029941320  -999.250000 0.8029941320
 1173.2500000 5.0000000000 17.267000198  -999.250000 -0.002000000  -999.250000 2.0716385841 89.596694946 152.13244629 150.27896118 0.8429999948 80.526000977 0.7970019579  -999.250000 0.7970019579
 1173.3750000 5.0000000000 17.240999222  -999.250000 0.0140000004  -999.250000 2.0526602268 89.286338806 152.23860168 150.37841797 0.8439999819 80.507003784 0.7990058661  -999.250000 0.7990058661
 1173.5000000 5.0000000000 17.222999573  -999.250000 0.0320000015  -999.250000 2.0451879501 88.604202271 152.13967896 150.28958130 0.8439970613 80.513000488 0.8050058484  -999.250000 0.8050058484
 1173.6250000 5.0000000000 17.204000473  -999.250000 0.0569756106  -999.250000 2.0490436554 87.783279419 152.03607178 150.11408997 0.8409951329 80.550003052 0.8110029101  -999.250000 0.8110029101
 1173.7500000 5.0000000000 17.187000275  -999.250000 0.0839999989  -999.250000 2.0726113319 87.051765442 151.74044800 149.92152405 0.8360000253 80.638999939 0.8140000105  -999.250000 0.8140000105
 1173.8750000 5.0000000000 17.173000336  -999.250000 0.1000000015  -999.250000 2.1019454002 86.809494019 151.60908508 149.73654175 0.8320000172 80.764999390 0.8139990568  -999.250000 0.8139990568
 1174.0000000 5.0000000000 17.166000366  -999.250000 0.0989999995  -999.250000 2.1250755787 87.317459106 151.45303345 149.53341675 0.8310019374 80.917999268 0.8129990697  -999.250000 0.8129990697
 1174.1250000 6.0000000000 17.166999817  -999.250000 0.0810175613  -999.250000 2.1366147995 88.811096191 151.18231201 149.28762817 0.8330068588 81.081001282 0.8119990230  -999.250000 0.8119990230
 1174.2500000 6.0000000000 17.179000854  -999.250000 0.0619999990  -999.250000 2.1361558437 90.963272095 150.80723572 148.98614502 0.8400077820 81.239997864 0.8109999895  -999.250000 0.8109999895
 1174.3750000 6.0000000000 17.204000473  -999.250000 0.0509999990  -999.250000 2.1291813850 93.292739868 150.51374817 148.64324951 0.8479999900 81.372001648 0.8109990358  -999.250000 0.8109990358
 1174.5000000 6.0000000000 17.239000320  -999.250000 0.0480000004  -999.250000 2.1249248981 95.073921204 150.21961975 148.36743164 0.8569999933 81.448997498 0.8100000024  -999.250000 0.8100000024
 1174.6250000 6.0000000000 17.275999069  -999.250000 0.0489999987  -999.250000 2.1251692772 96.057296753 150.06846619 148.18534851 0.8650029302 81.476997375 0.8099990487  -999.250000 0.8099990487
