# LAS format log file from PETREL
# Project units are specified as depth units
#==================================================================
~Version information
VERS.   2.0:
WRAP.   NO:
#==================================================================
~Well
STRT .m      793.37487793 :
STOP .m      2575.0000000 :
STEP .m     0.00000000 :
NULL .        -999.250000 :
COMP.           : COMPANY
WELL.  31/3-3   : WELL
FLD.            : FIELD
LOC.            : LOCATION
SRVC.           : SERVICE COMPANY
DATE.  2018-09-11 14:48:36   : Log Export Date {yyyy-MM-dd HH:mm:ss}
PROV.           : PROVINCE
UWI.   31/3-3   : UNIQUE WELL ID
API.            : API NUMBER
#==================================================================
~Curve
DEPT .m                   : DEPTH
Lithology_geolink ._      : Lithology_geolink
CALI .in                  : CALI
BS .in                    : BS
DRHO .g/cm3               : DRHO
NPHI .m3/m3               : NPHI
RHOB .g/cm3               : RHOB
GR .gAPI                  : GR
DTC .us/ft                : DTC
DTE .us/ft                : DTE
RDEP .ohm.m               : RDEP
SP .mV                    : SP
RSHA .ohm.m               : RSHA
RMED .ohm.m               : RMED
~Parameter
#==================================================================
~Ascii
# ...
 2333.3750000 1.0000000000 12.199999809  -999.250000 0.0289999992 0.2230100036 2.2880001068 35.615001678 84.052711487 81.085762024 0.8889999986 50.347999573 2.3610000610 2.3610000610
 2333.5000000 1.0000000000 12.201000214  -999.250000 0.0289999992 0.2231800109 2.2890000343 36.542999268 85.789237976 82.650741577 0.9120000005 51.486999512 2.3410000801 2.3410000801
 2333.6250000 1.0000000000 12.204000473  -999.250000 0.0260000005 0.2268700004 2.2939999104 37.152000427 86.489059448 83.541152954 0.9480000138 53.126998901 2.3970000744 2.3970000744
 2333.7500000 1.0000000000 12.206999779  -999.250000 0.0230000000 0.2352100015 2.3050000668 37.557998657 86.748741150 83.900192261 1.0060000420 55.319999695 2.5109999180 2.5109999180
 2333.8750000 2.0000000000 12.210000038  -999.250000 0.0179999992 0.2471299917 2.3239998817 38.393001556 86.944435120 83.966835022 1.0900000334 58.230998993 2.7000000477 2.7000000477
 2334.0000000 2.0000000000 12.211999893  -999.250000 0.0160000008 0.2605400085 2.3510000706 40.110000610 86.835289001 83.853385925 1.2139999866 61.657001495 2.9820001125 2.9820001125
 2334.1250000 2.0000000000 12.211999893  -999.250000 0.0189999994 0.2701100111 2.3840000629 42.758998871 86.421768188 83.629417419 1.3789999485 65.255996704 3.3810000420 3.3810000420
 2334.2500000 2.0000000000 12.211000443  -999.250000 0.0299999993 0.2727400064 2.4170000553 46.009998322 86.339721680 83.316223145 1.5920000076 68.482002258 3.8829998970 3.8829998970
 2334.3750000 2.0000000000 12.210000038  -999.250000 0.0450000018 0.2691400051 2.4430000782 49.227001190 85.754615784 82.939125061 1.8639999628 70.666000366 4.3889999390 4.3889999390
 2334.5000000 5.0000000000 12.211999893  -999.250000 0.0579999983 0.2631700039 2.4560000896 51.891998291 85.471778870 82.602905273 2.1489999294 71.802001953 4.7529997826 4.7529997826
 2334.6250000 5.0000000000 12.218999863  -999.250000 0.0630000010 0.2594400048 2.4579999447 53.860000610 85.385398865 82.377746582 2.4100000858 72.123001099 4.9210000038 4.9210000038
 2334.7500000 5.0000000000 12.226000786  -999.250000 0.0579999983 0.2593399882 2.4509999752 55.255001068 85.347343445 82.310966492 2.6310000420 71.990997314 4.9429998398 4.9429998398
 2334.8750000 5.0000000000 12.229998589  -999.250000 0.0450000018 0.2620800138 2.4400000572 56.383998871 85.308692932 82.419311523 2.7799999714 71.685997009 4.8920001984 4.8920001984
 2335.0000000 5.0000000000 12.227000237  -999.250000 0.0280000009 0.2658900023 2.4279999733 57.609001160 85.812240601 82.674560547 2.8640000820 71.382003784 4.8239998817 4.8239998817
 2335.1250000 5.0000000000 12.220000267  -999.250000 0.0160000008 0.2696999907 2.4200000763 58.800998688 85.862396240 82.984207153 2.8840000629 71.137001038 4.7500000000 4.7500000000
 2335.2500000 5.0000000000 12.213000298  -999.250000 0.0120000001 0.2727400064 2.4179999828 59.382999420 86.129180908 83.294715881 2.8450000286 71.000000000 4.6729998589 4.6729998589
 2335.3750000 5.0000000000 12.208999634  -999.250000 0.0149999997 0.2743000090 2.4159998894 58.580001831 86.557899475 83.583816528 2.7379999161 70.983001709 4.5929999352 4.5929999352
 2335.5000000 5.0000000000 12.210000038  -999.250000 0.0260000005 0.2720700204 2.4189999104 56.720001221 86.943283081 83.845596313 2.5789999962 70.897003174 4.5149998665 4.5149998665
 2335.6250000 5.0000000000 12.215000153  -999.250000 0.0359999985 0.2647899985 2.4200000763 54.547000885 87.059486389 84.090698242 2.3859999180 70.458999634 4.4359998703 4.4359998703
 2335.7500000 5.0000000000 12.220000267  -999.250000 0.0419999994 0.2540000081 2.4179999828 52.977001190 87.255180359 84.329719543 2.1860001087 69.425003052 4.3319997787 4.3319997787
 2335.8750000 5.0000000000 12.226000786  -999.250000 0.0410000011 0.2447100133 2.4119999409 52.701999664 87.608345032 84.567214966 2.0050001144 67.682998657 4.1370000839 4.1370000839
 2336.0000000 5.0000000000 12.229000092  -999.250000 0.0329999998 0.2388200015 2.3989999294 53.076999664 87.817298889 84.812614441 1.8489999771 65.646003723 3.8180000782 3.8180000782
 2336.1250000 5.0000000000 12.230999947  -999.250000 0.0230000000 0.2354700118 2.3840000629 53.182998657 88.053245544 85.091911316 1.7309999466 63.702003479 3.4159998894 3.4159998894
 2336.2500000 5.0000000000 12.230999947  -999.250000 0.0130000003 0.2331900001 2.3699998856 52.375999451 88.514572144 85.437911987 1.6460000277 62.115001678 3.0280001163 3.0280001163
 2336.3750000 5.0000000000 12.229000092  -999.250000 0.0070000002 0.2308200002 2.3599998951 50.527999878 88.710357666 85.888534546 1.5880000591 60.817001343 2.7720000744 2.7720000744
 2336.5000000 5.0000000000 12.226000786  -999.250000 0.0080000004 0.2285500020 2.3580000401 48.432998657 89.196609497 86.403335571 1.5429999828 59.444999695 2.6679999828 2.6679999828
 2336.6250000 5.0000000000 12.223999977  -999.250000 0.0140000004 0.2278599888 2.3599998951 46.851001740 89.816368103 86.862396240 1.5060000420 57.880001068 2.7109999657 2.7109999657
 2336.7500000 5.0000000000 12.223999977  -999.250000 0.0219999999 0.2295299917 2.3650000095 46.301998138 90.193206787 87.187797546 1.4739999771 56.312999725 2.8699998856 2.8699998856
 2336.8750000 5.0000000000 12.227999687  -999.250000 0.0260000005 0.2329199910 2.3699998856 46.977001190 90.228630066 87.339141846 1.4440000057 55.192001343 3.0929999352 3.0929999352
 2337.0000000 5.0000000000 12.232000351  -999.250000 0.0209999997 0.2363699973 2.3780000210 48.321998596 90.155502319 87.319465637 1.4149999619 54.646999359 3.2869999409 3.2869999409
 2337.1250000 5.0000000000 12.233000755  -999.250000 0.0130000003 0.2380599976 2.3829998970 49.929000854 90.155502319 87.192863464 1.3849999905 54.470001221 3.4000000954 3.4000000954
 2337.2500000 5.0000000000 12.229000092  -999.250000 0.0080000004 0.2372999936 2.3829998970 51.391998291 89.829856873 87.005569458 1.3539999723 54.223999023 3.4110000134 3.4110000134
 2337.3750000 5.0000000000 12.220000267  -999.250000 0.0099999998 0.2342000008 2.3770000935 52.134998322 89.726028442 86.751602173 1.3229999542 53.422000885 3.3259999752 3.3259999752
 2337.5000000 5.0000000000 12.208999634  -999.250000 0.0199999996 0.2281599939 2.3659999371 51.985000610 89.512153625 86.426971436 1.2910000086 52.112998962 3.2009999752 3.2009999752
 2337.6250000 5.0000000000 12.203000069  -999.250000 0.0299999993 0.2187599987 2.3519999981 51.070999146 88.894950867 86.048385620 1.2560000420 50.498001099 3.0769999027 3.0769999027
 2337.7500000 5.0000000000 12.203000069  -999.250000 0.0350000001 0.2067900151 2.3369998932 49.719001770 88.503479004 85.680709839 1.2130000591 48.814998627 2.9879999161 2.9879999161
 2337.8750000 2.0000000000 12.208999634  -999.250000 0.0289999992 0.1960000098 2.3239998817 48.285999298 88.485893250 85.408798218 1.1619999409 47.255001068 2.9649999142 2.9649999142
 2338.0000000 2.0000000000 12.217000008  -999.250000 0.0130000003 0.1895100027 2.3159999847 46.946998596 88.113243103 85.143707275 1.1089999676 45.854000092 3.0090000629 3.0090000629
 2338.1250000 2.0000000000 12.220999718  -999.250000 -0.003000000 0.1880899966 2.3139998913 45.590000153 87.624961853 84.746879578 1.0590000153 44.584999084 3.0950000286 3.0950000286
 2338.2500000 2.0000000000 12.220000267  -999.250000 -0.014000000 0.1910199970 2.3139998913 44.034999847 87.061019897 84.129478455 1.0169999599 43.437999725 3.1589999199 3.1589999199
 2338.3750000 2.0000000000 12.211999893  -999.250000 -0.015000000 0.1961599886 2.3110001087 42.202999115 86.278244019 83.291404724 0.9890000224 42.470001221 3.1159999371 3.1159999371
 2338.5000000 2.0000000000 12.203000069  -999.250000 -0.008000000 0.2000699937 2.3039999008 40.372001648 85.495475769 82.533660889 0.9710000157 41.717998505 2.9920001030 2.9920001030
 2338.6250000 1.0000000000 12.194000244  -999.250000 0.0040000002 0.2007200122 2.2980000973 38.779998779 85.385398865 82.300460815 0.9649999738 41.224998474 2.8689999580 2.8689999580
 2338.7500000 1.0000000000 12.187999725  -999.250000 0.0160000008 0.1982099861 2.2969999313 37.631999969 85.563621521 82.604415894 0.9679999948 41.027000427 2.8229999542 2.8229999542
