# LAS format log file from PETREL
# Project units are specified as depth units
#==================================================================
~Version information
VERS.   2.0:
WRAP.   NO:
#==================================================================
~Well
STRT .m      433.43811035 :
STOP .m      2093.8361816 :
STEP .m     0.00000000 :
NULL .        -999.250000 :
COMP.           : COMPANY
WELL.  31/3-2   : WELL
FLD.            : FIELD
LOC.            : LOCATION
SRVC.           : SERVICE COMPANY
DATE.  2018-09-11 14:48:35   : Log Export Date {yyyy-MM-dd HH:mm:ss}
PROV.           : PROVINCE
UWI.   31/3-2   : UNIQUE WELL ID
API.            : API NUMBER
#==================================================================
~Curve
DEPT .m                   : DEPTH
Lithology_geolink ._      : Lithology_geolink
CALI .in                  : CALI
BS .in                    : BS
DRHO .g/cm3               : DRHO
NPHI .m3/m3               : NPHI
RHOB .g/cm3               : RHOB
PEF .b/e                  : PEF
GR .gAPI                  : GR
DTC .us/ft                : DTC
DTE .us/ft                : DTE
RDEP .ohm.m               : RDEP
SP .mV                    : SP
RSHA .ohm.m               : RSHA
RMIC .ohm.m               : RMIC
RMED .ohm.m               : RMED
~Parameter
#==================================================================
~Ascii
# ...
 1420.0756836 5.0000000000 17.788000107  -999.250000 0.0410000011 0.4578577578 2.1630001068  -999.250000 82.311996460 136.02012634 130.70932007 0.8490127921 182.90481567 0.9029999971  -999.250000 0.9039759636
 1420.2281494 5.0000000000 17.909999847  -999.250000 0.0439999998 0.4550538659 2.1659998894  -999.250000 81.691001892 136.36309814 131.11360168 0.8570648432 182.15991211 0.9229040146  -999.250000 0.9179775715
 1420.3804932 5.0000000000 17.775999069  -999.250000 0.0610000007 0.4387494922 2.1659998894  -999.250000 77.887001038 136.84779358 131.51882935 0.8840224147 182.12384033 0.9170190096  -999.250000 0.9219903946
 1420.5329590 5.0000000000 17.551000595  -999.250000 0.0710000023 0.4256654978 2.1730000973  -999.250000 76.375000000 137.06304932 131.85174561 0.8980216384 181.40541077 0.9380000234  -999.250000 0.9339807630
 1420.6853027 5.0000000000 17.587999344  -999.250000 0.0630000010 0.4228447378 2.1809999943  -999.250000 79.675003052 137.14129639 131.91271973 0.9069967866 181.15785217 0.9290360212  -999.250000 0.9280143976
 1420.8377686 5.0000000000 17.708999634  -999.250000 0.0340000018 0.4162664711 2.1600000858  -999.250000 79.125000000 137.27839661 132.04438782 0.9049831629 181.68792725 0.9020000100  -999.250000 0.9040384293
 1420.9901123 5.0000000000 17.867000580  -999.250000 0.0299999993 0.4202936888 2.1489999294  -999.250000 80.430999756 137.65504456 132.38214111 0.8979823589 181.65679932 0.8870840073  -999.250000 0.8900223970
 1421.1424561 6.0000000000 17.927999496  -999.250000 0.0280000009 0.4249110222 2.1319999695  -999.250000 83.242996216 137.74133301 132.51373291 0.8870320320 182.15339661 0.8879979849  -999.250000 0.8899999857
 1421.2949219 6.0000000000 17.934999466  -999.250000 0.0309999995 0.4137246907 2.1389999390  -999.250000 85.750000000 137.90228271 132.65435791 0.9070112109 181.15565491 0.9010000229  -999.250000 0.9009823799
 1421.4472656 6.0000000000 18.024999619  -999.250000 0.0170000009 0.4195799530 2.1310000420  -999.250000 88.302001953 138.57548523 133.35789490 0.9140064120 180.93974304 0.9189280272  -999.250000 0.9169615507
 1421.5997314 6.0000000000 17.891000748  -999.250000 0.0219999999 0.4320144653 2.1410000324  -999.250000 87.939002991 139.00268555 133.81071472 0.9179903865 181.40321350 0.9140080214  -999.250000 0.9179983735
 1421.7520752 6.0000000000 17.712999344  -999.250000 0.0359999985 0.4624985754 2.1459999084  -999.250000 88.186996460 138.36705017 133.22790527 0.9140656590 180.66084290 0.9309179783  -999.250000 0.9309687614
 1421.9045410 5.0000000000 17.811000824  -999.250000 0.0500000007 0.4607298970 2.1649999619  -999.250000 82.014999390 137.58259583 132.33680725 0.9549951553 181.18699646 0.9459639788  -999.250000 0.9459759593
 1422.0568848 5.0000000000 17.812999725  -999.250000 0.0469999984 0.4730987549 2.1749999523  -999.250000 79.061996460 136.87135315 131.71350098 0.9529871941 181.18840027 0.9620000124  -999.250000 0.9619615674
 1422.2093506 5.0000000000 17.903999329  -999.250000 0.0460000001 0.4465783238 2.1900000572  -999.250000 79.623001099 136.71903992 131.45283508 0.9450288415 181.43519592 0.9540320039  -999.250000 0.9540128112
 1422.3616943 5.0000000000 18.097999573  -999.250000 0.0399999991 0.4444287717 2.1960000992  -999.250000 83.680999756 136.60920715 131.46133423 0.9570192695 180.68974304 0.9470109940  -999.250000 0.9450216293
 1422.5141602 5.0000000000 18.041000366  -999.250000 0.0179999992 0.4179683626 2.1740000248  -999.250000 83.688003540 136.82470703 131.55122375 0.9689855576 181.15461731 0.9290860295  -999.250000 0.9360144138
 1422.6665039 5.0000000000 17.958999634  -999.250000 0.0070000002 0.4231719971 2.1649999619  -999.250000 83.999000549 136.90280151 131.63694763 0.9629887938 181.40499878 0.9479389787  -999.250000 0.9449783564
 1422.8189697 5.0000000000 17.885000229  -999.250000 0.0089999996 0.4256586432 2.1630001068  -999.250000 82.000000000 137.03990173 131.87815857 0.9559567571 181.40892029 0.9300000072  -999.250000 0.9310224056
 1422.9713135 5.0000000000 17.805999756  -999.250000 0.0299999993 0.4247997105 2.1819999218  -999.250000 82.249000549 137.41661072 132.13389587 0.9379888177 182.62040710 0.9190440178  -999.250000 0.9200176597
 1423.1237793 5.0000000000 17.739999771  -999.250000 0.0390000008 0.4244550467 2.1979999542  -999.250000 82.688003540 137.60832214 132.30845642 0.9309519529 182.87507629 0.9120000005  -999.250000 0.9120128155
 1423.2761230 5.0000000000 17.676000595  -999.250000 0.0250000004 0.4338507056 2.2090001106  -999.250000 85.733001709 138.09391785 132.77601624 0.9109935760 182.90640259 0.9040449858  -999.250000 0.9070079923
 1423.4284668 5.0000000000 17.716999054  -999.250000 0.0130000003 0.4472198486 2.2279999256  -999.250000 86.559997559 139.23497009 134.00480652 0.9070016146 183.15374756 0.9169690013  -999.250000 0.9169759750
 1423.5809326 5.0000000000 17.735000610  -999.250000 0.0080000004 0.4470193088 2.2300000191  -999.250000 91.811996460 141.42695618 136.16496277 0.9080216289 182.37574768 0.9150000215  -999.250000 0.9140048027
 1423.7332764 5.0000000000 17.733999252  -999.250000 0.0089999996 0.4336894453 2.2019999027  -999.250000 90.877998352 143.83799744 138.47387695 0.9169855714 182.68539429 0.9040349722  -999.250000 0.9110072255
 1423.8857422 5.0000000000 17.739999771  -999.250000 0.0070000002 0.4205304980 2.1610000134  -999.250000 89.814002991 144.63639832 139.40821838 0.9079999924 181.69000244 0.9299579859  -999.250000 0.9199855924
 1424.0380859 5.0000000000 17.760999680  -999.250000 0.0099999998 0.4086876512 2.1310000420  -999.250000 82.727996826 143.71643066 138.47412109 0.9079935551 181.68675232 0.9001669884  -999.250000 0.9040384293
 1424.1905518 5.0000000000 17.739999771  -999.250000 0.0170000009 0.4057681859 2.1280000210  -999.250000 86.180000305 141.79112244 136.56575012 0.9040167928 180.90679932 0.9119709730  -999.250000 0.9109888077
 1424.3428955 5.0000000000 17.606000900  -999.250000 0.0350000001 0.4160042405 2.1510000229  -999.250000 84.938003540 140.52842712 135.31112671 0.9109599590 180.40679932 0.9120000005  -999.250000 0.9129951596
 1424.4953613 5.0000000000 17.569000244  -999.250000 0.0350000001 0.4337452650 2.1610000134  -999.250000 85.684997559 140.33168030 135.12522888 0.8859543204 180.90168762 0.9199680090  -999.250000 0.9159951806
 1424.6477051 5.0000000000 17.805000305  -999.250000 0.0309999995 0.4308140874 2.1610000134  -999.250000 81.569000244 140.17347717 134.95889282 0.8669711351 179.94039917 0.9060220122  -999.250000 0.9070216417
 1424.8001709 5.0000000000 17.837999344  -999.250000 0.0219999999 0.4484111667 2.1519999504  -999.250000 83.116996765 139.86630249 134.58067322 0.8488894701 180.18692017 0.8980380297  -999.250000 0.8990128040
 1424.9525146 6.0000000000 17.635000229  -999.250000 0.0280000009 0.4740722179 2.1710000038  -999.250000 81.628997803 139.80006409 134.66725159 0.8029646873 180.15519714 0.9309200048  -999.250000 0.9269327521
 1425.1049805 6.0000000000 17.583999634  -999.250000 0.0320000015 0.4767669141 2.1889998913  -999.250000 83.811996460 140.99604797 135.76745605 0.7809591889 179.65899658 0.9330000281  -999.250000 0.9269999862
 1425.2573242 6.0000000000 17.656000137  -999.250000 0.0309999995 0.4436337352 2.1930000782  -999.250000 83.875000000 142.78604126 137.48956299 0.7639935613 180.90141296 0.9061080217  -999.250000 0.8950512409
 1425.4096680 6.0000000000 17.742000580  -999.250000 0.0260000005 0.3859517276 2.1819999218  -999.250000 89.561996460 144.19482422 138.82148743 0.7599791288 181.15715027 0.8240000010  -999.250000 0.8301560879
 1425.5621338 6.0000000000 17.701000214  -999.250000 0.0329999998 0.3756161332 2.1659998894  -999.250000 88.257003784 144.53500366 139.32247925 0.7469927669 181.86921692 0.7951620221  -999.250000 0.7960544825
 1425.7144775 6.0000000000 17.662000656  -999.250000 0.0480000004 0.3833336532 2.1630001068  -999.250000 83.947998047 144.57017517 139.41708374 0.7439951897 181.12739563 0.7860220075  -999.250000 0.7930071950
 1425.8669434 6.0000000000 17.707000732  -999.250000 0.0509999990 0.4503431022 2.1600000858  -999.250000 81.875000000 144.41670227 139.10426331 0.7409735918 181.37612915 0.8190000057  -999.250000 0.8129679561
