# LAS format log file from PETREL
# Project units are specified as depth units
#==================================================================
~Version information
VERS.   2.0:
WRAP.   NO:
#==================================================================
~Well
STRT .m      793.37487793 :
STOP .m      2575.0000000 :
STEP .m     0.00000000 :
NULL .        -999.250000 :
COMP.           : COMPANY
WELL.  31/3-3   : WELL
FLD.            : FIELD
LOC.            : LOCATION
SRVC.           : SERVICE COMPANY
DATE.  2018-09-11 14:48:36   : Log Export Date {yyyy-MM-dd HH:mm:ss}
PROV.           : PROVINCE
UWI.   31/3-3   : UNIQUE WELL ID
API.            : API NUMBER
#==================================================================
~Curve
DEPT .m                   : DEPTH
Lithology_geolink ._      : Lithology_geolink
CALI .in                  : CALI
BS .in                    : BS
DRHO .g/cm3               : DRHO
NPHI .m3/m3               : NPHI
RHOB .g/cm3               : RHOB
GR .gAPI                  : GR
DTC .us/ft                : DTC
DTE .us/ft                : DTE
RDEP .ohm.m               : RDEP
SP .mV                    : SP
RSHA .ohm.m               : RSHA
RMED .ohm.m               : RMED
~Parameter
#==================================================================
~Ascii
# ...
 1150.8748779 6.0000000000 20.322999954  -999.250000 0.1140000001 0.2235499918 2.0529999733 96.846992493 148.07600403 141.01513672 0.9031035304 45.179801941 0.8179785609 0.8179785609
 1150.9998779 6.0000000000 20.357000351  -999.250000 0.1360000074 0.2255900055 2.0850000381 97.152404785 146.21615601 139.21081543 0.8550937772 44.805728912 0.8329706788 0.8329706788
 1151.1248779 6.0000000000 20.315999985  -999.250000 0.1550000012 0.2216099948 2.0999999046 97.615547180 143.58689880 136.56228638 0.8250293136 44.504295349 0.8449882865 0.8449882865
 1151.2498779 6.0000000000 20.226001740  -999.250000 0.1659999937 0.2128099948 2.0999999046 98.156471252 141.16456604 134.13346863 0.8190058470 44.298202515 0.8489960432 0.8489960432
 1151.3748779 6.0000000000 20.125999451  -999.250000 0.1720000058 0.2025499940 2.0929999352 98.876594543 139.74665833 132.72335815 0.8429531455 44.212169647 0.8430116773 0.8430116773
 1151.4998779 6.0000000000 20.048000336  -999.250000 0.1759999990 0.1945400089 2.0880000591 99.874053955 139.87109375 132.84577942 0.8869140744 44.220981598 0.8310233951 0.8310233951
 1151.6248779 6.0000000000 19.989999771  -999.250000 0.1749999970 0.1908800006 2.0869998932 101.00978088 141.64468384 134.57534790 0.9398964643 44.312820435 0.8140332103 0.8140332103
 1151.7498779 6.0000000000 19.950000763  -999.250000 0.1669999957 0.1924200058 2.0899999142 101.91012573 144.17832947 137.16992188 0.9879530668 44.445869446 0.7950186133 0.7950186133
 1151.8748779 6.0000000000 19.933002472  -999.250000 0.1550000012 0.1991500109 2.0980000496 102.19544220 146.27224731 139.27624512 1.0119531155 44.514865875 0.7820253968 0.7820253968
 1151.9998779 6.0000000000 19.933002472  -999.250000 0.1420000046 0.2084800005 2.1099998951 102.02533722 147.37106323 140.38314819 1.0139961243 44.437152863 0.7800039053 0.7800039053
 1152.1248779 6.0000000000 19.927999496  -999.250000 0.1360000074 0.2158600092 2.1250000000 101.41320038 147.34226990 140.36096191 0.9990293384 44.185493469 0.7889823914 0.7889823914
 1152.2498779 6.0000000000 19.919998169  -999.250000 0.1420000046 0.2188100070 2.1429998875 100.41295624 146.42744446 139.42762756 0.9710547328 43.815719604 0.8009765744 0.8009765744
 1152.3748779 6.0000000000 19.937000275  -999.250000 0.1599999964 0.2167600095 2.1600000858 99.073310852 145.25535583 138.20268250 0.9420283437 43.479328156 0.8069941401 0.8069941401
 1152.4998779 6.0000000000 19.999000549  -999.250000 0.1809999943 0.2113599926 2.1689999104 97.711662292 144.60227966 137.51515198 0.9230370522 43.307334900 0.8030077815 0.8030077815
 1152.6248779 6.0000000000 20.073999405  -999.250000 0.2000000030 0.2058700025 2.1649999619 96.624122620 144.60804749 137.56579590 0.9229999781 43.336944580 0.7950156331 0.7950156331
 1152.7498779 6.0000000000 20.117002487  -999.250000 0.2090000063 0.2009699941 2.1429998875 96.000213623 145.30075073 138.30131531 0.9469531775 43.520641327 0.7880136371 0.7880136371
 1152.8748779 6.0000000000 20.093000412  -999.250000 0.2029999942 0.1967300028 2.1019999981 95.752243042 146.51899719 139.51824951 0.9879599214 43.764759064 0.7870009542 0.7870009542
 1152.9998779 6.0000000000 19.996999741  -999.250000 0.1780000031 0.1954199970 2.0469999313 95.594154358 147.88908386 140.89935303 1.0199687481 43.964805603 0.7919951081 0.7919951081
 1153.1248779 6.0000000000 19.881999969  -999.250000 0.1449999958 0.1984600127 1.9919999838 95.479217529 148.96650696 141.96125793 1.0229941607 44.052829742 0.8029785156 0.8029785156
 1153.2498779 6.0000000000 19.802999496  -999.250000 0.1110000014 0.2043099999 1.9409999847 95.506950378 149.42025757 142.40676880 0.9910625219 43.973155975 0.8169726133 0.8169726133
 1153.3748779 5.0000000000 19.798000336  -999.250000 0.0829999968 0.2099099904 1.8940000534 95.583847046 149.14952087 142.09904480 0.9361073971 43.671592712 0.8279785514 0.8279785514
 1153.4998779 5.0000000000 19.881000519  -999.250000 0.0630000010 0.2112099975 1.8420000076 95.432144165 148.18367004 141.09504700 0.8890459538 43.240421295 0.8339941502 0.8339941502
 1153.6248779 5.0000000000 20.018999100  -999.250000 0.0480000004 0.2079899907 1.7860000134 94.868095398 146.74157715 139.65808105 0.8620526791 42.833793640 0.8339999914 0.8339999914
 1153.7498779 5.0000000000 20.169000626  -999.250000 0.0390000008 0.2025000006 1.7359999418 93.988716125 145.46746826 138.41976929 0.8560117483 42.625404358 0.8339999914 0.8339999914
 1153.8748779 5.0000000000 20.271999359  -999.250000 0.0340000018 0.1978300065 1.7039999962 93.242454529 145.45227051 138.39562988 0.8769589663 42.751750946 0.8369941711 0.8369941711
 1153.9998779 5.0000000000 20.278999329  -999.250000 0.0340000018 0.1968799978 1.7050000429 93.057357788 146.78584290 139.75340271 0.9249062538 43.093334198 0.8419902325 0.8419902325
 1154.1248779 5.0000000000 20.197999954  -999.250000 0.0419999994 0.1983699948 1.7359999418 93.273788452 149.26046753 142.21899414 0.9969295859 43.443656921 0.8459960818 0.8459960818
 1154.2498779 5.0000000000 20.059999466  -999.250000 0.0599999987 0.1998100132 1.7920000553 93.276992798 152.21604919 145.16319275 1.0738497972 43.564762115 0.8519883156 0.8519883156
 1154.3748779 5.0000000000 19.906002045  -999.250000 0.0769999996 0.1983799934 1.8600000143 92.536453247 154.58618164 147.65557861 1.1318867207 43.269580841 0.8619804382 0.8619804382
 1154.4998779 5.0000000000 19.782999039  -999.250000 0.0810000002 0.1924600005 1.9249999523 91.521980286 155.17417908 148.14311218 1.1469706297 42.706104279 0.8779687881 0.8779687881
 1154.6248779 5.0000000000 19.714000702  -999.250000 0.0759999976 0.1876100004 1.9830000401 90.991516113 153.50457764 146.48666382 1.1210254431 42.115577698 0.8919863105 0.8919863105
 1154.7498779 5.0000000000 19.697999954  -999.250000 0.0719999969 0.1881600022 2.0309998989 91.620384216 150.34361267 143.34515381 1.0750449896 41.734375000 0.8979941607 0.8979941607
 1154.8748779 5.0000000000 19.721000671  -999.250000 0.0799999982 0.1953300089 2.0669999123 93.277755737 146.55905151 139.55543518 1.0310858488 41.698070526 0.8880195022 0.8880195022
 1154.9998779 5.0000000000 19.771999359  -999.250000 0.1010000035 0.2063499987 2.0850000381 94.536544800 143.09542847 136.05993652 0.9990625381 41.846710205 0.8690371513 0.8690371513
 1155.1248779 5.0000000000 19.838001251  -999.250000 0.1260000020 0.2146699876 2.0850000381 94.487098694 140.94102478 133.84164429 0.9800371528 42.004692078 0.8430507779 0.8430507779
 1155.2498779 5.0000000000 19.910999298  -999.250000 0.1449999958 0.2186499983 2.0699999332 93.448013306 140.73258972 133.67350769 0.9700098038 42.042961121 0.8140283823 0.8140283823
 1155.3748779 5.0000000000 19.989999771  -999.250000 0.1539999992 0.2201600075 2.0409998894 92.773323059 142.13082886 135.10693359 0.9590214491 41.911258698 0.7840585113 0.7840585113
 1155.4998779 6.0000000000 20.087999344  -999.250000 0.1500000060 0.2212200016 1.9980000257 93.359848022 144.78746033 137.74969482 0.9410351515 41.669471741 0.7580507994 0.7580507994
 1155.6248779 6.0000000000 20.201000214  -999.250000 0.1350000054 0.2225999981 1.9470000267 95.240325928 148.17643738 141.11419678 0.9170468450 41.395534515 0.7390371561 0.7390371561
 1155.7498779 6.0000000000 20.295999527  -999.250000 0.1070000008 0.2226999998 1.8980000019 97.795013428 151.67532349 144.66644287 0.8930468559 41.221340179 0.7260254025 0.7260254025
 1155.8748779 6.0000000000 20.343999863  -999.250000 0.0740000010 0.2205400020 1.8630000353 99.875968933 154.80976868 147.81121826 0.8690235019 41.343879700 0.7150107026 0.7150107026
 1155.9998779 6.0000000000 20.347000122  -999.250000 0.0520000011 0.2180299908 1.8630000353 101.08164978 157.27722168 150.23280334 0.8430507183 41.741222382 0.7080136538 0.7080136538
 1156.1248779 6.0000000000 20.347000122  -999.250000 0.0540000014 0.2176600099 1.8919999599 101.63292694 158.88676453 151.81230164 0.8150547147 42.279945374 0.7080000043 0.7080000043
 1156.2498779 6.0000000000 20.381000519  -999.250000 0.0780000016 0.2184799910 1.9340000153 101.73680115 159.45429993 152.40222168 0.7850586176 42.758064270 0.7199766040 0.7199766040
