# LAS format log file from PETREL
# Project units are specified as depth units
#==================================================================
~Version information
VERS.   2.0:
WRAP.   NO:
#==================================================================
~Well
STRT .m      1287.9324951 :
STOP .m      2115.3120117 :
STEP .m     0.00000000 :
NULL .        -999.250000 :
COMP.           : COMPANY
WELL.  31/3-4   : WELL
FLD.            : FIELD
LOC.            : LOCATION
SRVC.           : SERVICE COMPANY
DATE.  2018-09-11 14:48:36   : Log Export Date {yyyy-MM-dd HH:mm:ss}
PROV.           : PROVINCE
UWI.   31/3-4   : UNIQUE WELL ID
API.            : API NUMBER
#==================================================================
~Curve
DEPT .m                   : DEPTH
Lithology_geolink ._      : Lithology_geolink
CALI .in                  : CALI
BS .in                    : BS
ROP .m/h                  : ROP
DRHO .g/cm3               : DRHO
NPHI .m3/m3               : NPHI
RHOB .g/cm3               : RHOB
PEF .b/e                  : PEF
GR .gAPI                  : GR
DTC .us/ft                : DTC
DTS .us/ft                : DTS
RDEP .ohm.m               : RDEP
RSHA .ohm.m               : RSHA
RMIC .ohm.m               : RMIC
RMED .ohm.m               : RMED
~Parameter
#==================================================================
~Ascii
# ...
 1834.7435303 6.0000000000 8.1787996292 8.5000000000 95.065948486 -0.008300000 0.3415000141 2.3515999317 6.3084998131 125.70014191 87.034507751 187.26641846 1.8277000189 1.5399999619 0.9133999944 1.6016999483
 1834.8959961 6.0000000000 8.1752004623 8.5000000000 139.75065613 -0.009900000 0.4063999951 2.3457000256 6.3738999367 126.63336945 87.678756714 184.52890015 1.8826999664 1.5727000237 0.7896999717 1.6469999552
 1835.0483398 6.0000000000 8.2118997574 8.5000000000 147.17356873 -0.011600000 0.3646999896 2.3422000408 6.4264998436 130.53840637 91.711502075 182.81201172 1.6822999716 1.3851000071 0.7559999824 1.4625999928
 1835.2008057 6.0000000000 8.2193002701 8.5000000000 128.47113037 -0.010500000 0.3477999866 2.3461999893 6.4004001617 125.68792725 94.949554443 181.86300659 1.7115000486 1.3838000298 0.7376000285 1.4808000326
 1835.3531494 6.0000000000 8.2707004547 8.5000000000 129.23063660 -0.009500000 0.3488000035 2.3457000256 6.3131999969 123.76501465 94.854476929 185.00097656 1.9061000347 1.5116000175 0.7142000198 1.6394000053
 1835.5054932 6.0000000000 8.2781000137 8.5000000000 144.72212219 -0.009200000 0.3623000085 2.3596000671 6.2012000084 116.79547119 91.576309204 189.20121765 1.7685999870 1.4323999882 0.9100999832 1.5224000216
 1835.6579590 6.0000000000 8.2634000778 8.5000000000 141.93208313 -0.007900000 0.3546000123 2.3943998814 6.1861000061 114.25975037 80.607986450 180.36717224 1.6868000031 1.3904000521 1.2187999487 1.4428000450
 1835.8103027 6.0000000000 8.3149003983 8.5000000000 145.49049377 -0.006100000 0.3271000087 2.4272000790 6.5013999939 115.07106781 78.594985962 174.96282959 1.8109999895 1.5082999468 1.6606999636 1.5549000502
 1835.9627686 6.0000000000 8.2487001419 8.5000000000 145.77886963 -0.004900000 0.3531000018 2.4423000813 6.8949999809 120.65753174 79.084129333 176.24571228 2.2044000626 1.7790000439 1.9300999641 1.9064999819
 1836.1151123 6.0000000000 8.2487001419 8.5000000000 137.28312683 -0.005900000 0.3695999980 2.4328999519 6.9609999657 123.56846619 81.365440369 180.27169800 4.6921000481 3.4716000557 2.0271000862 4.1498999596
 1836.2675781 6.0000000000 8.2046003342 8.5000000000 135.17816162 -0.004800000 0.3476000130 2.4210000038 6.7462000847 122.53127289 84.041465759 187.00804138 1.5968999863 1.3758000135 1.5535999537 1.4414999485
 1836.4199219 6.0000000000 8.2046003342 8.5000000000 111.10858917 -0.005600000 0.4002000093 2.3951001167 6.4742999077 118.01281738 85.853424072 189.42256165 1.6478999853 1.4630999565 1.1068999767 1.4901000261
 1836.5723877 6.0000000000 8.1971998215 8.5000000000 103.35236359 -0.007400000 0.4047999978 2.3680999279 6.3338999748 122.40052032 80.903228760 187.24412537 1.7632999420 1.5482000113 0.8748999834 1.6004999876
 1836.7247314 6.0000000000 8.1971998215 8.5000000000 100.62139130 -0.008300000 0.3903999925 2.3598001003 6.2617001534 124.47534943 87.536224365 183.58337402 1.8034000397 1.5628999472 0.9208999872 1.6409000158
 1836.8771973 6.0000000000 8.2340002060 8.5000000000 83.608268738 -0.008400000 0.3700999916 2.3629000187 6.2128000259 129.89637756 98.412353516 183.65937805 1.8079999685 1.5565999746 1.0583000183 1.6464999914
 1837.0295410 6.0000000000 8.2596998215 8.5000000000 83.700134277 -0.006400000 0.3431999981 2.3812003136 6.0741000175 129.13169861 96.014656067 184.02182007 1.7812000513 1.5194000006 1.2659000158 1.6334999800
 1837.1820068 6.0000000000 8.2412996292 8.5000000000 85.763778687 -0.006600000 0.3086999953 2.3873000145 6.0071997643 128.98632813 95.600738525 184.03857422 2.2146999836 1.8222999573 1.1328999996 2.0596001148
 1837.3343506 6.0000000000 8.2340002060 8.5000000000 92.319557190 -0.007800000 0.3370000124 2.3854999542 6.0047001839 124.88392639 98.869789124 183.71435547 2.3534998894 1.9571000338 1.0462000370 2.2081999779
 1837.4866943 6.0000000000 8.2449998856 8.5000000000 76.971786499 -0.008800000 0.3515000045 2.3831999302 6.0444002151 122.04259491 99.725158691 183.55075073 2.1431999207 1.8284000158 1.0663000345 1.9802999496
 1837.6391602 6.0000000000 8.2340002060 8.5000000000 78.265090942 -0.009700001 0.3303999901 2.3775000572 6.1163001060 119.04663086 99.531990051 184.22491455 2.3285000324 1.9871000051 1.2515000105 2.1535000801
 1837.7915039 6.0000000000 8.2487001419 8.5000000000 80.971786499 -0.009400000 0.3199000061 2.3757998943 6.1623001099 119.96274567 99.140838623 183.87281799 2.5506999493 2.1821000576 1.2476999760 2.3914000988
 1837.9439697 6.0000000000 8.2340002060 8.5000000000 88.938323975 -0.008700000 0.3402999938 2.3815999031 6.1571998596 124.76113129 98.447296143 184.01660156 2.5402998924 2.1791999340 1.2580000162 2.3901998997
 1838.0963135 6.0000000000 8.2193002701 8.5000000000 88.045280457 -0.007900000 0.3607999980 2.3891000748 6.1297001839 124.92115021 97.184280396 184.26100159 2.5309000015 2.1696000099 1.3208999634 2.3801999092
 1838.2487793 6.0000000000 8.2781000137 8.5000000000 97.618766785 -0.008200000 0.3675000072 2.3931000233 6.1266999245 122.47972107 95.655731201 184.15415955 2.5297999382 2.1670000553 1.4191000462 2.3805999756
 1838.4011230 6.0000000000 8.2707004547 8.5000000000 118.70111847 -0.008800000 0.3919000030 2.3857998848 6.2204999924 121.26456451 94.442886353 184.23776245 2.5271999836 2.1659998894 1.3367999792 2.3778998852
 1838.5535889 6.0000000000 8.2265996933 8.5000000000 116.75263214 -0.011000000 0.3610999882 2.3712000847 6.4116001129 122.97347260 93.801780701 184.56924438 2.4221000671 2.0875999928 1.2229000330 2.2836999893
 1838.7059326 6.0000000000 8.2265996933 8.5000000000 106.11647034 -0.011800000 0.3343000114 2.3671998978 6.5672998428 126.80228424 93.395713806 183.87713623 2.1640999317 1.9012000561 1.1305999756 2.0552999973
 1838.8583984 6.0000000000 8.2229995728 8.5000000000 122.92979431 -0.010500000 0.3653999865 2.3764998913 6.5967001915 125.91287994 90.415390015 184.92822266 2.2871000767 2.0445001125 1.1053999662 2.2091000080
 1839.0107422 6.0000000000 8.2193002701 8.5000000000 118.88056946 -0.009200000 0.4027999938 2.3826000690 6.5892000198 130.26036072 90.777130127 184.76795959 2.4746999741 2.2486999035 1.1038000584 2.3935999870
 1839.1632080 6.0000000000 8.2302999496 8.5000000000 108.14698029 -0.005900000 0.3734000027 2.3835999966 6.5659999847 124.72927856 93.055786133 184.84898376 2.4879000187 2.3577001095 1.1511000395 2.3935000896
 1839.3155518 6.0000000000 8.2193002701 8.5000000000 122.15747833 -0.005300000 0.3463999927 2.3794000149 6.5795001984 124.77734375 92.796142578 185.71623230 2.4316999912 2.3194999695 1.2773000002 2.3315999508
 1839.4680176 7.0000000000 8.2340002060 8.5000000000 139.88058472 -0.004200000 0.3774999976 2.3938999176 6.5451998711 124.71799469 89.725578308 186.38546753 2.5757999420 2.4398999214 1.4550000429 2.4686999321
 1839.6203613 7.0000000000 8.1899003983 8.5000000000 131.36975098 0.0024999999 0.3609000146 2.4351000786 6.5562000275 131.01614380 85.718238831 186.23925781 2.5938000679 2.4600999355 1.8475999832 2.4881999493
 1839.7727051 7.0000000000 8.2707004547 8.5000000000 128.99081421 0.0164000001 0.4025000036 2.5125999451 6.6564002037 136.43437195 83.900527954 182.69375610 2.6974000931 2.5422999859 2.9154999256 2.5910999775
 1839.9251709 7.0000000000 8.3296003342 8.5000000000 130.52461243 0.0277999993 0.4014999866 2.5782999992 6.7845001221 136.15850830 96.796058655 179.15745544 2.9421000481 2.7369999886 6.7076001167 2.8343999386
 1840.0775146 7.0000000000 8.3221998215 8.5000000000 115.10040283 0.0355000012 0.3434999883 2.6159999371 6.8717999458 136.91635132 97.477821350 176.46513367 5.4471998215 4.8333001137 10.520999908 5.2301998138
 1840.2299805 6.0000000000 8.3368997574 8.5000000000 119.15288544 0.0324000008 0.2594000101 2.6170001030 6.8586001396 129.96618652 94.008468628 169.41947937 18.183700562 14.556099892 11.354900360 17.236000061
 1840.3823242 6.0000000000 8.3221998215 8.5000000000 127.28084564 0.0309999995 0.2529999912 2.6201000214 6.8097000122 112.23986816 89.232360840 162.53863525 4.3366999626 4.0782999992 11.132800102 4.2621998787
 1840.5347900 6.0000000000 8.3296003342 8.5000000000 131.53543091 0.0234999992 0.3055999875 2.6010999680 6.7585000992 93.844772339 87.810470581 161.81962585 3.0281000137 2.8993999958 8.4301996231 2.9925000668
