# LAS format log file from PETREL
# Project units are specified as depth units
#==================================================================
~Version information
VERS.   2.0:
WRAP.   NO:
#==================================================================
~Well
STRT .m      433.43811035 :
STOP .m      2093.8361816 :
STEP .m     0.00000000 :
NULL .        -999.250000 :
COMP.           : COMPANY
WELL.  31/3-2   : WELL
FLD.            : FIELD
LOC.            : LOCATION
SRVC.           : SERVICE COMPANY
DATE.  2018-09-11 14:48:35   : Log Export Date {yyyy-MM-dd HH:mm:ss}
PROV.           : PROVINCE
UWI.   31/3-2   : UNIQUE WELL ID
API.            : API NUMBER
#==================================================================
~Curve
DEPT .m                   : DEPTH
Lithology_geolink ._      : Lithology_geolink
CALI .in                  : CALI
BS .in                    : BS
DRHO .g/cm3               : DRHO
NPHI .m3/m3               : NPHI
RHOB .g/cm3               : RHOB
PEF .b/e                  : PEF
GR .gAPI                  : GR
DTC .us/ft                : DTC
DTE .us/ft                : DTE
RDEP .ohm.m               : RDEP
SP .mV                    : SP
RSHA .ohm.m               : RSHA
RMIC .ohm.m               : RMIC
RMED .ohm.m               : RMED
~Parameter
#==================================================================
~Ascii
# ...
 1538.9476318 11.000000000 14.376998901 12.250000954 -0.005000000 0.3076036274 2.5429999828  -999.250000 92.888366699 94.664993286 89.379821777 1.7736105919 145.88699341 3.5429999828 3.5618429184 2.8141376972
 1539.1000977 11.000000000 14.272000313 12.250000954 -0.003000000 0.2871640623 2.5409998894  -999.250000 83.932174683 90.642677307 85.422904968 2.1559767723 145.88684082 3.5680000782 2.8395638466 2.8489453793
 1539.2524414 11.000000000 13.993000031 12.250000954 -0.012000000 0.2709858716 2.5139999390  -999.250000 69.857284546 86.833259583 81.599609375 2.9781329632 145.82659912 3.3859999180 2.2440977097 2.8140840530
 1539.4049072 11.000000000 13.677999496 12.250000954 -0.008000000 0.2533248365 2.5079998970  -999.250000 58.633983612 84.157073975 78.952262878 3.6861186028 146.82499695 3.5989999771 2.9289197922 2.9577691555
 1539.5572510 11.000000000 13.529000282 12.250000954 -0.009000000 0.2251507640 2.5139999390  -999.250000 51.440761566 82.710449219 77.352157593 4.5656442642 146.82620239 3.9210000038 3.3107516766 3.2295641899
 1539.7095947 11.000000000 13.550000191 12.250000954 -0.005000000 0.2011661232 2.5350000858  -999.250000 51.779445648 82.761993408 77.501083374 4.3436441422 147.57241821 4.3220000267 3.1581552029 3.5741713047
 1539.8620605 11.000000000 13.576000214 12.250000954 -0.010000000 0.1963107735 2.5510001183  -999.250000 54.639705658 84.207778931 78.943557739 4.1204552650 146.58009338 4.7829999924 4.5012369156 3.9653735161
 1540.0144043 11.000000000 13.598999977 12.250000954 -0.008000000 0.1972707659 2.5510001183  -999.250000 60.040340424 85.337028503 80.152099609 3.1576442719 146.63819885 5.2820000648 4.0227594376 4.2622866631
 1540.1668701 11.000000000 13.657999992 12.250000954 -0.006000000 0.1982474178 2.4630000591  -999.250000 62.622936249 87.512481689 82.243827820 2.9365212917 147.38818359 4.9869999886 2.0017397404 4.0882802010
 1540.3192139 11.000000000 13.971000671 12.250000954 0.0509999990 0.2075176090 2.3870000839  -999.250000 63.370803833 90.274604797 85.109283447 3.1532275677 147.88539124 4.1490001678 1.0622613430 3.3926742077
 1540.4716797 11.000000000 14.788000107 12.250000954 0.0930000022 0.2295278013 2.2990000248  -999.250000 66.622390747 91.122558594 85.794784546 3.2950744629 148.13400269 3.4240000248 0.6047161818 2.8798203468
 1540.6240234 11.000000000 15.366000175 12.250000954 0.1560000032 0.2766892910 2.3159999847  -999.250000 71.778862000 90.989700317 85.668937683 3.3263797760 146.89398193 3.6760001183 1.6821105480 2.8390960693
 1540.7764893 11.000000000 15.296998978 12.250000954 0.1330000013 0.3007501662 2.2890000343  -999.250000 79.281990051 92.860557556 87.687416077 3.5606629848 146.88938904 3.5209999084 1.1264665127 2.8629615307
 1540.9288330 11.000000000 15.588999748 12.250000954 0.1220000014 0.3134212792 2.3459999561  -999.250000 84.214050293 95.962966919 90.641792297 2.5889694691 147.88699341 4.1380000114 0.4901827276 3.2490704060
 1541.0812988 11.000000000 15.953000069 12.250000954 0.0399999991 0.2901038229 2.3299999237  -999.250000 88.790336609 101.58798218 96.361145020 1.9465652704 147.88639832 4.5199999809 0.8870853186 3.4187290668
 1541.2336426 11.000000000 15.359999657 12.250000954 0.0030000000 0.2924823463 2.3420000076  -999.250000 93.870925903 112.24461365 107.04862976 1.7660080194 147.63580322 3.8069999218 1.2431973219 2.9192032814
 1541.3861084 11.000000000 14.548999786 12.250000954 0.0140000004 0.2954758704 2.2750000954  -999.250000 102.87978363 124.48068237 119.26049042 1.7710769176 146.89219666 2.5729999542 0.7427717447 2.1362547874
 1541.5384521 11.000000000 14.505000114 12.250000954 0.0329999998 0.3428127170 2.2249999046  -999.250000 115.83361816 135.19255066 129.92050171 1.8030961752 147.38600159 1.9149999619 0.5725001097 1.5589246750
 1541.6909180 7.0000000000 14.715000153 12.250000954 0.0430000015 0.3961353302 2.1879999638  -999.250000 120.24647522 141.61845398 136.33886719 1.8628199100 147.38639832 1.6100000143 0.6438347101 1.2994147539
 1541.8432617 7.0000000000 14.597999573 12.250000954 0.0040000002 0.4368847907 2.1619999409  -999.250000 121.92964935 140.92417908 135.68399048 1.7875192165 147.13839722 1.5650000572 0.7445357442 1.2760368586
 1541.9956055 7.0000000000 14.708999634 12.250000954 0.0030000000 0.4428731203 2.1500000954  -999.250000 119.44598389 135.80146790 130.60707092 1.4877868891 147.38739014 1.6970000267 0.6847441792 1.3538125753
 1542.1480713 7.0000000000 15.196000099 12.250000954 0.0030000000 0.4467611909 2.1289999485  -999.250000 124.03631592 131.55703735 126.30294037 1.3549110889 147.63720703 1.8459999561 0.7848187089 1.4458525181
 1542.3004150 7.0000000000 15.343000412 12.250000954 0.0189999994 0.4482654035 2.0880000591  -999.250000 122.56835938 130.86590576 125.65617371 1.3179903030 148.13560486 1.8849999905 0.6473348141 1.4829111099
 1542.4528809 7.0000000000 15.114999771 12.250000954 0.0520000011 0.4799185693 2.0569999218  -999.250000 124.24864960 133.61882019 128.25903320 1.3119039536 147.88758850 1.8430000544 0.4571048617 1.4600368738
 1542.6052246 7.0000000000 15.266000748 12.250000954 0.0839999989 0.4531596303 2.0490000248  -999.250000 120.58288574 136.62089539 131.44357300 1.2719807625 148.13560486 1.8300000429 0.4127202928 1.4250839949
 1542.7576904 7.0000000000 15.557999611 12.250000954 0.0949999988 0.4277183115 2.0329999924  -999.250000 118.38076019 138.60874939 133.25558472 1.2601032257 147.88639832 1.6950000525 0.4832272530 1.3351442814
 1542.9100342 7.0000000000 15.364000320 12.250000954 0.0909999982 0.4131485522 1.9769999981  -999.250000 115.32945251 138.45858765 133.25630188 1.3029470444 147.63879395 1.5659999847 0.4593431354 1.2492065430
 1543.0625000 7.0000000000 15.250000000 12.250000954 0.0799999982 0.4238906205 1.9349999428  -999.250000 113.38255310 137.62023926 132.44920349 1.2697670460 148.13499451 1.5889999866 0.5246827602 1.2539919615
 1543.2148438 7.0000000000 15.474000931 12.250000954 0.0719999969 0.4741779268 1.9179999828  -999.250000 113.87160492 136.17594910 130.90136719 1.1730736494 148.13778687 1.5690000057 0.4553552866 1.2420288324
 1543.3673096 7.0000000000 15.423999786 12.250000954 0.0560000017 0.4965504110 1.9270000458  -999.250000 107.96672821 133.19023132 128.02255249 1.2188678980 148.63319397 1.5900000334 0.5338840485 1.2689567804
 1543.5196533 6.0000000000 15.468999863 12.250000954 0.0439999998 0.5092640519 1.9379999638  -999.250000 112.12166595 130.76251221 125.46566010 1.1639615297 147.88619995 1.7089999914 0.7284525037 1.3408269882
 1543.6721191 6.0000000000 16.097000122 12.250000954 0.0489999987 0.4893125296 1.9769999981  -999.250000 114.17436218 130.39627075 125.21414948 1.1400023699 147.39358521 1.8129999638 0.5864765644 1.4068942070
 1543.8244629 6.0000000000 16.325000763 12.250000954 0.0500000007 0.4722238481 2.0269999504  -999.250000 119.23394012 132.13690186 126.95797729 1.1412628889 148.88299561 1.7339999676 0.4950171709 1.3431025743
 1543.9768066 6.0000000000 15.923000336 12.250000954 0.0359999985 0.5019480586 1.9939999580  -999.250000 116.87878418 134.10040283 128.73007202 1.3051425219 148.88699341 1.5709999800 0.5541696548 1.2671824694
 1544.1292725 6.0000000000 16.025999069 12.250000954 0.0089999996 0.4995106161 1.9090000391  -999.250000 120.85880280 134.21421814 128.97215271 1.3940672874 148.88400269 1.6660000086 0.4680311978 1.2839727402
 1544.2816162 6.0000000000 16.259000778 12.250000954 0.0120000001 0.4877759814 1.9179999828  -999.250000 119.25557709 133.14649963 127.92523956 1.4219664335 147.63940430 1.6449999809 0.4942398071 1.3029543161
 1544.4340820 6.0000000000 15.765999794 12.250000954 0.0320000015 0.4702776074 1.9730000496  -999.250000 116.45323944 132.23472595 126.97841644 1.4009543657 147.88600159 1.8279999495 0.4681035876 1.4248044491
 1544.5864258 6.0000000000 15.522999763 12.250000954 0.0710000023 0.4673052728 2.0799999237  -999.250000 116.06362152 131.96231079 126.78131104 1.3819695711 147.88659668 1.7319999933 0.5361480117 1.3831008673
 1544.7388916 6.0000000000 15.904000282 12.250000954 0.0689999983 0.4863311648 2.0610001087  -999.250000 116.06199646 132.37510681 127.07324982 1.3630745411 147.63818359 1.8279999495 0.5982143879 1.3959791660
