# LAS format log file from PETREL
# Project units are specified as depth units
#==================================================================
~Version information
VERS.   2.0:
WRAP.   NO:
#==================================================================
~Well
STRT .m      349.62512207 :
STOP .m      2379.4997559 :
STEP .m     0.00000000 :
NULL .        -999.250000 :
COMP.           : COMPANY
WELL.  31/3-1   : WELL
FLD.            : FIELD
LOC.            : LOCATION
SRVC.           : SERVICE COMPANY
DATE.  2018-09-11 14:48:35   : Log Export Date {yyyy-MM-dd HH:mm:ss}
PROV.           : PROVINCE
UWI.   31/3-1   : UNIQUE WELL ID
API.            : API NUMBER
#==================================================================
~Curve
DEPT .m                   : DEPTH
Lithology_geolink ._      : Lithology_geolink
CALI .in                  : CALI
BS .in                    : BS
DRHO .g/cm3               : DRHO
NPHI .m3/m3               : NPHI
RHOB .g/cm3               : RHOB
GR .gAPI                  : GR
DTC .us/ft                : DTC
DTE .us/ft                : DTE
RDEP .ohm.m               : RDEP
SP .mV                    : SP
RSHA .ohm.m               : RSHA
RMIC .ohm.m               : RMIC
RMED .ohm.m               : RMED
~Parameter
#==================================================================
~Ascii
# ...
 1974.2497559 2.0000000000 8.3500003815 8.5000000000 -0.017999999 0.2503400147 2.1949980259 53.333999634 97.855232239 95.080085754 0.5510116816 -3.674000025 1.0089999437  -999.250000 1.0089999437
 1974.3748779 2.0000000000 8.3590002060 8.5000000000 -0.015000000 0.2493000031 2.1944365501 51.317001343 98.287689209 95.522911072 0.5509999990 -2.448999882 1.0019999743  -999.250000 1.0019999743
 1974.4998779 2.0000000000 8.3669996262 8.5000000000 -0.010000000 0.2496600002 2.1960079670 50.054000854 98.674293518 95.983757019 0.5549960732 -1.205000043 0.9990000129  -999.250000 0.9990000129
 1974.6248779 2.0000000000 8.3730001450 8.5000000000 -0.006000000 0.2495700121 2.1981396675 49.652000427 99.032653809 96.423530579 0.5619931221 -0.241999999 1.0010000467  -999.250000 1.0010000467
 1974.7498779 2.0000000000 8.3739995956 8.5000000000 -0.008000000 0.2474099994 2.1976928711 50.188869476 99.120079041 96.438156128 0.5739882588 0.2169999927 1.0050009489  -999.250000 1.0050009489
 1974.8748779 2.0000000000 8.3739995956 8.5000000000 -0.011000000 0.2442300022 2.1959948540 51.080684662 98.540466309 95.798789978 0.5899843574 0.2860000134 1.0060000420  -999.250000 1.0060000420
 1974.9998779 2.0000000000 8.3710002899 8.5000000000 -0.014000000 0.2409799993 2.1947803497 51.779075623 97.186256409 94.433120728 0.6099804640 0.0309999995 1.0060049295  -999.250000 1.0060049295
 1975.1247559 2.0000000000 8.3680000305 8.5000000000 -0.014000000 0.2383725494 2.1952781677 51.855998993 95.157722473 92.442031860 0.6309794784 -0.367000014 1.0110000372  -999.250000 1.0110000372
 1975.2497559 2.0000000000 8.3640003204 8.5000000000 -0.012000000 0.2357700020 2.1979041100 51.577999115 92.747657776 90.087562561 0.6499814391 -0.857999980 1.0290000439  -999.250000 1.0290000439
 1975.3747559 2.0000000000 8.3599996567 8.5000000000 -0.009000000 0.2329799980 2.2021672726 51.284999847 90.535682678 87.790000916 0.6679648757 -1.478000045 1.0700000525  -999.250000 1.0700000525
 1975.4997559 2.0000000000 8.3590002060 8.5000000000 -0.008000000 0.2306800038 2.2068409920 51.082000732 88.534858704 85.748504639 0.6849668026 -2.121000051 1.1189999580  -999.250000 1.1189999580
 1975.6248779 2.0000000000 8.3610000610 8.5000000000 -0.007000000 0.2299600095 2.2113521099 51.020000458 86.909812927 84.119720459 0.7059794664 -2.345999956 1.1510000229  -999.250000 1.1510000229
 1975.7498779 2.0000000000 8.3649997711 8.5000000000 -0.006000000 0.2322899997 2.2150576115 51.215000153 85.930053711 83.218711853 0.7299765944 -1.809999943 1.1430000067  -999.250000 1.1430000067
 1975.8748779 2.0000000000 8.3690004349 8.5000000000 -0.004000000 0.2374899983 2.2172577381 52.081939697 86.030227661 83.439483643 0.7569736838 -0.592999995 1.1030000448  -999.250000 1.1030000448
 1975.9998779 2.0000000000 8.3690004349 8.5000000000 -0.001000000 0.2457199991 2.2170116901 54.065727234 88.099861145 85.344253540 0.7839736342 0.8410000205 1.0569765568  -999.250000 1.0569765568
 1976.1248779 2.0000000000 8.3660001755 8.5000000000 0.0010000000 0.2557200193 2.2143437862 56.857727051 91.590858459 88.820007324 0.8079766035 1.8400000334 1.0330009460  -999.250000 1.0330009460
 1976.2497559 2.0000000000 8.3590002060 8.5000000000 0.0019990236 0.2655004263 2.2111380100 59.648998260 95.118522644 92.381050110 0.8279804587 1.8569999933 1.0340000391  -999.250000 1.0340000391
 1976.3747559 2.0000000000 8.3520002365 8.5000000000 0.0000000000 0.2735399902 2.2082381248 61.780998230 98.037712097 95.304878235 0.8469814658 1.1749999523 1.0520000458  -999.250000 1.0520000458
 1976.4997559 2.0000000000 8.3450002670 8.5000000000 -0.002000000 0.2781200111 2.2062830925 63.018001556 99.925704956 97.212760925 0.8679590225 0.2419999987 1.0729999542  -999.250000 1.0729999542
 1976.6247559 2.0000000000 8.3380002975 8.5000000000 -0.004000000 0.2780700028 2.2056853771 63.858001709 100.67158508 98.094886780 0.8929511905 -0.566999972 1.0900000334  -999.250000 1.0900000334
 1976.7498779 2.0000000000 8.3330001831 8.5000000000 -0.005000000 0.2738800049 2.2068350315 64.847999573 100.96537018 98.274185181 0.9219716787 -1.253000021 1.1050000191  -999.250000 1.1050000191
 1976.8748779 2.0000000000 8.3290004730 8.5000000000 -0.007000000 0.2678099871 2.2083342075 66.293998718 100.98060608 98.253623962 0.9519706964 -1.860999942 1.1189999580  -999.250000 1.1189999580
 1976.9998779 2.0000000000 8.3280000687 8.5000000000 -0.009000000 0.2626000047 2.2091612816 67.953002930 100.88471985 98.117286682 0.9789736271 -2.381999969 1.1339999437  -999.250000 1.1339999437
 1977.1248779 2.0000000000 8.3280000687 8.5000000000 -0.011000000 0.2597399950 2.2088170052 69.463012695 100.57642365 97.838470459 0.9999794960 -2.755000114 1.1510165930  -999.250000 1.1510165930
 1977.2498779 2.0000000000 8.3310003281 8.5000000000 -0.014000000 0.2596899867 2.2073242664 70.503669739 99.997253418 97.349670410 1.0099902153 -2.740000010 1.1680155993  -999.250000 1.1680155993
 1977.3747559 2.0000000000 8.3360004425 8.5000000000 -0.014999023 0.2610586584 2.2054405212 71.190002441 99.313011169 96.552154541 1.0129970312 -2.375000000 1.1840000153  -999.250000 1.1840000153
 1977.4997559 2.0000000000 8.3420000076 8.5000000000 -0.014000977 0.2621899843 2.2061226368 71.661003113 97.831268311 95.119514465 1.0080049038 -1.674000025 1.2000000477  -999.250000 1.2000000477
 1977.6247559 2.0000000000 8.3479995728 8.5000000000 -0.010000000 0.2620400190 2.2104735374 72.039001465 95.932975769 93.214881897 0.9980098009 -0.824000001 1.2150000334  -999.250000 1.2150000334
 1977.7497559 2.0000000000 8.3520002365 8.5000000000 -0.005000000 0.2610300183 2.2180514336 72.210998535 93.719978333 91.044921875 0.9850254059 0.0089999996 1.2300000191  -999.250000 1.2300000191
 1977.8748779 2.0000000000 8.3529996872 8.5000000000 0.0000000000 0.2595700026 2.2276761532 71.975997925 91.485832214 88.848495483 0.9700146914 0.7360000014 1.2460000515  -999.250000 1.2460000515
 1977.9998779 2.0000000000 8.3520002365 8.5000000000 0.0030000000 0.2576099932 2.2375824451 71.421997070 89.603881836 86.878623962 0.9570127130 1.3760000467 1.2630000114  -999.250000 1.2630000114
 1978.1248779 2.0000000000 8.3479995728 8.5000000000 0.0040000002 0.2551000118 2.2452132702 70.682998657 88.174957275 85.429679871 0.9470098019 1.9780001640 1.2790000439  -999.250000 1.2790000439
 1978.2498779 2.0000000000 8.3450002670 8.5000000000 0.0030000000 0.2531599998 2.2484185696 69.954437256 87.404098511 84.672576904 0.9400068521 2.4909999371 1.2920000553  -999.250000 1.2920000553
 1978.3748779 2.0000000000 8.3409996033 8.5000000000 0.0010000000 0.2536000013 2.2487006187 69.375709534 87.304145813 84.560554504 0.9380019903 2.8210000992 1.3030087948  -999.250000 1.3030087948
 1978.4998779 5.0000000000 8.3380002975 8.5000000000 -0.001000000 0.2572699785 2.2475428581 69.082023621 87.848068237 85.150352478 0.9429951310 2.8310000896 1.3120079041  -999.250000 1.3120079041
 1978.6247559 5.0000000000 8.3350000381 8.5000000000 -0.001999024 0.2633939981 2.2466580868 69.109001160 89.044761658 86.433296204 0.9529902339 2.6170001030 1.3200000525  -999.250000 1.3200000525
 1978.7497559 5.0000000000 8.3299999237 8.5000000000 0.0000000000 0.2689299881 2.2478437424 69.390998840 91.002693176 88.302581787 0.9689843655 2.3789999485 1.3289999962  -999.250000 1.3289999962
 1978.8747559 5.0000000000 8.3260002136 8.5000000000 0.0060000001 0.2715300024 2.2553045750 69.849998474 93.117347717 90.365348816 0.9909570813 2.3699998856 1.3400000334  -999.250000 1.3400000334
 1978.9997559 5.0000000000 8.3219995499 8.5000000000 0.0140000004 0.2719500065 2.2663176060 70.399002075 94.856445313 92.108428955 1.0149531364 2.6659998894 1.3589999676  -999.250000 1.3589999676
 1979.1248779 5.0000000000 8.3210000992 8.5000000000 0.0209999997 0.2724899948 2.2778840065 71.237998962 96.080902100 93.371208191 1.0409746170 3.1960000992 1.3890000582  -999.250000 1.3890000582
 1979.2498779 5.0000000000 8.3199996948 8.5000000000 0.0219999999 0.2746500075 2.2872595787 72.515998840 96.821006775 94.125450134 1.0709706545 3.8340001106 1.4309999943  -999.250000 1.4309999943
