# LAS format log file from PETREL
# Project units are specified as depth units
#==================================================================
~Version information
VERS.   2.0:
WRAP.   NO:
#==================================================================
~Well
STRT .m      349.62512207 :
STOP .m      2379.4997559 :
STEP .m     0.00000000 :
NULL .        -999.250000 :
COMP.           : COMPANY
WELL.  31/3-1   : WELL
FLD.            : FIELD
LOC.            : LOCATION
SRVC.           : SERVICE COMPANY
DATE.  2018-09-11 14:48:35   : Log Export Date {yyyy-MM-dd HH:mm:ss}
PROV.           : PROVINCE
UWI.   31/3-1   : UNIQUE WELL ID
API.            : API NUMBER
#==================================================================
~Curve
DEPT .m                   : DEPTH
Lithology_geolink ._      : Lithology_geolink
CALI .in                  : CALI
BS .in                    : BS
DRHO .g/cm3               : DRHO
NPHI .m3/m3               : NPHI
RHOB .g/cm3               : RHOB
GR .gAPI                  : GR
DTC .us/ft                : DTC
DTE .us/ft                : DTE
RDEP .ohm.m               : RDEP
SP .mV                    : SP
RSHA .ohm.m               : RSHA
RMIC .ohm.m               : RMIC
RMED .ohm.m               : RMED
~Parameter
#==================================================================
~Ascii
# ...
 903.12500000 6.0000000000 18.062999725  -999.250000 -0.018988287  -999.250000 2.1196227074 85.060501099 138.37420654 132.42509460 1.0879844427 81.961997986 1.0809736252  -999.250000 1.0809736252
 903.25006104 6.0000000000 18.059000015  -999.250000 -0.011003906  -999.250000 2.0949230194 88.645980835 139.69821167 133.81286621 1.0719751120 81.218002319 1.0539692640  -999.250000 1.0539692640
 903.37506104 6.0000000000 18.072999954  -999.250000 0.0059916992  -999.250000 2.0901329517 92.728981018 142.56153870 136.59086609 1.0549764633 80.444000244 1.0329809189  -999.250000 1.0329809189
 903.50000000 6.0000000000 18.097999573  -999.250000 0.0199931599  -999.250000 2.0950624943 95.789138794 145.72428894 139.79530334 1.0389941931 79.807998657 1.0199970007  -999.250000 1.0199970007
 903.62500000 6.0000000000 18.122999191  -999.250000 0.0299951173  -999.250000 2.1050291061 96.949394226 148.72441101 142.80744934 1.0269969702 79.422996521 1.0139981508  -999.250000 1.0139981508
 903.75000000 6.0000000000 18.142999649  -999.250000 0.0389912166  -999.250000 2.1180167198 96.333625793 151.06921387 145.10505676 1.0210019350 79.285003662 1.0119999647  -999.250000 1.0119999647
 903.87506104 6.0000000000 18.156999588  -999.250000 0.0519936532  -999.250000 2.1350679398 94.930328369 152.16839600 146.31451416 1.0230102539 79.311996460 1.0120043755  -999.250000 1.0120043755
 904.00000000 6.0000000000 18.167999268  -999.250000 0.0659863278  -999.250000 2.1578671932 93.792671204 152.21620178 146.25053406 1.0300053358 79.376998901 1.0150034428  -999.250000 1.0150034428
 904.12500000 6.0000000000 18.180000305  -999.250000 0.0729965791  -999.250000 2.1765732765 93.571594238 151.59530640 145.66989136 1.0410063267 79.433998108 1.0220034122  -999.250000 1.0220034122
 904.25000000 6.0000000000 18.194999695  -999.250000 0.0690039024  -999.250000 2.1854391098 94.181007385 150.78477478 144.86373901 1.0540072918 79.494003296 1.0290039778  -999.250000 1.0290039778
 904.37506104 6.0000000000 18.211000443  -999.250000 0.0580053702  -999.250000 2.1841144562 95.214378357 149.88156128 143.97775269 1.0690205097 79.566001892 1.0329985619  -999.250000 1.0329985619
 904.50006104 6.0000000000 18.228000641  -999.250000 0.0510034189  -999.250000 2.1763722897 96.156867981 148.90531921 143.09387207 1.0830204487 79.637001038 1.0319955349  -999.250000 1.0319955349
 904.62500000 6.0000000000 18.246000290  -999.250000 0.0509999990  -999.250000 2.1707975864 96.748008728 148.22128296 142.30178833 1.0970058441 79.685997009 1.0290000439  -999.250000 1.0290000439
 904.75000000 6.0000000000 18.263999939  -999.250000 0.0549980476  -999.250000 2.1735229492 96.754432678 147.71844482 141.76853943 1.1090039015 79.686996460 1.0290049314  -999.250000 1.0290049314
 904.87500000 6.0000000000 18.281000137  -999.250000 0.0549999997  -999.250000 2.1772348881 96.173027039 147.19444275 141.32926941 1.1170067787 79.619003296 1.0340088606  -999.250000 1.0340088606
 905.00006104 6.0000000000 18.295000076  -999.250000 0.0510019511  -999.250000 2.1782341003 95.170028687 146.58404541 140.69694519 1.1240087748 79.485000610 1.0430102348  -999.250000 1.0430102348
 905.12506104 6.0000000000 18.313999176  -999.250000 0.0470019504  -999.250000 2.1759760380 93.826164246 145.56794739 139.59593201 1.1300088167 79.303001404 1.0500087738  -999.250000 1.0500087738
 905.25000000 6.0000000000 18.341999054  -999.250000 0.0499985367  -999.250000 2.1732146740 92.372711182 143.63032532 137.81227112 1.1360039711 79.129997253 1.0560004711  -999.250000 1.0560004711
 905.37500000 6.0000000000 18.385000229  -999.250000 0.0569965802  -999.250000 2.1754291058 91.052330017 141.08825684 135.17036438 1.1440039873 79.025001526 1.0570000410  -999.250000 1.0570000410
 905.50000000 6.0000000000 18.440000534  -999.250000 0.0609960966  -999.250000 2.1775753498 90.368095398 138.05789185 132.21607971 1.1520057917 79.060997009 1.0569990873  -999.250000 1.0569990873
 905.62506104 6.0000000000 18.497999191  -999.250000 0.0570019521  -999.250000 2.1756815910 90.468582153 135.40776062 129.50016785 1.1579985619 79.208999634 1.0559955835  -999.250000 1.0559955835
 905.75000000 6.0000000000 18.547000885  -999.250000 0.0480087884  -999.250000 2.1702206135 91.545494080 133.40910339 127.44581604 1.1569936275 79.401000977 1.0529994965  -999.250000 1.0529994965
 905.87500000 6.0000000000 18.576000214  -999.250000 0.0450014658  -999.250000 2.1640703678 93.250846863 132.18940735 126.32417297 1.1439878941 79.507003784 1.0519995689  -999.250000 1.0519995689
 906.00000000 6.0000000000 18.579000473  -999.250000 0.0479970723  -999.250000 2.1621840000 95.144500732 132.13511658 126.21131134 1.1189848185 79.436996460 1.0509999990  -999.250000 1.0509999990
 906.12506104 6.0000000000 18.555999756  -999.250000 0.0519980490  -999.250000 2.1646888256 96.685424805 131.99761963 126.17185974 1.0879560709 79.166000366 1.0509985685  -999.250000 1.0509985685
 906.25006104 6.0000000000 18.525999069  -999.250000 0.0520000011  -999.250000 2.1648557186 97.660507202 131.16758728 125.25863647 1.0579692125 78.764999390 1.0499926805  -999.250000 1.0499926805
 906.37500000 6.0000000000 18.510999680  -999.250000 0.0440039076  -999.250000 2.1597878933 98.001708984 129.28297424 123.31596375 1.0369955301 78.303001404 1.0449955463  -999.250000 1.0449955463
 906.50000000 6.0000000000 18.520999908  -999.250000 0.0320058614  -999.250000 2.1487996578 97.801597595 126.49729156 120.57333374 1.0279999971 77.835998535 1.0359873772  -999.250000 1.0359873772
 906.62500000 6.0000000000 18.549999237  -999.250000 0.0210107360  -999.250000 2.1334841251 97.386535645 123.46141815 117.60231018 1.0280088186 77.373001099 1.0229853392  -999.250000 1.0229853392
 906.75006104 6.0000000000 18.577999115  -999.250000 0.0200004876  -999.250000 2.1193699837 96.911231995 121.50507355 115.54707336 1.0370146036 76.894996643 1.0079839230  -999.250000 1.0079839230
 906.87506104 6.0000000000 18.587999344  -999.250000 0.0329936519  -999.250000 2.1191639900 96.382499695 120.59310913 114.68580627 1.0470088720 76.404998779 0.9969926476  -999.250000 0.9969926476
 907.00000000 6.0000000000 18.586000443  -999.250000 0.0639848560  -999.250000 2.1381323338 95.614318848 120.95317078 115.05906677 1.0529999733 75.935997009 0.9920024276  -999.250000 0.9920024276
 907.12500000 6.0000000000 18.586999893  -999.250000 0.1019814461  -999.250000 2.1730556488 94.467781067 122.77944946 116.91549683 1.0529969931 75.542999268 0.9970107079  -999.250000 0.9970107079
 907.25000000 6.0000000000 18.607999802  -999.250000 0.1259765774  -999.250000 2.2135210037 93.219238281 126.23307037 120.42597198 1.0469932556 75.253997803 1.0080097914  -999.250000 1.0080097914
 907.37506104 6.0000000000 18.653999329  -999.250000 0.1200029254  -999.250000 2.2408466339 92.435325623 131.51525879 125.59089661 1.0399926901 75.059997559 1.0180029869  -999.250000 1.0180029869
 907.50000000 6.0000000000 18.715999603  -999.250000 0.0910283178  -999.250000 2.2263858318 92.660919189 137.08056641 131.24142456 1.0350004435 74.888000488 1.0199955702  -999.250000 1.0199955702
 907.62500000 6.0000000000 18.781999588  -999.250000 0.0590156317  -999.250000 2.1930482388 93.974990845 141.75753784 135.82942200 1.0360039473 74.672996521 1.0109921694  -999.250000 1.0109921694
 907.75000000 6.0000000000 18.854000092  -999.250000 0.0470058583  -999.250000 2.1593587399 96.013031006 144.90588379 138.97782898 1.0440053940 74.370002747 0.9949843884  -999.250000 0.9949843884
 907.87506104 6.0000000000 18.936000824  -999.250000 0.0549960956  -999.250000 2.1366350651 98.090194702 146.69024658 140.82328796 1.0550174713 74.026000977 0.9789838791  -999.250000 0.9789838791
 908.00006104 6.0000000000 19.030000687  -999.250000 0.0679936558  -999.250000 2.1284911633 99.589126587 147.76849365 141.85783386 1.0670175552 73.696998596 0.9679926634  -999.250000 0.9679926634
 908.12500000 6.0000000000 19.128999710  -999.250000 0.0779951140  -999.250000 2.1284093857 100.36123657 148.45288086 142.65341187 1.0790039301 73.425003052 0.9630004764  -999.250000 0.9630004764
