# LAS format log file from PETREL
# Project units are specified as depth units
#==================================================================
~Version information
VERS.   2.0:
WRAP.   NO:
#==================================================================
~Well
STRT .m      433.43811035 :
STOP .m      2093.8361816 :
STEP .m     0.00000000 :
NULL .        -999.250000 :
COMP.           : COMPANY
WELL.  31/3-2   : WELL
FLD.            : FIELD
LOC.            : LOCATION
SRVC.           : SERVICE COMPANY
DATE.  2018-09-11 14:48:35   : Log Export Date {yyyy-MM-dd HH:mm:ss}
PROV.           : PROVINCE
UWI.   31/3-2   : UNIQUE WELL ID
API.            : API NUMBER
#==================================================================
~Curve
DEPT .m                   : DEPTH
Lithology_geolink ._      : Lithology_geolink
CALI .in                  : CALI
BS .in                    : BS
DRHO .g/cm3               : DRHO
NPHI .m3/m3               : NPHI
RHOB .g/cm3               : RHOB
PEF .b/e                  : PEF
GR .gAPI                  : GR
DTC .us/ft                : DTC
DTE .us/ft                : DTE
RDEP .ohm.m               : RDEP
SP .mV                    : SP
RSHA .ohm.m               : RSHA
RMIC .ohm.m               : RMIC
RMED .ohm.m               : RMED
~Parameter
#==================================================================
~Ascii
# ...
 1865.8457031 2.0000000000 12.000000000 12.250000954 -0.010999199 0.3281203806 2.1520030499  -999.250000 68.508987427 106.38282776 106.35736847 0.5140176415 185.63928223 0.6034250259  -999.250000 0.5229687691
 1865.9981689 2.0000000000 12.000000000 12.250000954 -0.010000000 0.3285834193 2.1560254097  -999.250000 69.743011475 105.63081360 105.69145203 0.5250359774 186.34980774 0.6319329739  -999.250000 0.5419695377
 1866.1505127 2.0000000000 12.000000000 12.250000954 -0.010002404 0.3120045364 2.1720046997  -999.250000 74.485198975 104.95214081 104.99929810 0.5400368571 185.35879517 0.6499300003  -999.250000 0.5539807677
 1866.3028564 2.0000000000 12.000000000 12.250000954 -0.013001601 0.3051930964 2.1780064106  -999.250000 74.000785828 103.92726898 103.85333252 0.5630144477 185.60600281 0.6284930110  -999.250000 0.5410312414
 1866.4553223 2.0000000000 12.000000000 12.250000954 -0.015001602 0.3090746999 2.1860058308  -999.250000 73.315551758 102.52209473 102.57479095 0.5720240474 185.60520935 0.6177999973  -999.250000 0.5340111852
 1866.6076660 2.0000000000 12.000000000 12.250000954 -0.016997598 0.3149271607 2.1930129528  -999.250000 68.632507324 101.47709656 101.47516632 0.5820336938 185.35832214 0.6284949780  -999.250000 0.5369927883
 1866.7601318 2.0000000000 12.000000000 12.250000954 -0.013995994 0.2988821268 2.2090032101  -999.250000 67.755691528 100.18105316 100.18154907 0.6029591560 186.31782532 0.6178190112  -999.250000 0.5290127993
 1866.9124756 2.0000000000 12.000000000 12.250000954 -0.009000801 0.2890839279 2.2130031586  -999.250000 68.870216370 98.990921021 99.015426636 0.5859776139 185.63960266 0.5868340135  -999.250000 0.5090480447
 1867.0649414 2.0000000000 12.000000000 12.250000954 -0.010000000 0.2939487994 2.2170104980  -999.250000 67.376197815 98.447052002 98.456558228 0.5719543695 185.88778687 0.5927199721  -999.250000 0.5149903893
 1867.2172852 2.0000000000 12.000000000 12.250000954 -0.010003204 0.2924792171 2.2300112247  -999.250000 68.184349060 98.685668945 98.650878906 0.5529646873 186.13540649 0.6724089980  -999.250000 0.5748558640
 1867.3697510 2.0000000000 12.000000000 12.250000954 -0.013996798 0.2914844453 2.2439663410  -999.250000 62.544521332 99.299255371 99.252700806 0.5309951901 185.88619995 0.7346929908  -999.250000 0.6029551029
 1867.5220947 2.0000000000 12.000000000 12.250000954 -0.012002404 0.2817803621 2.2229704857  -999.250000 65.542587280 99.946342468 99.961479187 0.5290079713 185.63560486 0.6421470046  -999.250000 0.5531200767
 1867.6745605 2.0000000000 12.000000000 12.250000954 -0.015001601 0.2822049260 2.1859681606  -999.250000 64.005233765 100.59236908 100.55208588 0.5339735746 184.64060974 0.5500569940  -999.250000 0.4781201780
 1867.8269043 2.0000000000 12.000000000 12.250000954 -0.015999200 0.2665698826 2.1660029888  -999.250000 63.688251495 100.48995972 100.54547882 0.5229631662 185.13301086 0.5462660193  -999.250000 0.4730120003
 1867.9793701 2.0000000000 12.000000000 12.250000954 -0.014988790 0.2539258599 2.1700160503  -999.250000 59.458389282 99.841438293 99.788391113 0.4999687672 183.89358521 0.5498239994  -999.250000 0.4739983976
 1868.1317139 2.0000000000 12.000000000 12.250000954 -0.007997597 0.2451231033 2.1800017357  -999.250000 61.401439667 99.195999146 99.283248901 0.4869839549 184.38839722 0.5462740064  -999.250000 0.4710047841
 1868.2840576 2.0000000000 12.000000000 12.250000954 -0.005000800 0.2490229160 2.1819982529  -999.250000 65.598274231 99.162086487 99.297248840 0.4769904017 185.13293457 0.5344250202  -999.250000 0.4630192220
 1868.4365234 2.0000000000 12.000000000 12.250000954 -0.006004808 0.2651447058 2.1799952984  -999.250000 68.054039001 99.218803406 99.271850586 0.4709999859 185.10679626 0.5296210051  -999.250000 0.4580080211
 1868.5888672 2.0000000000 12.000000000 12.250000954 -0.012004804 0.2710050642 2.1739983559  -999.250000 70.933387756 99.332710266 99.350036621 0.4710047841 185.35600281 0.5272309780  -999.250000 0.4550072253
 1868.7413330 2.0000000000 12.000000000 12.250000954 -0.018003205 0.2773121893 2.1720016003  -999.250000 70.875053406 99.707420349 99.706909180 0.4739975929 185.35760498 0.5189399719  -999.250000 0.4490096271
 1868.8936768 2.0000000000 12.000000000 12.250000954 -0.021998398 0.2675893605 2.1739983559  -999.250000 74.556091309 100.18479156 100.26428986 0.4729871750 185.85540771 0.5129619837  -999.250000 0.4450095892
 1869.0461426 2.0000000000 12.000000000 12.250000954 -0.019996794 0.2792640924 2.1719968319  -999.250000 72.574592590 100.69361877 100.66094208 0.4649735689 185.60848999 0.5153269768  -999.250000 0.4459984004
 1869.1984863 2.0000000000 12.000000000 12.250000954 -0.015999200 0.2968636453 2.1679952145  -999.250000 73.933906555 100.31987000 100.41066742 0.4539823532 186.07521057 0.5283929706  -999.250000 0.4559759796
 1869.3509521 2.0000000000 12.000000000 12.250000954 -0.014997596 0.3138820231 2.1620063782  -999.250000 73.438400269 99.909957886 99.829055786 0.4429855645 186.57180786 0.5343739986  -999.250000 0.4619903862
 1869.5032959 2.0000000000 12.000000000 12.250000954 -0.012001603 0.3163835704 2.1699984074  -999.250000 69.891845703 99.297645569 99.342010498 0.4370048046 185.57853699 0.5403010249  -999.250000 0.4649927914
 1869.6557617 2.0000000000 12.000000000 12.250000954 -0.013996798 0.2958773971 2.1679999828  -999.250000 69.937965393 98.923767090 99.003318787 0.4400312304 185.38459778 0.5331860185  -999.250000 0.4590096176
 1869.8081055 2.0000000000 12.000000000 12.250000954 -0.012002404 0.2817972004 2.1679952145  -999.250000 68.509147644 98.752403259 98.708457947 0.4530496895 184.64169312 0.5083510280  -999.250000 0.4400456250
 1869.9605713 2.0000000000 12.000000000 12.250000954 -0.015001601 0.2783528566 2.1619968414  -999.250000 71.801361084 97.728828430 97.804138184 0.4841248989 184.85339355 0.4726650119  -999.250000 0.4140416682
 1870.1129150 2.0000000000 12.000000000 12.250000954 -0.015997596 0.2988311648 2.1600031853  -999.250000 73.498641968 95.615921021 95.495185852 0.5360753536 184.35679626 0.4690200090  -999.250000 0.4179936051
 1870.2653809 5.0000000000 12.000000000 12.250000954 -0.013000000 0.3002798259 2.1640560627  -999.250000 76.921264648 92.517318726 92.489234924 0.5830912590 184.60740662 0.5305629969  -999.250000 0.4838943183
 1870.4177246 5.0000000000 11.982999802 12.250000954 -0.012993590 0.2939394712 2.1990504265  -999.250000 78.745544434 90.939414978 90.945907593 0.6210737228 185.35261536 0.7607430220  -999.250000 0.6527291536
 1870.5700684 5.0000000000 11.953000069 12.250000954 -0.005001601 0.2808099687 2.2620449066  -999.250000 85.021934509 91.977302551 92.009902954 0.6671089530 184.61074829 1.0210000277  -999.250000 0.8535171747
 1870.7225342 5.0000000000 11.951000214 12.250000954 -0.007000000 0.2807623446 2.3180081844  -999.250000 87.492027283 95.184669495 95.236259460 0.7352474332 184.91479492 1.0720000267  -999.250000 0.8909406662
 1870.8748779 5.0000000000 11.965000153 12.250000954 -0.007002402 0.2837001383 2.3279864788  -999.250000 95.175682068 98.243774414 98.158004761 0.8381298184 183.92080688 0.9860090017  -999.250000 0.8351345062
 1871.0273438 5.0000000000 11.968999863 12.250000954 -0.010000000 0.2963619530 2.3109824657  -999.250000 93.881042480 99.469062805 99.423591614 0.9190360308 184.66680908 0.8716149926  -999.250000 0.7511345744
 1871.1796875 5.0000000000 11.970998764 12.250000954 -0.009996797 0.2988311648 2.2889952660  -999.250000 95.185905457 99.536163330 99.535888672 0.9339743853 184.91900635 0.8149340153  -999.250000 0.6971297264
 1871.3321533 5.0000000000 11.970998764 12.250000954 -0.006000000 0.3002876341 2.2829935551  -999.250000 94.876251221 98.750808716 98.763648987 0.9179183245 184.92060852 0.7899389863  -999.250000 0.6760336757
 1871.4844971 5.0000000000 11.965000153 12.250000954 -0.005997596 0.2973740995 2.2750031948  -999.250000 90.517494202 97.081596375 96.984146118 0.8839455247 185.41641235 0.7671729922  -999.250000 0.6620336175
 1871.6369629 5.0000000000 11.963000298 12.250000954 -0.003003203 0.3149771094 2.2790031433  -999.250000 84.193069458 94.594078064 94.597846985 0.8499207497 185.17060852 0.7730799913  -999.250000 0.6719839573
