# LAS format log file from PETREL
# Project units are specified as depth units
#==================================================================
~Version information
VERS.   2.0:
WRAP.   NO:
#==================================================================
~Well
STRT .m      433.43811035 :
STOP .m      2093.8361816 :
STEP .m     0.00000000 :
NULL .        -999.250000 :
COMP.           : COMPANY
WELL.  31/3-2   : WELL
FLD.            : FIELD
LOC.            : LOCATION
SRVC.           : SERVICE COMPANY
DATE.  2018-09-11 14:48:35   : Log Export Date {yyyy-MM-dd HH:mm:ss}
PROV.           : PROVINCE
UWI.   31/3-2   : UNIQUE WELL ID
API.            : API NUMBER
#==================================================================
~Curve
DEPT .m                   : DEPTH
Lithology_geolink ._      : Lithology_geolink
CALI .in                  : CALI
BS .in                    : BS
DRHO .g/cm3               : DRHO
NPHI .m3/m3               : NPHI
RHOB .g/cm3               : RHOB
PEF .b/e                  : PEF
GR .gAPI                  : GR
DTC .us/ft                : DTC
DTE .us/ft                : DTE
RDEP .ohm.m               : RDEP
SP .mV                    : SP
RSHA .ohm.m               : RSHA
RMIC .ohm.m               : RMIC
RMED .ohm.m               : RMED
~Parameter
#==================================================================
~Ascii
 433.43811035  -999.250000 22.452999115  -999.250000 -0.001010012 0.5029199719 2.6250200272  -999.250000 17.524358749 196.39108276 193.63800049 2000.0000000 47.250885010 515.52899170  -999.250000 467.00399780
 433.59051514  -999.250000 22.452999115  -999.250000 0.0139699643 0.4951300025 2.6429638863  -999.250000 18.201160431 196.40818787 193.63800049 2000.0000000 46.676651001 24.400999069  -999.250000 108.74700165
 433.74291992  -999.250000 22.452999115  -999.250000 0.0239799768 0.4898099899 2.6499860287  -999.250000 18.280065536 196.42778015 193.63800049 2000.0000000 49.925312042 33.905998230  -999.250000 31.069999695
 433.89532471  -999.250000 22.452999115  -999.250000 0.0140180252 0.5355199575 2.6579856873  -999.250000 17.810138702 196.39372253 193.63800049 2000.0000000 51.482501984 30.902999878  -999.250000 352.97900391
 434.04769897  -999.250000 22.452999115  -999.250000 0.0000280336 0.6127899885 2.6560039520  -999.250000 15.885615349 196.43360901 193.63800049 2000.0000000 52.736198425 1997.2320557  -999.250000 1823.2180176
 434.20010376  -999.250000 22.452999115  -999.250000 -0.002993993 0.6881899834 2.6559998989  -999.250000 15.673728943 196.39108276 193.63800049 2000.0000000 53.733139038 52.931999207  -999.250000 264.35000610
 434.35250854  -999.250000 22.452999115  -999.250000 0.0019899881 0.6484900117 2.6520080566  -999.250000 16.081100464 196.40818787 193.63800049 2000.0000000 54.422950745 10.024000168  -999.250000 17.579999924
 434.50491333  -999.250000 22.452999115  -999.250000 0.0119799757 0.6341800094 2.6390259266  -999.250000 18.122257233 196.43359375 193.63800049 2000.0000000 54.174900055 16.266000748  -999.250000 17.850999832
 434.65731812  -999.250000 22.452999115  -999.250000 0.0299639553 0.5660800338 2.6579618454  -999.250000 16.752113342 196.40238953 193.63800049 2000.0000000 53.676898956 30.660999298  -999.250000 26.416000366
 434.80972290  -999.250000 22.452999115  -999.250000 0.0329939909 0.5810499787 2.6639881134  -999.250000 15.311647415 196.41918945 193.63800049 2000.0000000 53.174903870 9.9899997711  -999.250000 10.583000183
 434.96212769  -999.250000 22.452999115  -999.250000 0.0280090142 0.5499200225 2.6759784222  -999.250000 14.137113571 196.40818787 193.63800049 2000.0000000 47.705886841 8.7869997025  -999.250000 9.6590003967
 435.11450195  -999.250000 22.452999115  -999.250000 0.0150260311 0.5615100265 2.6680159569  -999.250000 13.197504044 196.43360901 193.63800049 2000.0000000 49.919502258 13.190999985  -999.250000 11.755000114
 435.26690674  -999.250000 22.452999115  -999.250000 0.0110080093 0.5312500000 2.6640081406  -999.250000 13.474867821 196.39108276 193.63800049 2000.0000000 52.424499512 10.586000443  -999.250000 10.194999695
 435.41931152  -999.250000 22.452999115  -999.250000 0.0109999999 0.5307599902 2.6500282288  -999.250000 12.294816971 196.40818787 193.63800049 2000.0000000 49.935199738 5.7150001526  -999.250000 6.0419998169
 435.57171631  -999.250000 22.452999115  -999.250000 0.0119979978 0.5288100243 2.6460080147  -999.250000 12.702001572 196.43359375 193.63800049 2000.0000000 50.924148560 6.0120000839  -999.250000 6.1329998970
 435.72412109  -999.250000 22.452999115  -999.250000 0.0229779743 0.5273500085 2.6519880295  -999.250000 12.703282356 196.40238953 193.63800049 2000.0000000 51.670253754 7.6040000916  -999.250000 6.7610001564
 435.87652588  -999.250000 22.452999115  -999.250000 0.0409675539 0.5722100139 2.6779530048  -999.250000 12.842264175 196.41918945 193.63800049 2000.0000000 47.934558868 4.6760001183  -999.250000 5.0539999008
 436.02893066  -999.250000 22.452999115  -999.250000 0.0429963954 0.5952500105 2.6819927692  -999.250000 11.975254059 196.39108276 193.63800049 2000.0000000 40.738197327 3.6129999161  -999.250000 3.9660000801
 436.18130493  -999.250000 22.452999115  -999.250000 0.0380100124 0.6273599863 2.6780080795  -999.250000 11.105808258 196.40817261 193.63800049 2000.0000000 41.236751556 5.1620001793  -999.250000 5.1420001984
 436.33370972  -999.250000 22.452999115  -999.250000 0.0070620747 0.6162099838 2.6520519257  -999.250000 11.556409836 196.43360901 193.63800049 2000.0000000 44.982204437 4.5320000648  -999.250000 4.4390001297
 436.48611450  -999.250000 22.452999115  -999.250000 -0.005973969 0.6030799747 2.6450140476  -999.250000 12.891107559 196.40818787 193.63800049 2000.0000000 41.008995056 3.2569999695  -999.250000 3.5490000248
 436.63851929  -999.250000 22.452999115  -999.250000 -0.010989988 0.5864499807 2.6410081387  -999.250000 12.947596550 196.42778015 193.63800049 2000.0000000 40.987598419 3.4270000458  -999.250000 3.4920001030
 436.79092407  -999.250000 22.452999115  -999.250000 0.0019739689 0.5615199804 2.6479859352  -999.250000 14.240036964 196.37661743 193.63800049 2000.0000000 38.987087250 3.9630000591  -999.250000 4.0859999657
 436.94332886  -999.250000 22.452999115  -999.250000 0.0119819753 0.5615199804 2.6599783897  -999.250000 13.262476921 196.40818787 193.63800049 2000.0000000 34.441741943 6.0040001869  -999.250000 6.2740001678
 437.09573364  -999.250000 22.452999115  -999.250000 0.0090054059 0.5752000213 2.6500182152  -999.250000 13.497150421 196.43359375 193.63800049 2000.0000000 31.302780151 11.490060806  -999.250000 9.6289997101
 437.24810791  -999.250000 22.452999115  -999.250000 0.0129919909 0.5498999953 2.6559879780  -999.250000 12.078334808 196.40817261 193.63800049 2000.0000000 28.253746033 6.6493687630  -999.250000 6.9949998856
 437.40051270  -999.250000 22.452999115  -999.250000 0.0130000003 0.5878400207 2.6430258751  -999.250000 12.817467690 196.43360901 193.63800049 2000.0000000 26.989084244 3.4961400032  -999.250000 4.0619997978
 437.55291748  -999.250000 22.452999115  -999.250000 0.0449359231 0.5967400074 2.6819217205  -999.250000 12.521504402 196.38526917 193.63800049 2000.0000000 17.424974442 4.1954226494  -999.250000 4.2129998207
 437.70532227  -999.250000 22.452999115  -999.250000 0.0839219019 0.6366199851 2.7299039364  -999.250000 11.775291443 196.39372253 193.63800049 2000.0000000 17.300910950 6.3043336868  -999.250000 6.2449998856
 437.85772705  -999.250000 22.452999115  -999.250000 0.1279118955 0.5644500256 2.7828938961  -999.250000 11.424114227 196.43359375 193.63800049 2000.0000000 21.857797623 7.9704656601  -999.250000 7.1050000191
 438.01013184  -999.250000 22.452999115  -999.250000 0.1948792189 0.5454800129 2.8398971558  -999.250000 12.479245186 196.40818787 193.63800049 2000.0000000 25.843704224 5.3022346497  -999.250000 5.4460000992
 438.16253662  -999.250000 22.452999115  -999.250000 0.2009891868 0.5073699951 2.8160431385  -999.250000 13.099455833 196.43359375 193.63800049 2000.0000000 30.102905273 3.3918304443  -999.250000 3.5380001068
 438.31491089  -999.250000 22.452999115  -999.250000 0.2179659605 0.5801200271 2.8279759884  -999.250000 12.826724052 196.40817261 193.63800049 2000.0000000 32.362922668 2.9691686630  -999.250000 3.0450000763
 438.46731567  -999.250000 22.452999115  -999.250000 0.1760841012 0.6078400016 2.7890782356  -999.250000 12.120820999 196.43360901 193.63800049 2000.0000000 31.989500046 3.8110582829  -999.250000 3.7160000801
 438.61972046  -999.250000 22.452999115  -999.250000 0.1470580697 0.6743199825 2.7750282288  -999.250000 12.529114723 196.38526917 193.63800049 2000.0000000 34.484149933 4.1018824577  -999.250000 3.9230000973
 438.77212524  -999.250000 22.452999115  -999.250000 0.1200540587 0.6052600145 2.7480540276  -999.250000 12.089650154 196.39372253 193.63800049 2000.0000000 35.234737396 3.5148718357  -999.250000 3.5069999695
 438.92453003  -999.250000 22.452999115  -999.250000 0.1100200266 0.5888900161 2.7460041046  -999.250000 12.911643028 196.43359375 193.63800049 2000.0000000 38.914901733 2.8748917580  -999.250000 2.8780000210
 439.07693481  -999.250000 22.452999115  -999.250000 0.0930306464 0.5332599878 2.7210450172  -999.250000 12.733345032 196.40818787 193.63800049 2000.0000000 38.422630310 2.3342728615  -999.250000 2.4790000916
 439.22930908  -999.250000 22.452999115  -999.250000 0.1049759686 0.5765500069 2.7379658222  -999.250000 12.405099869 196.43360901 193.63800049 2000.0000000 32.512596130 3.0150525570  -999.250000 2.9330000877
