# LAS format log file from PETREL
# Project units are specified as depth units
#==================================================================
~Version information
VERS.   2.0:
WRAP.   NO:
#==================================================================
~Well
STRT .m      793.37487793 :
STOP .m      2575.0000000 :
STEP .m     0.00000000 :
NULL .        -999.250000 :
COMP.           : COMPANY
WELL.  31/3-3   : WELL
FLD.            : FIELD
LOC.            : LOCATION
SRVC.           : SERVICE COMPANY
DATE.  2018-09-11 14:48:36   : Log Export Date {yyyy-MM-dd HH:mm:ss}
PROV.           : PROVINCE
UWI.   31/3-3   : UNIQUE WELL ID
API.            : API NUMBER
#==================================================================
~Curve
DEPT .m                   : DEPTH
Lithology_geolink ._      : Lithology_geolink
CALI .in                  : CALI
BS .in                    : BS
DRHO .g/cm3               : DRHO
NPHI .m3/m3               : NPHI
RHOB .g/cm3               : RHOB
GR .gAPI                  : GR
DTC .us/ft                : DTC
DTE .us/ft                : DTE
RDEP .ohm.m               : RDEP
SP .mV                    : SP
RSHA .ohm.m               : RSHA
RMED .ohm.m               : RMED
~Parameter
#==================================================================
~Ascii
# ...
 1860.3748779 2.0000000000 12.220000267 12.250000954 0.0250000004 0.2256699950 2.2300000191 44.135177612 97.882072449 98.740509033 0.6878652573 31.221971512 1.4289863110 1.4289863110
 1860.5000000 2.0000000000 12.220000267 12.250000954 0.0160000008 0.2109799981 2.2520000935 44.392749786 97.005004883 97.780883789 0.7789111137 32.247001648 1.5179131031 1.5179131031
 1860.6250000 2.0000000000 12.220000267 12.250000954 0.0000000000 0.2023500055 2.2799999714 44.184204102 95.579162598 96.273063660 0.8918896914 33.126140594 1.7487744093 1.7487744093
 1860.7500000 2.0000000000 12.218000412 12.250000954 -0.016000001 0.1999799907 2.3180000782 43.326000214 93.238677979 93.990104675 1.0260000229 33.820999146 2.1919999123 2.1919999123
 1860.8750000 2.0000000000 12.216000557 12.250000954 -0.024000000 0.2021899968 2.3619999886 42.018001556 89.741172791 90.614830017 1.1770000458 34.338001251 2.9419999123 2.9419999123
 1861.0000000 2.0000000000 12.213999748 12.250000954 -0.015000000 0.2087000012 2.3989999294 40.830001831 85.929756165 86.647956848 1.3450000286 34.758998871 3.7660000324 3.7660000324
 1861.1250000 2.0000000000 12.211999893 12.250000954 0.0030000000 0.2191500068 2.4210000038 39.988998413 82.185028076 82.840339661 1.5260000229 35.172000885 4.2090001106 4.2090001106
 1861.2498779 16.000000000 12.210000038 12.250000954 0.0209999997 0.2319700122 2.4240000248 39.507469177 79.290122986 79.921768188 1.7208095789 35.700485229 4.0801258087 4.0801258087
 1861.3748779 16.000000000 12.208000183 12.250000954 0.0329999998 0.2456699908 2.4130001068 39.538970947 77.966346741 78.508407593 1.9168086052 36.573150635 3.7143573761 3.7143573761
 1861.4998779 5.0000000000 12.206999779 12.250000954 0.0350000001 0.2605400085 2.3959999084 40.414287567 78.506797791 79.046310425 2.0826759338 37.891426086 3.4395365715 3.4395365715
 1861.6248779 5.0000000000 12.206999779 12.250000954 0.0309999995 0.2753700018 2.3810000420 42.563796997 80.671920776 81.322250366 2.2017674446 39.676513672 3.2982754707 3.2982754707
 1861.7500000 5.0000000000 12.208999634 12.250000954 0.0250000004 0.2877199948 2.3719999790 46.139511108 83.505752563 84.236038208 2.2689347267 41.800930023 3.2540428638 3.2540428638
 1861.8750000 5.0000000000 12.211999893 12.250000954 0.0199999996 0.2971099913 2.3689999580 50.872001648 86.392913818 87.127746582 2.2809998989 43.998001099 3.2720000744 3.2720000744
 1862.0000000 5.0000000000 12.213999748 12.250000954 0.0149999997 0.3020800054 2.3729999065 55.646999359 88.825096130 89.514259338 2.2630000114 45.966999054 3.3169999123 3.3169999123
 1862.1250000 5.0000000000 12.213000298 12.250000954 0.0120000001 0.3016900122 2.3789999485 59.686000824 90.447509766 91.117851257 2.2330000401 47.542999268 3.3789999485 3.3789999485
 1862.2500000 6.0000000000 12.211000443 12.250000954 0.0109999999 0.2973099947 2.3849999905 62.464000702 91.132476807 91.876251221 2.2019999027 48.624000549 3.4519999027 3.4519999027
 1862.3748779 6.0000000000 12.208999634 12.250000954 0.0140000004 0.2928200066 2.3900001049 63.533954620 91.396781921 92.093482971 2.1660349369 49.065570831 3.5209324360 3.5209324360
 1862.4998779 6.0000000000 12.208000183 12.250000954 0.0189999994 0.2925300002 2.3929998875 63.470066071 91.318000793 92.002716064 2.1130516529 48.944118500 3.5759463310 3.5759463310
 1862.6248779 6.0000000000 12.210000038 12.250000954 0.0240000002 0.2958499789 2.3910000324 62.768371582 91.034172058 91.736595154 2.0271677971 48.289279938 3.5999531746 3.5999531746
 1862.7498779 6.0000000000 12.211999893 12.250000954 0.0260000005 0.3006300032 2.3840000629 61.881732941 90.692787170 91.416343689 1.8902676105 47.184158325 3.5760469437 3.5760469437
 1862.8750000 6.0000000000 12.213000298 12.250000954 0.0250000004 0.3047400117 2.3750000000 61.153709412 90.399154663 91.164222717 1.7071787119 45.703445435 3.4890849590 3.4890849590
 1863.0000000 6.0000000000 12.211999893 12.250000954 0.0209999997 0.3057599962 2.3619999886 60.585552216 90.297828674 91.132392883 1.5171854496 44.050613403 3.3461396694 3.3461396694
 1863.1250000 6.0000000000 12.211000443 12.250000954 0.0160000008 0.3031600118 2.3469998837 60.009998322 90.544235229 91.310379028 1.3420000076 42.368000031 3.1229999065 3.1229999065
 1863.2500000 5.0000000000 12.210000038 12.250000954 0.0149999997 0.2964900136 2.3259999752 59.251998901 90.992088318 91.716644287 1.1929999590 40.806999207 2.7999999523 2.7999999523
 1863.3750000 5.0000000000 12.208999634 12.250000954 0.0170000009 0.2865599990 2.2980000973 58.307998657 91.634155273 92.364509583 1.0779999495 39.508998871 2.4130001068 2.4130001068
 1863.4998779 5.0000000000 12.210000038 12.250000954 0.0199999996 0.2762299776 2.2660000324 57.259025574 92.523544312 93.250457764 0.9890869260 38.438045502 2.0593457222 2.0593457222
 1863.6248779 5.0000000000 12.211000443 12.250000954 0.0209999997 0.2677100003 2.2379999161 55.973255157 93.502006531 94.342071533 0.9200673699 37.530883789 1.7932597399 1.7932597399
 1863.7498779 5.0000000000 12.211999893 12.250000954 0.0199999996 0.2604399920 2.2179999352 54.339595795 94.708374023 95.464424133 0.8720468283 36.728782654 1.6271620989 1.6271620989
 1863.8748779 5.0000000000 12.215000153 12.250000954 0.0179999992 0.2526000142 2.2079999447 52.307968140 95.708068848 96.398056030 0.8510409594 36.031360626 1.5611287355 1.5611287355
 1864.0000000 5.0000000000 12.218000412 12.250000954 0.0160000008 0.2431199998 2.2100000381 50.097160339 96.254547119 96.961875916 0.8559951186 35.479537964 1.5570039749 1.5570039749
 1864.1250000 5.0000000000 12.220000267 12.250000954 0.0160000008 0.2294599861 2.2209999561 48.006042480 96.222518921 97.011596680 0.8959609866 35.119350433 1.5939638615 1.5939638615
 1864.2500000 5.0000000000 12.220000267 12.250000954 0.0179999992 0.2109900117 2.2400000095 46.290000916 95.628677368 96.458816528 0.9789999723 34.944000244 1.6679999828 1.6679999828
 1864.3750000 2.0000000000 12.218000412 12.250000954 0.0209999997 0.1921200007 2.2669999599 45.055999756 94.356719971 95.056884766 1.1109999418 34.917999268 1.7999999523 1.7999999523
 1864.5000000 2.0000000000 12.216000557 12.250000954 0.0260000005 0.1758300066 2.2990000248 43.970001221 92.204811096 92.942405701 1.2869999409 34.972999573 2.0150001049 2.0150001049
 1864.6250000 2.0000000000 12.213999748 12.250000954 0.0299999993 0.1657699943 2.3350000381 42.816001892 89.303665161 90.072044373 1.4930000305 35.070999146 2.3570001125 2.3570001125
 1864.7498779 2.0000000000 12.213999748 12.250000954 0.0299999993 0.1639299989 2.3710000515 41.566219330 85.715148926 86.459236145 1.7077900171 35.165908813 2.8684999943 2.8684999943
 1864.8748779 2.0000000000 12.215000153 12.250000954 0.0250000004 0.1700900048 2.4040000439 40.410129547 81.550277710 82.232635498 1.8778339624 35.230934143 3.5153682232 3.5153682232
 1864.9998779 2.0000000000 12.216000557 12.250000954 0.0170000009 0.1836100072 2.4210000038 39.715354919 77.288787842 77.868408203 1.9628342390 35.277908325 3.9631259441 3.9631259441
 1865.1248779 16.000000000 12.216000557 12.250000954 0.0109999999 0.2016299963 2.4179999828 39.742942810 74.016151428 74.586555481 1.9470312595 35.339878082 3.8711817265 3.8711817265
 1865.2500000 16.000000000 12.213000298 12.250000954 0.0089999996 0.2236800045 2.3959999084 40.501258850 72.668457031 73.242630005 1.8391054869 35.454891205 3.3295292854 3.3295292854
 1865.3750000 16.000000000 12.208000183 12.250000954 0.0109999999 0.2452400029 2.3559999466 41.738998413 73.688659668 74.283378601 1.6629999876 35.643001556 2.7560000420 2.7560000420
 1865.5000000 16.000000000 12.204999924 12.250000954 0.0160000008 0.2622999847 2.3139998913 43.006000519 76.927520752 77.540153503 1.4670000076 35.854000092 2.3619999886 2.3619999886
 1865.6250000 2.0000000000 12.204999924 12.250000954 0.0189999994 0.2718899846 2.2780001163 44.207000732 81.619010925 82.199958801 1.2829999924 36.012001038 2.1349999905 2.1349999905
 1865.7500000 2.0000000000 12.208000183 12.250000954 0.0199999996 0.2745200098 2.2520000935 45.333999634 86.173652649 86.879615784 1.1180000305 36.048999786 2.0250000954 2.0250000954
