# LAS format log file from PETREL
# Project units are specified as depth units
#==================================================================
~Version information
VERS.   2.0:
WRAP.   NO:
#==================================================================
~Well
STRT .m      793.37487793 :
STOP .m      2575.0000000 :
STEP .m     0.00000000 :
NULL .        -999.250000 :
COMP.           : COMPANY
WELL.  31/3-3   : WELL
FLD.            : FIELD
LOC.            : LOCATION
SRVC.           : SERVICE COMPANY
DATE.  2018-09-11 14:48:36   : Log Export Date {yyyy-MM-dd HH:mm:ss}
PROV.           : PROVINCE
UWI.   31/3-3   : UNIQUE WELL ID
API.            : API NUMBER
#==================================================================
~Curve
DEPT .m                   : DEPTH
Lithology_geolink ._      : Lithology_geolink
CALI .in                  : CALI
BS .in                    : BS
DRHO .g/cm3               : DRHO
NPHI .m3/m3               : NPHI
RHOB .g/cm3               : RHOB
GR .gAPI                  : GR
DTC .us/ft                : DTC
DTE .us/ft                : DTE
RDEP .ohm.m               : RDEP
SP .mV                    : SP
RSHA .ohm.m               : RSHA
RMED .ohm.m               : RMED
~Parameter
#==================================================================
~Ascii
# ...
 1029.8748779 5.0000000000 18.292999268  -999.250000 0.0260000005 0.2220899910 2.1070001125 80.060234070 157.72953796 150.70100403 0.7909873128 37.754135132 0.8710009456 0.8710009456
 1029.9998779 5.0000000000 18.288999557  -999.250000 0.0419999994 0.2223500013 2.1270000935 79.509078979 157.22804260 150.15232849 0.8099629283 37.424644470 0.8709999919 0.8709999919
 1030.1248779 5.0000000000 18.284000397  -999.250000 0.0489999987 0.2209499925 2.1429998875 78.754470825 156.92021179 149.93756104 0.8319570422 36.984859467 0.8749921918 0.8749921918
 1030.2498779 5.0000000000 18.274999619  -999.250000 0.0450000018 0.2225800008 2.1489999294 78.161163330 156.69566345 149.71362305 0.8529589772 36.533882141 0.8849804401 0.8849804401
 1030.3748779 5.0000000000 18.264999390  -999.250000 0.0320000015 0.2291600108 2.1480000019 78.073165894 156.26908875 149.24995422 0.8709648252 36.163719177 0.8989726305 0.8989726305
 1030.4998779 5.0000000000 18.253999710  -999.250000 0.0179999992 0.2380499989 2.1410000324 78.107971191 155.45890808 148.41413879 0.8839873075 35.915245056 0.9139853120 0.9139853120
 1030.6248779 5.0000000000 18.243999481  -999.250000 0.0099999998 0.2441500127 2.1349999905 77.760681152 154.26776123 147.20056152 0.8939805031 35.828170776 0.9279726744 0.9279726744
 1030.7498779 5.0000000000 18.239999771  -999.250000 0.0070000002 0.2436099946 2.1289999485 76.848785400 152.70567322 145.70066833 0.9009863734 35.911834717 0.9369823933 0.9369823933
 1030.8748779 5.0000000000 18.240999222  -999.250000 0.0060000001 0.2375600040 2.1229999065 75.582473755 151.29612732 144.23135376 0.9049921632 36.112606049 0.9399941564 0.9399941564
 1030.9998779 5.0000000000 18.249000549  -999.250000 0.0080000004 0.2290900052 2.1159999371 74.645828247 150.09832764 143.01220703 0.9059980512 36.268695831 0.9399999976 0.9399999976
 1031.1248779 5.0000000000 18.259000778  -999.250000 0.0130000003 0.2198700011 2.1129999161 74.586051941 149.27836609 142.22703552 0.9030029178 36.263008118 0.9360039234 0.9360039234
 1031.2498779 5.0000000000 18.270000458  -999.250000 0.0199999996 0.2106299996 2.1150000095 75.642929077 149.00834656 141.99253845 0.8950155973 36.033451080 0.9300116897 0.9300116897
 1031.3748779 5.0000000000 18.277999878  -999.250000 0.0280000009 0.2021799982 2.1210000515 77.662055969 149.40087891 142.32705688 0.8820254207 35.574897766 0.9210175872 0.9210175872
 1031.4998779 5.0000000000 18.281999588  -999.250000 0.0350000001 0.1967499852 2.1280000210 79.894638062 150.15914917 143.13539124 0.8630371094 35.037048340 0.9120175838 0.9120175838
 1031.6248779 5.0000000000 18.284000397  -999.250000 0.0390000008 0.1950300038 2.1300001144 81.800140381 151.22247314 144.19015503 0.8410215378 34.553474426 0.9030088186 0.9030088186
 1031.7498779 6.0000000000 18.284999847  -999.250000 0.0410000011 0.1960300058 2.1270000935 82.993675232 152.49713135 145.44560242 0.8170468211 34.219654083 0.8960136771 0.8960136771
 1031.8748779 6.0000000000 18.284000397  -999.250000 0.0390000008 0.1978400052 2.1180000305 83.378250122 153.92457581 146.86375427 0.7960410118 34.124187469 0.8890136480 0.8890136480
 1031.9998779 6.0000000000 18.283000946  -999.250000 0.0350000001 0.1985400021 2.1040000916 83.360038757 155.48013306 148.40106201 0.7770371437 34.245761871 0.8810155988 0.8810155988
 1032.1248779 6.0000000000 18.278999329  -999.250000 0.0289999992 0.1983799934 2.0910000801 83.121467590 156.95449829 149.94494629 0.7630273700 34.513477325 0.8720175624 0.8720175624
 1032.2498779 6.0000000000 18.277000427  -999.250000 0.0240000002 0.1986400038 2.0810000896 82.617492676 158.41871643 151.36880493 0.7540088296 34.769748688 0.8630087972 0.8630087972
 1032.3748779 6.0000000000 18.275999069  -999.250000 0.0199999996 0.2011500001 2.0759999752 81.667854309 159.59030151 152.56613159 0.7500078082 34.818904877 0.8560136557 0.8560136557
 1032.4998779 6.0000000000 18.278999329  -999.250000 0.0140000004 0.2078800052 2.0789999962 80.513259888 160.45405579 153.43659973 0.7519960403 34.645339966 0.8510097861 0.8510097861
 1032.6248779 5.0000000000 18.283000946  -999.250000 0.0070000002 0.2153199911 2.0869998932 79.352264404 160.98526001 153.89509583 0.7609823942 34.323631287 0.8490039110 0.8490039110
 1032.7498779 5.0000000000 18.284999847  -999.250000 0.0020000001 0.2187000066 2.1029999256 78.308036804 160.89524841 153.85610962 0.7759706974 33.986660004 0.8499980569 0.8499980569
 1032.8748779 5.0000000000 18.287000656  -999.250000 -0.001000000 0.2163600028 2.1259999275 77.526763916 160.13691711 153.05419922 0.7999765277 33.788192749 0.8579921722 0.8579921722
 1032.9998779 5.0000000000 18.288000107  -999.250000 0.0020000001 0.2117400020 2.1459999084 77.017990112 158.62374878 151.58982849 0.8269473314 33.775028229 0.8739687800 0.8739687800
 1033.1248779 5.0000000000 18.288000107  -999.250000 0.0089999996 0.2092499882 2.1619999409 76.840339661 156.54957581 149.54679871 0.8519511819 33.934688568 0.8979531527 0.8979531527
 1033.2498779 5.0000000000 18.285999298  -999.250000 0.0160000008 0.2096900046 2.1679999828 76.998687744 154.13786316 147.12057495 0.8689668179 34.216449738 0.9249472618 0.9249472618
 1033.3748779 5.0000000000 18.283000946  -999.250000 0.0219999999 0.2115399987 2.1610000134 77.246520996 151.64620972 144.61138916 0.8739902377 34.491462708 0.9459589720 0.9459589720
 1033.4998779 5.0000000000 18.278999329  -999.250000 0.0280000009 0.2119199932 2.1440000534 77.360778809 149.68566895 142.59889221 0.8670136333 34.586814880 0.9509902000 0.9509902000
 1033.6248779 5.0000000000 18.277000427  -999.250000 0.0379999988 0.2101400048 2.1189999580 77.456809998 148.57543945 141.50663757 0.8500332236 34.403358459 0.9410195351 0.9410195351
 1033.7498779 5.0000000000 18.277000427  -999.250000 0.0540000014 0.2078099996 2.0889999866 77.881172180 148.48490906 141.42999268 0.8290410042 33.984821320 0.9240332246 0.9240332246
 1033.8748779 5.0000000000 18.277000427  -999.250000 0.0740000010 0.2062700093 2.0559999943 79.032752991 149.50698853 142.46548462 0.8090390563 33.524898529 0.9020429850 0.9020429850
 1033.9998779 6.0000000000 18.277000427  -999.250000 0.0820000023 0.2043600082 2.0260000229 80.723342896 151.55427551 144.52218628 0.7940146923 33.213306427 0.8790224791 0.8790224791
 1034.1248779 6.0000000000 18.277000427  -999.250000 0.0729999989 0.1999500096 2.0139999390 82.573387146 154.29847717 147.22267151 0.7850176096 33.101219177 0.8560448885 0.8560448885
 1034.2498779 6.0000000000 18.277000427  -999.250000 0.0489999987 0.1939300001 2.0130000114 84.121978760 157.13166809 150.11741638 0.7790117264 33.150901794 0.8370371461 0.8370371461
 1034.3748779 6.0000000000 18.277999878  -999.250000 0.0240000002 0.1895399988 2.0269999504 84.964363098 159.59844971 152.54989624 0.7720136642 33.281745911 0.8300136328 0.8300136328
 1034.4998779 6.0000000000 18.281999588  -999.250000 0.0149999997 0.1895599961 2.0559999943 85.136665344 161.19439697 154.12490845 0.7610214353 33.400768280 0.8359882832 0.8359882832
 1034.6248779 6.0000000000 18.285999298  -999.250000 0.0199999996 0.1936800033 2.0859999657 84.630493164 161.65176392 154.60345459 0.7490117550 33.473926544 0.8539823890 0.8539823890
 1034.7498779 5.0000000000 18.288000107  -999.250000 0.0320000015 0.2001899928 2.1059999466 83.571067810 160.96228027 153.94274902 0.7390195131 33.481983185 0.8749590516 0.8749590516
 1034.8748779 5.0000000000 18.284999847  -999.250000 0.0460000001 0.2053399980 2.1159999371 82.393302917 159.48645020 152.42822266 0.7390000224 33.423114777 0.8909687400 0.8909687400
 1034.9998779 5.0000000000 18.277000427  -999.250000 0.0570000000 0.2074399889 2.1170001030 81.665420532 157.76391602 150.82821655 0.7519745827 33.371101379 0.8979863524 0.8979863524
 1035.1248779 5.0000000000 18.263999939  -999.250000 0.0610000007 0.2084700018 2.1129999161 81.665992737 156.65957642 149.69851685 0.7789472342 33.387966156 0.8970019817 0.8970019817
 1035.2498779 5.0000000000 18.250999451  -999.250000 0.0560000017 0.2101499885 2.1080000401 82.227897644 156.27468872 149.24374390 0.8149296641 33.465847015 0.8920097947 0.8920097947
