# LAS format log file from PETREL
# Project units are specified as depth units
#==================================================================
~Version information
VERS.   2.0:
WRAP.   NO:
#==================================================================
~Well
STRT .m      433.43811035 :
STOP .m      2093.8361816 :
STEP .m     0.00000000 :
NULL .        -999.250000 :
COMP.           : COMPANY
WELL.  31/3-2   : WELL
FLD.            : FIELD
LOC.            : LOCATION
SRVC.           : SERVICE COMPANY
DATE.  2018-09-11 14:48:35   : Log Export Date {yyyy-MM-dd HH:mm:ss}
PROV.           : PROVINCE
UWI.   31/3-2   : UNIQUE WELL ID
API.            : API NUMBER
#==================================================================
~Curve
DEPT .m                   : DEPTH
Lithology_geolink ._      : Lithology_geolink
CALI .in                  : CALI
BS .in                    : BS
DRHO .g/cm3               : DRHO
NPHI .m3/m3               : NPHI
RHOB .g/cm3               : RHOB
PEF .b/e                  : PEF
GR .gAPI                  : GR
DTC .us/ft                : DTC
DTE .us/ft                : DTE
RDEP .ohm.m               : RDEP
SP .mV                    : SP
RSHA .ohm.m               : RSHA
RMIC .ohm.m               : RMIC
RMED .ohm.m               : RMED
~Parameter
#==================================================================
~Ascii
# ...
 1307.1472168 6.0000000000 17.662000656  -999.250000 -0.001000000 0.4085599780 2.0819857121  -999.250000 74.309997559 153.34085083 148.01472473 0.5959807634 173.85940552 0.6769319773  -999.250000 0.6759591699
 1307.2996826 6.0000000000 17.912000656  -999.250000 -0.004996798 0.4293999970 2.0919919014  -999.250000 77.057998657 153.10585022 147.85433960 0.5839759707 174.36204529 0.6909769773  -999.250000 0.6909759641
 1307.4520264 6.0000000000 17.975000381  -999.250000 -0.004000802 0.4512900114 2.1019918919  -999.250000 78.616996765 153.35713196 148.04864502 0.5740112066 166.90657043 0.6979659796  -999.250000 0.6979832053
 1307.6044922 6.0000000000 17.721000671  -999.250000 -0.003000801 0.4728499949 2.1049976349  -999.250000 80.431999207 152.98297119 147.75729370 0.5810167789 161.38937378 0.7019870281  -999.250000 0.7029920220
 1307.7568359 6.0000000000 17.608999252  -999.250000 -0.003999199 0.4763299823 2.1089968681  -999.250000 76.061996460 151.50059509 146.33454895 0.5880128145 159.12539673 0.7110000253  -999.250000 0.7079920173
 1307.9091797 6.0000000000 17.606000900  -999.250000 -0.007993596 0.4566400051 2.1070032120  -999.250000 73.884002686 149.59536743 144.32229614 0.5960192084 159.62541199 0.7030320168  -999.250000 0.7050071955
 1308.0616455 5.0000000000 17.600999832  -999.250000 -0.012995994 0.4381499887 2.1050016880  -999.250000 70.875000000 147.82234192 142.51828003 0.6080256104 162.62599182 0.7139999866  -999.250000 0.7149839401
 1308.2139893 5.0000000000 17.628999710  -999.250000 -0.011003203 0.4278500080 2.1159822941  -999.250000 70.689002991 146.80010986 141.55480957 0.6240240335 163.86940002 0.7418439984  -999.250000 0.7429327369
 1308.3664551 5.0000000000 17.641000748  -999.250000 -0.008002404 0.4257799983 2.1339857578  -999.250000 72.932998657 146.76782227 141.45207214 0.6390432119 165.62142944 0.7779129744  -999.250000 0.7739503384
 1308.5187988 5.0000000000 17.641000748  -999.250000 -0.008000000 0.4338200092 2.1469793320  -999.250000 72.500000000 146.64691162 141.47004700 0.6570272446 166.15640259 0.7969999909  -999.250000 0.7949495912
 1308.6712646 5.0000000000 17.650999069  -999.250000 -0.008999199 0.4401900172 2.1479992867  -999.250000 70.757003784 146.42518616 141.15472412 0.6740384698 166.65481567 0.8019800186  -999.250000 0.8039855957
 1308.8236084 5.0000000000 17.680000305  -999.250000 -0.009000000 0.4523699880 2.1460015774  -999.250000 67.754997253 146.01795959 140.84623718 0.6900176406 167.65420532 0.8389400244  -999.250000 0.8379183412
 1308.9760742 5.0000000000 17.662000656  -999.250000 -0.006002402 0.4483700097 2.1450006962  -999.250000 66.816001892 145.91407776 140.60279846 0.7010312080 167.90582275 0.8638799787  -999.250000 0.8519775867
 1309.1284180 5.0000000000 17.604000092  -999.250000 -0.005000801 0.4538300037 2.1440007687  -999.250000 72.111999512 146.32563782 140.96670532 0.7140144110 168.93580627 0.8270890117  -999.250000 0.8260624409
 1309.2808838 5.0000000000 17.587999344  -999.250000 -0.003001601 0.4474100173 2.1440000534  -999.250000 74.250000000 147.12510681 141.89154053 0.7230072021 169.94079590 0.7829999924  -999.250000 0.7850657105
 1309.4332275 5.0000000000 17.600000381  -999.250000 -0.000002404 0.4630599916 2.1489958763  -999.250000 75.121002197 147.84028625 142.62687683 0.7259871960 171.68161011 0.7531189919  -999.250000 0.7540744543
 1309.5856934 5.0000000000 17.618999481  -999.250000 0.0019983989 0.4516899884 2.1509983540  -999.250000 72.316001892 148.31704712 142.97705078 0.7179831862 172.43739319 0.7619860172  -999.250000 0.7639839649
 1309.7380371 5.0000000000 17.627000809  -999.250000 0.0010008013 0.4450600147 2.1519992352  -999.250000 74.115997314 148.30032349 143.10322571 0.7109951973 172.68798828 0.7838950157  -999.250000 0.7809727788
 1309.8905029 5.0000000000 17.632999420  -999.250000 0.0019991994 0.4280199707 2.1510007381  -999.250000 77.427001953 148.47023010 143.18444824 0.7080048323 173.93356323 0.7899810076  -999.250000 0.7889871597
 1310.0428467 5.0000000000 17.638000488  -999.250000 0.0010008013 0.4318700135 2.1569952965  -999.250000 77.875000000 148.64108276 143.45941162 0.7100031972 173.65481567 0.7919999957  -999.250000 0.7929935455
 1310.1951904 5.0000000000 17.672000885  -999.250000 -0.006987190 0.4273500144 2.1570000648  -999.250000 76.194999695 149.30546570 144.03501892 0.7119920254 172.16036987 0.8029559851  -999.250000 0.8009808064
 1310.3476563 5.0000000000 17.719999313  -999.250000 -0.012995193 0.4390599728 2.1460087299  -999.250000 71.561996460 150.10630798 144.77346802 0.7069736123 170.12400818 0.7929999828  -999.250000 0.7920144200
 1310.5000000 5.0000000000 17.722999573  -999.250000 -0.010004804 0.4420199990 2.1350176334  -999.250000 67.460998535 150.78633118 145.53573608 0.6959775686 168.88217163 0.7780839801  -999.250000 0.7770360112
 1310.6524658 5.0000000000 17.711000443  -999.250000 -0.000008013 0.4735200107 2.1419942379  -999.250000 64.880996704 151.28143311 146.06146240 0.6819687486 169.09280396 0.7580479980  -999.250000 0.7610256076
 1310.8048096 6.0000000000 17.716999054  -999.250000 0.0059903925 0.4719499946 2.1469919682  -999.250000 69.250000000 151.48580933 146.27027893 0.6689743996 168.84442139 0.7609999776  -999.250000 0.7609999776
 1310.9572754 6.0000000000 17.731000900  -999.250000 0.0020032052 0.4564099908 2.1380071640  -999.250000 73.611000061 151.70669556 146.45492554 0.6529880166 169.37260437 0.7570130229  -999.250000 0.7540112138
 1311.1096191 6.0000000000 17.704999924  -999.250000 -0.000997596 0.4361700118 2.1140193939  -999.250000 76.995002747 151.87556458 146.53884888 0.6479983926 168.87542725 0.7330380082  -999.250000 0.7350456715
 1311.2620850 6.0000000000 17.655000687  -999.250000 -0.002998399 0.4145600200 2.0900192261  -999.250000 76.750999451 151.04151917 145.80601501 0.6469880342 168.15965271 0.7200729847  -999.250000 0.7190256119
 1311.4144287 5.0000000000 17.614999771  -999.250000 -0.001001603 0.4289000034 2.0880017281  -999.250000 74.879997253 149.40657043 144.17173767 0.6420016289 167.93780518 0.7030410171  -999.250000 0.7060312033
 1311.5668945 5.0000000000 17.586000443  -999.250000 -0.000000801 0.4497999847 2.1159775257  -999.250000 70.250000000 147.36199951 142.16731262 0.6429904103 167.68835449 0.7250000238  -999.250000 0.7239711285
 1311.7192383 5.0000000000 17.607000351  -999.250000 -0.000999199 0.4755100012 2.1529705524  -999.250000 70.000999451 146.08624268 140.87425232 0.6389904022 167.90499878 0.7299799919  -999.250000 0.7309831977
 1311.8717041 5.0000000000 17.673999786  -999.250000 -0.001999199 0.4597499967 2.1719846725  -999.250000 71.309997559 146.35757446 141.06884766 0.6329951882 167.90530396 0.7389860153  -999.250000 0.7349935770
 1312.0240479 5.0000000000 17.680000305  -999.250000 -0.006995994 0.4268800020 2.1650056839  -999.250000 71.685997009 147.41554260 142.19657898 0.6310064197 167.47016907 0.7270569801  -999.250000 0.7290095687
 1312.1763916 5.0000000000 17.688999176  -999.250000 -0.008996797 0.4137099981 2.1520206928  -999.250000 70.940002441 148.45333862 143.18475342 0.6350015998 166.43879700 0.7269999981  -999.250000 0.7270048261
 1312.3288574 6.0000000000 17.711000443  -999.250000 -0.005003205 0.4267300069 2.1440064907  -999.250000 70.500000000 148.64065552 143.40455627 0.6360095739 164.93840027 0.7160000205  -999.250000 0.7140208483
 1312.4812012 6.0000000000 17.694999695  -999.250000 0.0059823859 0.4408100247 2.1479935646  -999.250000 74.858001709 148.30009460 143.01811218 0.6400111914 165.43635559 0.6881120205  -999.250000 0.6920528412
 1312.6336670 6.0000000000 17.753999710  -999.250000 0.0099967951 0.4379999936 2.1539952755  -999.250000 75.625000000 147.77206421 142.56777954 0.6470360160 165.87582397 0.6790000200  -999.250000 0.6870079637
 1312.7860107 6.0000000000 17.857000351  -999.250000 0.0090016006 0.4536199868 2.1639840603  -999.250000 75.935997009 147.72148132 142.54185486 0.6619791389 166.90100098 0.7108209729  -999.250000 0.7109423876
 1312.9384766 6.0000000000 17.826000214  -999.250000 0.0030048077 0.4784400165 2.1510105133  -999.250000 76.061996460 148.50434875 143.22077942 0.6489927769 168.15280151 0.7409279943  -999.250000 0.7379567027
