# LAS format log file from PETREL
# Project units are specified as depth units
#==================================================================
~Version information
VERS.   2.0:
WRAP.   NO:
#==================================================================
~Well
STRT .m      793.37487793 :
STOP .m      2575.0000000 :
STEP .m     0.00000000 :
NULL .        -999.250000 :
COMP.           : COMPANY
WELL.  31/3-3   : WELL
FLD.            : FIELD
LOC.            : LOCATION
SRVC.           : SERVICE COMPANY
DATE.  2018-09-11 14:48:36   : Log Export Date {yyyy-MM-dd HH:mm:ss}
PROV.           : PROVINCE
UWI.   31/3-3   : UNIQUE WELL ID
API.            : API NUMBER
#==================================================================
~Curve
DEPT .m                   : DEPTH
Lithology_geolink ._      : Lithology_geolink
CALI .in                  : CALI
BS .in                    : BS
DRHO .g/cm3               : DRHO
NPHI .m3/m3               : NPHI
RHOB .g/cm3               : RHOB
GR .gAPI                  : GR
DTC .us/ft                : DTC
DTE .us/ft                : DTE
RDEP .ohm.m               : RDEP
SP .mV                    : SP
RSHA .ohm.m               : RSHA
RMED .ohm.m               : RMED
~Parameter
#==================================================================
~Ascii
# ...
 1387.3750000 12.000000000 18.447999954  -999.250000 0.0189999994 0.1842499971 2.4609999657 63.778949738 103.32328033 97.723976135 1.8979932070 17.821397781 1.9299559593 1.9299559593
 1387.4998779 12.000000000 18.447999954  -999.250000 0.0270000007 0.1811300069 2.4670000076 63.825954437 101.52185059 96.009773254 1.9079902172 17.404407501 1.9659647942 1.9659647942
 1387.6248779 12.000000000 18.448999405  -999.250000 0.0309999995 0.1764499992 2.4660000801 64.531311035 99.867973328 94.409446716 1.9219863415 17.091304779 1.9809852839 1.9809852839
 1387.7498779 12.000000000 18.451000214  -999.250000 0.0299999993 0.1709799916 2.4570000172 65.494064331 98.815803528 93.314582825 1.9389834404 16.931156158 1.9760048389 1.9760048389
 1387.8748779 12.000000000 18.454000473  -999.250000 0.0219999999 0.1653899997 2.4409999847 66.526992798 98.544479370 92.974182129 1.9559834003 16.921009064 1.9590165615 1.9590165615
 1387.9998779 12.000000000 18.455999374  -999.250000 0.0109999999 0.1614300013 2.4230000973 67.587921143 98.909637451 93.454658508 1.9699727297 16.964914322 1.9400371313 1.9400371313
 1388.1248779 12.000000000 18.455999374  -999.250000 0.0000000000 0.1604499966 2.4100000858 68.493232727 100.11767578 94.627166748 1.9769862890 16.986955643 1.9250292778 1.9250292778
 1388.2500000 12.000000000 18.454000473  -999.250000 -0.007000000 0.1620199978 2.4040000439 68.866630554 101.50775146 95.967323303 1.9779990911 16.938047409 1.9120125771 1.9120125771
 1388.3750000 12.000000000 18.451000214  -999.250000 -0.010000000 0.1650599986 2.4059998989 68.287567139 102.66245270 97.125198364 1.9720058441 16.745189667 1.9050067663 1.9050067663
 1388.5000000 12.000000000 18.447000504  -999.250000 -0.009000000 0.1687600017 2.4130001068 66.979278564 103.35552979 97.820518494 1.9610106945 16.416320801 1.9059990644 1.9059990644
 1388.6248779 12.000000000 18.444000244  -999.250000 -0.005000000 0.1719399989 2.4200000763 65.412536621 103.45998383 97.871765137 1.9490116835 16.019386292 1.9169893265 1.9169893265
 1388.7498779 12.000000000 18.443000793  -999.250000 0.0000000000 0.1726799905 2.4279999733 64.157226563 102.70633698 97.232666016 1.9390097857 15.669341087 1.9349824190 1.9349824190
 1388.8748779 12.000000000 18.443000793  -999.250000 0.0070000002 0.1703799963 2.4379999638 63.868282318 101.71918488 96.201072693 1.9330058098 15.521144867 1.9539813995 1.9539813995
 1388.9998779 12.000000000 18.444999695  -999.250000 0.0149999997 0.1669400036 2.4519999027 64.506378174 100.81998444 95.247352600 1.9349980354 15.585936546 1.9649893045 1.9649893045
 1389.1248779 13.000000000 18.447999954  -999.250000 0.0240000002 0.1647699922 2.4690001011 65.744789124 100.21810150 94.674705505 1.9419932365 15.808782578 1.9669981003 1.9669981003
 1389.2498779 13.000000000 18.450000763  -999.250000 0.0270000007 0.1643400043 2.4890000820 67.060432434 100.13303375 94.673797607 1.9519804716 16.070487976 1.9590156078 1.9590156078
 1389.3750000 13.000000000 18.450000763  -999.250000 0.0219999999 0.1656399965 2.5130000114 68.005073547 100.77295685 95.289520264 1.9629893303 16.220853806 1.9440146685 1.9440146685
 1389.5000000 13.000000000 18.448999405  -999.250000 0.0130000003 0.1683000028 2.5369999409 68.508514404 101.94809723 96.322372437 1.9699932337 16.210010529 1.9300136566 1.9300136566
 1389.6250000 13.000000000 18.447999954  -999.250000 0.0070000002 0.1711700112 2.5539999008 68.587921143 102.69786835 97.179656982 1.9690009356 16.038167953 1.9230067730 1.9230067730
 1389.7500000 13.000000000 18.445999146  -999.250000 0.0070000002 0.1737499982 2.5569999218 68.210365295 103.03790283 97.522918701 1.9600088596 15.755275726 1.9249980450 1.9249980450
 1389.8748779 12.000000000 18.444000244  -999.250000 0.0109999999 0.1755100042 2.5420000553 67.380805969 102.73601532 97.168197632 1.9450147152 15.477272034 1.9399853945 1.9399853945
 1389.9998779 12.000000000 18.443000793  -999.250000 0.0149999997 0.1745599955 2.5160000324 66.404953003 101.65879822 96.123908997 1.9270175695 15.305168152 1.9589813948 1.9589813948
 1390.1248779 12.000000000 18.443000793  -999.250000 0.0140000004 0.1713299900 2.4900000095 65.722663879 100.22076416 94.723869324 1.9120146036 15.272032738 1.9759833813 1.9759833813
 1390.2498779 12.000000000 18.445999146  -999.250000 0.0060000001 0.1679000109 2.4639999866 65.686035156 99.122566223 93.516197205 1.9010107517 15.341931343 1.9839920998 1.9839920998
 1390.3748779 12.000000000 18.448999405  -999.250000 -0.004000000 0.1659900099 2.4430000782 66.199989319 98.398010254 92.833717346 1.8950116634 15.425835609 1.9770137072 1.9770137072
 1390.4998779 12.000000000 18.451000214  -999.250000 -0.008000000 0.1656800061 2.4330000877 66.432548523 98.284324646 92.748878479 1.8930039406 15.432986259 1.9620293379 1.9620293379
 1390.6250000 12.000000000 18.452999115  -999.250000 -0.004000000 0.1653700024 2.4300000668 65.905517578 98.744712830 93.200805664 1.8920009136 15.338092804 1.9430185556 1.9430185556
 1390.7500000 12.000000000 18.451999664  -999.250000 0.0060000001 0.1646299958 2.4400000572 64.871009827 99.477790833 94.013786316 1.8919999599 15.173161507 1.9250174761 1.9250174761
 1390.8750000 12.000000000 18.451000214  -999.250000 0.0209999997 0.1646099985 2.4549999237 64.300559998 100.42448425 94.902099609 1.8890030384 15.022148132 1.9160088301 1.9160088301
 1390.9998779 12.000000000 18.448999405  -999.250000 0.0309999995 0.1665699929 2.4649999142 64.705604553 101.17691803 95.587188721 1.8860030174 14.949071884 1.9169991016 1.9169991016
 1391.1248779 13.000000000 18.447000504  -999.250000 0.0299999993 0.1695799977 2.4660000801 65.913818359 101.56882477 96.001251221 1.8840018511 14.947001457 1.9279892445 1.9279892445
 1391.2498779 13.000000000 18.447000504  -999.250000 0.0199999996 0.1713200063 2.4579999447 67.328620911 101.67270660 96.157119751 1.8859981298 14.974972725 1.9449834824 1.9449834824
 1391.3748779 13.000000000 18.447000504  -999.250000 0.0070000002 0.1706600040 2.4460000992 68.287063599 101.65316010 96.139816284 1.8959902525 14.998975754 1.9579873085 1.9579873085
 1391.4998779 13.000000000 18.445999146  -999.250000 -0.005000000 0.1694799960 2.4349999428 68.604385376 101.68427277 96.116760254 1.9169590473 15.028942108 1.9619922638 1.9619922638
 1391.6248779 12.000000000 18.441999435  -999.250000 -0.013000000 0.1702000052 2.4330000877 68.260673523 101.74996948 96.243453979 1.9449453354 15.094871521 1.9590058327 1.9590058327
 1391.7500000 12.000000000 18.437999725  -999.250000 -0.017000001 0.1731299907 2.4370000362 67.212020874 101.93653870 96.405082703 1.9789667130 15.201894760 1.9540048838 1.9540048838
 1391.8750000 12.000000000 18.434000015  -999.250000 -0.016000001 0.1766900122 2.4440000057 65.427742004 101.92334747 96.413505554 2.0119678974 15.303900719 1.9579960108 1.9579960108
 1392.0000000 12.000000000 18.434999466  -999.250000 -0.011000000 0.1773100048 2.4509999752 63.409973145 101.57399750 96.109436035 2.0389735699 15.314989090 1.9719862938 1.9719862938
 1392.1250000 12.000000000 18.437999725  -999.250000 -0.001000000 0.1743000001 2.4579999447 61.678001404 100.91284943 95.394477844 2.0599999428 15.177000046 1.9960000515 1.9960000515
 1392.2498779 12.000000000 18.440000534  -999.250000 0.0080000004 0.1694300026 2.4649999142 60.750907898 99.871658325 94.306365967 2.0769832134 14.883287430 2.0199766159 2.0199766159
 1392.3748779 12.000000000 18.440999985  -999.250000 0.0140000004 0.1656900048 2.4690001011 61.095661163 98.656745911 93.159812927 2.0909864902 14.508366585 2.0379824638 2.0379824638
 1392.4998779 12.000000000 18.440000534  -999.250000 0.0130000003 0.1644800007 2.4679999352 62.298824310 97.692192078 92.210472107 2.1029882431 14.223278046 2.0479903221 2.0479903221
 1392.6248779 12.000000000 18.440000534  -999.250000 0.0080000004 0.1643099934 2.4649999142 63.844490051 97.115829468 91.585067749 2.1129901409 14.130090714 2.0529952049 2.0529952049
 1392.7498779 12.000000000 18.440999985  -999.250000 0.0020000001 0.1639599949 2.4600000381 65.262229919 96.904037476 91.324699402 2.1199862957 14.245774269 2.0529999733 2.0529999733
