# LAS format log file from PETREL
# Project units are specified as depth units
#==================================================================
~Version information
VERS.   2.0:
WRAP.   NO:
#==================================================================
~Well
STRT .m      433.43811035 :
STOP .m      2093.8361816 :
STEP .m     0.00000000 :
NULL .        -999.250000 :
COMP.           : COMPANY
WELL.  31/3-2   : WELL
FLD.            : FIELD
LOC.            : LOCATION
SRVC.           : SERVICE COMPANY
DATE.  2018-09-11 14:48:35   : Log Export Date {yyyy-MM-dd HH:mm:ss}
PROV.           : PROVINCE
UWI.   31/3-2   : UNIQUE WELL ID
API.            : API NUMBER
#==================================================================
~Curve
DEPT .m                   : DEPTH
Lithology_geolink ._      : Lithology_geolink
CALI .in                  : CALI
BS .in                    : BS
DRHO .g/cm3               : DRHO
NPHI .m3/m3               : NPHI
RHOB .g/cm3               : RHOB
PEF .b/e                  : PEF
GR .gAPI                  : GR
DTC .us/ft                : DTC
DTE .us/ft                : DTE
RDEP .ohm.m               : RDEP
SP .mV                    : SP
RSHA .ohm.m               : RSHA
RMIC .ohm.m               : RMIC
RMED .ohm.m               : RMED
~Parameter
#==================================================================
~Ascii
# ...
 873.26452637  -999.250000 17.753999710  -999.250000 0.0089963954 0.5230453610 2.0740022659  -999.250000 82.692001343 156.97718811 154.27548218 1.1160336733 147.58670044 1.0310000181  -999.250000 1.0299991369
 873.41693115  -999.250000 17.798999786  -999.250000 0.0060036043 0.4864543080 2.0640118122  -999.250000 83.933219910 157.47172546 154.73030090 1.1300624609 147.21240234 1.0299999714  -999.250000 1.0290004015
 873.56933594  -999.250000 17.895999908  -999.250000 0.0030024038 0.5221713781 2.0590040684  -999.250000 77.962478638 157.92967224 155.18972778 1.1560385227 147.70991516 1.0130000114  -999.250000 1.0140060186
 873.72174072  -999.250000 17.860000610  -999.250000 -0.004993592 0.5256666541 2.0520057678  -999.250000 78.558006287 157.40237427 154.61483765 1.1720504761 147.58815002 1.0089999437  -999.250000 1.0120007992
 873.87414551  -999.250000 17.770000458  -999.250000 -0.008996796 0.5422149301 2.0559968948  -999.250000 74.830825806 156.78236389 154.00526428 1.1930096149 147.77490234 1.0240000486  -999.250000 1.0279935598
 874.02655029  -999.250000 17.780000687  -999.250000 -0.005003204 0.5296085477 2.0659918785  -999.250000 74.688903809 156.43193054 153.69879150 1.1971057653 148.52299500 1.0599999428  -999.250000 1.0579879284
 874.17895508  -999.250000 17.778999329  -999.250000 -0.002002403 0.5010304451 2.0709960461  -999.250000 75.444786072 156.41418457 153.62149048 1.2410721779 148.52514648 1.0840088129  -999.250000 1.0839896202
 874.33135986  -999.250000 17.851999283  -999.250000 -0.000001602 0.5020524263 2.0719993114  -999.250000 79.679718018 156.05651855 153.26101685 1.2710480690 148.65014648 1.1060119867  -999.250000 1.1049915552
 874.48376465  -999.250000 18.034000397  -999.250000 -0.000999199 0.4675993323 2.0749976635  -999.250000 83.872299194 155.59623718 152.78616333 1.2910364866 148.77499390 1.1210160255  -999.250000 1.1219931841
 874.63616943  -999.250000 18.065000534  -999.250000 -0.001000000 0.4667972326 2.0769982338  -999.250000 85.294128418 154.77832031 152.02119446 1.3039944172 148.77604675 1.1409991980  -999.250000 1.1369940042
 874.78851318  -999.250000 17.996000290  -999.250000 0.0039939932 0.4758313298 2.0869879723  -999.250000 79.140998840 153.94511414 151.22689819 1.3019399643 149.64799500 1.1399991512  -999.250000 1.1399976015
 874.94091797  -999.250000 17.993999481  -999.250000 0.0079951948 0.5290626884 2.0929927826  -999.250000 78.317008972 154.39123535 151.65325928 1.2769446373 149.65078735 1.1379959583  -999.250000 1.1370023489
 875.09332275  -999.250000 18.002000809  -999.250000 0.0060024029 0.5606852770 2.0999915600  -999.250000 82.486618042 156.36579895 153.61003113 1.2539206743 150.64619446 1.1279903650  -999.250000 1.1260088682
 875.24572754  -999.250000 17.903999329  -999.250000 0.0050012013 0.5489654541 2.0890130997  -999.250000 85.493690491 157.50474548 154.65373230 1.2209758759 150.90014648 1.1039870977  -999.250000 1.1020096540
 875.39813232  -999.250000 17.812000275  -999.250000 0.0099939927 0.5126817226 2.0800106525  -999.250000 83.562698364 157.67633057 154.94837952 1.2109663486 151.08740234 1.0719935894  -999.250000 1.0750108957
 875.55053711  -999.250000 17.827999115  -999.250000 0.0070036044 0.4670408964 2.0620217323  -999.250000 77.764869690 158.24975586 155.55641174 1.1970216036 151.58645630 1.0559979677  -999.250000 1.0560076237
 875.70294189  -999.250000 17.815000534  -999.250000 0.0020040064 0.4693311751 2.0450136662  -999.250000 77.062500000 159.19195557 156.47753906 1.2059639692 150.90039063 1.0510028601  -999.250000 1.0520015955
 875.85534668  -999.250000 17.847999573  -999.250000 -0.000997597 0.4972183406 2.0330095291  -999.250000 77.373397827 159.23562622 156.46638489 1.1909903288 151.39739990 1.0579999685  -999.250000 1.0569980145
 876.00775146  -999.250000 17.854000092  -999.250000 0.0009983982 0.5180627108 2.0369968414  -999.250000 77.004981995 158.74638367 155.94238281 1.1869664192 150.89981079 1.0579991341  -999.250000 1.0579996109
 876.16015625  -999.250000 17.840000153  -999.250000 0.0029983982 0.5747880936 2.0509889126  -999.250000 80.108726501 157.55313110 154.81048584 1.1729758978 149.90348816 1.0560040474  -999.250000 1.0570003986
 876.31256104  -999.250000 17.832000732  -999.250000 0.0010016019 0.5700406432 2.0579943657  -999.250000 79.944313049 156.38110352 153.65101624 1.1629039049 148.65179443 1.0660079718  -999.250000 1.0659964085
 876.46496582  -999.250000 17.752000809  -999.250000 0.0069951946 0.5832898021 2.0699903965  -999.250000 83.876594543 156.77299500 154.03419495 1.1229640245 147.65014648 1.0759935379  -999.250000 1.0729970932
 876.61737061  -999.250000 17.673999786  -999.250000 0.0139943939 0.5456142426 2.0719983578  -999.250000 84.869407654 157.45516968 154.69342041 1.1079691648 147.77377319 1.0679727793  -999.250000 1.0630040169
 876.76971436  -999.250000 17.643999100  -999.250000 0.0140000004 0.5508661270 2.0690035820  -999.250000 83.877220154 158.71508789 155.85072327 1.0969903469 147.58850098 1.0339848995  -999.250000 1.0330240726
 876.92211914  -999.250000 17.698999405  -999.250000 0.0090060066 0.5411447883 2.0610096455  -999.250000 84.058151245 159.49604797 156.74606323 1.0929952860 148.20959473 0.9961892962  -999.250000 0.9970288277
 877.07452393  -999.250000 17.761999130  -999.250000 0.0149927912 0.5279734135 2.0629975796  -999.250000 81.695816040 158.72982788 156.01092529 1.0909807682 148.95980835 0.9770537615  -999.250000 0.9790143967
 877.22692871  -999.250000 17.784999847  -999.250000 0.0269855838 0.5115129948 2.0739867687  -999.250000 82.371635437 157.96263123 155.23510742 1.0830023289 148.71250916 0.9789991975  -999.250000 0.9780004025
 877.37933350  -999.250000 17.840000153  -999.250000 0.0299963951 0.5189393163 2.0859856606  -999.250000 79.572013855 156.05178833 153.27725220 1.0840288401 149.33599854 0.9770115614  -999.250000 0.9789995551
 877.53173828  -999.250000 17.902000427  -999.250000 0.0180144161 0.5170903802 2.1169629097  -999.250000 78.746017456 152.92150879 150.11962891 1.0960240364 149.33740234 0.9860038161  -999.250000 0.9889960289
 877.68414307  -999.250000 17.891000748  -999.250000 0.0040112180 0.4931554496 2.2239141464  -999.250000 75.638473511 151.05661011 148.29023743 1.1059902906 148.59159851 1.0230232477  -999.250000 1.0229864120
 877.83654785  -999.250000 17.802999496  -999.250000 -0.002994393 0.4318310022 2.4048550129  -999.250000 74.073501587 149.07296753 146.34741211 1.1020047665 148.08815002 1.0810188055  -999.250000 1.0789775848
 877.98895264  -999.250000 17.743999481  -999.250000 -0.001001602 0.3843401968 2.5149118900  -999.250000 78.754089355 147.81367493 145.12567139 1.1040023565 147.02537537 1.1280012131  -999.250000 1.1189839840
 878.14135742  -999.250000 17.716999054  -999.250000 0.0009983982 0.3598651886 2.3831055164  -999.250000 81.305419922 148.82757568 146.07852173 1.1049976349 147.33746338 1.1309820414  -999.250000 1.1229984760
 878.29376221  -999.250000 17.693000793  -999.250000 0.0079943938 0.3977407515 2.2091395855  -999.250000 83.429321289 154.63565063 151.79479980 1.1039975882 147.71200562 1.0859826803  -999.250000 1.0860147476
 878.44616699  -999.250000 17.718999863  -999.250000 0.0099983979 0.4245872498 2.1170737743  -999.250000 79.896064758 159.75552368 156.99095154 1.1029711962 147.71275330 1.0429791212  -999.250000 1.0450164080
 878.59857178  -999.250000 17.747999191  -999.250000 0.0169943944 0.4710426331 2.1100056171  -999.250000 81.799697876 161.18241882 158.42950439 1.0909134150 148.33645630 1.0169928074  -999.250000 1.0200099945
 878.75097656  -999.250000 17.756000519  -999.250000 0.0150016015 0.4868421257 2.1090006828  -999.250000 77.247009277 160.44828796 157.73779297 1.0549159050 148.71334839 1.0079959631  -999.250000 1.0090043545
 878.90325928  -999.250000 17.721000671  -999.250000 0.0100080092 0.5269100070 2.0910289288  -999.250000 75.381996155 158.81468201 156.05371094 1.0249578953 149.83309937 1.0030000210  -999.250000 1.0030071735
 879.05566406  -999.250000 17.711000443  -999.250000 0.0070048058 0.5257799625 2.0710320473  -999.250000 75.376197815 158.56344604 155.75588989 1.0039699078 150.08779907 0.9950129986  -999.250000 0.9950096011
