# LAS format log file from PETREL
# Project units are specified as depth units
#==================================================================
~Version information
VERS.   2.0:
WRAP.   NO:
#==================================================================
~Well
STRT .m      433.43811035 :
STOP .m      2093.8361816 :
STEP .m     0.00000000 :
NULL .        -999.250000 :
COMP.           : COMPANY
WELL.  31/3-2   : WELL
FLD.            : FIELD
LOC.            : LOCATION
SRVC.           : SERVICE COMPANY
DATE.  2018-09-11 14:48:35   : Log Export Date {yyyy-MM-dd HH:mm:ss}
PROV.           : PROVINCE
UWI.   31/3-2   : UNIQUE WELL ID
API.            : API NUMBER
#==================================================================
~Curve
DEPT .m                   : DEPTH
Lithology_geolink ._      : Lithology_geolink
CALI .in                  : CALI
BS .in                    : BS
DRHO .g/cm3               : DRHO
NPHI .m3/m3               : NPHI
RHOB .g/cm3               : RHOB
PEF .b/e                  : PEF
GR .gAPI                  : GR
DTC .us/ft                : DTC
DTE .us/ft                : DTE
RDEP .ohm.m               : RDEP
SP .mV                    : SP
RSHA .ohm.m               : RSHA
RMIC .ohm.m               : RMIC
RMED .ohm.m               : RMED
~Parameter
#==================================================================
~Ascii
# ...
 1758.8608398 6.0000000000 12.059000969 12.250000954 0.0109999999 0.2944904268 2.3340001106  -999.250000 90.689659119 100.55857849 100.60299683 1.4139102697 175.42060852 1.6160000563  -999.250000 1.3696925640
 1759.0133057 6.0000000000 12.059000969 12.250000954 0.0109999999 0.3199728131 2.3340001106  -999.250000 91.694190979 101.30852509 101.32939911 1.3579063416 176.41671753 1.7740000486  -999.250000 1.4617788792
 1759.1656494 6.0000000000 12.088000298 12.250000954 0.0070000002 0.3466745317 2.3299999237  -999.250000 94.685607910 101.85234070 101.89698029 1.3189871311 175.88778687 1.6749999523  -999.250000 1.4191377163
 1759.3179932 6.0000000000 12.093999863 12.250000954 0.0020000001 0.3398887515 2.3259999752  -999.250000 100.83014679 102.19367218 102.24907684 1.3110159636 176.38400269 1.5909999609  -999.250000 1.3462339640
 1759.4704590 6.0000000000 12.099999428 12.250000954 0.0000000000 0.3632631898 2.3199999332  -999.250000 98.944519043 102.43096161 102.37902832 1.3209855556 176.38639832 1.4809999466  -999.250000 1.2662562132
 1759.6228027 6.0000000000 12.095999718 12.250000954 -0.004000000 0.3423208892 2.3139998913  -999.250000 99.249511719 102.38746643 102.50080872 1.3150000572 176.13739014 1.4429999590  -999.250000 1.2281218767
 1759.7752686 6.0000000000 12.076001167 12.250000954 0.0000000000 0.3559123874 2.3139998913  -999.250000 93.086944580 102.60247803 102.58468628 1.3150168657 176.38420105 1.4329999685  -999.250000 1.2210167646
 1759.9276123 6.0000000000 12.074000359 12.250000954 -0.002000000 0.3339823186 2.3220000267  -999.250000 98.980537415 102.60118103 102.51652527 1.3219984770 175.63839722 1.4720000029  -999.250000 1.2479135990
 1760.0800781 5.0000000000 12.086001396 12.250000954 -0.001000000 0.3368980587 2.3259999752  -999.250000 93.220626831 102.29586792 102.35043335 1.3210191727 175.88481140 1.4869999886  -999.250000 1.2599711418
 1760.2324219 5.0000000000 12.092000008 12.250000954 -0.004000000 0.3344824910 2.3259999752  -999.250000 98.357879639 102.12437439 102.05783844 1.3290112019 175.38839722 1.5019999743  -999.250000 1.2849198580
 1760.3848877 5.0000000000 12.093999863 12.250000954 -0.007000000 0.3500790894 2.3199999332  -999.250000 96.251693726 101.68230438 101.67789459 1.3360120058 175.63459778 1.5920000076  -999.250000 1.3448557854
 1760.5372314 5.0000000000 12.109000206 12.250000954 -0.007000000 0.3432697952 2.3259999752  -999.250000 96.001197815 101.23909760 101.28704071 1.3410015106 174.64100647 1.6649999619  -999.250000 1.4058046341
 1760.6896973 5.0000000000 12.131000519 12.250000954 -0.008000000 0.3305684030 2.3359999657  -999.250000 92.320945740 101.17188263 101.14211273 1.3419976234 174.63818359 1.6920000315  -999.250000 1.4279470444
 1760.8420410 5.0000000000 12.121000290 12.250000954 -0.004000000 0.3295942843 2.3399999142  -999.250000 90.697296143 101.37554932 101.48645020 1.3409999609 175.13539124 1.6250000000  -999.250000 1.3741729259
 1760.9945068 5.0000000000 12.099999428 12.250000954 -0.007000000 0.3349601626 2.3320000172  -999.250000 96.601272583 101.51216125 101.44610596 1.3409590721 175.38841248 1.5420000553  -999.250000 1.3131465912
 1761.1468506 5.0000000000 12.093999863 12.250000954 -0.008000000 0.3412949443 2.3199999332  -999.250000 96.125389099 101.10265350 101.05205536 1.3239855766 176.38619995 1.4960000515  -999.250000 1.2721312046
 1761.2991943 5.0000000000 12.093999863 12.250000954 -0.007000000 0.3349823356 2.3159999847  -999.250000 94.011390686 100.62676239 100.73339844 1.3149968386 175.88819885 1.4819999933  -999.250000 1.2570480108
 1761.4516602 5.0000000000 12.097999573 12.250000954 -0.010000000 0.3378896415 2.3120000362  -999.250000 94.937255859 100.52402496 100.48398590 1.3129999638 175.38699341 1.4859999418  -999.250000 1.2599903345
 1761.6040039 5.0000000000 12.125000000 12.250000954 -0.014000000 0.3374015987 2.3110001087  -999.250000 94.813201904 100.34312439 100.32582855 1.3130352497 175.38619995 1.5000000000  -999.250000 1.2699679136
 1761.7564697 5.0000000000 12.168001175 12.250000954 -0.017999999 0.3393642902 2.3110001087  -999.250000 93.379150391 100.14985657 100.17770386 1.3351057768 174.89039612 1.5089999437  -999.250000 1.2769775391
 1761.9088135 5.0000000000 12.187999725 12.250000954 -0.012000000 0.3447323143 2.3180000782  -999.250000 90.379806519 100.04734802 100.00682831 1.3790785074 175.88739014 1.5069999695  -999.250000 1.2819839716
 1762.0612793 5.0000000000 12.187999725 12.250000954 -0.005000000 0.3476425707 2.3320000172  -999.250000 92.429351807 99.911384583 99.898948669 1.4281632900 176.13720703 1.5529999733  -999.250000 1.3159182072
 1762.2136230 5.0000000000 12.187999725 12.250000954 0.0000000000 0.3383757174 2.3380000591  -999.250000 93.934791565 99.945335388 100.04303741 1.4961490631 176.63441467 1.6019999981  -999.250000 1.3598591089
 1762.3660889 5.0000000000 12.187999725 12.250000954 -0.001000000 0.3330479562 2.3420000076  -999.250000 94.744354248 100.08147430 100.05976105 1.5892738104 175.64350891 1.6720000505  -999.250000 1.4178605080
 1762.5184326 5.0000000000 12.189999580 12.250000954 -0.005000000 0.3442548811 2.3420000076  -999.250000 96.369697571 99.945335388 100.01287842 1.7032290697 175.85620117 1.7560000420  -999.250000 1.4957503080
 1762.6708984 5.0000000000 12.190999985 12.250000954 -0.005000000 0.3627892137 2.3519999981  -999.250000 93.876998901 100.08147430 100.03150940 1.8463578224 176.60600281 1.9069999456  -999.250000 1.6117211580
 1762.8232422 5.0000000000 12.189999580 12.250000954 -0.007000000 0.3622878790 2.3570001125  -999.250000 95.056053162 99.740631104 99.823348999 1.9950577021 176.60679626 2.0209999084  -999.250000 1.7037053108
 1762.9757080 5.0000000000 12.187999725 12.250000954 -0.009000000 0.3471505046 2.3570001125  -999.250000 96.308998108 99.092864990 99.060112000 2.0308365822 177.10261536 2.0590000153  -999.250000 1.7558749914
 1763.1280518 5.0000000000 12.187999725 12.250000954 -0.014000000 0.3350136578 2.3540000916  -999.250000 96.934494019 97.662780762 97.648056030 1.9626506567 176.11068726 2.1779999733  -999.250000 1.8945548534
 1763.2803955 5.0000000000 12.187999725 12.250000954 -0.015000000 0.3520449102 2.3589999676  -999.250000 91.273078918 96.334632874 96.432273865 1.7445788383 175.91940308 2.5999999046  -999.250000 2.1561603546
 1763.4328613 5.0000000000 12.194000244 12.250000954 -0.017999999 0.3456914127 2.3789999485  -999.250000 84.755218506 96.710929871 96.695678711 1.4816586971 176.16860962 2.5959999561  -999.250000 2.1888973713
 1763.5852051 6.0000000000 12.170000076 12.250000954 -0.016000001 0.3349708319 2.3810000420  -999.250000 86.303504944 98.742111206 98.850479126 1.2687404156 175.91999817 1.8990000486  -999.250000 1.6068718433
 1763.7376709 6.0000000000 12.088000298 12.250000954 -0.021000000 0.3110322058 2.3280000687  -999.250000 93.494232178 101.98986816 101.99352264 1.1067670584 175.91722107 1.1770000458  -999.250000 1.0856685638
 1763.8900146 6.0000000000 12.017999649 12.250000954 -0.017000001 0.3013173938 2.2639999390  -999.250000 100.63655853 104.37227631 104.28509521 1.0098813772 175.17539978 0.9434170127  -999.250000 0.8318108916
 1764.0424805 6.0000000000 12.000000000 12.250000954 -0.020000000 0.3105419874 2.2149999142  -999.250000 101.24851990 104.23713684 104.13571930 0.9358894825 176.66552734 0.8848220110  -999.250000 0.7591730952
 1764.1948242 6.0000000000 12.000000000 12.250000954 -0.012000000 0.3130224645 2.2049999237  -999.250000 99.126701355 101.13573456 101.16330719 0.8899935484 176.88778687 0.8691340089  -999.250000 0.7440480590
 1764.3472900 16.000000000 12.000000000 12.250000954 -0.008000000 0.3285872340 2.2149999142  -999.250000 94.958343506 96.197326660 96.170249939 0.8859639764 177.38499451 0.8727099895  -999.250000 0.7609590888
 1764.4996338 16.000000000 12.013999939 12.250000954 0.0000000000 0.3501144052 2.2420001030  -999.250000 87.019363403 91.294090271 91.356933594 0.8709775805 177.38619995 0.9742529988  -999.250000 0.8706477284
 1764.6520996 16.000000000 12.050999641 12.250000954 0.0040000002 0.3680291176 2.3139998913  -999.250000 79.734825134 89.010894775 88.955261230 0.8569999933 176.89118958 1.3109999895  -999.250000 1.1353629827
