# LAS format log file from PETREL
# Project units are specified as depth units
#==================================================================
~Version information
VERS.   2.0:
WRAP.   NO:
#==================================================================
~Well
STRT .m      349.62512207 :
STOP .m      2379.4997559 :
STEP .m     0.00000000 :
NULL .        -999.250000 :
COMP.           : COMPANY
WELL.  31/3-1   : WELL
FLD.            : FIELD
LOC.            : LOCATION
SRVC.           : SERVICE COMPANY
DATE.  2018-09-11 14:48:35   : Log Export Date {yyyy-MM-dd HH:mm:ss}
PROV.           : PROVINCE
UWI.   31/3-1   : UNIQUE WELL ID
API.            : API NUMBER
#==================================================================
~Curve
DEPT .m                   : DEPTH
Lithology_geolink ._      : Lithology_geolink
CALI .in                  : CALI
BS .in                    : BS
DRHO .g/cm3               : DRHO
NPHI .m3/m3               : NPHI
RHOB .g/cm3               : RHOB
GR .gAPI                  : GR
DTC .us/ft                : DTC
DTE .us/ft                : DTE
RDEP .ohm.m               : RDEP
SP .mV                    : SP
RSHA .ohm.m               : RSHA
RMIC .ohm.m               : RMIC
RMED .ohm.m               : RMED
~Parameter
#==================================================================
~Ascii
# ...
 769.87506104  -999.250000 12.838000298  -999.250000  -999.250000  -999.250000 2.0144596100 76.039215088 161.47724915 155.57899475 1.2620018721 23.764999390 1.4270039797  -999.250000 1.4270039797
 770.00000000  -999.250000 12.768000603  -999.250000  -999.250000  -999.250000 2.0161652565 77.172134399 160.97036743 155.05296326 1.2640010118 24.868000031 1.4310014248  -999.250000 1.4310014248
 770.12500000  -999.250000 12.732999802  -999.250000  -999.250000  -999.250000 2.0180881023 78.337753296 160.38565063 154.47546387 1.2660000324 26.000000000 1.4340029955  -999.250000 1.4340029955
 770.25006104  -999.250000 12.753999710  -999.250000  -999.250000  -999.250000 2.0200531483 79.112060547 159.78645325 153.90075684 1.2659986019 26.704999924 1.4370058775  -999.250000 1.4370058775
 770.37506104  -999.250000 12.815999031  -999.250000  -999.250000  -999.250000 2.0217394829 79.155090332 159.30935669 153.39143372 1.2649980783 26.885999680 1.4410058260  -999.250000 1.4410058260
 770.50006104  -999.250000 12.892999649  -999.250000  -999.250000  -999.250000 2.0226418972 78.220520020 159.01261902 153.12142944 1.2629960775 26.618000031 1.4470030069  -999.250000 1.4470030069
 770.62500000  -999.250000 12.959000587  -999.250000  -999.250000  -999.250000 2.0224618912 76.526313782 159.08424377 153.18360901 1.2589960098 26.259000778 1.4499986172  -999.250000 1.4499986172
 770.75006104  -999.250000 13.012999535  -999.250000  -999.250000  -999.250000 2.0211577415 74.800552368 159.46922302 153.56901550 1.2549970150 26.082000732 1.4469765425  -999.250000 1.4469765425
 770.87506104  -999.250000 13.053000450  -999.250000  -999.250000  -999.250000 2.0188591480 73.812759399 160.13801575 154.25100708 1.2530014515 26.221000671 1.4309619665  -999.250000 1.4309619665
 771.00006104  -999.250000 13.076000214  -999.250000  -999.250000  -999.250000 2.0157957077 73.644035339 161.04875183 155.17333984 1.2540038824 26.599000931 1.4049715996  -999.250000 1.4049715996
 771.12506104  -999.250000 13.072999954  -999.250000  -999.250000  -999.250000 2.0121867657 73.685943604 162.12860107 156.24645996 1.2580078840 27.062999725 1.3759785891  -999.250000 1.3759785891
 771.25000000  -999.250000 13.039999962  -999.250000  -999.250000  -999.250000 2.0088906288 73.650085449 163.15328979 157.26776123 1.2660107613 27.502000809 1.3539901972  -999.250000 1.3539901972
 771.37506104  -999.250000 12.996001244  -999.250000  -999.250000  -999.250000 2.0062661171 73.733345032 163.96903992 158.07577515 1.2770190239 27.947000504 1.3440088034  -999.250000 1.3440088034
 771.50006104  -999.250000 12.954000473  -999.250000  -999.250000  -999.250000 2.0047655106 73.966232300 164.42808533 158.53227234 1.2900204659 28.424999237 1.3500277996  -999.250000 1.3500277996
 771.62506104  -999.250000 12.927999496  -999.250000  -999.250000  -999.250000 2.0047290325 74.121757507 164.43684387 158.54116821 1.3040137291 28.861999512 1.3690243959  -999.250000 1.3690243959
 771.75000000  -999.250000 12.920000076  -999.250000  -999.250000  -999.250000 2.0063669682 73.994201660 163.95294189 158.04615784 1.3180062771 29.134000778 1.3940142393  -999.250000 1.3940142393
 771.87500000  -999.250000 12.923999786  -999.250000  -999.250000  -999.250000 2.0101399422 73.172729492 162.82354736 156.88461304 1.3310097456 29.059000015 1.4230253696  -999.250000 1.4230253696
 772.00006104  -999.250000 12.918999672  -999.250000  -999.250000  -999.250000 2.0153121948 71.869186401 161.24305725 155.31144714 1.3410116434 28.572999954 1.4490307570  -999.250000 1.4490307570
 772.12506104  -999.250000 12.890000343  -999.250000  -999.250000  -999.250000 2.0208811760 70.629013062 159.54902649 153.64541626 1.3490043879 27.754999161 1.4700117111  -999.250000 1.4700117111
 772.25006104  -999.250000 12.842000008  -999.250000  -999.250000  -999.250000 2.0259637833 69.959541321 158.03906250 152.14961243 1.3519990444 26.812000275 1.4779932499  -999.250000 1.4779932499
 772.37500000  -999.250000 12.807000160  -999.250000  -999.250000  -999.250000 2.0296545029 69.648834229 156.98027039 151.07771301 1.3509960175 25.982000351 1.4709901810  -999.250000 1.4709901810
 772.50000000  -999.250000 12.812999725  -999.250000  -999.250000  -999.250000 2.0309665203 69.475837708 156.58650208 150.68623352 1.3429883718 25.555000305 1.4509745836  -999.250000 1.4509745836
 772.62506104  -999.250000 12.860000610  -999.250000  -999.250000  -999.250000 2.0289206505 69.309700012 157.19615173 151.27291870 1.3309736252 25.618000031 1.4249663353  -999.250000 1.4249663353
 772.75006104  -999.250000 12.923999786  -999.250000  -999.250000  -999.250000 2.0251762867 69.106864929 158.28002930 152.38322449 1.3129794598 26.117000580 1.4019873142  -999.250000 1.4019873142
 772.87506104  -999.250000 12.966000557  -999.250000  -999.250000  -999.250000 2.0206463337 68.968254089 159.60694885 153.72486877 1.2919785976 26.670999527 1.3889932632  -999.250000 1.3889932632
 773.00000000  -999.250000 12.973999977  -999.250000  -999.250000  -999.250000 2.0162286758 69.140464783 160.92811584 155.03253174 1.2699813843 26.892999649 1.3819980621  -999.250000 1.3819980621
 773.12506104  -999.250000 12.961999893  -999.250000  -999.250000  -999.250000 2.0126979351 69.619567871 162.00825500 156.09320068 1.2509737015 26.594999313 1.3799955845  -999.250000 1.3799955845
 773.25006104  -999.250000 12.963000298  -999.250000  -999.250000  -999.250000 2.0106472969 70.004127502 162.63948059 156.73402405 1.2329781055 26.023000717 1.3769941330  -999.250000 1.3769941330
 773.37506104  -999.250000 12.991000175  -999.250000  -999.250000  -999.250000 2.0095345974 70.094139099 162.97764587 157.06129456 1.2179883718 25.493999481 1.3729951382  -999.250000 1.3729951382
 773.50006104  -999.250000 13.038000107  -999.250000  -999.250000  -999.250000 2.0088751316 70.165428162 163.17263794 157.25401306 1.2059892416 25.261999130 1.3679960966  -999.250000 1.3679960966
 773.62500000  -999.250000 13.074998856  -999.250000  -999.250000  -999.250000 2.0084555149 70.459602356 163.29716492 157.38932800 1.1949912310 25.233999252 1.3639950752  -999.250000 1.3639950752
 773.75006104  -999.250000 13.090000153  -999.250000  -999.250000  -999.250000 2.0081272125 71.078720093 163.39762878 157.50411987 1.1859883070 25.236999512 1.3589926958  -999.250000 1.3589926958
 773.87506104  -999.250000 13.093000412  -999.250000  -999.250000  -999.250000 2.0078001022 71.565635681 163.49052429 157.59150696 1.1779882908 25.197999954 1.3539911509  -999.250000 1.3539911509
 774.00006104  -999.250000 13.102999687  -999.250000  -999.250000  -999.250000 2.0078001022 71.314094543 163.54425049 157.59158325 1.1699931622 25.156000137 1.3479961157  -999.250000 1.3479961157
 774.12500000  -999.250000 13.130000114  -999.250000  -999.250000  -999.250000 2.0079927444 70.012222290 163.43733215 157.52606201 1.1629960537 25.163999557 1.3439990282  -999.250000 1.3439990282
 774.25000000  -999.250000 13.166000366  -999.250000  -999.250000  -999.250000 2.0083310604 68.191001892 163.31611633 157.42678833 1.1549911499 25.219999313 1.3419990540  -999.250000 1.3419990540
 774.37506104  -999.250000 13.199000359  -999.250000  -999.250000  -999.250000 2.0086848736 66.139480591 163.21990967 157.32456970 1.1459867954 25.284000397 1.3409969807  -999.250000 1.3409969807
 774.50006104  -999.250000 13.223999977  -999.250000  -999.250000  -999.250000 2.0089101791 63.739231110 163.13850403 157.24855042 1.1369920969 25.305999756 1.3389950991  -999.250000 1.3389950991
 774.62506104  -999.250000 13.237999916  -999.250000  -999.250000  -999.250000 2.0089924335 60.903186798 163.13850403 157.23379517 1.1289931536 25.280000687 1.3339931965  -999.250000 1.3339931965
 774.75000000  -999.250000 13.234000206  -999.250000  -999.250000  -999.250000 2.0085542202 58.302719116 163.27140808 157.35966492 1.1219950914 25.198999405 1.3269932270  -999.250000 1.3269932270
 774.87506104  -999.250000 13.211999893  -999.250000  -999.250000  -999.250000 2.0076675415 56.992355347 163.51564026 157.62538147 1.1169941425 25.096000671 1.3199912310  -999.250000 1.3199912310
