# LAS format log file from PETREL
# Project units are specified as depth units
#==================================================================
~Version information
VERS.   2.0:
WRAP.   NO:
#==================================================================
~Well
STRT .m      793.37487793 :
STOP .m      2575.0000000 :
STEP .m     0.00000000 :
NULL .        -999.250000 :
COMP.           : COMPANY
WELL.  31/3-3   : WELL
FLD.            : FIELD
LOC.            : LOCATION
SRVC.           : SERVICE COMPANY
DATE.  2018-09-11 14:48:36   : Log Export Date {yyyy-MM-dd HH:mm:ss}
PROV.           : PROVINCE
UWI.   31/3-3   : UNIQUE WELL ID
API.            : API NUMBER
#==================================================================
~Curve
DEPT .m                   : DEPTH
Lithology_geolink ._      : Lithology_geolink
CALI .in                  : CALI
BS .in                    : BS
DRHO .g/cm3               : DRHO
NPHI .m3/m3               : NPHI
RHOB .g/cm3               : RHOB
GR .gAPI                  : GR
DTC .us/ft                : DTC
DTE .us/ft                : DTE
RDEP .ohm.m               : RDEP
SP .mV                    : SP
RSHA .ohm.m               : RSHA
RMED .ohm.m               : RMED
~Parameter
#==================================================================
~Ascii
# ...
 1623.8750000 26.000000000 22.388999939  -999.250000 0.0970000029 0.4551399946 1.8229999542 34.963607788 119.51358795 113.92581940 1.6789990664 37.940155029 1.5859521627 1.5859521627
 1624.0000000 26.000000000 22.152999878  -999.250000 0.1019999981 0.4435200095 1.8309999704 34.490463257 119.65202332 114.09444427 1.6799989939 37.737197876 1.6409462690 1.6409462690
 1624.1250000 26.000000000 21.892999649  -999.250000 0.0909999982 0.4365099967 1.8120000362 34.853000641 119.79329681 114.26319122 1.6849999428 37.542999268 1.6879999638 1.6879999638
 1624.2500000 26.000000000 21.577999115  -999.250000 0.0750000030 0.4400099814 1.7849999666 35.763000488 119.98853302 114.43205261 1.6959999800 37.340999603 1.7170000076 1.7170000076
 1624.3748779 26.000000000 21.142000198  -999.250000 0.0649999976 0.4557199776 1.7660000324 37.197597504 120.07093048 114.60050201 1.7169795036 37.015316010 1.7150019407 1.7150019407
 1624.4998779 26.000000000 20.559999466  -999.250000 0.0610000007 0.4786999822 1.7660000324 39.043193817 120.26662445 114.76898193 1.7509667873 36.561443329 1.6910234690 1.6910234690
 1624.6248779 26.000000000 20.013000488  -999.250000 0.0509999990 0.4984999895 1.7719999552 41.057029724 120.47754669 114.93776703 1.8029491901 36.087463379 1.6490410566 1.6490410566
 1624.7498779 26.000000000 19.766000748  -999.250000 0.0289999992 0.5087500215 1.7760000229 42.663864136 120.65898132 115.10645294 1.8728634119 35.733692169 1.5941072702 1.5941072702
 1624.8748779 26.000000000 20.031000137  -999.250000 -0.003000000 0.5050299764 1.7710000277 43.027294159 120.84514618 115.27516174 1.9478534460 35.601261139 1.5301250219 1.5301250219
 1625.0000000 26.000000000 20.822999954  -999.250000 -0.030999999 0.4964899719 1.7560000420 42.226783752 121.05438232 115.44419098 1.9999492168 35.557041168 1.4680606127 1.4680606127
 1625.1250000 26.000000000 21.807998657  -999.250000 -0.041999999 0.4924200177 1.7369999886 40.778415680 121.13399506 115.61267853 2.0069930553 35.423130035 1.4170498848 1.4170498848
 1625.2500000 26.000000000 22.680997849  -999.250000 -0.033000000 0.4988200068 1.7109999657 39.361999512 121.24763489 115.78143311 1.9579999447 35.119998932 1.3819999695 1.3819999695
 1625.3750000 26.000000000 23.180000305  -999.250000 -0.015000000 0.5202699900 1.6849999428 38.687000275 121.46493530 115.95011902 1.8669999838 34.761001587 1.3689999580 1.3689999580
 1625.4998779 26.000000000 23.148000717  -999.250000 -0.001000000 0.5527200103 1.6629999876 38.818870544 121.66088104 116.11870575 1.7700947523 34.548210144 1.3729960918 1.3729960918
 1625.6248779 26.000000000 22.733999252  -999.250000 0.0040000002 0.5794100165 1.6430000067 39.440395355 121.83380127 116.28748322 1.6850829124 34.562984467 1.3879853487 1.3879853487
 1625.7498779 26.000000000 22.134002686  -999.250000 0.0000000000 0.5890700221 1.6269999743 40.016437531 122.09490204 116.45481110 1.6140693426 34.761806488 1.4109776020 1.4109776020
 1625.8748779 26.000000000 21.601999283  -999.250000 -0.006000000 0.5770300031 1.6109999418 40.044944763 122.11254120 116.60134888 1.5541170835 34.934665680 1.4409414530 1.4409414530
 1625.9998779 26.000000000 21.371997833  -999.250000 -0.016000001 0.5493699908 1.5939999819 39.574920654 122.18265533 116.66858673 1.4971113205 34.857151031 1.4659510851 1.4659510851
 1626.1250000 26.000000000 21.429000854  -999.250000 -0.026000001 0.5224900246 1.5789999962 38.892665863 122.21330261 116.65060425 1.4430526495 34.496349335 1.4779883623 1.4779883623
 1626.2500000 26.000000000 21.639999390  -999.250000 -0.034000002 0.5092999935 1.5720000267 38.403476715 122.13488770 116.57037354 1.3950468302 34.006477356 1.4710067511 1.4710067511
 1626.3750000 26.000000000 21.872999191  -999.250000 -0.035999998 0.5156499743 1.5770000219 38.454952240 121.99237061 116.47372437 1.3560379744 33.622375488 1.4480223656 1.4480223656
 1626.5000000 26.000000000 22.090000153  -999.250000 -0.028999999 0.5349000096 1.5950000286 38.933998108 122.09017944 116.43256378 1.3229999542 33.437000275 1.4249999523 1.4249999523
 1626.6250000 26.000000000 22.290000916  -999.250000 -0.017999999 0.5482199788 1.6150000095 39.682998657 122.20494843 116.69824219 1.2949999571 33.395999908 1.4129999876 1.4129999876
 1626.7498779 26.000000000 22.420000076  -999.250000 -0.010000000 0.5441400409 1.6269999743 40.473228455 122.80261993 117.35588074 1.2700244188 33.385009766 1.4149980545 1.4149980545
 1626.8748779 26.000000000 22.436000824  -999.250000 -0.009000000 0.5254700184 1.6250000000 41.034450531 123.73088074 118.24272156 1.2500195503 33.409976959 1.4249901772 1.4249901772
 1626.9998779 26.000000000 22.347999573  -999.250000 -0.014000000 0.5055599809 1.6160000563 41.367675781 124.59977722 119.06390381 1.2400097847 33.585826874 1.4319932461 1.4319932461
 1627.1248779 26.000000000 22.274000168  -999.250000 -0.017999999 0.4982400239 1.6089999676 41.762229919 124.93496704 119.46084595 1.2390018702 33.961269379 1.4349941015 1.4349941015
 1627.2498779 26.000000000 22.338998795  -999.250000 -0.016000001 0.5023800135 1.6059999466 42.665233612 124.65714264 119.08751678 1.2429921627 34.482982635 1.4369961023 1.4369961023
 1627.3750000 26.000000000 22.599000931  -999.250000 -0.012000000 0.5182300210 1.6059999466 44.333370209 123.84305573 118.35444641 1.2479951382 35.033462524 1.4419951439 1.4419951439
 1627.5000000 26.000000000 22.995000839  -999.250000 -0.009000000 0.5380600095 1.6050000191 46.162216187 123.33619690 117.84866333 1.2509970665 35.547496796 1.4489932060 1.4489932060
 1627.6250000 26.000000000 23.385999680  -999.250000 -0.013000000 0.5523200035 1.6019999981 47.361000061 123.37734985 117.82479858 1.2539999485 36.042999268 1.4529999495 1.4529999495
 1627.7500000 26.000000000 23.701999664  -999.250000 -0.018999999 0.5567600131 1.5959999561 47.317001343 123.89035034 118.29044342 1.2569999695 36.529998779 1.4529999495 1.4529999495
 1627.8748779 26.000000000 23.916000366  -999.250000 -0.023000000 0.5492100120 1.5930000544 45.970317841 124.49332428 118.95104980 1.2589980364 36.909629822 1.4520009756 1.4520009756
 1627.9998779 26.000000000 24.025999069  -999.250000 -0.016000001 0.5306100249 1.6050000191 44.358573914 124.96815491 119.35290527 1.2619969845 37.022888184 1.4549970627 1.4549970627
 1628.1248779 26.000000000 24.073999405  -999.250000 0.0000000000 0.5102000237 1.6299999952 43.243087769 125.30345917 119.75766754 1.2639981508 36.774242401 1.4619932175 1.4619932175
 1628.2498779 26.000000000 24.091997147  -999.250000 0.0179999992 0.4983400106 1.6579999924 42.895675659 126.08127594 120.58320618 1.2649980783 36.235054016 1.4649941921 1.4649941921
 1628.3748779 26.000000000 24.097000122  -999.250000 0.0309999995 0.4958800077 1.6759999990 43.051692963 127.54669189 122.03085327 1.2669960260 35.642158508 1.4630039930 1.4630039930
 1628.5000000 26.000000000 24.096000671  -999.250000 0.0289999992 0.5012199879 1.6740000248 43.256801605 129.60516357 124.05318451 1.2689981461 35.315315247 1.4590039253 1.4590039253
 1628.6250000 26.000000000 24.093000412  -999.250000 0.0179999992 0.5138999820 1.6560000181 43.476787567 131.66169739 126.12415314 1.2699990273 35.434883118 1.4570019245 1.4570019245
 1628.7500000 26.000000000 24.086999893  -999.250000 0.0020000001 0.5358499885 1.6310000420 43.748001099 133.27955627 127.68984222 1.2699999809 35.983001709 1.4579999447 1.4579999447
 1628.8750000 26.000000000 24.079999924  -999.250000 -0.014000000 0.5634000301 1.6039999723 43.908000946 134.45616150 128.93540955 1.2680000067 36.724998474 1.4609999657 1.4609999657
 1628.9998779 26.000000000 24.073999405  -999.250000 -0.027000001 0.5932400227 1.5839999914 43.659244537 135.56454468 130.09811401 1.2650029659 37.224510193 1.4600009918 1.4600009918
 1629.1248779 26.000000000 24.069000244  -999.250000 -0.037000000 0.6150900126 1.5720000267 42.777862549 136.85015869 131.33042908 1.2630019188 37.210014343 1.4550049305 1.4550049305
 1629.2498779 26.000000000 24.065000534  -999.250000 -0.041999999 0.6226599813 1.5720000267 41.365379333 138.22518921 132.60646057 1.2649980783 36.831371307 1.4480067492 1.4480067492
