# LAS format log file from PETREL
# Project units are specified as depth units
#==================================================================
~Version information
VERS.   2.0:
WRAP.   NO:
#==================================================================
~Well
STRT .m      793.37487793 :
STOP .m      2575.0000000 :
STEP .m     0.00000000 :
NULL .        -999.250000 :
COMP.           : COMPANY
WELL.  31/3-3   : WELL
FLD.            : FIELD
LOC.            : LOCATION
SRVC.           : SERVICE COMPANY
DATE.  2018-09-11 14:48:36   : Log Export Date {yyyy-MM-dd HH:mm:ss}
PROV.           : PROVINCE
UWI.   31/3-3   : UNIQUE WELL ID
API.            : API NUMBER
#==================================================================
~Curve
DEPT .m                   : DEPTH
Lithology_geolink ._      : Lithology_geolink
CALI .in                  : CALI
BS .in                    : BS
DRHO .g/cm3               : DRHO
NPHI .m3/m3               : NPHI
RHOB .g/cm3               : RHOB
GR .gAPI                  : GR
DTC .us/ft                : DTC
DTE .us/ft                : DTE
RDEP .ohm.m               : RDEP
SP .mV                    : SP
RSHA .ohm.m               : RSHA
RMED .ohm.m               : RMED
~Parameter
#==================================================================
~Ascii
# ...
 1266.3750000 13.000000000 18.787000656  -999.250000 -0.025000000 0.2021999955 2.3410000801 68.457984924 117.62375641 112.08502197 1.5049189329 21.301994324 1.5429306030 1.5429306030
 1266.5000000 13.000000000 18.788999557  -999.250000 -0.018999999 0.1913899928 2.3519999981 67.645790100 113.01866913 107.52152252 1.5969101191 21.260042191 1.6099345684 1.6099345684
 1266.6250000 13.000000000 18.791000366  -999.250000 -0.005000000 0.1778499931 2.3619999886 67.399238586 108.75037384 103.17202759 1.6899092197 21.197061539 1.6639473438 1.6639473438
 1266.7498779 13.000000000 18.791000366  -999.250000 0.0160000008 0.1665000021 2.3689999580 67.381034851 105.19963074 99.625801086 1.7728378773 21.180032730 1.6939413548 1.6939413548
 1266.8748779 13.000000000 18.790000916  -999.250000 0.0370000005 0.1611700058 2.3719999790 67.464912415 102.80483246 97.322341919 1.8219521046 21.265916824 1.6830106974 1.6830106974
 1266.9998779 13.000000000 18.787000656  -999.250000 0.0460000001 0.1639800072 2.3680000305 67.752716064 102.05111694 96.524337769 1.8299921751 21.385883331 1.6420400143 1.6420400143
 1267.1248779 13.000000000 18.783000946  -999.250000 0.0430000015 0.1724099964 2.3570001125 68.435333252 102.89482880 97.325668335 1.7940351963 21.400983810 1.5910497904 1.5910497904
 1267.2498779 13.000000000 18.780000687  -999.250000 0.0350000001 0.1832600087 2.3450000286 69.426033020 104.61924744 99.116676331 1.7230694294 21.183214188 1.5490410328 1.5490410328
 1267.3748779 13.000000000 18.777999878  -999.250000 0.0309999995 0.1933400035 2.3350000381 70.511878967 106.93301392 101.40625763 1.6341736317 20.724897385 1.5300370455 1.5300370455
 1267.5000000 13.000000000 18.777999878  -999.250000 0.0350000001 0.2015900016 2.3289999962 71.580955505 109.38120270 103.83348083 1.5470850468 20.219493866 1.5250048637 1.5250048637
 1267.6250000 13.000000000 18.781000137  -999.250000 0.0390000008 0.2074399889 2.3229999542 72.761848450 111.59870148 106.13008118 1.4720731974 19.823387146 1.5190058947 1.5190058947
 1267.7500000 13.000000000 18.784999847  -999.250000 0.0350000001 0.2108699977 2.3129999638 74.145652771 113.65515900 108.20951080 1.4120585918 19.640178680 1.5010175705 1.5010175705
 1267.8748779 13.000000000 18.790000916  -999.250000 0.0219999999 0.2117699981 2.2990000248 75.370605469 115.80179596 110.22192383 1.3670878410 19.709861755 1.4680645466 1.4680645466
 1267.9998779 13.000000000 18.794000626  -999.250000 0.0080000004 0.2107099891 2.2860000134 75.861518860 117.81116486 112.29740906 1.3320342302 19.941772461 1.4340332747 1.4340332747
 1268.1248779 13.000000000 18.798000336  -999.250000 0.0040000002 0.2104499936 2.2790000439 75.451400757 119.87059021 114.34057617 1.3050262928 20.257690430 1.4070262909 1.4070262909
 1268.2498779 13.000000000 18.798999786  -999.250000 0.0080000004 0.2117000073 2.2799999714 74.628799438 121.78890228 116.18451691 1.2850195169 20.560705185 1.3910156488 1.3910156488
 1268.3748779 13.000000000 18.798000336  -999.250000 0.0179999992 0.2126500010 2.2890000343 74.296318054 123.11876678 117.62802887 1.2750097513 20.717847824 1.3850058317 1.3850058317
 1268.4998779 13.000000000 18.792999268  -999.250000 0.0280000009 0.2101899981 2.3050000668 74.602394104 123.98323059 118.46116638 1.2710077763 20.670093536 1.3820058107 1.3820058107
 1268.6248779 13.000000000 18.788999557  -999.250000 0.0359999985 0.2045299858 2.3250000477 75.145942688 124.37010956 118.80567932 1.2749921083 20.443443298 1.3829981089 1.3829981089
 1268.7500000 13.000000000 18.784999847  -999.250000 0.0430000015 0.1981399953 2.3429999352 75.297851563 124.22901917 118.66712189 1.2859892845 20.150285721 1.3899931908 1.3899931908
 1268.8750000 13.000000000 18.784999847  -999.250000 0.0489999987 0.1938400120 2.3570001125 74.714569092 123.49813843 117.96571350 1.3029834032 20.005140305 1.4089814425 1.4089814425
 1269.0000000 13.000000000 18.787000656  -999.250000 0.0500000007 0.1943700016 2.3599998951 73.867820740 122.19646454 116.67741394 1.3249785900 20.178831100 1.4369727373 1.4369727373
 1269.1248779 13.000000000 18.788999557  -999.250000 0.0460000001 0.1983000040 2.3580000401 73.216636658 120.47276306 114.89940643 1.3549706936 20.695493698 1.4679697752 1.4679697752
 1269.2498779 13.000000000 18.788999557  -999.250000 0.0390000008 0.2031500041 2.3499999046 72.865341187 118.57598877 113.02504730 1.3889667988 21.387325287 1.4919764996 1.4919764996
 1269.3748779 13.000000000 18.787000656  -999.250000 0.0320000015 0.2064899951 2.3429999352 72.611251831 117.17235565 111.55288696 1.4249647856 21.913486481 1.4969950914 1.4969950914
 1269.4998779 13.000000000 18.784000397  -999.250000 0.0299999993 0.2062899917 2.3399999142 72.287315369 116.22970581 110.62364197 1.4539716244 22.009906769 1.4920048714 1.4920048714
 1269.6248779 13.000000000 18.781999588  -999.250000 0.0299999993 0.2033099979 2.3389999866 71.949653625 115.73645020 110.20239258 1.4689706564 21.589822769 1.4840155840 1.4840155840
 1269.7498779 13.000000000 18.783000946  -999.250000 0.0289999992 0.1995400041 2.3369998932 71.856185913 115.65734100 110.11602020 1.4680019617 20.758625031 1.4810057878 1.4810057878
 1269.8750000 13.000000000 18.784999847  -999.250000 0.0260000005 0.1980100125 2.3329999447 72.811065674 115.73349762 110.09132385 1.4500175714 19.767967224 1.4790018797 1.4790018797
 1270.0000000 13.000000000 18.788999557  -999.250000 0.0209999997 0.2009399980 2.3280000687 75.064796448 115.60649109 110.07100677 1.4230263233 18.961788177 1.4710078239 1.4710078239
 1270.1250000 13.000000000 18.791000366  -999.250000 0.0189999994 0.2056300044 2.3269999027 78.248886108 115.85556793 110.27136993 1.3900321722 18.549402237 1.4530174732 1.4530174732
 1270.2498779 13.000000000 18.792999268  -999.250000 0.0199999996 0.2094499916 2.3280000687 81.453735352 116.50674438 110.89003754 1.3540703058 18.608882904 1.4290468693 1.4290468693
 1270.3748779 13.000000000 18.792999268  -999.250000 0.0240000002 0.2112099975 2.3310000896 83.547958374 117.56295013 112.02895355 1.3190342188 19.084533691 1.4080204964 1.4080204964
 1270.4998779 13.000000000 18.791999817  -999.250000 0.0260000005 0.2124699950 2.3320000172 84.416152954 119.13179016 113.63648987 1.2890293598 19.656440735 1.3940137625 1.3940137625
 1270.6248779 13.000000000 18.791000366  -999.250000 0.0250000004 0.2143099904 2.3350000381 84.561851501 120.97433472 115.39378357 1.2690196037 20.108558655 1.3850088120 1.3850088120
 1270.7498779 13.000000000 18.791000366  -999.250000 0.0209999997 0.2149299979 2.3389999866 84.615943909 122.45638275 116.96006012 1.2620067596 20.320791245 1.3780068159 1.3780068159
 1270.8748779 13.000000000 18.791999817  -999.250000 0.0179999992 0.2124599963 2.3480000496 84.828590393 123.65695953 118.20732880 1.2709825039 20.239160538 1.3720116615 1.3720116615
 1270.9998779 13.000000000 18.792999268  -999.250000 0.0209999997 0.2070299983 2.3680000305 84.856948853 124.52662659 119.02295685 1.2929570675 19.982501984 1.3729981184 1.3729981184
 1271.1250000 13.000000000 18.794000626  -999.250000 0.0289999992 0.2028899938 2.3959999084 84.330513000 124.88011169 119.27922058 1.3219716549 19.625349045 1.3869862556 1.3869862556
 1271.2500000 13.000000000 18.794000626  -999.250000 0.0390000008 0.2028700113 2.4240000248 83.092216492 124.16265869 118.65242767 1.3529697657 19.255359650 1.4189687967 1.4189687967
 1271.3748779 13.000000000 18.794000626  -999.250000 0.0480000004 0.2054899931 2.4449999332 81.296508789 122.23573303 116.69143677 1.3859355450 19.027444839 1.4679043293 1.4679043293
 1271.4998779 13.000000000 18.792999268  -999.250000 0.0540000014 0.2063400149 2.4539999962 79.511741638 119.23004150 113.69137573 1.4199666977 19.032995224 1.5219471455 1.5219471455
 1271.6248779 13.000000000 18.791999817  -999.250000 0.0630000010 0.2035000026 2.4590001106 78.071403503 115.66228485 110.14990234 1.4589619637 19.286752701 1.5649580956 1.5649580956
 1271.7498779 13.000000000 18.791999817  -999.250000 0.0740000010 0.1974799931 2.4630000591 77.169876099 112.26440430 106.74419403 1.4999599457 19.691604614 1.5849804878 1.5849804878
